[
    {
        "name": "Al-Burhani-Masjid",
        "main_category": "Mosque",
        "address": "9PJ2+QQF Al-Burhani-Masjid, Chhoti Sadri, Rajasthan 312604",
        "detailed_address": {
            "ward": null,
            "street": "9PJ2+QQF",
            "city": "Chhoti Sadri",
            "postal_code": "312604",
            "state": "Rajasthan",
            "country_code": "IN"
        },
        "images": [
            {
                "about": "All",
                "link": "https://lh5.googleusercontent.com/p/AF1QipMplNTY4le5hFpfhS_lgXBKKByWYRudQRN331Ct=w529-h298-k-no"
            },
            {
                "about": "Dome",
                "link": "https://lh5.googleusercontent.com/p/AF1QipOaP_lxWdVk0TgI_SNVhcmljQr9AHFGnfSlKBdb=w397-h298-k-no"
            },
            {
                "about": "Videos",
                "link": "https://lh5.googleusercontent.com/p/AF1QipOjwgfmEYEI-erco2EF2dGByPtYAXVwARhv-_al=w525-h298-k-no"
            }
        ],
        "link": "https://www.google.com/maps/place/Al-Burhani-Masjid/data=!4m7!3m6!1s0x39666eb9022b7be5:0x7b9d9870ee00946b!8m2!3d24.3819434!4d74.7019244!16s%2Fg%2F11b7l9b3ky!19sChIJ5XsrArluZjkRa5QA7nCYnXs?authuser=0&hl=en&rclk=1",
        "coordinates": {
            "latitude": 24.381943399999997,
            "longitude": 74.7019244
        }
    },
    {
        "name": "Jama Masjid",
        "main_category": "Mosque",
        "address": "9MJX+69Q Jama Masjid, Badi Sadri - Chhoti Sadri Rd, Chhoti Sadri, Rajasthan 312604",
        "detailed_address": {
            "ward": null,
            "street": "9MJX+69Q, Badi Sadri - Chhoti Sadri Rd",
            "city": "Chhoti Sadri",
            "postal_code": "312604",
            "state": "Rajasthan",
            "country_code": "IN"
        },
        "images": [
            {
                "about": "All",
                "link": "https://lh5.googleusercontent.com/p/AF1QipMtaSiGYDprurI45OH1pmMPjmrYMkE8qCJcWdOH=w224-h398-k-no"
            },
            {
                "about": "Videos",
                "link": "https://lh5.googleusercontent.com/p/AF1QipMtaSiGYDprurI45OH1pmMPjmrYMkE8qCJcWdOH=w224-h398-k-no"
            }
        ],
        "link": "https://www.google.com/maps/place/Jama+Masjid/data=!4m7!3m6!1s0x39666eb7886efc3d:0xc2561e56577551c9!8m2!3d24.3805782!4d74.6984976!16s%2Fg%2F12hkkrx8d!19sChIJPfxuiLduZjkRyVF1V1YeVsI?authuser=0&hl=en&rclk=1",
        "coordinates": {
            "latitude": 24.3805782,
            "longitude": 74.6984976
        }
    },
    {
        "name": "Saiffee Masjid",
        "main_category": "Mosque",
        "address": "9PJ2+CRC Saiffee Masjid, Saifi Mohalla Gali, Chhoti Sadri, Rajasthan 312604",
        "detailed_address": {
            "ward": null,
            "street": "9PJ2+CRC, Saifi Mohalla Gali",
            "city": "Chhoti Sadri",
            "postal_code": "312604",
            "state": "Rajasthan",
            "country_code": "IN"
        },
        "images": [
            {
                "about": "All",
                "link": "https://lh5.googleusercontent.com/p/AF1QipMpx8FrhD6WURzenEnXGHUHmsozg-qCMzaNG6f3=w529-h298-k-no"
            },
            {
                "about": "Dome",
                "link": "https://lh5.googleusercontent.com/p/AF1QipPGcq3JpZCtFUVw3kJuhfgPM4MrTlWSB8jwdDew=w224-h397-k-no"
            }
        ],
        "link": "https://www.google.com/maps/place/Saiffee+Masjid/data=!4m7!3m6!1s0x39666eb8fa7aa035:0x8ad014130129d983!8m2!3d24.3810708!4d74.7020195!16s%2Fg%2F11c7wcskcm!19sChIJNaB6-rhuZjkRg9kpARMU0Io?authuser=0&hl=en&rclk=1",
        "coordinates": {
            "latitude": 24.3810708,
            "longitude": 74.70201949999999
        }
    }
]