[
    {
        "name": "Razvi TAiLORS masjid e Bilal",
        "main_category": "Mosque",
        "address": "3F6V+V6V Razvi TAiLORS masjid e Bilal, Bellampalle, Telangana 504251",
        "detailed_address": {
            "ward": null,
            "street": "3F6V+V6V",
            "city": "Bellampalle",
            "postal_code": "504251",
            "state": "Telangana",
            "country_code": "IN"
        },
        "images": [
            {
                "about": "All",
                "link": "https://lh5.googleusercontent.com/p/AF1QipNPbbO5A3_l_d059IX5z6Ra_qSIGr4Z3sXN7BS2=w224-h300-k-no"
            },
            {
                "about": "Videos",
                "link": "https://lh5.googleusercontent.com/p/AF1QipOtALavEheBD8x_zYdtzLH1LaFLE4yYAUrtluJu=w224-h398-k-no"
            }
        ],
        "link": "https://www.google.com/maps/place/Razvi+TAiLORS+masjid+e+Bilal/data=!4m7!3m6!1s0x3a32b10ed88c3029:0x4f65cd5899f32fc8!8m2!3d19.0622332!4d79.4930366!16s%2Fg%2F11f62g5tr5!19sChIJKTCM2A6xMjoRyC_zmVjNZU8?authuser=0&hl=en&rclk=1",
        "coordinates": {
            "latitude": 19.062233199999998,
            "longitude": 79.4930366
        }
    },
    {
        "name": "Al-Masjid Al-Salafiyya Umm Ul Momineen Aisha Siddiqa Raadhiallahu Anha",
        "main_category": "Mosque",
        "address": "Al-Masjid Al-Salafiyya Umm Ul Momineen Aisha Siddiqa Raadhiallahu Anha, 1-3-186, Indira Market, Kagaznagar, Telangana 504296",
        "detailed_address": {
            "ward": "Ward Number 3",
            "street": "1-3-186, Indira Market",
            "city": "Kagaznagar",
            "postal_code": "504296",
            "state": "Telangana",
            "country_code": "IN"
        },
        "images": [
            {
                "about": "All",
                "link": "https://streetviewpixels-pa.googleapis.com/v1/thumbnail?panoid=T75OecUL0HuqMJPhgimw3Q&cb_client=maps_sv.tactile.gps&w=224&h=298&yaw=184.57896&pitch=0&thumbfov=100"
            },
            {
                "about": "By owner",
                "link": "https://lh5.googleusercontent.com/p/AF1QipOLNhpmLUNJ_wEgO2TgYniNCuW-dUIRyAsYZlAI=w394-h298-k-no"
            },
            {
                "about": "Street View & 360deg",
                "link": "https://streetviewpixels-pa.googleapis.com/v1/thumbnail?panoid=T75OecUL0HuqMJPhgimw3Q&cb_client=maps_sv.tactile.gps&w=224&h=298&yaw=184.57896&pitch=0&thumbfov=100"
            }
        ],
        "link": "https://www.google.com/maps/place/Al-Masjid+Al-Salafiyya+Umm+Ul+Momineen+Aisha+Siddiqa+Raadhiallahu+Anha/data=!4m7!3m6!1s0x3a2d57122ab10c9b:0x2366cf8f27649544!8m2!3d19.343273!4d79.483942!16s%2Fg%2F11px9yb4sd!19sChIJmwyxKhJXLToRRJVkJ4_PZiM?authuser=0&hl=en&rclk=1",
        "coordinates": {
            "latitude": 19.343273,
            "longitude": 79.483942
        }
    },
    {
        "name": "Jama Masjid",
        "main_category": "Mosque",
        "address": "MGGQ+F5Q Jama Masjid, Jama Masjid Rd, Mahalaxmiwada, Adilabad, Telangana 504001",
        "detailed_address": {
            "ward": "Mahalaxmiwada",
            "street": "MGGQ+F5Q, Jama Masjid Rd",
            "city": "Adilabad",
            "postal_code": "504001",
            "state": "Telangana",
            "country_code": "IN"
        },
        "images": [
            {
                "about": "All",
                "link": "https://lh5.googleusercontent.com/p/AF1QipNdTCCpjT4t2OBpBahpDVnWNKAVzB0u2qEZpKeP=w397-h298-k-no"
            },
            {
                "about": "Street View & 360deg",
                "link": "https://lh5.googleusercontent.com/p/AF1QipPo2PUhUk-_NBic66BHYz9HLRA1PuHJwnurxWHf=w224-h298-k-no-pi-20-ya349-ro-0-fo100"
            },
            {
                "about": "Videos",
                "link": "https://lh5.googleusercontent.com/p/AF1QipOuvlTWfYBRcdP6KLk4Jspx5n0H2HE1EEPHKZ33=w224-h398-k-no"
            }
        ],
        "link": "https://www.google.com/maps/place/Jama+Masjid/data=!4m7!3m6!1s0x3bd25c75f87e8a01:0x25a95ee1fbab37d0!8m2!3d19.6762137!4d78.5379985!16s%2Fg%2F1tlqnfwv!19sChIJAYp--HVc0jsR0Der--FeqSU?authuser=0&hl=en&rclk=1",
        "coordinates": {
            "latitude": 19.676213699999998,
            "longitude": 78.5379985
        }
    },
    {
        "name": "Masjid-e-Rahmania",
        "main_category": "Mosque",
        "address": "MG5H+P96 Masjid-e-Rahmania, Dasnapur, Sapthagiri Colony, chaitanyapuri, Adilabad, Telangana 504001",
        "detailed_address": {
            "ward": "Dasnapur, Sapthagiri Colony, chaitanyapuri",
            "street": "MG5H+P96",
            "city": "Adilabad",
            "postal_code": "504001",
            "state": "Telangana",
            "country_code": "IN"
        },
        "images": [
            {
                "about": "All",
                "link": "https://lh5.googleusercontent.com/p/AF1QipMHL5zu74MW3i6TkU-m_gqirKrkdS5dyhNe1Br1=w397-h298-k-no"
            },
            {
                "about": "Street View & 360deg",
                "link": "https://streetviewpixels-pa.googleapis.com/v1/thumbnail?panoid=TDhroRLm3u1DCNCxfbG1hA&cb_client=maps_sv.tactile.gps&w=224&h=298&yaw=168.1892&pitch=0&thumbfov=100"
            },
            {
                "about": "Videos",
                "link": "https://lh5.googleusercontent.com/p/AF1QipN0Mynqri9J7QwxHkjsmnO6LM6OymFbx3Pwd--2=w529-h298-k-no"
            }
        ],
        "link": "https://www.google.com/maps/place/Masjid-e-Rahmania/data=!4m7!3m6!1s0x3bd25c643f4fdb2f:0xa503fe99bb42906e!8m2!3d19.6592958!4d78.5283772!16s%2Fg%2F1w2ysb6c!19sChIJL9tPP2Rc0jsRbpBCu5n-A6U?authuser=0&hl=en&rclk=1",
        "coordinates": {
            "latitude": 19.6592958,
            "longitude": 78.5283772
        }
    },
    {
        "name": "Masjid-e-Firdous",
        "main_category": "Mosque",
        "address": "MG6G+978 Masjid-e-Firdous, Rickshaw Colony, Adilabad, Telangana 504001",
        "detailed_address": {
            "ward": "Rickshaw Colony",
            "street": "MG6G+978",
            "city": "Adilabad",
            "postal_code": "504001",
            "state": "Telangana",
            "country_code": "IN"
        },
        "images": [
            {
                "about": "All",
                "link": "https://lh5.googleusercontent.com/p/AF1QipPoY1bn4A_TTde595q43KEaZwUtiSDh7SEdPI4=w529-h298-k-no"
            }
        ],
        "link": "https://www.google.com/maps/place/Masjid-e-Firdous/data=!4m7!3m6!1s0x3bd25c6379b59d8d:0x6f222369871ef4cd!8m2!3d19.6609205!4d78.525713!16s%2Fg%2F11b6tqg984!19sChIJjZ21eWNc0jsRzfQeh2kjIm8?authuser=0&hl=en&rclk=1",
        "coordinates": {
            "latitude": 19.6609205,
            "longitude": 78.525713
        }
    },
    {
        "name": "Masjid-E-Taneem",
        "main_category": "Mosque",
        "address": "MG8P+GJ2 Masjid-E-Taneem, Shanti Nagar, Adilabad, Telangana 504001",
        "detailed_address": {
            "ward": "Shanti Nagar",
            "street": "MG8P+GJ2",
            "city": "Adilabad",
            "postal_code": "504001",
            "state": "Telangana",
            "country_code": "IN"
        },
        "images": [
            {
                "about": "All",
                "link": "https://lh5.googleusercontent.com/p/AF1QipOjd7lpNq766UGNulmzlHg2qYiqx3wfnRbcdNIB=w397-h298-k-no"
            },
            {
                "about": "Street View & 360deg",
                "link": "https://streetviewpixels-pa.googleapis.com/v1/thumbnail?panoid=_rund3yhKX-QH7zmQQiQhQ&cb_client=maps_sv.tactile.gps&w=224&h=298&yaw=15.704543&pitch=0&thumbfov=100"
            },
            {
                "about": "Videos",
                "link": "https://lh5.googleusercontent.com/p/AF1QipPIR-8DYBZRom8Csi00twsBGPz0NV2-Uqjx-o1F=w224-h398-k-no"
            }
        ],
        "link": "https://www.google.com/maps/place/Masjid-E-Taneem/data=!4m7!3m6!1s0x3bd25c7196951817:0xe1695f659d337d7!8m2!3d19.6662707!4d78.5365283!16s%2Fg%2F11c52zx1f3!19sChIJFxiVlnFc0jsR1zfTWfaVFg4?authuser=0&hl=en&rclk=1",
        "coordinates": {
            "latitude": 19.6662707,
            "longitude": 78.5365283
        }
    },
    {
        "name": "Mohammadia Masjid",
        "main_category": "Mosque",
        "address": "MGFH+M8P Mohammadia Masjid, NH 44, Vidya Nagar, Adilabad, Telangana 504001",
        "detailed_address": {
            "ward": "Vidya Nagar",
            "street": "MGFH+M8P, NH 44",
            "city": "Adilabad",
            "postal_code": "504001",
            "state": "Telangana",
            "country_code": "IN"
        },
        "images": [
            {
                "about": "All",
                "link": "https://lh5.googleusercontent.com/p/AF1QipMNZySrMDfHyv7Zb18Gnfy_5uK2PcwTNo8s4ERJ=w224-h298-k-no"
            }
        ],
        "link": "https://www.google.com/maps/place/Mohammadia+Masjid/data=!4m7!3m6!1s0x3bd25c7892a2eb3b:0x89c3b0daf8ff360!8m2!3d19.6742243!4d78.5283275!16s%2Fg%2F1tjz1t_5!19sChIJO-uiknhc0jsRYPOPrw07nAg?authuser=0&hl=en&rclk=1",
        "coordinates": {
            "latitude": 19.6742243,
            "longitude": 78.5283275
        }
    },
    {
        "name": "Masjid_E_Quba",
        "main_category": "Mosque",
        "address": "Masjid_E_Quba, 2-5-216, beside Masjid E Quba Khila, Mohalla Badh, Adilabad, Telangana 504001",
        "detailed_address": {
            "ward": "Mohalla Badh",
            "street": "2-5-216, beside Masjid E Quba Khila",
            "city": "Adilabad",
            "postal_code": "504001",
            "state": "Telangana",
            "country_code": "IN"
        },
        "images": [
            {
                "about": "All",
                "link": "https://lh5.googleusercontent.com/p/AF1QipM_2i45qyYhzAh14r7YhaGwxYpd3IWg9t2VLxd6=w397-h298-k-no"
            },
            {
                "about": "Street View & 360deg",
                "link": "https://streetviewpixels-pa.googleapis.com/v1/thumbnail?panoid=gzyk9M54_rg3zqTk-6eHYA&cb_client=maps_sv.tactile.gps&w=224&h=298&yaw=291.87372&pitch=0&thumbfov=100"
            }
        ],
        "link": "https://www.google.com/maps/place/Masjid_E_Quba/data=!4m7!3m6!1s0x3bd25bedeaaaaaab:0xe29f9a411d92289b!8m2!3d19.6793188!4d78.5406475!16s%2Fg%2F11bwkvtnj8!19sChIJq6qq6u1b0jsRmyiSHUGan-I?authuser=0&hl=en&rclk=1",
        "coordinates": {
            "latitude": 19.6793188,
            "longitude": 78.54064749999999
        }
    },
    {
        "name": "Masjid-e-Meraj",
        "main_category": "Mosque",
        "address": "Masjid-e-Meraj, Police lane, Sanjay Nagar, Adilabad, Bhattisavargaon, Telangana 504001",
        "detailed_address": {
            "ward": "Sanjay Nagar",
            "street": "Police lane",
            "city": "Adilabad, Bhattisavargaon",
            "postal_code": "504001",
            "state": "Telangana",
            "country_code": "IN"
        },
        "images": [
            {
                "about": "All",
                "link": "https://streetviewpixels-pa.googleapis.com/v1/thumbnail?panoid=1xuctRUJ9_jrUP9mGkgcHQ&cb_client=maps_sv.tactile.gps&w=224&h=298&yaw=75.378006&pitch=0&thumbfov=100"
            },
            {
                "about": "Street View & 360deg",
                "link": "https://streetviewpixels-pa.googleapis.com/v1/thumbnail?panoid=1xuctRUJ9_jrUP9mGkgcHQ&cb_client=maps_sv.tactile.gps&w=224&h=298&yaw=75.378006&pitch=0&thumbfov=100"
            }
        ],
        "link": "https://www.google.com/maps/place/Masjid-e-Meraj/data=!4m7!3m6!1s0x3bd25c80a40634d7:0x99b706696d47a613!8m2!3d19.6674917!4d78.5163997!16s%2Fg%2F1tr7b846!19sChIJ1zQGpIBc0jsRE6ZHbWkGt5k?authuser=0&hl=en&rclk=1",
        "coordinates": {
            "latitude": 19.6674917,
            "longitude": 78.5163997
        }
    },
    {
        "name": "Masjid E Abubaker",
        "main_category": "Mosque",
        "address": "MG8V+54F Masjid E Abubaker, Shanti Nagar, Adilabad, Telangana 504001",
        "detailed_address": {
            "ward": "Shanti Nagar",
            "street": "MG8V+54F",
            "city": "Adilabad",
            "postal_code": "504001",
            "state": "Telangana",
            "country_code": "IN"
        },
        "images": [
            {
                "about": "All",
                "link": "https://lh5.googleusercontent.com/p/AF1QipNsiv3Zwshd4f2vzPKsjvZ2xjudRyZrKNnp9bDn=w224-h298-k-no"
            },
            {
                "about": "Street View & 360deg",
                "link": "https://streetviewpixels-pa.googleapis.com/v1/thumbnail?panoid=dEarHw3mXpnMVH5WKtI28g&cb_client=maps_sv.tactile.gps&w=224&h=298&yaw=200.17949&pitch=0&thumbfov=100"
            }
        ],
        "link": "https://www.google.com/maps/place/Masjid+E+Abubaker/data=!4m7!3m6!1s0x3bd25c72afd994d1:0x55e84f035f33b282!8m2!3d19.6654385!4d78.542794!16s%2Fg%2F11c1wsmygw!19sChIJ0ZTZr3Jc0jsRgrIzXwNP6FU?authuser=0&hl=en&rclk=1",
        "coordinates": {
            "latitude": 19.6654385,
            "longitude": 78.542794
        }
    },
    {
        "name": "Masjid-e-Namrah (Jamat-e-islami hind)",
        "main_category": "Mosque",
        "address": "Masjid-e-Namrah (Jamat-e-islami hind), Caltex Fly Over, Radagambhala Bhasti, Station Road Colony, Bellampalle, Telangana 504251",
        "detailed_address": {
            "ward": "Radagambhala Bhasti, Station Road Colony",
            "street": "Caltex Fly Over",
            "city": "Bellampalle",
            "postal_code": "504251",
            "state": "Telangana",
            "country_code": "IN"
        },
        "images": [
            {
                "about": "All",
                "link": "https://lh5.googleusercontent.com/p/AF1QipNPxZW0TpPD2kU4z1t5cgY06U5UMnzqEh6rIf8e=w529-h298-k-no"
            }
        ],
        "link": "https://www.google.com/maps/place/Masjid-e-Namrah+%28Jamat-e-islami+hind%29/data=!4m7!3m6!1s0x3a32b1e88e7040b5:0xe7ba857867af821d!8m2!3d19.064002!4d79.4894995!16s%2Fg%2F11b6dd8kzr!19sChIJtUBwjuixMjoRHYKvZ3iFuuc?authuser=0&hl=en&rclk=1",
        "coordinates": {
            "latitude": 19.064002,
            "longitude": 79.4894995
        }
    },
    {
        "name": "Jama Masjid",
        "main_category": "Mosque",
        "address": "3F9Q+X45 Jama Masjid, Belmuri, Hanman Basti, Bellampalle, Telangana 504251",
        "detailed_address": {
            "ward": "Belmuri, Hanman Basti",
            "street": "3F9Q+X45",
            "city": "Bellampalle",
            "postal_code": "504251",
            "state": "Telangana",
            "country_code": "IN"
        },
        "images": [
            {
                "about": "All",
                "link": "https://lh5.googleusercontent.com/p/AF1QipM5RM-7FhQ_V8eaxsMbGndvqbaVKoM_IwdlqlEl=w577-h298-k-no"
            },
            {
                "about": "Street View & 360deg",
                "link": "https://streetviewpixels-pa.googleapis.com/v1/thumbnail?panoid=u-5ZZTU6mzeLcg963f0_3w&cb_client=maps_sv.tactile.gps&w=224&h=298&yaw=326.50388&pitch=0&thumbfov=100"
            },
            {
                "about": "Videos",
                "link": "https://lh5.googleusercontent.com/p/AF1QipMQOUeadfQFzcMxEX_bB2MW7QbWYLVzb-UIcizA=w529-h298-k-no"
            }
        ],
        "link": "https://www.google.com/maps/place/Jama+Masjid/data=!4m7!3m6!1s0x3a32b1e6a4eb0557:0x32163b4072eb7836!8m2!3d19.0698971!4d79.4878633!16s%2Fg%2F11csb3stf2!19sChIJVwXrpOaxMjoRNnjrckA7FjI?authuser=0&hl=en&rclk=1",
        "coordinates": {
            "latitude": 19.0698971,
            "longitude": 79.4878633
        }
    },
    {
        "name": "Muhammadiya Masjid",
        "main_category": "Mosque",
        "address": "MG29+X76 Muhammadiya Masjid, Ramnagar Colony, Adilabad, Telangana 504001",
        "detailed_address": {
            "ward": "Ramnagar Colony",
            "street": "MG29+X76",
            "city": "Adilabad",
            "postal_code": "504001",
            "state": "Telangana",
            "country_code": "IN"
        },
        "images": [
            {
                "about": "All",
                "link": "https://lh5.googleusercontent.com/p/AF1QipN4g44Bpa4TtFgMpSYVqm8MebTPODSTikB0BIXy=w224-h298-k-no"
            },
            {
                "about": "Street View & 360deg",
                "link": "https://streetviewpixels-pa.googleapis.com/v1/thumbnail?panoid=r158dtN6158fStkOLborwA&cb_client=maps_sv.tactile.gps&w=224&h=298&yaw=87.19213&pitch=0&thumbfov=100"
            }
        ],
        "link": "https://www.google.com/maps/place/Muhammadiya+Masjid/data=!4m7!3m6!1s0x3bd25c8ad95e1f51:0xc9001b8ca6d7fd64!8m2!3d19.6524043!4d78.5181462!16s%2Fg%2F11cn7qqr7d!19sChIJUR9e2Ypc0jsRZP3XpowbAMk?authuser=0&hl=en&rclk=1",
        "coordinates": {
            "latitude": 19.6524043,
            "longitude": 78.51814619999999
        }
    },
    {
        "name": "Fathima Masjid",
        "main_category": "Mosque",
        "address": "MGFF+676 Fathima Masjid, Sanjay Nagar, Adilabad, Telangana 504001",
        "detailed_address": {
            "ward": "Sanjay Nagar",
            "street": "MGFF+676",
            "city": "Adilabad",
            "postal_code": "504001",
            "state": "Telangana",
            "country_code": "IN"
        },
        "images": [
            {
                "about": "All",
                "link": "https://streetviewpixels-pa.googleapis.com/v1/thumbnail?panoid=AMHtgrAQ1B6IwYUfo0Xvkg&cb_client=maps_sv.tactile.gps&w=224&h=298&yaw=276.84662&pitch=0&thumbfov=100"
            },
            {
                "about": "Street View & 360deg",
                "link": "https://streetviewpixels-pa.googleapis.com/v1/thumbnail?panoid=AMHtgrAQ1B6IwYUfo0Xvkg&cb_client=maps_sv.tactile.gps&w=224&h=298&yaw=276.84662&pitch=0&thumbfov=100"
            }
        ],
        "link": "https://www.google.com/maps/place/Fathima+Masjid/data=!4m7!3m6!1s0x3bd25c7fa619132f:0x3fc5279c8cd8c162!8m2!3d19.6730467!4d78.5231404!16s%2Fg%2F11g65c9p2q!19sChIJLxMZpn9c0jsRYsHYjJwnxT8?authuser=0&hl=en&rclk=1",
        "coordinates": {
            "latitude": 19.6730467,
            "longitude": 78.5231404
        }
    },
    {
        "name": "Abubakr masjid",
        "main_category": "Mosque",
        "address": "MG8R+J7F Abubakr masjid, Shanti Nagar, Adilabad, Telangana 504001",
        "detailed_address": {
            "ward": "Shanti Nagar",
            "street": "MG8R+J7F",
            "city": "Adilabad",
            "postal_code": "504001",
            "state": "Telangana",
            "country_code": "IN"
        },
        "images": [
            {
                "about": "All",
                "link": "https://streetviewpixels-pa.googleapis.com/v1/thumbnail?panoid=7W0Fn5dGcp4ikKPMoNJ_5g&cb_client=maps_sv.tactile.gps&w=224&h=298&yaw=298.6791&pitch=0&thumbfov=100"
            },
            {
                "about": "Street View & 360deg",
                "link": "https://streetviewpixels-pa.googleapis.com/v1/thumbnail?panoid=7W0Fn5dGcp4ikKPMoNJ_5g&cb_client=maps_sv.tactile.gps&w=224&h=298&yaw=298.6791&pitch=0&thumbfov=100"
            }
        ],
        "link": "https://www.google.com/maps/place/Abubakr+masjid/data=!4m7!3m6!1s0x3bd25c72f6f46bc9:0xcd16458f413f5d2e!8m2!3d19.6665675!4d78.5406681!16s%2Fg%2F11c607nzf4!19sChIJyWv09nJc0jsRLl0_QY9FFs0?authuser=0&hl=en&rclk=1",
        "coordinates": {
            "latitude": 19.6665675,
            "longitude": 78.54066809999999
        }
    },
    {
        "name": "MASJID-E-Bilal",
        "main_category": "Mosque",
        "address": "MGHQ+H25 MASJID-E-Bilal, Adilabad - Nagpur Rd, Panjesha, Adilabad, Telangana 504001",
        "detailed_address": {
            "ward": "Panjesha",
            "street": "MGHQ+H25, Adilabad - Nagpur Rd",
            "city": "Adilabad",
            "postal_code": "504001",
            "state": "Telangana",
            "country_code": "IN"
        },
        "images": [
            {
                "about": "All",
                "link": "https://streetviewpixels-pa.googleapis.com/v1/thumbnail?panoid=621VQEPZ4skDx1HILMA3uw&cb_client=maps_sv.tactile.gps&w=224&h=298&yaw=175.99062&pitch=0&thumbfov=100"
            },
            {
                "about": "Street View & 360deg",
                "link": "https://streetviewpixels-pa.googleapis.com/v1/thumbnail?panoid=621VQEPZ4skDx1HILMA3uw&cb_client=maps_sv.tactile.gps&w=224&h=298&yaw=175.99062&pitch=0&thumbfov=100"
            }
        ],
        "link": "https://www.google.com/maps/place/MASJID-E-Bilal/data=!4m7!3m6!1s0x3bd25b89846e6659:0x31ee36077b20474f!8m2!3d19.6788851!4d78.5375982!16s%2Fg%2F11gclzc6pn!19sChIJWWZuhIlb0jsRT0cgewc27jE?authuser=0&hl=en&rclk=1",
        "coordinates": {
            "latitude": 19.6788851,
            "longitude": 78.53759819999999
        }
    },
    {
        "name": "Kausar Masjid",
        "main_category": "Mosque",
        "address": "3G32+XH3 Kausar Masjid, Subhash Nagar, Bellampalle, Telangana 504251",
        "detailed_address": {
            "ward": "Subhash Nagar",
            "street": "3G32+XH3",
            "city": "Bellampalle",
            "postal_code": "504251",
            "state": "Telangana",
            "country_code": "IN"
        },
        "images": [
            {
                "about": "All",
                "link": "https://lh5.googleusercontent.com/p/AF1QipOuFy1p4mGQ0DqhkHCTtVZ2tSycS4-uV4MG1Ter=w529-h298-k-no"
            },
            {
                "about": "Dome",
                "link": "https://lh5.googleusercontent.com/p/AF1QipOE9sNofroT9aq8tZ8Xu17C6AYlxF1qfeVSoope=w397-h298-k-no"
            },
            {
                "about": "Videos",
                "link": "https://lh5.googleusercontent.com/p/AF1QipMNyqgDkSPa-OzD9RMSJPnP9boeHxpMoIClJUFn=w529-h298-k-no"
            },
            {
                "about": "Street View & 360deg",
                "link": "https://streetviewpixels-pa.googleapis.com/v1/thumbnail?panoid=EQRWiXaho71mn8P5E4kiog&cb_client=maps_sv.tactile.gps&w=224&h=298&yaw=172.86365&pitch=0&thumbfov=100"
            }
        ],
        "link": "https://www.google.com/maps/place/Kausar+Masjid/data=!4m7!3m6!1s0x3a32b1c79d1963ff:0x433868c68e905e51!8m2!3d19.0548975!4d79.5014369!16s%2Fg%2F11g9r54_23!19sChIJ_2MZncexMjoRUV6QjsZoOEM?authuser=0&hl=en&rclk=1",
        "coordinates": {
            "latitude": 19.0548975,
            "longitude": 79.5014369
        }
    },
    {
        "name": "Masjid-e-gouse-ul-wara",
        "main_category": "Mosque",
        "address": "3FGP+WXC Masjid-e-gouse-ul-wara, Bellampalle, Kannal Rural, Telangana 504251",
        "detailed_address": {
            "ward": null,
            "street": "3FGP+WXC",
            "city": "Bellampalle, Kannal Rural",
            "postal_code": "504251",
            "state": "Telangana",
            "country_code": "IN"
        },
        "images": [
            {
                "about": "All",
                "link": "https://lh5.googleusercontent.com/p/AF1QipPF8JcToKulM5sEcg6-jJwxDvefVMEuM9OaEVc=w397-h298-k-no"
            }
        ],
        "link": "https://www.google.com/maps/place/Masjid-e-gouse-ul-wara/data=!4m7!3m6!1s0x3a32ae1e07a8f3a1:0x30d5ea744ddf5099!8m2!3d19.0773045!4d79.4873999!16s%2Fg%2F11dfmg17l2!19sChIJofOoBx6uMjoRmVDfTXTq1TA?authuser=0&hl=en&rclk=1",
        "coordinates": {
            "latitude": 19.0773045,
            "longitude": 79.4873999
        }
    },
    {
        "name": "MASJID E MAHEBOOB E SUBHANI ( Markaz e Ahle Sunnat )",
        "main_category": "Mosque",
        "address": "MASJID E MAHEBOOB E SUBHANI ( Markaz e Ahle Sunnat ), Sanjay Nagar, Adilabad, Telangana 504001",
        "detailed_address": {
            "ward": "Sanjay Nagar",
            "street": null,
            "city": "Adilabad",
            "postal_code": "504001",
            "state": "Telangana",
            "country_code": "IN"
        },
        "images": [
            {
                "about": "All",
                "link": "https://lh5.googleusercontent.com/p/AF1QipMlwz7smo28ZWEXg1jMPA9Dpib4x1Z-2veJVFr0=w496-h298-k-no"
            },
            {
                "about": "Street View & 360deg",
                "link": "https://streetviewpixels-pa.googleapis.com/v1/thumbnail?panoid=OENBtuySPakKgIUrlZOB9w&cb_client=maps_sv.tactile.gps&w=224&h=298&yaw=329.89136&pitch=0&thumbfov=100"
            }
        ],
        "link": "https://www.google.com/maps/place/MASJID+E+MAHEBOOB+E+SUBHANI+%28+Markaz+e+Ahle+Sunnat+%29/data=!4m7!3m6!1s0x3bd25c7cd0000001:0xe56e990e56fe962c!8m2!3d19.6669356!4d78.5213162!16s%2Fg%2F11c2kk77hk!19sChIJAQAA0Hxc0jsRLJb-Vg6ZbuU?authuser=0&hl=en&rclk=1",
        "coordinates": {
            "latitude": 19.6669356,
            "longitude": 78.5213162
        }
    },
    {
        "name": "ILAHIYA MASJID",
        "main_category": "Mosque",
        "address": "MGMH+97P ILAHIYA MASJID, Indira Nagar Rd, Bhagya Nagar, Adilabad, Telangana 504001",
        "detailed_address": {
            "ward": "Bhagya Nagar",
            "street": "MGMH+97P, Indira Nagar Rd",
            "city": "Adilabad",
            "postal_code": "504001",
            "state": "Telangana",
            "country_code": "IN"
        },
        "images": [
            {
                "about": "All",
                "link": "https://streetviewpixels-pa.googleapis.com/v1/thumbnail?panoid=LaAQ7_d5bJeUEedTTNFgpg&cb_client=maps_sv.tactile.gps&w=224&h=298&yaw=148.47244&pitch=0&thumbfov=100"
            },
            {
                "about": "Street View & 360deg",
                "link": "https://streetviewpixels-pa.googleapis.com/v1/thumbnail?panoid=LaAQ7_d5bJeUEedTTNFgpg&cb_client=maps_sv.tactile.gps&w=224&h=298&yaw=148.47244&pitch=0&thumbfov=100"
            }
        ],
        "link": "https://www.google.com/maps/place/ILAHIYA+MASJID/data=!4m7!3m6!1s0x3bd25b8444ebd13f:0xe27cf6a1114241d4!8m2!3d19.6834654!4d78.5282048!16s%2Fg%2F11fzfhsmc2!19sChIJP9HrRIRb0jsR1EFCEaH2fOI?authuser=0&hl=en&rclk=1",
        "coordinates": {
            "latitude": 19.6834654,
            "longitude": 78.5282048
        }
    },
    {
        "name": "Masjid Badar",
        "main_category": "Mosque",
        "address": "MG8C+44M Masjid Badar, Rickshaw Colony, Adilabad, Telangana 504001",
        "detailed_address": {
            "ward": "Rickshaw Colony",
            "street": "MG8C+44M",
            "city": "Adilabad",
            "postal_code": "504001",
            "state": "Telangana",
            "country_code": "IN"
        },
        "images": [
            {
                "about": "All",
                "link": "https://lh5.googleusercontent.com/p/AF1QipNrUkg_l_B4UMMvXho7O753ZYAQlKUrCUcGFlIT=w224-h299-k-no"
            },
            {
                "about": "Street View & 360deg",
                "link": "https://streetviewpixels-pa.googleapis.com/v1/thumbnail?panoid=PwVwUyHHWMAlijvU5bbxWQ&cb_client=maps_sv.tactile.gps&w=224&h=298&yaw=117.6745&pitch=0&thumbfov=100"
            }
        ],
        "link": "https://www.google.com/maps/place/Masjid+Badar/data=!4m7!3m6!1s0x3bd25c878e7870c1:0x8e24c92e23dce198!8m2!3d19.6653455!4d78.5202985!16s%2Fg%2F11bbrlytdq!19sChIJwXB4jodc0jsRmOHcIy7JJI4?authuser=0&hl=en&rclk=1",
        "coordinates": {
            "latitude": 19.6653455,
            "longitude": 78.5202985
        }
    },
    {
        "name": "Masjid E-munawar",
        "main_category": "Mosque",
        "address": "MGHG+WFR Masjid E-munawar, Indira Nagar, Bhagya Nagar, Adilabad, Telangana 504001",
        "detailed_address": {
            "ward": "Indira Nagar, Bhagya Nagar",
            "street": "MGHG+WFR",
            "city": "Adilabad",
            "postal_code": "504001",
            "state": "Telangana",
            "country_code": "IN"
        },
        "images": [
            {
                "about": "All",
                "link": "https://lh5.googleusercontent.com/p/AF1QipMQLSLbXPOdFCG3KS2ZJG3HlrxWl2JtMPkZFmo1=w224-h497-k-no"
            }
        ],
        "link": "https://www.google.com/maps/place/Masjid+E-munawar/data=!4m7!3m6!1s0x3bd25b814a89a5d1:0x13757a533e5d9127!8m2!3d19.6798716!4d78.5261472!16s%2Fg%2F11g5_f9f2n!19sChIJ0aWJSoFb0jsRJ5FdPlN6dRM?authuser=0&hl=en&rclk=1",
        "coordinates": {
            "latitude": 19.6798716,
            "longitude": 78.5261472
        }
    },
    {
        "name": "Masjid e Khadim",
        "main_category": "Mosque",
        "address": "FHHF+MW9 Masjid e Khadim, Pet Mohalla, Sirpur, Telangana 504299",
        "detailed_address": {
            "ward": null,
            "street": "FHHF+MW9 Pet Mohalla",
            "city": "Sirpur",
            "postal_code": "504299",
            "state": "Telangana",
            "country_code": "IN"
        },
        "images": [
            {
                "about": "All",
                "link": "https://lh5.googleusercontent.com/p/AF1QipOfuQ4n_zPZN9wqnZCIllvRUjsQSVmAS2UxrQxF=w397-h298-k-no"
            },
            {
                "about": "Dome",
                "link": "https://lh5.googleusercontent.com/p/AF1QipMIvY8q6kvq7-HsNoo1uNx7KZmawDbk8eCFkMQv=w529-h298-k-no"
            },
            {
                "about": "Street View & 360deg",
                "link": "https://streetviewpixels-pa.googleapis.com/v1/thumbnail?panoid=XpsKUvhq5rkraDVD1IjHjQ&cb_client=maps_sv.tactile.gps&w=224&h=298&yaw=22.05062&pitch=0&thumbfov=100"
            }
        ],
        "link": "https://www.google.com/maps/place/Masjid+e+Khadim/data=!4m7!3m6!1s0x3a2d45425afd0481:0xbb8003f82b6742d8!8m2!3d19.4791742!4d79.5748539!16s%2Fg%2F11c3w0kdh5!19sChIJgQT9WkJFLToR2EJnK_gDgLs?authuser=0&hl=en&rclk=1",
        "coordinates": {
            "latitude": 19.4791742,
            "longitude": 79.5748539
        }
    },
    {
        "name": "Raza Masjid Bellampalli",
        "main_category": "Mosque",
        "address": "3FFQ+GVH Raza Masjid Bellampalli, Bellampalle, Telangana 504251",
        "detailed_address": {
            "ward": null,
            "street": "3FFQ+GVH",
            "city": "Bellampalle",
            "postal_code": "504251",
            "state": "Telangana",
            "country_code": "IN"
        },
        "images": [
            {
                "about": "All",
                "link": "https://lh5.googleusercontent.com/p/AF1QipOLa0_tSvswblXoiIumU9Ryn0ojGlb9jp0crEhu=w639-h298-k-no"
            },
            {
                "about": "Street View & 360deg",
                "link": "https://streetviewpixels-pa.googleapis.com/v1/thumbnail?panoid=51wp8pnHTKtZ8WSWx49d-w&cb_client=maps_sv.tactile.gps&w=224&h=298&yaw=62.33031&pitch=0&thumbfov=100"
            }
        ],
        "link": "https://www.google.com/maps/place/Raza+Masjid+Bellampalli/data=!4m7!3m6!1s0x3a32b1e100ce139b:0xb8c9205409aef47e!8m2!3d19.0738076!4d79.4897482!16s%2Fg%2F11csb2svwk!19sChIJmxPOAOGxMjoRfvSuCVQgybg?authuser=0&hl=en&rclk=1",
        "coordinates": {
            "latitude": 19.0738076,
            "longitude": 79.4897482
        }
    },
    {
        "name": "Masjid-E- Rahimaniya",
        "main_category": "Mosque",
        "address": "MGRR+5G5 Masjid-E- Rahimaniya, Tirupally, Adilabad, Telangana 504001",
        "detailed_address": {
            "ward": "Tirupally",
            "street": "MGRR+5G5",
            "city": "Adilabad",
            "postal_code": "504001",
            "state": "Telangana",
            "country_code": "IN"
        },
        "images": [
            {
                "about": "All",
                "link": "https://lh5.googleusercontent.com/p/AF1QipNW1oaMncKOxRlCfowFp1fJePx740ah1C5Nv5iG=w529-h298-k-no"
            },
            {
                "about": "Street View & 360deg",
                "link": "https://streetviewpixels-pa.googleapis.com/v1/thumbnail?panoid=2SkXM4Rmz6gbZBzxrIlChw&cb_client=maps_sv.tactile.gps&w=224&h=298&yaw=158.97464&pitch=0&thumbfov=100"
            }
        ],
        "link": "https://www.google.com/maps/place/Masjid-E-+Rahimaniya/data=!4m7!3m6!1s0x3bd25ba3e27d5519:0x3ff2f3403e845bff!8m2!3d19.6903884!4d78.5413572!16s%2Fg%2F11gmblynz2!19sChIJGVV94qNb0jsR_1uEPkDz8j8?authuser=0&hl=en&rclk=1",
        "coordinates": {
            "latitude": 19.6903884,
            "longitude": 78.5413572
        }
    },
    {
        "name": "Khanka E Mohammadi",
        "main_category": "Mosque",
        "address": "MGJV+P72 Khanka E Mohammadi, Tirupally, Adilabad, Telangana 504001",
        "detailed_address": {
            "ward": "Tirupally",
            "street": "MGJV+P72",
            "city": "Adilabad",
            "postal_code": "504001",
            "state": "Telangana",
            "country_code": "IN"
        },
        "images": [
            {
                "about": "All",
                "link": "https://lh5.googleusercontent.com/p/AF1QipPIKOoWOvgyC35nM9J0j2AaXF5QGuLyeGnP9Pnn=w529-h298-k-no"
            },
            {
                "about": "Videos",
                "link": "https://lh5.googleusercontent.com/p/AF1QipPIKOoWOvgyC35nM9J0j2AaXF5QGuLyeGnP9Pnn=w529-h298-k-no"
            }
        ],
        "link": "https://www.google.com/maps/place/Khanka+E+Mohammadi/data=!4m7!3m6!1s0x3bd25bd22744411f:0x22b8cbaf2829e2c7!8m2!3d19.6817626!4d78.5431504!16s%2Fg%2F11g1rbmtkk!19sChIJH0FEJ9Jb0jsRx-IpKK_LuCI?authuser=0&hl=en&rclk=1",
        "coordinates": {
            "latitude": 19.6817626,
            "longitude": 78.5431504
        }
    },
    {
        "name": "Masjid-E-Zam Zam",
        "main_category": "Mosque",
        "address": "2FXM+WCV Masjid-E-Zam Zam, Bellampalle, Telangana 504251",
        "detailed_address": {
            "ward": null,
            "street": "2FXM+WCV",
            "city": "Bellampalle",
            "postal_code": "504251",
            "state": "Telangana",
            "country_code": "IN"
        },
        "images": [
            {
                "about": "All",
                "link": "https://lh5.googleusercontent.com/p/AF1QipO0gizcIF7tzFy5Jx1qwc9H9Fc0bHBXPIGwlCI=w397-h298-k-no"
            },
            {
                "about": "Street View & 360deg",
                "link": "https://streetviewpixels-pa.googleapis.com/v1/thumbnail?panoid=TJItv6EtekC3MkGqE8oCGg&cb_client=maps_sv.tactile.gps&w=224&h=298&yaw=288.52933&pitch=0&thumbfov=100"
            }
        ],
        "link": "https://www.google.com/maps/place/Masjid-E-Zam+Zam/data=!4m7!3m6!1s0x3a32b1925908d747:0xdc5f23a19654e152!8m2!3d19.0498658!4d79.4835516!16s%2Fg%2F11dxbp6v0v!19sChIJR9cIWZKxMjoRUuFUlqEjX9w?authuser=0&hl=en&rclk=1",
        "coordinates": {
            "latitude": 19.0498658,
            "longitude": 79.4835516
        }
    },
    {
        "name": "Umar Masjid",
        "main_category": "Mosque",
        "address": "MG2H+9J7 Umar Masjid, Pittalwada, Khoja Colony, Adilabad, Telangana 504001",
        "detailed_address": {
            "ward": "Pittalwada, Khoja Colony",
            "street": "MG2H+9J7",
            "city": "Adilabad",
            "postal_code": "504001",
            "state": "Telangana",
            "country_code": "IN"
        },
        "images": [
            {
                "about": "All",
                "link": "https://lh5.googleusercontent.com/p/AF1QipOJYUe5mLVfvcWk98uqTmN6GdcsAB8bciDSoTjv=w529-h298-k-no"
            },
            {
                "about": "Street View & 360deg",
                "link": "https://streetviewpixels-pa.googleapis.com/v1/thumbnail?panoid=C4Ppeq7EFFG4nfqHNpRt4Q&cb_client=maps_sv.tactile.gps&w=224&h=298&yaw=132.76416&pitch=0&thumbfov=100"
            }
        ],
        "link": "https://www.google.com/maps/place/Umar+Masjid/data=!4m7!3m6!1s0x3bd25c5d9e45a7ff:0xd9937a4c4bfe8c53!8m2!3d19.6509166!4d78.5290486!16s%2Fg%2F11fx95lqmp!19sChIJ_6dFnl1c0jsRU4z-S0x6k9k?authuser=0&hl=en&rclk=1",
        "coordinates": {
            "latitude": 19.6509166,
            "longitude": 78.5290486
        }
    },
    {
        "name": "Masjid",
        "main_category": "Mosque",
        "address": "3F8M+FFQ Masjid, Bellampalle, Kannal Rural, Telangana 504251",
        "detailed_address": {
            "ward": null,
            "street": "3F8M+FFQ",
            "city": "Bellampalle, Kannal Rural",
            "postal_code": "504251",
            "state": "Telangana",
            "country_code": "IN"
        },
        "images": [
            {
                "about": "All",
                "link": "https://lh5.googleusercontent.com/p/AF1QipM8EtoRBLXf6nrQX0y-LiKhHHIZEbh9rPKCmFVx=w635-h298-k-no"
            },
            {
                "about": "Dome",
                "link": "https://lh5.googleusercontent.com/p/AF1QipMh3318roR0B4Uo4RCFbLsrILzGV1ZKg9LlYJEz=w224-h497-k-no"
            },
            {
                "about": "Videos",
                "link": "https://lh5.googleusercontent.com/p/AF1QipPOjRejffhIdJDrLjUKW3xtgPIp0vIkRpL7ppVR=w224-h398-k-no"
            },
            {
                "about": "Street View & 360deg",
                "link": "https://streetviewpixels-pa.googleapis.com/v1/thumbnail?panoid=dLirBwhbe0-zn0z48v6HnQ&cb_client=maps_sv.tactile.gps&w=224&h=298&yaw=184.43034&pitch=0&thumbfov=100"
            }
        ],
        "link": "https://www.google.com/maps/place/Masjid/data=!4m7!3m6!1s0x3a32b1b5f0822333:0xf2f1d40734fe9993!8m2!3d19.0662171!4d79.48373!16s%2Fg%2F11gl2hm2p0!19sChIJMyOC8LWxMjoRk5n-NAfU8fI?authuser=0&hl=en&rclk=1",
        "coordinates": {
            "latitude": 19.0662171,
            "longitude": 79.48373
        }
    },
    {
        "name": "Masjid E IBrahimiya",
        "main_category": "Mosque",
        "address": "Masjid E IBrahimiya, Shanti Nagar, Adilabad, Telangana 504001",
        "detailed_address": {
            "ward": "Shanti Nagar",
            "street": null,
            "city": "Adilabad",
            "postal_code": "504001",
            "state": "Telangana",
            "country_code": "IN"
        },
        "images": [
            {
                "about": "All",
                "link": "https://lh5.googleusercontent.com/p/AF1QipPZTifsHnAyqEeKbOSWtc-LpjVnop9C_cxGrrUQ=w276-h298-k-no"
            },
            {
                "about": "Street View & 360deg",
                "link": "https://streetviewpixels-pa.googleapis.com/v1/thumbnail?panoid=3rGvXQxNAUzGyIaQyRaqqQ&cb_client=maps_sv.tactile.gps&w=224&h=298&yaw=43.913197&pitch=0&thumbfov=100"
            }
        ],
        "link": "https://www.google.com/maps/place/Masjid+E+IBrahimiya/data=!4m7!3m6!1s0x3bd25d44b0027dc7:0x5b9c582e308fceb0!8m2!3d19.6688451!4d78.5432386!16s%2Fg%2F11flbsbk92!19sChIJx30CsERd0jsRsM6PMC5YnFs?authuser=0&hl=en&rclk=1",
        "coordinates": {
            "latitude": 19.6688451,
            "longitude": 78.5432386
        }
    },
    {
        "name": "Bilal Rz Masjid",
        "main_category": "Mosque",
        "address": "29C7+8C3 Bilal Rz Masjid, Gamjal, Telangana 504105",
        "detailed_address": {
            "ward": null,
            "street": "29C7+8C3",
            "city": "Gamjal",
            "postal_code": "504105",
            "state": "Telangana",
            "country_code": "IN"
        },
        "images": [
            {
                "about": "All",
                "link": "https://lh5.googleusercontent.com/p/AF1QipOj1BXS_mlZ1mDz_V5a2atvnFxoOB-NbWjWByIP=w224-h398-k-no"
            },
            {
                "about": "Videos",
                "link": "https://lh5.googleusercontent.com/p/AF1QipOj1BXS_mlZ1mDz_V5a2atvnFxoOB-NbWjWByIP=w224-h398-k-no"
            }
        ],
        "link": "https://www.google.com/maps/place/Bilal+Rz+Masjid/data=!4m7!3m6!1s0x3bcd8dfd5e8bef41:0x90088cf3276a00b4!8m2!3d19.0207686!4d78.3635425!16s%2Fg%2F11g1dywtz6!19sChIJQe-LXv2NzTsRtABqJ_OMCJA?authuser=0&hl=en&rclk=1",
        "coordinates": {
            "latitude": 19.0207686,
            "longitude": 78.3635425
        }
    },
    {
        "name": "Mohammadia Masjid",
        "main_category": "Mosque",
        "address": "3F6M+7R7 Mohammadia Masjid, Bellampalle, Telangana 504251",
        "detailed_address": {
            "ward": null,
            "street": "3F6M+7R7",
            "city": "Bellampalle",
            "postal_code": "504251",
            "state": "Telangana",
            "country_code": "IN"
        },
        "images": [
            {
                "about": "All",
                "link": "https://streetviewpixels-pa.googleapis.com/v1/thumbnail?panoid=mdHwpLu5bFhSUCr4cRqfbg&cb_client=maps_sv.tactile.gps&w=224&h=298&yaw=92.34243&pitch=0&thumbfov=100"
            },
            {
                "about": "Street View & 360deg",
                "link": "https://streetviewpixels-pa.googleapis.com/v1/thumbnail?panoid=mdHwpLu5bFhSUCr4cRqfbg&cb_client=maps_sv.tactile.gps&w=224&h=298&yaw=92.34243&pitch=0&thumbfov=100"
            }
        ],
        "link": "https://www.google.com/maps/place/Mohammadia+Masjid/data=!4m7!3m6!1s0x3a32b1eef597bc9b:0xbae0d0995a888173!8m2!3d19.0606673!4d79.4845425!16s%2Fg%2F11c6q7dvyt!19sChIJm7yX9e6xMjoRc4GIWpnQ4Lo?authuser=0&hl=en&rclk=1",
        "coordinates": {
            "latitude": 19.0606673,
            "longitude": 79.4845425
        }
    },
    {
        "name": "Masjid e Noorani",
        "main_category": "Mosque",
        "address": "MGMQ+P66 Masjid e Noorani, Mahalaxmiwada, Adilabad, Telangana 504001",
        "detailed_address": {
            "ward": "Mahalaxmiwada",
            "street": "MGMQ+P66",
            "city": "Adilabad",
            "postal_code": "504001",
            "state": "Telangana",
            "country_code": "IN"
        },
        "images": [
            {
                "about": "All",
                "link": "https://streetviewpixels-pa.googleapis.com/v1/thumbnail?panoid=Yo-FQ9o7Sie0XNuglKhtIw&cb_client=maps_sv.tactile.gps&w=224&h=298&yaw=33.33699&pitch=0&thumbfov=100"
            },
            {
                "about": "Street View & 360deg",
                "link": "https://streetviewpixels-pa.googleapis.com/v1/thumbnail?panoid=Yo-FQ9o7Sie0XNuglKhtIw&cb_client=maps_sv.tactile.gps&w=224&h=298&yaw=33.33699&pitch=0&thumbfov=100"
            }
        ],
        "link": "https://www.google.com/maps/place/Masjid+e+Noorani/data=!4m7!3m6!1s0x3bd25b71656d7da1:0x9db65c4943296ea6!8m2!3d19.6842802!4d78.5380187!16s%2Fg%2F11gphd3bdg!19sChIJoX1tZXFb0jsRpm4pQ0lctp0?authuser=0&hl=en&rclk=1",
        "coordinates": {
            "latitude": 19.6842802,
            "longitude": 78.5380187
        }
    },
    {
        "name": "Eidgah Ground",
        "main_category": "Mosque",
        "address": "3F8M+MGM Eidgah Ground, Bellampalle, Kannal Rural, Telangana 504251",
        "detailed_address": {
            "ward": null,
            "street": "3F8M+MGM",
            "city": "Bellampalle, Kannal Rural",
            "postal_code": "504251",
            "state": "Telangana",
            "country_code": "IN"
        },
        "images": [
            {
                "about": "All",
                "link": "https://lh5.googleusercontent.com/p/AF1QipOED3qmJlI5dLXyj9gYcstZ6h2scgwCJlqDfPCo=w397-h298-k-no"
            },
            {
                "about": "Street View & 360deg",
                "link": "https://streetviewpixels-pa.googleapis.com/v1/thumbnail?panoid=gQfwAwy8xiF4UpmKBaMyqA&cb_client=maps_sv.tactile.gps&w=224&h=298&yaw=28.862545&pitch=0&thumbfov=100"
            }
        ],
        "link": "https://www.google.com/maps/place/Eidgah+Ground/data=!4m7!3m6!1s0x3a32b1e50e17c94d:0xa00380d0516ca7f3!8m2!3d19.0667161!4d79.4838002!16s%2Fg%2F11d_87j8tv!19sChIJTckXDuWxMjoR86dsUdCAA6A?authuser=0&hl=en&rclk=1",
        "coordinates": {
            "latitude": 19.0667161,
            "longitude": 79.48380019999999
        }
    },
    {
        "name": "Masjid e Raza",
        "main_category": "Mosque",
        "address": "MG9V+JPV Masjid e Raza, Shanti Nagar, Adilabad, Telangana 504001",
        "detailed_address": {
            "ward": "Shanti Nagar",
            "street": "MG9V+JPV",
            "city": "Adilabad",
            "postal_code": "504001",
            "state": "Telangana",
            "country_code": "IN"
        },
        "images": [
            {
                "about": "All",
                "link": "https://lh5.googleusercontent.com/p/AF1QipPtu1NhM4664m5ZWsmiwHgqHBGky8HQkiYzMgF9=w577-h298-k-no"
            },
            {
                "about": "Street View & 360deg",
                "link": "https://streetviewpixels-pa.googleapis.com/v1/thumbnail?panoid=DrGB5MZZVo-u81le8vWDFg&cb_client=maps_sv.tactile.gps&w=224&h=298&yaw=312.54205&pitch=0&thumbfov=100"
            }
        ],
        "link": "https://www.google.com/maps/place/Masjid+e+Raza/data=!4m7!3m6!1s0x3bd25d7fcd7b7ccd:0xe8779b7a8f75f499!8m2!3d19.6691213!4d78.5442846!16s%2Fg%2F11kh3x29df!19sChIJzXx7zX9d0jsRmfR1j3qbd-g?authuser=0&hl=en&rclk=1",
        "coordinates": {
            "latitude": 19.6691213,
            "longitude": 78.5442846
        }
    },
    {
        "name": "Masjid-e- Amina",
        "main_category": "Mosque",
        "address": "MGFR+G3G Masjid-e- Amina, Brahmanwadi, Adilabad, Telangana 504001",
        "detailed_address": {
            "ward": "Brahmanwadi",
            "street": "MGFR+G3G",
            "city": "Adilabad",
            "postal_code": "504001",
            "state": "Telangana",
            "country_code": "IN"
        },
        "images": [
            {
                "about": "All",
                "link": "https://lh5.googleusercontent.com/p/AF1QipOXZp4FA15maLTj5JbjS8mmgALHi1yTLggYkzzc=w224-h398-k-no"
            },
            {
                "about": "Videos",
                "link": "https://lh5.googleusercontent.com/p/AF1QipPNU4I_QiqOSiHleiOrq3tNrHszcBoJD58sLOPX=w224-h398-k-no"
            }
        ],
        "link": "https://www.google.com/maps/place/Masjid-e-+Amina/data=!4m7!3m6!1s0x3bd25ddc88f570b9:0x22cb1f0c107c4bc6!8m2!3d19.6738162!4d78.5401916!16s%2Fg%2F11k7xv923r!19sChIJuXD1iNxd0jsRxkt8EAwfyyI?authuser=0&hl=en&rclk=1",
        "coordinates": {
            "latitude": 19.673816199999997,
            "longitude": 78.5401916
        }
    },
    {
        "name": "MASJID E IBRAHIMIA",
        "main_category": "Mosque",
        "address": "MASJID E IBRAHIMIA, 2-5-275/1, tirpally, Adilabad, Telangana 504001",
        "detailed_address": {
            "ward": "tirpally",
            "street": "2-5-275/1",
            "city": "Adilabad",
            "postal_code": "504001",
            "state": "Telangana",
            "country_code": "IN"
        },
        "images": [
            {
                "about": "All",
                "link": "https://lh5.googleusercontent.com/p/AF1QipM3YUUiTtMOJUWIG7FezL58giq-GEhwFac-701K=w224-h298-k-no"
            },
            {
                "about": "By owner",
                "link": "https://lh5.googleusercontent.com/p/AF1QipPK0T5ehTHLz0DVoXhK2puwkJwUkD-5UbP3qWd2=w224-h298-k-no"
            },
            {
                "about": "Street View & 360deg",
                "link": "https://streetviewpixels-pa.googleapis.com/v1/thumbnail?panoid=vfk9FchW3gjT8UyupzO2pw&cb_client=maps_sv.tactile.gps&w=224&h=298&yaw=171.01938&pitch=0&thumbfov=100"
            }
        ],
        "link": "https://www.google.com/maps/place/MASJID+E+IBRAHIMIA/data=!4m7!3m6!1s0x3bd25b8b6628a527:0x550e60c0cd80575a!8m2!3d19.6814941!4d78.5416637!16s%2Fg%2F11f15jwjc0!19sChIJJ6UoZotb0jsRWleAzcBgDlU?authuser=0&hl=en&rclk=1",
        "coordinates": {
            "latitude": 19.6814941,
            "longitude": 78.5416637
        }
    },
    {
        "name": "Masjid-e-Hazrat Syedna Ali",
        "main_category": "Mosque",
        "address": "Masjid-e-Hazrat Syedna Ali, Tatiguda Colony, Adilabad, Telangana 504001",
        "detailed_address": {
            "ward": "Tatiguda Colony",
            "street": null,
            "city": "Adilabad",
            "postal_code": "504001",
            "state": "Telangana",
            "country_code": "IN"
        },
        "images": [
            {
                "about": "All",
                "link": "https://lh5.googleusercontent.com/p/AF1QipM7c5FMc9ZxMuAt9XQUEYfo1Bk6IIFjrh2HYCvQ=w397-h298-k-no"
            },
            {
                "about": "Dome",
                "link": "https://lh5.googleusercontent.com/p/AF1QipOprLaLOSpE4nobbtcsbvGD7DiGROc5ysrTYII-=w224-h298-k-no"
            },
            {
                "about": "By owner",
                "link": "https://lh5.googleusercontent.com/p/AF1QipMe7u8nMjuL8kPbNwvgYOXe9iQvd4vq4bQdA-jk=w270-h298-k-no"
            },
            {
                "about": "Street View & 360deg",
                "link": "https://streetviewpixels-pa.googleapis.com/v1/thumbnail?panoid=buVnbIkf9I5lWTgbauHRtg&cb_client=maps_sv.tactile.gps&w=224&h=298&yaw=333.5189&pitch=0&thumbfov=100"
            }
        ],
        "link": "https://www.google.com/maps/place/Masjid-e-Hazrat+Syedna+Ali/data=!4m7!3m6!1s0x3bd25b054f1b7477:0xbe5511ba6cbe653a!8m2!3d19.6844778!4d78.5344335!16s%2Fg%2F11h_488z3f!19sChIJd3QbTwVb0jsROmW-bLoRVb4?authuser=0&hl=en&rclk=1",
        "coordinates": {
            "latitude": 19.6844778,
            "longitude": 78.53443349999999
        }
    },
    {
        "name": "Osmania Masjid",
        "main_category": "Mosque",
        "address": "MGGH+J95 Osmania Masjid, Unnamed Road, Osmania Nagar, Adilabad, Telangana 504001",
        "detailed_address": {
            "ward": "Osmania Nagar",
            "street": "MGGH+J95, Unnamed Road",
            "city": "Adilabad",
            "postal_code": "504001",
            "state": "Telangana",
            "country_code": "IN"
        },
        "images": [
            {
                "about": "All",
                "link": "https://lh5.googleusercontent.com/p/AF1QipOgLPgilDhnBMSOoraKo7q8T-yHXPHAg8zG59U=w224-h398-k-no"
            },
            {
                "about": "Street View & 360deg",
                "link": "https://streetviewpixels-pa.googleapis.com/v1/thumbnail?panoid=EoqiZaPpb-kF9xf0s7PSRA&cb_client=maps_sv.tactile.gps&w=224&h=298&yaw=266.9312&pitch=0&thumbfov=100"
            },
            {
                "about": "Videos",
                "link": "https://lh5.googleusercontent.com/p/AF1QipOXyxlK9gp9H44QivPxSnikUt7LMXIaNFtye14L=w224-h398-k-no"
            }
        ],
        "link": "https://www.google.com/maps/place/Osmania+Masjid/data=!4m7!3m6!1s0x3bd25be4233f9883:0xb2c0a1b37d2b2191!8m2!3d19.6765118!4d78.5284822!16s%2Fg%2F11h76l8r35!19sChIJg5g_I-Rb0jsRkSErfbOhwLI?authuser=0&hl=en&rclk=1",
        "coordinates": {
            "latitude": 19.6765118,
            "longitude": 78.5284822
        }
    },
    {
        "name": "Jama masjid bela",
        "main_category": "Mosque",
        "address": "PQCC+JH9 Jama masjid bela, Bela, Telangana 504309",
        "detailed_address": {
            "ward": null,
            "street": "PQCC+JH9",
            "city": "Bela",
            "postal_code": "504309",
            "state": "Telangana",
            "country_code": "IN"
        },
        "images": [],
        "link": "https://www.google.com/maps/place/Jama+masjid+bela/data=!4m7!3m6!1s0x3bd2f1488630dd93:0xfcaa6b3e01b7e421!8m2!3d19.7215441!4d78.771485!16s%2Fg%2F11pzkgxv_6!19sChIJk90whkjx0jsRIeS3AT5rqvw?authuser=0&hl=en&rclk=1",
        "coordinates": {
            "latitude": 19.7215441,
            "longitude": 78.771485
        }
    },
    {
        "name": "Noori Masjid",
        "main_category": "Mosque",
        "address": "3F8M+CFJ Noori Masjid, Bellampalle, Kannal Rural, Telangana 504251",
        "detailed_address": {
            "ward": null,
            "street": "3F8M+CFJ",
            "city": "Bellampalle, Kannal Rural",
            "postal_code": "504251",
            "state": "Telangana",
            "country_code": "IN"
        },
        "images": [
            {
                "about": "All",
                "link": "https://lh5.googleusercontent.com/p/AF1QipM_mkMi2f-M131S-rKSFjwPYNwwBTOu6_Ezn_ho=w224-h298-k-no"
            },
            {
                "about": "Dome",
                "link": "https://lh5.googleusercontent.com/p/AF1QipM_mkMi2f-M131S-rKSFjwPYNwwBTOu6_Ezn_ho=w224-h298-k-no"
            }
        ],
        "link": "https://www.google.com/maps/place/Noori+Masjid/data=!4m7!3m6!1s0x3a32b184aa02b33f:0x94aeef8bbc03886b!8m2!3d19.0660901!4d79.4836267!16s%2Fg%2F11tmz9bq51!19sChIJP7MCqoSxMjoRa4gDvIvvrpQ?authuser=0&hl=en&rclk=1",
        "coordinates": {
            "latitude": 19.0660901,
            "longitude": 79.4836267
        }
    },
    {
        "name": "MADINA MASJID",
        "main_category": "Mosque",
        "address": "3F6J+VX8 MADINA MASJID, Bellampalle, Kannal Rural, Telangana 504251",
        "detailed_address": {
            "ward": null,
            "street": "3F6J+VX8",
            "city": "Bellampalle, Kannal Rural",
            "postal_code": "504251",
            "state": "Telangana",
            "country_code": "IN"
        },
        "images": [
            {
                "about": "All",
                "link": "https://streetviewpixels-pa.googleapis.com/v1/thumbnail?panoid=rNW2ZyNC9dyHEQpD8jmY5A&cb_client=maps_sv.tactile.gps&w=224&h=298&yaw=173.57703&pitch=0&thumbfov=100"
            },
            {
                "about": "Street View & 360deg",
                "link": "https://streetviewpixels-pa.googleapis.com/v1/thumbnail?panoid=rNW2ZyNC9dyHEQpD8jmY5A&cb_client=maps_sv.tactile.gps&w=224&h=298&yaw=173.57703&pitch=0&thumbfov=100"
            }
        ],
        "link": "https://www.google.com/maps/place/MADINA+MASJID/data=!4m7!3m6!1s0x3a32b1efce7442fd:0x32591dc6205d4f85!8m2!3d19.062165!4d79.482443!16s%2Fg%2F11g6mhtm8g!19sChIJ_UJ0zu-xMjoRhU9dIMYdWTI?authuser=0&hl=en&rclk=1",
        "coordinates": {
            "latitude": 19.062165,
            "longitude": 79.482443
        }
    },
    {
        "name": "Masjid E Hamza Ramnagar Adilabad",
        "main_category": "Mosque",
        "address": "MG4C+F8M Masjid E Hamza Ramnagar Adilabad, Ramnagar Colony, Adilabad, Telangana 504001",
        "detailed_address": {
            "ward": "Ramnagar Colony",
            "street": "MG4C+F8M",
            "city": "Adilabad",
            "postal_code": "504001",
            "state": "Telangana",
            "country_code": "IN"
        },
        "images": [
            {
                "about": "All",
                "link": "https://lh5.googleusercontent.com/p/AF1QipMRW53EtbPp0KQkknZM0Cs2hE_HSQK1Ls8ugcL3=w529-h298-k-no"
            }
        ],
        "link": "https://www.google.com/maps/place/Masjid+E+Hamza+Ramnagar+Adilabad/data=!4m7!3m6!1s0x3bd25d6d632224ef:0xc12bfcc836f7600c!8m2!3d19.6562608!4d78.5213636!16s%2Fg%2F11r_w2kkk1!19sChIJ7yQiY21d0jsRDGD3Nsj8K8E?authuser=0&hl=en&rclk=1",
        "coordinates": {
            "latitude": 19.6562608,
            "longitude": 78.5213636
        }
    },
    {
        "name": "Masjid E Umar",
        "main_category": "Mosque",
        "address": "PG3V+48M Masjid E Umar, Adilabad, Telangana 504001",
        "detailed_address": {
            "ward": null,
            "street": "PG3V+48M",
            "city": "Adilabad",
            "postal_code": null,
            "state": "Telangana",
            "country_code": "IN"
        },
        "images": [
            {
                "about": "All",
                "link": "https://lh5.googleusercontent.com/p/AF1QipMRxetyvCIdXc4JcBhq2rjy-CUAIlXaCgSz0Det=w224-h298-k-no"
            }
        ],
        "link": "https://www.google.com/maps/place/Masjid+E+Umar/data=!4m7!3m6!1s0x3bd25bdf0118b5d3:0x62b0f5a28ee4880c!8m2!3d19.7028448!4d78.5433019!16s%2Fg%2F11ns53vp9f!19sChIJ07UYAd9b0jsRDIjkjqL1sGI?authuser=0&hl=en&rclk=1",
        "coordinates": {
            "latitude": 19.702844799999998,
            "longitude": 78.5433019
        }
    },
    {
        "name": "Bellampally Dargah",
        "main_category": "Mosque",
        "address": "3F8V+MXR Bellampally Dargah, Shanthi khani, Bellampalle, Telangana 504251",
        "detailed_address": {
            "ward": "Shanthi khani",
            "street": "3F8V+MXR",
            "city": "Bellampalle",
            "postal_code": null,
            "state": "Telangana",
            "country_code": "IN"
        },
        "images": [
            {
                "about": "All",
                "link": "https://streetviewpixels-pa.googleapis.com/v1/thumbnail?panoid=nCyr1yAuV9J5Fai55V3rhA&cb_client=maps_sv.tactile.gps&w=224&h=298&yaw=289.80798&pitch=0&thumbfov=100"
            },
            {
                "about": "Street View & 360deg",
                "link": "https://streetviewpixels-pa.googleapis.com/v1/thumbnail?panoid=nCyr1yAuV9J5Fai55V3rhA&cb_client=maps_sv.tactile.gps&w=224&h=298&yaw=289.80798&pitch=0&thumbfov=100"
            }
        ],
        "link": "https://www.google.com/maps/place/Bellampally+Dargah/data=!4m7!3m6!1s0x3a32b1a9fdc32deb:0xde3cac4af84b6038!8m2!3d19.0667304!4d79.4948779!16s%2Fg%2F11kjgd810k!19sChIJ6y3D_amxMjoROGBL-EqsPN4?authuser=0&hl=en&rclk=1",
        "coordinates": {
            "latitude": 19.0667304,
            "longitude": 79.49487789999999
        }
    },
    {
        "name": "MD SAIF MOHAMMAD",
        "main_category": "Mosque",
        "address": "3F6V+W8P MD SAIF MOHAMMAD, Bellampalle, Telangana 504251",
        "detailed_address": {
            "ward": null,
            "street": "3F6V+W8P",
            "city": "Bellampalle",
            "postal_code": "504251",
            "state": "Telangana",
            "country_code": "IN"
        },
        "images": [
            {
                "about": "All",
                "link": "https://lh5.googleusercontent.com/p/AF1QipNTlW2_Le66AkniPf2gvzSQ2v1WT61lkq88DG6J=w224-h485-k-no"
            }
        ],
        "link": "https://www.google.com/maps/place/MD+SAIF+MOHAMMAD/data=!4m7!3m6!1s0x3a32b14676d329eb:0xb29441492f001296!8m2!3d19.0623419!4d79.493338!16s%2Fg%2F11t1m34g2t!19sChIJ6ynTdkaxMjoRlhIAL0lBlLI?authuser=0&hl=en&rclk=1",
        "coordinates": {
            "latitude": 19.0623419,
            "longitude": 79.493338
        }
    },
    {
        "name": "Masjid-E-ibraheem bin abbas",
        "main_category": "Mosque",
        "address": "MGGX+2JV Masjid-E-ibraheem bin abbas, Ambedkar Nagar, Adilabad, Telangana 504001",
        "detailed_address": {
            "ward": "Ambedkar Nagar",
            "street": "MGGX+2JV",
            "city": "Adilabad",
            "postal_code": "504001",
            "state": "Telangana",
            "country_code": "IN"
        },
        "images": [
            {
                "about": "All",
                "link": "https://streetviewpixels-pa.googleapis.com/v1/thumbnail?panoid=D7iqfKfSKXfcuAwi1cg2GQ&cb_client=maps_sv.tactile.gps&w=224&h=298&yaw=185.84955&pitch=0&thumbfov=100"
            },
            {
                "about": "Street View & 360deg",
                "link": "https://streetviewpixels-pa.googleapis.com/v1/thumbnail?panoid=D7iqfKfSKXfcuAwi1cg2GQ&cb_client=maps_sv.tactile.gps&w=224&h=298&yaw=185.84955&pitch=0&thumbfov=100"
            }
        ],
        "link": "https://www.google.com/maps/place/Masjid-E-ibraheem+bin+abbas/data=!4m7!3m6!1s0x3bd25dca817e57db:0x80929612f281e68c!8m2!3d19.6751132!4d78.5490388!16s%2Fg%2F11jz2dzlg7!19sChIJ21d-gcpd0jsRjOaB8hKWkoA?authuser=0&hl=en&rclk=1",
        "coordinates": {
            "latitude": 19.6751132,
            "longitude": 78.54903879999999
        }
    },
    {
        "name": "Masjid-E-Kausar",
        "main_category": "Mosque",
        "address": "MG8Q+6M8 Masjid-E-Kausar, Shanti Nagar, Adilabad, Telangana 504001",
        "detailed_address": {
            "ward": "Shanti Nagar",
            "street": "MG8Q+6M8",
            "city": "Adilabad",
            "postal_code": "504001",
            "state": "Telangana",
            "country_code": "IN"
        },
        "images": [
            {
                "about": "All",
                "link": "https://lh5.googleusercontent.com/p/AF1QipMu_hBLXfEJaMshLwRNSLhcAhS0GAp09HMIfTSl=w224-h497-k-no"
            },
            {
                "about": "Street View & 360deg",
                "link": "https://streetviewpixels-pa.googleapis.com/v1/thumbnail?panoid=msITvqvn7i8QMX0pUqt3mg&cb_client=maps_sv.tactile.gps&w=224&h=298&yaw=303.53305&pitch=0&thumbfov=100"
            }
        ],
        "link": "https://www.google.com/maps/place/Masjid-E-Kausar/data=!4m7!3m6!1s0x3bd25c726cbfffff:0xdcc8a30755b4260c!8m2!3d19.6655322!4d78.5391992!16s%2Fg%2F11txmzh9h_!19sChIJ__-_bHJc0jsRDCa0VQejyNw?authuser=0&hl=en&rclk=1",
        "coordinates": {
            "latitude": 19.665532199999998,
            "longitude": 78.5391992
        }
    },
    {
        "name": "Bilal masjid",
        "main_category": "Mosque",
        "address": "3FCR+JFF Bilal masjid, Bellampalle, Telangana 504251",
        "detailed_address": {
            "ward": null,
            "street": "3FCR+JFF",
            "city": "Bellampalle",
            "postal_code": "504251",
            "state": "Telangana",
            "country_code": "IN"
        },
        "images": [
            {
                "about": "All",
                "link": "https://streetviewpixels-pa.googleapis.com/v1/thumbnail?panoid=JUC_PBSRvWV_JRvADas-RQ&cb_client=maps_sv.tactile.gps&w=224&h=298&yaw=150.94923&pitch=0&thumbfov=100"
            },
            {
                "about": "Street View & 360deg",
                "link": "https://streetviewpixels-pa.googleapis.com/v1/thumbnail?panoid=JUC_PBSRvWV_JRvADas-RQ&cb_client=maps_sv.tactile.gps&w=224&h=298&yaw=150.94923&pitch=0&thumbfov=100"
            }
        ],
        "link": "https://www.google.com/maps/place/Bilal+masjid/data=!4m7!3m6!1s0x3a32b173bceb72cd:0x6207918c86c64f91!8m2!3d19.0715572!4d79.4911758!16s%2Fg%2F11f62g432g!19sChIJzXLrvHOxMjoRkU_GhoyRB2I?authuser=0&hl=en&rclk=1",
        "coordinates": {
            "latitude": 19.0715572,
            "longitude": 79.4911758
        }
    },
    {
        "name": "Masjid e Meena",
        "main_category": "Mosque",
        "address": "MGP9+8H Masjid e Meena, Gandi Nagar, Gandhi Nagar, Adilabad, Telangana 504001",
        "detailed_address": {
            "ward": "Gandi Nagar, Gandhi Nagar",
            "street": "MGP9+8H",
            "city": "Adilabad",
            "postal_code": "504001",
            "state": "Telangana",
            "country_code": "IN"
        },
        "images": [],
        "link": "https://www.google.com/maps/place/Masjid+e+Meena/data=!4m7!3m6!1s0x3bd25b2d5ed8222d:0x771014856dfdca9c!8m2!3d19.685762!4d78.5189931!16s%2Fg%2F11tw_8y348!19sChIJLSLYXi1b0jsRnMr9bYUUEHc?authuser=0&hl=en&rclk=1",
        "coordinates": {
            "latitude": 19.685762,
            "longitude": 78.5189931
        }
    },
    {
        "name": "masjid",
        "main_category": "Mosque",
        "address": "MGFX+R5C masjid, Ambedkar Nagar, Adilabad, Telangana 504001",
        "detailed_address": {
            "ward": "Ambedkar Nagar",
            "street": "MGFX+R5C",
            "city": "Adilabad",
            "postal_code": "504001",
            "state": "Telangana",
            "country_code": "IN"
        },
        "images": [
            {
                "about": "All",
                "link": "https://streetviewpixels-pa.googleapis.com/v1/thumbnail?panoid=D7iqfKfSKXfcuAwi1cg2GQ&cb_client=maps_sv.tactile.gps&w=224&h=298&yaw=189.52083&pitch=0&thumbfov=100"
            },
            {
                "about": "Street View & 360deg",
                "link": "https://streetviewpixels-pa.googleapis.com/v1/thumbnail?panoid=D7iqfKfSKXfcuAwi1cg2GQ&cb_client=maps_sv.tactile.gps&w=224&h=298&yaw=189.52083&pitch=0&thumbfov=100"
            }
        ],
        "link": "https://www.google.com/maps/place/masjid/data=!4m7!3m6!1s0x3bd25dea5bc85cff:0xa139fac0fe5bfbe8!8m2!3d19.6750538!4d78.549016!16s%2Fg%2F11tg1ql3mw!19sChIJ_1zIW-pd0jsR6Ptb_sD6OaE?authuser=0&hl=en&rclk=1",
        "coordinates": {
            "latitude": 19.6750538,
            "longitude": 78.549016
        }
    },
    {
        "name": "Masjid e Saleh",
        "main_category": "Mosque",
        "address": "X5W3+5FW Masjid e Saleh, bolishetty rajanna mro office, Dantepally, Telangana 504206",
        "detailed_address": {
            "ward": null,
            "street": "X5W3+5FW, bolishetty rajanna mro office",
            "city": "Dantepally",
            "postal_code": "504206",
            "state": "Telangana",
            "country_code": "IN"
        },
        "images": [],
        "link": "https://www.google.com/maps/place/Masjid+e+Saleh/data=!4m7!3m6!1s0x3bcd45dc06307c6d:0xb5279caa5d165fe6!8m2!3d18.9954959!4d79.1537098!16s%2Fg%2F11n258mlmb!19sChIJbXwwBtxFzTsR5l8WXaqcJ7U?authuser=0&hl=en&rclk=1",
        "coordinates": {
            "latitude": 18.995495899999998,
            "longitude": 79.1537098
        }
    },
    {
        "name": "Masjid-E-Ayesha",
        "main_category": "Mosque",
        "address": "MGCQ+XRX Masjid-E-Ayesha, Brahmanwadi, Adilabad, Telangana 504001",
        "detailed_address": {
            "ward": "Brahmanwadi",
            "street": "MGCQ+XRX",
            "city": "Adilabad",
            "postal_code": "504001",
            "state": "Telangana",
            "country_code": "IN"
        },
        "images": [
            {
                "about": "All",
                "link": "https://streetviewpixels-pa.googleapis.com/v1/thumbnail?panoid=YqXjyNOaI3g5Jh3x3oSrxA&cb_client=maps_sv.tactile.gps&w=224&h=298&yaw=50.078007&pitch=0&thumbfov=100"
            },
            {
                "about": "Street View & 360deg",
                "link": "https://streetviewpixels-pa.googleapis.com/v1/thumbnail?panoid=YqXjyNOaI3g5Jh3x3oSrxA&cb_client=maps_sv.tactile.gps&w=224&h=298&yaw=50.078007&pitch=0&thumbfov=100"
            }
        ],
        "link": "https://www.google.com/maps/place/Masjid-E-Ayesha/data=!4m7!3m6!1s0x3bd25c7445a55555:0xe3f8a99466fc71ef!8m2!3d19.6724753!4d78.5395986!16s%2Fg%2F11sscsfbvt!19sChIJVVWlRXRc0jsR73H8ZpSp-OM?authuser=0&hl=en&rclk=1",
        "coordinates": {
            "latitude": 19.6724753,
            "longitude": 78.53959859999999
        }
    },
    {
        "name": "Masjide Mera",
        "main_category": "Mosque",
        "address": "Masjide Mera, Police line, Old Housing Board Colony, Ravindra Nagar Colony, Adilabad, Telangana 504001",
        "detailed_address": {
            "ward": "Old Housing Board Colony, Ravindra Nagar Colony",
            "street": "Police line",
            "city": "Adilabad",
            "postal_code": null,
            "state": "Telangana",
            "country_code": "IN"
        },
        "images": [
            {
                "about": "All",
                "link": "https://lh5.googleusercontent.com/p/AF1QipMwv2OKN6XXxRKNV3Noz92Ic04S0WF_ErteN_3L=w529-h298-k-no"
            },
            {
                "about": "Street View & 360deg",
                "link": "https://streetviewpixels-pa.googleapis.com/v1/thumbnail?panoid=LoCFketqJm5KzAOMZ4QzRw&cb_client=maps_sv.tactile.gps&w=224&h=298&yaw=179.35318&pitch=0&thumbfov=100"
            }
        ],
        "link": "https://www.google.com/maps/place/Masjide+Mera/data=!4m7!3m6!1s0x3bd25d4f276d7737:0xfba7d6c285a2493a!8m2!3d19.6640624!4d78.5320107!16s%2Fg%2F11jt228q6b!19sChIJN3dtJ09d0jsROkmihcLWp_s?authuser=0&hl=en&rclk=1",
        "coordinates": {
            "latitude": 19.6640624,
            "longitude": 78.5320107
        }
    }
]