[
    {
        "name": "Jama Masjid",
        "main_category": "Mosque",
        "address": "MGGQ+F5Q Jama Masjid, Jama Masjid Rd, Mahalaxmiwada, Adilabad, Telangana 504001",
        "detailed_address": {
            "ward": "Mahalaxmiwada",
            "street": "MGGQ+F5Q, Jama Masjid Rd",
            "city": "Adilabad",
            "postal_code": "504001",
            "state": "Telangana",
            "country_code": "IN"
        },
        "images": [
            {
                "about": "All",
                "link": "https://lh5.googleusercontent.com/p/AF1QipNdTCCpjT4t2OBpBahpDVnWNKAVzB0u2qEZpKeP=w397-h298-k-no"
            },
            {
                "about": "Street View & 360deg",
                "link": "https://lh5.googleusercontent.com/p/AF1QipPo2PUhUk-_NBic66BHYz9HLRA1PuHJwnurxWHf=w224-h298-k-no-pi-20-ya349-ro-0-fo100"
            },
            {
                "about": "Videos",
                "link": "https://lh5.googleusercontent.com/p/AF1QipOuvlTWfYBRcdP6KLk4Jspx5n0H2HE1EEPHKZ33=w224-h398-k-no"
            }
        ],
        "link": "https://www.google.com/maps/place/Jama+Masjid/data=!4m7!3m6!1s0x3bd25c75f87e8a01:0x25a95ee1fbab37d0!8m2!3d19.6762137!4d78.5379985!16s%2Fg%2F1tlqnfwv!19sChIJAYp--HVc0jsR0Der--FeqSU?authuser=0&hl=en&rclk=1",
        "coordinates": {
            "latitude": 19.676213699999998,
            "longitude": 78.5379985
        }
    },
    {
        "name": "MADEENA MASJID ECHODA",
        "main_category": "Mosque",
        "address": "CFG3+256 MADEENA MASJID ECHODA, Ichoda, Telangana 504307",
        "detailed_address": {
            "ward": null,
            "street": "CFG3+256",
            "city": "Ichoda",
            "postal_code": "504307",
            "state": "Telangana",
            "country_code": "IN"
        },
        "images": [
            {
                "about": "All",
                "link": "https://lh5.googleusercontent.com/p/AF1QipMaPMXKDMaXjBrt-CwRr0A-q1_GzqhYBUUgB-zr=w224-h398-k-no"
            },
            {
                "about": "Latest",
                "link": "https://lh5.googleusercontent.com/p/AF1QipMaPMXKDMaXjBrt-CwRr0A-q1_GzqhYBUUgB-zr=w224-h398-k-no"
            },
            {
                "about": "Street View & 360deg",
                "link": "https://streetviewpixels-pa.googleapis.com/v1/thumbnail?panoid=4SLl4VxlHGbx5vpHkVmUHg&cb_client=maps_sv.tactile.gps&w=224&h=298&yaw=147.98671&pitch=0&thumbfov=100"
            }
        ],
        "link": "https://www.google.com/maps/place/MADEENA+MASJID+ECHODA/data=!4m7!3m6!1s0x3bd26f98044820f1:0xb0592db733389086!8m2!3d19.42503!4d78.4529037!16s%2Fg%2F11c3tqr4t1!19sChIJ8SBIBJhv0jsRhpA4M7ctWbA?authuser=0&hl=en&rclk=1",
        "coordinates": {
            "latitude": 19.42503,
            "longitude": 78.4529037
        }
    },
    {
        "name": "Jama Masjid",
        "main_category": "Mosque",
        "address": "GJ2X+6JW Jama Masjid, Keslaguda, Telangana 504346",
        "detailed_address": {
            "ward": null,
            "street": "GJ2X+6JW",
            "city": "Keslaguda",
            "postal_code": "504346",
            "state": "Telangana",
            "country_code": "IN"
        },
        "images": [
            {
                "about": "All",
                "link": "https://lh5.googleusercontent.com/p/AF1QipN0HZ51NRJkhkwSqN51m6sbD_Y7qWZ52LqyBxAQ=w224-h398-k-no"
            }
        ],
        "link": "https://www.google.com/maps/place/Jama+Masjid/data=!4m7!3m6!1s0x3bd261f970258be5:0x54b1787a0dcfac1b!8m2!3d19.5006085!4d78.6490645!16s%2Fg%2F11b6c8wzlm!19sChIJ5YslcPlh0jsRG6zPDXp4sVQ?authuser=0&hl=en&rclk=1",
        "coordinates": {
            "latitude": 19.5006085,
            "longitude": 78.6490645
        }
    },
    {
        "name": "Jama Masjid Bazar Hathnoor",
        "main_category": "Mosque",
        "address": "F952+7MR Jama Masjid Bazar Hathnoor, Bazarhatnoor, Telangana 504304",
        "detailed_address": {
            "ward": null,
            "street": "F952+7MR",
            "city": "Bazarhatnoor",
            "postal_code": "504304",
            "state": "Telangana",
            "country_code": "IN"
        },
        "images": [],
        "link": "https://www.google.com/maps/place/Jama+Masjid+Bazar+Hathnoor/data=!4m7!3m6!1s0x3bd26c68c7cf939b:0xc6ede85c8413c632!8m2!3d19.4582258!4d78.3516474!16s%2Fg%2F11gdqfb5kj!19sChIJm5PPx2hs0jsRMsYThFzo7cY?authuser=0&hl=en&rclk=1",
        "coordinates": {
            "latitude": 19.458225799999997,
            "longitude": 78.35164739999999
        }
    },
    {
        "name": "Makka Masjid",
        "main_category": "Mosque",
        "address": "CFG3+QPG Makka Masjid, Ichoda, Telangana 504307",
        "detailed_address": {
            "ward": null,
            "street": "CFG3+QPG",
            "city": "Ichoda",
            "postal_code": "504307",
            "state": "Telangana",
            "country_code": "IN"
        },
        "images": [
            {
                "about": "All",
                "link": "https://lh5.googleusercontent.com/p/AF1QipMbXDp4an-5Ck3M1LeVWRN4IXm4KdVBr-_B4B5B=w397-h298-k-no"
            },
            {
                "about": "Street View & 360deg",
                "link": "https://streetviewpixels-pa.googleapis.com/v1/thumbnail?panoid=0CeQHIkPttv4CoiA8RxDrA&cb_client=maps_sv.tactile.gps&w=224&h=298&yaw=52.33259&pitch=0&thumbfov=100"
            }
        ],
        "link": "https://www.google.com/maps/place/Makka+Masjid/data=!4m7!3m6!1s0x3bd26f985b7ba91f:0xff30f7087fea8336!8m2!3d19.4269309!4d78.4543422!16s%2Fg%2F11fxx3q066!19sChIJH6l7W5hv0jsRNoPqfwj3MP8?authuser=0&hl=en&rclk=1",
        "coordinates": {
            "latitude": 19.4269309,
            "longitude": 78.4543422
        }
    },
    {
        "name": "Masjid -e- Dawathul Haq",
        "main_category": "Mosque",
        "address": "CFH2+G89 Masjid -e- Dawathul Haq, Ichoda Main Rd, Ichoda, Telangana 504307",
        "detailed_address": {
            "ward": null,
            "street": "CFH2+G89, Ichoda Main Rd",
            "city": "Ichoda",
            "postal_code": "504307",
            "state": "Telangana",
            "country_code": "IN"
        },
        "images": [
            {
                "about": "All",
                "link": "https://streetviewpixels-pa.googleapis.com/v1/thumbnail?panoid=TlJx0UgEp8ZpimzC7GcfQA&cb_client=maps_sv.tactile.gps&w=224&h=298&yaw=212.80678&pitch=0&thumbfov=100"
            },
            {
                "about": "Street View & 360deg",
                "link": "https://streetviewpixels-pa.googleapis.com/v1/thumbnail?panoid=TlJx0UgEp8ZpimzC7GcfQA&cb_client=maps_sv.tactile.gps&w=224&h=298&yaw=212.80678&pitch=0&thumbfov=100"
            }
        ],
        "link": "https://www.google.com/maps/place/Masjid+-e-+Dawathul+Haq/data=!4m7!3m6!1s0x3bd26fa240811f53:0x84ebb182ea5a35e4!8m2!3d19.4287993!4d78.4508528!16s%2Fg%2F11b75hw8dx!19sChIJUx-BQKJv0jsR5DVa6oKx64Q?authuser=0&hl=en&rclk=1",
        "coordinates": {
            "latitude": 19.428799299999998,
            "longitude": 78.45085279999999
        }
    },
    {
        "name": "JAMMA-E-MASJID",
        "main_category": "Mosque",
        "address": "7CX4+86J JAMMA-E-MASJID, Neradigonda 2, Telangana 504323",
        "detailed_address": {
            "ward": null,
            "street": "7CX4+86J",
            "city": "Neradigonda 2",
            "postal_code": "504323",
            "state": "Telangana",
            "country_code": "IN"
        },
        "images": [
            {
                "about": "All",
                "link": "https://streetviewpixels-pa.googleapis.com/v1/thumbnail?panoid=0K7VXaVStnwlxCK78AQ-jA&cb_client=maps_sv.tactile.gps&w=224&h=298&yaw=260.8777&pitch=0&thumbfov=100"
            },
            {
                "about": "Street View & 360deg",
                "link": "https://streetviewpixels-pa.googleapis.com/v1/thumbnail?panoid=0K7VXaVStnwlxCK78AQ-jA&cb_client=maps_sv.tactile.gps&w=224&h=298&yaw=260.8777&pitch=0&thumbfov=100"
            }
        ],
        "link": "https://www.google.com/maps/place/JAMMA-E-MASJID/data=!4m7!3m6!1s0x3bd2714a1f9ceb83:0xaeacfbdd07ea5319!8m2!3d19.2983415!4d78.4055211!16s%2Fg%2F11c2nkk_c_!19sChIJg-ucH0px0jsRGVPqB937rK4?authuser=0&hl=en&rclk=1",
        "coordinates": {
            "latitude": 19.2983415,
            "longitude": 78.4055211
        }
    },
    {
        "name": "Masjid E Umar Farooq",
        "main_category": "Mosque",
        "address": "CFG3+GFW Masjid E Umar Farooq, Ichoda, Telangana 504307",
        "detailed_address": {
            "ward": null,
            "street": "CFG3+GFW",
            "city": "Ichoda",
            "postal_code": "504307",
            "state": "Telangana",
            "country_code": "IN"
        },
        "images": [
            {
                "about": "All",
                "link": "https://streetviewpixels-pa.googleapis.com/v1/thumbnail?panoid=pvhLvJh4lJ2Ptton9FogZg&cb_client=maps_sv.tactile.gps&w=224&h=298&yaw=230.99861&pitch=0&thumbfov=100"
            },
            {
                "about": "Street View & 360deg",
                "link": "https://streetviewpixels-pa.googleapis.com/v1/thumbnail?panoid=pvhLvJh4lJ2Ptton9FogZg&cb_client=maps_sv.tactile.gps&w=224&h=298&yaw=230.99861&pitch=0&thumbfov=100"
            }
        ],
        "link": "https://www.google.com/maps/place/Masjid+E+Umar+Farooq/data=!4m7!3m6!1s0x3bd26f986a32f5f1:0xa79367774c71be95!8m2!3d19.4263502!4d78.4537135!16s%2Fg%2F11f03zm31b!19sChIJ8fUyaphv0jsRlb5xTHdnk6c?authuser=0&hl=en&rclk=1",
        "coordinates": {
            "latitude": 19.426350199999998,
            "longitude": 78.45371349999999
        }
    },
    {
        "name": "EIDGAH JAMA MASJID SWARNA",
        "main_category": "Mosque",
        "address": "EIDGAH JAMA MASJID SWARNA, Sarangapur Mandal, Ponkur, Telangana 504323",
        "detailed_address": {
            "ward": null,
            "street": "Sarangapur Mandal",
            "city": "Ponkur",
            "postal_code": "504323",
            "state": "Telangana",
            "country_code": "IN"
        },
        "images": [],
        "link": "https://www.google.com/maps/place/EIDGAH+JAMA+MASJID+SWARNA/data=!4m7!3m6!1s0x3bd20bc4554a1a21:0x8dd0f4fa4f16d3e4!8m2!3d19.2482263!4d78.2163682!16s%2Fg%2F11fy_5_fhk!19sChIJIRpKVcQL0jsR5NMWT_r00I0?authuser=0&hl=en&rclk=1",
        "coordinates": {
            "latitude": 19.2482263,
            "longitude": 78.21636819999999
        }
    },
    {
        "name": "MOHAMMAD IS MASJID",
        "main_category": "Mosque",
        "address": "GHF6+VQ6 MOHAMMAD IS MASJID, Tosham, Telangana 504308",
        "detailed_address": {
            "ward": null,
            "street": "GHF6+VQ6",
            "city": "Tosham",
            "postal_code": "504308",
            "state": "Telangana",
            "country_code": "IN"
        },
        "images": [
            {
                "about": "All",
                "link": "https://streetviewpixels-pa.googleapis.com/v1/thumbnail?panoid=3hanlZKeEXtEez01i40Exg&cb_client=maps_sv.tactile.gps&w=224&h=298&yaw=150.16168&pitch=0&thumbfov=100"
            },
            {
                "about": "Street View & 360deg",
                "link": "https://streetviewpixels-pa.googleapis.com/v1/thumbnail?panoid=3hanlZKeEXtEez01i40Exg&cb_client=maps_sv.tactile.gps&w=224&h=298&yaw=150.16168&pitch=0&thumbfov=100"
            }
        ],
        "link": "https://www.google.com/maps/place/MOHAMMAD+IS+MASJID/data=!4m7!3m6!1s0x3bd267780b316d2b:0x43def7ea72223fa!8m2!3d19.5246611!4d78.5618857!16s%2Fg%2F11fjyxlpk6!19sChIJK20xC3hn0jsR-iMip37vPQQ?authuser=0&hl=en&rclk=1",
        "coordinates": {
            "latitude": 19.5246611,
            "longitude": 78.56188569999999
        }
    },
    {
        "name": "Jama masjid",
        "main_category": "Mosque",
        "address": "CFH3+8WC Jama masjid, Ichoda, Telangana 504307",
        "detailed_address": {
            "ward": null,
            "street": "CFH3+8WC",
            "city": "Ichoda",
            "postal_code": "504307",
            "state": "Telangana",
            "country_code": "IN"
        },
        "images": [
            {
                "about": "All",
                "link": "https://lh5.googleusercontent.com/p/AF1QipPwixJGN6XaZGjGCl9QfIMgJo5pjuEhrxNHkxPN=w529-h298-k-no"
            }
        ],
        "link": "https://www.google.com/maps/place/Jama+masjid/data=!4m7!3m6!1s0x3bd26fcb3b2536e3:0x24b38adada85879e!8m2!3d19.4283175!4d78.454781!16s%2Fg%2F11ppybzh_0!19sChIJ4zYlO8tv0jsRnoeF2tqKsyQ?authuser=0&hl=en&rclk=1",
        "coordinates": {
            "latitude": 19.4283175,
            "longitude": 78.454781
        }
    },
    {
        "name": "JAMA MASJID",
        "main_category": "Mosque",
        "address": "9829+4GF JAMA MASJID, Boath Buzurg, Telangana 504304",
        "detailed_address": {
            "ward": null,
            "street": "9829+4GF",
            "city": "Boath Buzurg",
            "postal_code": "504304",
            "state": "Telangana",
            "country_code": "IN"
        },
        "images": [
            {
                "about": "All",
                "link": "https://lh5.googleusercontent.com/p/AF1QipOMyYwCT_py64TUYE8118nl1Ch8zhvgA1OvLcN8=w224-h298-k-no"
            }
        ],
        "link": "https://www.google.com/maps/place/JAMA+MASJID/data=!4m7!3m6!1s0x3bd272e975f77229:0x9b59ab055d5647d2!8m2!3d19.3503023!4d78.3188004!16s%2Fg%2F11fy9g9qym!19sChIJKXL3dely0jsR0kdWXQWrWZs?authuser=0&hl=en&rclk=1",
        "coordinates": {
            "latitude": 19.3503023,
            "longitude": 78.3188004
        }
    },
    {
        "name": "Masjid e Abubakar Siddiqe Rz (Ahle Hadees)",
        "main_category": "Mosque",
        "address": "66W7+CXQ Masjid e Abubakar Siddiqe Rz (Ahle Hadees), Swarna, Ponkur, Telangana 504323",
        "detailed_address": {
            "ward": null,
            "street": "66W7+CXQ",
            "city": "Swarna, Ponkur",
            "postal_code": "504323",
            "state": "Telangana",
            "country_code": "IN"
        },
        "images": [
            {
                "about": "All",
                "link": "https://lh5.googleusercontent.com/p/AF1QipPQk2lRWhe8emaAQZUGGILpspwux0r2nLNHcQzZ=w529-h298-k-no"
            }
        ],
        "link": "https://www.google.com/maps/place/Masjid+e+Abubakar+Siddiqe+Rz+%28Ahle+Hadees%29/data=!4m7!3m6!1s0x3bd20b47175f92cd:0xcb2bb92ffbba3442!8m2!3d19.2460903!4d78.2149797!16s%2Fg%2F11s0xl6zg7!19sChIJzZJfF0cL0jsRQjS6-y-5K8s?authuser=0&hl=en&rclk=1",
        "coordinates": {
            "latitude": 19.2460903,
            "longitude": 78.2149797
        }
    },
    {
        "name": "Jama MaSjid",
        "main_category": "Mosque",
        "address": "69HV+CH5 Jama MaSjid, Bondemregod, Telangana 504323",
        "detailed_address": {
            "ward": null,
            "street": "69HV+CH5",
            "city": "Bondemregod",
            "postal_code": "504323",
            "state": "Telangana",
            "country_code": "IN"
        },
        "images": [
            {
                "about": "All",
                "link": "https://streetviewpixels-pa.googleapis.com/v1/thumbnail?panoid=5IDFwXyZAkOKMUPWYx9Trg&cb_client=maps_sv.tactile.gps&w=224&h=298&yaw=237.50278&pitch=0&thumbfov=100"
            },
            {
                "about": "Street View & 360deg",
                "link": "https://streetviewpixels-pa.googleapis.com/v1/thumbnail?panoid=5IDFwXyZAkOKMUPWYx9Trg&cb_client=maps_sv.tactile.gps&w=224&h=298&yaw=237.50278&pitch=0&thumbfov=100"
            }
        ],
        "link": "https://www.google.com/maps/place/Jama+MaSjid/data=!4m7!3m6!1s0x3bd2767193830f55:0xb6bc8cfd60a42707!8m2!3d19.2285041!4d78.393985!16s%2Fg%2F11gf071m2m!19sChIJVQ-Dk3F20jsRByekYP2MvLY?authuser=0&hl=en&rclk=1",
        "coordinates": {
            "latitude": 19.2285041,
            "longitude": 78.393985
        }
    },
    {
        "name": "Masjid",
        "main_category": "Mosque",
        "address": "99C5+Q23 Masjid, Unnamed Road, Kouta, Telangana 504304",
        "detailed_address": {
            "ward": null,
            "street": "99C5+Q23, Unnamed Road",
            "city": "Kouta",
            "postal_code": "504304",
            "state": "Telangana",
            "country_code": "IN"
        },
        "images": [
            {
                "about": "All",
                "link": "https://lh5.googleusercontent.com/p/AF1QipPaWWNNj7mw3JWm3BOCjVqNaAKc4vaTmfEl6Nnt=w224-h497-k-no"
            },
            {
                "about": "Videos",
                "link": "https://lh5.googleusercontent.com/p/AF1QipOLHOGqND_x-SEzKVG_SPhg0rumrajWzQqSsBuD=w224-h398-k-no"
            }
        ],
        "link": "https://www.google.com/maps/place/Masjid/data=!4m7!3m6!1s0x3bd273b7fe3f089d:0x6f89811a9f3116dc!8m2!3d19.3718832!4d78.3575559!16s%2Fg%2F11rclc79ch!19sChIJnQg__rdz0jsR3BYxnxqBiW8?authuser=0&hl=en&rclk=1",
        "coordinates": {
            "latitude": 19.3718832,
            "longitude": 78.3575559
        }
    },
    {
        "name": "Jama masjid",
        "main_category": "Mosque",
        "address": "9C9X+FR5 Jama masjid, Mukhra-B, Telangana 504307",
        "detailed_address": {
            "ward": null,
            "street": "9C9X+FR5",
            "city": "Mukhra-B",
            "postal_code": "504307",
            "state": "Telangana",
            "country_code": "IN"
        },
        "images": [
            {
                "about": "All",
                "link": "https://lh5.googleusercontent.com/p/AF1QipPdk6DLZacTN24R5V0MWWPyikO_-g5eCf0KiQzb=w529-h298-k-no"
            }
        ],
        "link": "https://www.google.com/maps/place/Jama+masjid/data=!4m7!3m6!1s0x3bd271baede69955:0x5d9ae47fedd0e556!8m2!3d19.3686472!4d78.4496168!16s%2Fg%2F11qb3ykyy3!19sChIJVZnm7bpx0jsRVuXQ7X_kml0?authuser=0&hl=en&rclk=1",
        "coordinates": {
            "latitude": 19.368647199999998,
            "longitude": 78.4496168
        }
    },
    {
        "name": "Masjid-e-ubaidullah",
        "main_category": "Mosque",
        "address": "6763+MPH Masjid-e-ubaidullah, Sarangpur, Telangana 504110",
        "detailed_address": {
            "ward": null,
            "street": "6763+MPH",
            "city": "Sarangpur",
            "postal_code": null,
            "state": "Telangana",
            "country_code": "IN"
        },
        "images": [],
        "link": "https://www.google.com/maps/place/Masjid-e-ubaidullah/data=!4m7!3m6!1s0x3bd20b252120dd91:0x7c73203f3c9c251a!8m2!3d19.2116901!4d78.2543469!16s%2Fg%2F11t9pbrlmq!19sChIJkd0gISUL0jsRGiWcPD8gc3w?authuser=0&hl=en&rclk=1",
        "coordinates": {
            "latitude": 19.2116901,
            "longitude": 78.2543469
        }
    },
    {
        "name": "Gulzar masjid",
        "main_category": "Mosque",
        "address": "88W7+PVX Gulzar masjid, beside Gulzaar Masjid, Boath Buzurg, Telangana 504304",
        "detailed_address": {
            "ward": null,
            "street": "88W7+PVX, beside Gulzaar Masjid",
            "city": "Boath Buzurg",
            "postal_code": "504304",
            "state": "Telangana",
            "country_code": "IN"
        },
        "images": [],
        "link": "https://www.google.com/maps/place/Gulzar+masjid/data=!4m7!3m6!1s0x3bd27302c48930b5:0xd6f8a49697d95467!8m2!3d19.3468045!4d78.3147885!16s%2Fg%2F11s8y5s4b7!19sChIJtTCJxAJz0jsRZ1TZl5ak-NY?authuser=0&hl=en&rclk=1",
        "coordinates": {
            "latitude": 19.346804499999998,
            "longitude": 78.31478849999999
        }
    },
    {
        "name": "MASJID",
        "main_category": "Mosque",
        "address": "88VH+QXG MASJID, Boath Buzurg, Telangana 504304",
        "detailed_address": {
            "ward": null,
            "street": "88VH+QXG",
            "city": "Boath Buzurg",
            "postal_code": "504304",
            "state": "Telangana",
            "country_code": "IN"
        },
        "images": [],
        "link": "https://www.google.com/maps/place/MASJID/data=!4m7!3m6!1s0x3bd273a5ccb6c791:0xf37853e1363ccaa0!8m2!3d19.344726!4d78.330825!16s%2Fg%2F11snwzzbc5!19sChIJkce2zKVz0jsRoMo8NuFTePM?authuser=0&hl=en&rclk=1",
        "coordinates": {
            "latitude": 19.344725999999998,
            "longitude": 78.33082499999999
        }
    },
    {
        "name": "Masjid e Umar",
        "main_category": "Mosque",
        "address": "88W9+PMV Masjid e Umar, Boath Buzurg, Telangana 504304",
        "detailed_address": {
            "ward": null,
            "street": "88W9+PMV",
            "city": "Boath Buzurg",
            "postal_code": "504304",
            "state": "Telangana",
            "country_code": "IN"
        },
        "images": [],
        "link": "https://www.google.com/maps/place/Masjid+e+Umar/data=!4m7!3m6!1s0x3bd273af0b80cd5d:0x4344839cf7d24f12!8m2!3d19.3467375!4d78.319247!16s%2Fg%2F11t7b7gxtw!19sChIJXc2AC69z0jsREk_S95yDREM?authuser=0&hl=en&rclk=1",
        "coordinates": {
            "latitude": 19.3467375,
            "longitude": 78.31924699999999
        }
    },
    {
        "name": "Masjid e Aqsa",
        "main_category": "Mosque",
        "address": "9CPV+55W Masjid e Aqsa, Islamnagar, Telangana 504307",
        "detailed_address": {
            "ward": null,
            "street": "9CPV+55W",
            "city": "Islamnagar",
            "postal_code": "504307",
            "state": "Telangana",
            "country_code": "IN"
        },
        "images": [],
        "link": "https://www.google.com/maps/place/Masjid+e+Aqsa/data=!4m7!3m6!1s0x3bd271c95b560a13:0xeac4c3253af1fd04!8m2!3d19.3854802!4d78.4429394!16s%2Fg%2F11vdh6g0fk!19sChIJEwpWW8lx0jsRBP3xOiXDxOo?authuser=0&hl=en&rclk=1",
        "coordinates": {
            "latitude": 19.3854802,
            "longitude": 78.4429394
        }
    },
    {
        "name": "Eid Gah and muslim burial ground",
        "main_category": "Mosque",
        "address": "F942+CJP Eid Gah and muslim burial ground, Bazarhatnoor Rd, Bazarhatnoor, Telangana 504304",
        "detailed_address": {
            "ward": null,
            "street": "F942+CJP, Bazarhatnoor Rd",
            "city": "Bazarhatnoor",
            "postal_code": "504304",
            "state": "Telangana",
            "country_code": "IN"
        },
        "images": [],
        "link": "https://www.google.com/maps/place/Eid+Gah+and+muslim+burial+ground/data=!4m7!3m6!1s0x3bd26c68f55bd4df:0x37802d22bc216b99!8m2!3d19.4560996!4d78.3515659!16s%2Fg%2F11cmv2275y!19sChIJ39Rb9Whs0jsRmWshvCItgDc?authuser=0&hl=en&rclk=1",
        "coordinates": {
            "latitude": 19.456099599999998,
            "longitude": 78.3515659
        }
    },
    {
        "name": "JAMA MASJID SONALA",
        "main_category": "Mosque",
        "address": "C898+5MG JAMA MASJID SONALA, Sonala, Telangana 504304",
        "detailed_address": {
            "ward": null,
            "street": "C898+5MG",
            "city": "Sonala",
            "postal_code": "504304",
            "state": "Telangana",
            "country_code": "IN"
        },
        "images": [
            {
                "about": "All",
                "link": "https://lh5.googleusercontent.com/p/AF1QipN9SSvlpo20wl_bWKlJQhHmp1twWJalwOPumS3E=w224-h443-k-no"
            }
        ],
        "link": "https://www.google.com/maps/place/JAMA+MASJID+SONALA/data=!4m7!3m6!1s0x3bd26d23b3215fe7:0x2ecf57cb2074d1c0!8m2!3d19.4179334!4d78.3166892!16s%2Fg%2F11p1048s3j!19sChIJ518hsyNt0jsRwNF0IMtXzy4?authuser=0&hl=en&rclk=1",
        "coordinates": {
            "latitude": 19.4179334,
            "longitude": 78.3166892
        }
    },
    {
        "name": "MASJID SHANTAPUR",
        "main_category": "Mosque",
        "address": "FGFP+C5C MASJID SHANTAPUR, Gudihathnoor Mandal, Shantapur, Telangana 504308",
        "detailed_address": {
            "ward": null,
            "street": "FGFP+C5C Gudihathnoor Mandal",
            "city": "Shantapur",
            "postal_code": "504308",
            "state": "Telangana",
            "country_code": "IN"
        },
        "images": [],
        "link": "https://www.google.com/maps/place/MASJID+SHANTAPUR/data=!4m7!3m6!1s0x3bd2654db6a04cab:0xf7f3553ee06f6434!8m2!3d19.4739955!4d78.5351779!16s%2Fg%2F11tgc9r3cf!19sChIJq0ygtk1l0jsRNGRv4D5V8_c?authuser=0&hl=en&rclk=1",
        "coordinates": {
            "latitude": 19.473995499999997,
            "longitude": 78.5351779
        }
    }
]