[
    {
        "name": "Dhupguri Jame Masjid",
        "main_category": "Mosque",
        "address": "H2Q4+8X8 Dhupguri Jame Masjid, Dhupguri, West Bengal 735210",
        "detailed_address": {
            "ward": null,
            "street": "H2Q4+8X8",
            "city": "Dhupguri",
            "postal_code": "735210",
            "state": "West Bengal",
            "country_code": "IN"
        },
        "images": [
            {
                "about": "All",
                "link": "https://lh5.googleusercontent.com/p/AF1QipMQj4emLpclu7w319hPFI23DH2xLbqil0wNVdy_=w224-h298-k-no"
            },
            {
                "about": "Street View & 360deg",
                "link": "https://streetviewpixels-pa.googleapis.com/v1/thumbnail?panoid=pRnvcvNni7rjQlsgpT1niw&cb_client=maps_sv.tactile.gps&w=224&h=298&yaw=224.459&pitch=0&thumbfov=100"
            }
        ],
        "link": "https://www.google.com/maps/place/Dhupguri+Jame+Masjid/data=!4m7!3m6!1s0x39e39a10be85323d:0x388e6c6594c14388!8m2!3d26.588278!4d89.0074455!16s%2Fg%2F11c59wdy8f!19sChIJPTKFvhCa4zkRiEPBlGVsjjg?authuser=0&hl=en&rclk=1",
        "coordinates": {
            "latitude": 26.588278,
            "longitude": 89.0074455
        }
    },
    {
        "name": "Utter Boragari Jumma Masjid",
        "main_category": "Religious organization",
        "address": "H2G8+H3J Utter Boragari Jumma Masjid, Masjid Para Rd, Hothat Colony, Masjid Para, Dhupguri, West Bengal 735210",
        "detailed_address": {
            "ward": "Hothat Colony, Masjid Para",
            "street": "H2G8+H3J, Masjid Para Rd",
            "city": "Dhupguri",
            "postal_code": "735210",
            "state": "West Bengal",
            "country_code": "IN"
        },
        "images": [
            {
                "about": "All",
                "link": "https://lh5.googleusercontent.com/p/AF1QipNNFPprab1r5vMV7POvKxe5REsm0mje5lIbLoqX=w529-h298-k-no"
            }
        ],
        "link": "https://www.google.com/maps/place/Utter+Boragari+Jumma+Masjid/data=!4m7!3m6!1s0x39e39a21258d2a87:0x22157deef990b80a!8m2!3d26.5764554!4d89.0151268!16s%2Fg%2F11c6ljd1y1!19sChIJhyqNJSGa4zkRCriQ-e59FSI?authuser=0&hl=en&rclk=1",
        "coordinates": {
            "latitude": 26.5764554,
            "longitude": 89.01512679999999
        }
    },
    {
        "name": "Masjid",
        "main_category": "Mosque",
        "address": "H2CM+XPC Masjid, College Para, Dhupguri, West Bengal 735210",
        "detailed_address": {
            "ward": "College Para",
            "street": "H2CM+XPC",
            "city": "Dhupguri",
            "postal_code": "735210",
            "state": "West Bengal",
            "country_code": "IN"
        },
        "images": [
            {
                "about": "All",
                "link": "https://streetviewpixels-pa.googleapis.com/v1/thumbnail?panoid=-VXHGvYi3Bo7pXbLGw8ExA&cb_client=maps_sv.tactile.gps&w=224&h=298&yaw=193.83179&pitch=0&thumbfov=100"
            },
            {
                "about": "Street View & 360deg",
                "link": "https://streetviewpixels-pa.googleapis.com/v1/thumbnail?panoid=-VXHGvYi3Bo7pXbLGw8ExA&cb_client=maps_sv.tactile.gps&w=224&h=298&yaw=193.83179&pitch=0&thumbfov=100"
            }
        ],
        "link": "https://www.google.com/maps/place/Masjid/data=!4m7!3m6!1s0x39e399970273d5db:0xda0b4f9730009489!8m2!3d26.5724407!4d89.0342673!16s%2Fg%2F11c6dls3h4!19sChIJ29VzApeZ4zkRiZQAMJdPC9o?authuser=0&hl=en&rclk=1",
        "coordinates": {
            "latitude": 26.572440699999998,
            "longitude": 89.0342673
        }
    },
    {
        "name": "Puktari masjid",
        "main_category": "Mosque",
        "address": "J222+7J9 Puktari masjid, Purba Magurmari, Dhupguri, West Bengal 735210",
        "detailed_address": {
            "ward": null,
            "street": "J222+7J9",
            "city": "Purba Magurmari, Dhupguri",
            "postal_code": "735210",
            "state": "West Bengal",
            "country_code": "IN"
        },
        "images": [
            {
                "about": "All",
                "link": "https://streetviewpixels-pa.googleapis.com/v1/thumbnail?panoid=uEkrBUlpGvV9_1DRtrwdRA&cb_client=maps_sv.tactile.gps&w=224&h=298&yaw=86.62249&pitch=0&thumbfov=100"
            },
            {
                "about": "Street View & 360deg",
                "link": "https://streetviewpixels-pa.googleapis.com/v1/thumbnail?panoid=uEkrBUlpGvV9_1DRtrwdRA&cb_client=maps_sv.tactile.gps&w=224&h=298&yaw=86.62249&pitch=0&thumbfov=100"
            }
        ],
        "link": "https://www.google.com/maps/place/Puktari+masjid/data=!4m7!3m6!1s0x39e39b082bcd9fdd:0xd31b622dd2b337b2!8m2!3d26.6006599!4d89.0016114!16s%2Fg%2F11vbkd14bf!19sChIJ3Z_NKwib4zkRsjez0i1iG9M?authuser=0&hl=en&rclk=1",
        "coordinates": {
            "latitude": 26.6006599,
            "longitude": 89.0016114
        }
    },
    {
        "name": "MIRPARA JAMA MASJID",
        "main_category": "Mosque",
        "address": "H2P5+94X MIRPARA JAMA MASJID, Dakshin Bhakuria , MIRPARA, West Bengal 732125",
        "detailed_address": {
            "ward": "Ghosh Para",
            "street": "H2P5+94X, Dakshin Bhakuria , MIRPARA",
            "city": "Dhupguri",
            "postal_code": "732125",
            "state": "West Bengal",
            "country_code": "IN"
        },
        "images": [
            {
                "about": "All",
                "link": "https://streetviewpixels-pa.googleapis.com/v1/thumbnail?panoid=4YIaE5SntLJfGnNonybD0w&cb_client=maps_sv.tactile.gps&w=224&h=298&yaw=85.27915&pitch=0&thumbfov=100"
            },
            {
                "about": "Street View & 360deg",
                "link": "https://streetviewpixels-pa.googleapis.com/v1/thumbnail?panoid=4YIaE5SntLJfGnNonybD0w&cb_client=maps_sv.tactile.gps&w=224&h=298&yaw=85.27915&pitch=0&thumbfov=100"
            }
        ],
        "link": "https://www.google.com/maps/place/MIRPARA+JAMA+MASJID/data=!4m7!3m6!1s0x39e39beb43f768f9:0x84912189330f6e1a!8m2!3d26.5859985!4d89.0078673!16s%2Fg%2F11pv3041k3!19sChIJ-Wj3Q-ub4zkRGm4PM4khkYQ?authuser=0&hl=en&rclk=1",
        "coordinates": {
            "latitude": 26.5859985,
            "longitude": 89.0078673
        }
    },
    {
        "name": "Masjid para",
        "main_category": "Place of worship",
        "address": "H2G8+95J Masjid para, Masjid Para Rd, Hothat Colony, Masjid Para, Dhupguri, West Bengal 735210",
        "detailed_address": {
            "ward": "Hothat Colony, Masjid Para",
            "street": "H2G8+95J, Masjid Para Rd",
            "city": "Dhupguri",
            "postal_code": "735210",
            "state": "West Bengal",
            "country_code": "IN"
        },
        "images": [],
        "link": "https://www.google.com/maps/place/Masjid+para/data=!4m7!3m6!1s0x39e39bf368cc0cf9:0x8ded96da9ccf43a6!8m2!3d26.5759737!4d89.0153852!16s%2Fg%2F11hdt6qx9w!19sChIJ-QzMaPOb4zkRpkPPnNqW7Y0?authuser=0&hl=en&rclk=1",
        "coordinates": {
            "latitude": 26.5759737,
            "longitude": 89.0153852
        }
    }
]