[
    {
        "name": "Dhaldighi North Jama Masjid",
        "main_category": "Mosque",
        "address": "CG2J+MWX Dhaldighi North Jama Masjid, Dhaldighi North, Gangarampur, West Bengal 733124",
        "detailed_address": {
            "ward": "Dhaldighi North",
            "street": "CG2J+MWX",
            "city": "Gangarampur",
            "postal_code": "733124",
            "state": "West Bengal",
            "country_code": "IN"
        },
        "images": [
            {
                "about": "All",
                "link": "https://lh5.googleusercontent.com/p/AF1QipMwnRMYGYi9s79o_dPvMUBLttrgkY_CMJjA5_rQ=w224-h298-k-no"
            },
            {
                "about": "Latest",
                "link": "https://lh5.googleusercontent.com/p/AF1QipPAyID7IvEPelOvUFeoLxi841508781231euMTL=w224-h298-k-no"
            },
            {
                "about": "Videos",
                "link": "https://lh5.googleusercontent.com/p/AF1QipPwz_OyUYS7xLqx5nAb1iS50zXPEtVftx44fXts=w529-h298-k-no"
            },
            {
                "about": "Street View & 360deg",
                "link": "https://streetviewpixels-pa.googleapis.com/v1/thumbnail?panoid=k4Du1RvTf15UN9YTtG7K5g&cb_client=maps_sv.tactile.gps&w=224&h=298&yaw=291.16946&pitch=0&thumbfov=100"
            }
        ],
        "link": "https://www.google.com/maps/place/Dhaldighi+North+Jama+Masjid/data=!4m7!3m6!1s0x39fb46ec1d245cd5:0x96168d02b86f39d7!8m2!3d25.4017292!4d88.5323728!16s%2Fg%2F1tdflpf4!19sChIJ1VwkHexG-zkR1zlvuAKNFpY?authuser=0&hl=en&rclk=1",
        "coordinates": {
            "latitude": 25.4017292,
            "longitude": 88.53237279999999
        }
    },
    {
        "name": "Dumduma Jama Masjid, Gangarampur",
        "main_category": "Mosque",
        "address": "CG29+Q34 Dumduma Jama Masjid, Gangarampur, High School Road, Gangarampur, West Bengal 733124",
        "detailed_address": {
            "ward": null,
            "street": "CG29+Q34, High School Road",
            "city": "Gangarampur",
            "postal_code": "733124",
            "state": "West Bengal",
            "country_code": "IN"
        },
        "images": [
            {
                "about": "All",
                "link": "https://lh5.googleusercontent.com/p/AF1QipPCMZjKLqrjD7x6S59UmlK3mnF_lW3v0nLzlYg=w529-h298-k-no"
            },
            {
                "about": "Street View & 360deg",
                "link": "https://streetviewpixels-pa.googleapis.com/v1/thumbnail?panoid=O2ajNgD3DdtNrBf8iSS7TQ&cb_client=maps_sv.tactile.gps&w=224&h=298&yaw=15.477373&pitch=0&thumbfov=100"
            }
        ],
        "link": "https://www.google.com/maps/place/Dumduma+Jama+Masjid,+Gangarampur/data=!4m7!3m6!1s0x39fb46e20a0031b1:0x52ff790f915db9ba!8m2!3d25.4018776!4d88.5177187!16s%2Fg%2F1tf8rh_7!19sChIJsTEACuJG-zkRurldkQ95_1I?authuser=0&hl=en&rclk=1",
        "coordinates": {
            "latitude": 25.4018776,
            "longitude": 88.51771869999999
        }
    },
    {
        "name": "Amila Jaama Masjid",
        "main_category": "Mosque",
        "address": "W4CH+M4G Amila Jaama Masjid, Gangarampur, West Bengal 712301",
        "detailed_address": {
            "ward": null,
            "street": "W4CH+M4G",
            "city": "Gangarampur",
            "postal_code": "712301",
            "state": "West Bengal",
            "country_code": "IN"
        },
        "images": [
            {
                "about": "All",
                "link": "https://lh5.googleusercontent.com/p/AF1QipMEHsDHcB2BOyEFYT1N6rcmjDtfry-R9obvi91T=w529-h298-k-no"
            },
            {
                "about": "Videos",
                "link": "https://lh5.googleusercontent.com/p/AF1QipM6ZPezjTv_30z8ei1FkepuXqXw3-7dCSfvkNmI=w526-h298-k-no"
            }
        ],
        "link": "https://www.google.com/maps/place/Amila+Jaama+Masjid/data=!4m7!3m6!1s0x39f8610af5633935:0xb6dff4349bd41e87!8m2!3d22.9216957!4d88.1278352!16s%2Fg%2F11c2nsxww_!19sChIJNTlj9Qph-DkRhx7UmzT037Y?authuser=0&hl=en&rclk=1",
        "coordinates": {
            "latitude": 22.921695699999997,
            "longitude": 88.12783519999999
        }
    },
    {
        "name": "GANGARAMPUR BARKEY JAME MASJID",
        "main_category": "Mosque",
        "address": "GANGARAMPUR BARKEY JAME MASJID, Road, Shirakol, Diamond Harbour, Gangarampur, West Bengal 743503",
        "detailed_address": {
            "ward": "Shirakol",
            "street": "Road",
            "city": "Diamond Harbour, Gangarampur",
            "postal_code": "743503",
            "state": "West Bengal",
            "country_code": "IN"
        },
        "images": [
            {
                "about": "All",
                "link": "https://lh5.googleusercontent.com/p/AF1QipM3Vbd6ecdg4djZhkrMFwMjjbQl8_Dr0_Qm_m9_=w224-h298-k-no"
            }
        ],
        "link": "https://www.google.com/maps/place/GANGARAMPUR+BARKEY+JAME+MASJID/data=!4m7!3m6!1s0x3a0265d31177e221:0xf7d276f91d83fba8!8m2!3d22.3351956!4d88.2662349!16s%2Fg%2F11g0hydqx4!19sChIJIeJ3EdNlAjoRqPuDHfl20vc?authuser=0&hl=en&rclk=1",
        "coordinates": {
            "latitude": 22.3351956,
            "longitude": 88.2662349
        }
    },
    {
        "name": "Gangarampur Jame Masjid",
        "main_category": "Mosque",
        "address": "X26C+JWM Gangarampur Jame Masjid, Dulalganj, Babla, West Bengal 732207",
        "detailed_address": {
            "ward": null,
            "street": "X26C+JWM",
            "city": "Dulalganj, Babla",
            "postal_code": "732207",
            "state": "West Bengal",
            "country_code": "IN"
        },
        "images": [
            {
                "about": "All",
                "link": "https://lh5.googleusercontent.com/p/AF1QipNvT1Gjb8vtnmy1UHbm_EP8eXdUEVoxSkpI689u=w224-h298-k-no"
            },
            {
                "about": "Latest",
                "link": "https://lh5.googleusercontent.com/p/AF1QipMfmAZ8j-wuUF-ABU7dhLbaQ0xw4km3JQCSItMm=w224-h398-k-no"
            },
            {
                "about": "Videos",
                "link": "https://lh5.googleusercontent.com/p/AF1QipPJAqYRDGoD60uNY7nVast6mXHmgtd_QWRKOPUG=w529-h298-k-no"
            }
        ],
        "link": "https://www.google.com/maps/place/Gangarampur+Jame+Masjid/data=!4m7!3m6!1s0x39faf95c13c4a33f:0x6aa47890d86ccf49!8m2!3d24.9615891!4d88.022282!16s%2Fg%2F11h2d7rzd8!19sChIJP6PEE1z5-jkRSc9s2JB4pGo?authuser=0&hl=en&rclk=1",
        "coordinates": {
            "latitude": 24.961589099999998,
            "longitude": 88.02228199999999
        }
    },
    {
        "name": "Gangarampur Zumma Mosque",
        "main_category": "Mosque",
        "address": "Gangarampur Zumma Mosque, Ranapur, road, Dakshin Gangarampur, West Bengal 742147",
        "detailed_address": {
            "ward": null,
            "street": "Ranapur, road",
            "city": "Dakshin Gangarampur",
            "postal_code": "742147",
            "state": "West Bengal",
            "country_code": "IN"
        },
        "images": [
            {
                "about": "All",
                "link": "https://lh5.googleusercontent.com/p/AF1QipM-_2ToxXSv26D1D2KG9cyNehZmXYJm057GQ1tT=w529-h298-k-no"
            },
            {
                "about": "Videos",
                "link": "https://lh5.googleusercontent.com/p/AF1QipNX3YjSu3ZLxuj4AAGmZVxS0MK5WkCF3gQ-cw-p=w529-h298-k-no"
            }
        ],
        "link": "https://www.google.com/maps/place/Gangarampur+Zumma+Mosque/data=!4m7!3m6!1s0x39f986653eae9a39:0xf1b68311c7b259cb!8m2!3d24.0493936!4d88.0426503!16s%2Fg%2F11g9vrdr9p!19sChIJOZquPmWG-TkRy1myxxGDtvE?authuser=0&hl=en&rclk=1",
        "coordinates": {
            "latitude": 24.0493936,
            "longitude": 88.04265029999999
        }
    },
    {
        "name": "Dakshin paar Jam-E-Masjid",
        "main_category": "Mosque",
        "address": "9GRX+C3Q Dakshin paar Jam-E-Masjid, Ramchandrapur, Gangarampur, West Bengal 733124",
        "detailed_address": {
            "ward": null,
            "street": "9GRX+C3Q",
            "city": "Ramchandrapur, Gangarampur",
            "postal_code": null,
            "state": "West Bengal",
            "country_code": "IN"
        },
        "images": [
            {
                "about": "All",
                "link": "https://streetviewpixels-pa.googleapis.com/v1/thumbnail?panoid=GT08ASmYRKStYonjbUlO8A&cb_client=maps_sv.tactile.gps&w=224&h=298&yaw=201.24046&pitch=0&thumbfov=100"
            },
            {
                "about": "Street View & 360deg",
                "link": "https://streetviewpixels-pa.googleapis.com/v1/thumbnail?panoid=GT08ASmYRKStYonjbUlO8A&cb_client=maps_sv.tactile.gps&w=224&h=298&yaw=201.24046&pitch=0&thumbfov=100"
            }
        ],
        "link": "https://www.google.com/maps/place/Dakshin+paar+Jam-E-Masjid/data=!4m7!3m6!1s0x39fb4766636e31bf:0x805cd72949040f07!8m2!3d25.3910757!4d88.5477199!16s%2Fg%2F11hz31ytvx!19sChIJvzFuY2ZH-zkRBw8ESSnXXIA?authuser=0&hl=en&rclk=1",
        "coordinates": {
            "latitude": 25.3910757,
            "longitude": 88.54771989999999
        }
    },
    {
        "name": "raamcndrpur jaame msjid",
        "main_category": "Mosque",
        "address": "9GRV+GMJ raamcndrpur jaame msjid, Kal Dighi South Road, Gangarampur, West Bengal 733124",
        "detailed_address": {
            "ward": null,
            "street": "9GRV+GMJ, Kal Dighi South Road",
            "city": "Gangarampur",
            "postal_code": "733124",
            "state": "West Bengal",
            "country_code": "IN"
        },
        "images": [
            {
                "about": "All",
                "link": "https://streetviewpixels-pa.googleapis.com/v1/thumbnail?panoid=UrNutZ2AR2vrxjr5mTQDnw&cb_client=maps_sv.tactile.gps&w=224&h=298&yaw=236.04979&pitch=0&thumbfov=100"
            },
            {
                "about": "Street View & 360deg",
                "link": "https://streetviewpixels-pa.googleapis.com/v1/thumbnail?panoid=UrNutZ2AR2vrxjr5mTQDnw&cb_client=maps_sv.tactile.gps&w=224&h=298&yaw=236.04979&pitch=0&thumbfov=100"
            }
        ],
        "link": "https://www.google.com/maps/place/%E0%A6%B0%E0%A6%BE%E0%A6%AE%E0%A6%9A%E0%A6%A8%E0%A7%8D%E0%A6%A6%E0%A7%8D%E0%A6%B0%E0%A6%AA%E0%A7%81%E0%A6%B0+%E0%A6%9C%E0%A6%BE%E0%A6%AE%E0%A7%87+%E0%A6%AE%E0%A6%B8%E0%A6%9C%E0%A6%BF%E0%A6%A6/data=!4m7!3m6!1s0x39fb47294e27dc7b:0xa3058e4a8d925dd9!8m2!3d25.3913316!4d88.5441466!16s%2Fg%2F11mbs_ssph!19sChIJe9wnTilH-zkR2V2SjUqOBaM?authuser=0&hl=en&rclk=1",
        "coordinates": {
            "latitude": 25.391331599999997,
            "longitude": 88.54414659999999
        }
    },
    {
        "name": "Rahima jamia masjid",
        "main_category": "Mosque",
        "address": "CG2R+826 Rahima jamia masjid, Gangarampur, West Bengal 733124",
        "detailed_address": {
            "ward": null,
            "street": "CG2R+826",
            "city": "Gangarampur",
            "postal_code": "733124",
            "state": "West Bengal",
            "country_code": "IN"
        },
        "images": [
            {
                "about": "All",
                "link": "https://streetviewpixels-pa.googleapis.com/v1/thumbnail?panoid=HByVsRb9lsa6RzcKMg0yqA&cb_client=maps_sv.tactile.gps&w=224&h=298&yaw=237.32133&pitch=0&thumbfov=100"
            },
            {
                "about": "Street View & 360deg",
                "link": "https://streetviewpixels-pa.googleapis.com/v1/thumbnail?panoid=HByVsRb9lsa6RzcKMg0yqA&cb_client=maps_sv.tactile.gps&w=224&h=298&yaw=237.32133&pitch=0&thumbfov=100"
            }
        ],
        "link": "https://www.google.com/maps/place/Rahima+jamia+masjid/data=!4m7!3m6!1s0x39fb4704849581fd:0x8a38eb82df6e12c3!8m2!3d25.4007784!4d88.5400049!16s%2Fg%2F11lm62ygkc!19sChIJ_YGVhARH-zkRwxJu34LrOIo?authuser=0&hl=en&rclk=1",
        "coordinates": {
            "latitude": 25.4007784,
            "longitude": 88.5400049
        }
    },
    {
        "name": "Gangarampur Masjid",
        "main_category": "Mosque",
        "address": "7GVH+RV2 Gangarampur Masjid, Manaholi Rd, Gangarampur, West Bengal 733127",
        "detailed_address": {
            "ward": null,
            "street": "7GVH+RV2, Manaholi Rd",
            "city": "Gangarampur",
            "postal_code": "733127",
            "state": "West Bengal",
            "country_code": "IN"
        },
        "images": [
            {
                "about": "All",
                "link": "https://lh5.googleusercontent.com/p/AF1QipNpYePbRUXV6qr8Fl-_rl87diC2dXFrG7fFAGr6=w224-h299-k-no"
            }
        ],
        "link": "https://www.google.com/maps/place/Gangarampur+Masjid/data=!4m7!3m6!1s0x39fb418d0477da0b:0xbf8282fce76e81e1!8m2!3d25.2945106!4d88.5296392!16s%2Fg%2F11rw7j1c7g!19sChIJC9p3BI1B-zkR4YFu5_yCgr8?authuser=0&hl=en&rclk=1",
        "coordinates": {
            "latitude": 25.2945106,
            "longitude": 88.52963919999999
        }
    },
    {
        "name": "GANGARAMPUR JUMMA MASJID (MOSQUE)",
        "main_category": "Mosque",
        "address": "W2XQ+3GR GANGARAMPUR JUMMA MASJID (MOSQUE), Gangarampur, Meherapur, West Bengal",
        "detailed_address": {
            "ward": null,
            "street": "W2XQ+3GR, Gangarampur",
            "city": "Meherapur",
            "postal_code": null,
            "state": "West Bengal",
            "country_code": "IN"
        },
        "images": [],
        "link": "https://www.google.com/maps/place/GANGARAMPUR+JUMMA+MASJID+%28MOSQUE%29/data=!4m7!3m6!1s0x39faf9b0ffffffff:0x9b160dd6a40bcff8!8m2!3d24.947744!4d88.038754!16s%2Fg%2F11hctw9mz1!19sChIJ_____7D5-jkR-M8LpNYNFps?authuser=0&hl=en&rclk=1",
        "coordinates": {
            "latitude": 24.947744,
            "longitude": 88.038754
        }
    },
    {
        "name": "Gangarampur boro masjid",
        "main_category": "Mosque",
        "address": "PQJF+JHJ Gangarampur boro masjid, Gangarampur, Kurumba, West Bengal 731204",
        "detailed_address": {
            "ward": null,
            "street": "PQJF+JHJ, Gangarampur",
            "city": "Kurumba",
            "postal_code": "731204",
            "state": "West Bengal",
            "country_code": "IN"
        },
        "images": [],
        "link": "https://www.google.com/maps/place/Gangarampur+boro+masjid/data=!4m7!3m6!1s0x39f9c3ac3f28ec4d:0x98465e2eda3212a4!8m2!3d23.7315856!4d87.773905!16s%2Fg%2F11tdpd9mgy!19sChIJTewoP6zD-TkRpBIy2i5eRpg?authuser=0&hl=en&rclk=1",
        "coordinates": {
            "latitude": 23.7315856,
            "longitude": 87.773905
        }
    },
    {
        "name": "Gangarampur Ahalehadis Masjid",
        "main_category": "School",
        "address": "Gangarampur Ahalehadis Masjid, GANGARAMPUR P.O, VILL, Kurumba, West Bengal 731303",
        "detailed_address": {
            "ward": null,
            "street": "GANGARAMPUR P.O, VILL",
            "city": "Kurumba",
            "postal_code": "731303",
            "state": "West Bengal",
            "country_code": "IN"
        },
        "images": [
            {
                "about": "All",
                "link": "https://lh5.googleusercontent.com/p/AF1QipO-QwXa7_z1hQZfBuvdIDWjBlTfdiBe-R2Zt0xt=w397-h298-k-no"
            }
        ],
        "link": "https://www.google.com/maps/place/Gangarampur+Ahalehadis+Masjid/data=!4m7!3m6!1s0x39f9c21c36089dd1:0xea5067114e7ffc8!8m2!3d23.7309899!4d87.7736056!16s%2Fg%2F11f3x971xq!19sChIJ0Z0INhzC-TkRyP_nFHEGpQ4?authuser=0&hl=en&rclk=1",
        "coordinates": {
            "latitude": 23.730989899999997,
            "longitude": 87.7736056
        }
    },
    {
        "name": "Gangarampur choto masjid",
        "main_category": "Mosque",
        "address": "PQJC+9M8 Gangarampur choto masjid, Gangarampur, Kurumba, West Bengal 731204",
        "detailed_address": {
            "ward": null,
            "street": "PQJC+9M8, Gangarampur",
            "city": "Kurumba",
            "postal_code": "731204",
            "state": "West Bengal",
            "country_code": "IN"
        },
        "images": [
            {
                "about": "All",
                "link": "https://streetviewpixels-pa.googleapis.com/v1/thumbnail?panoid=lcXa6tXOC98oN2wsAxPiLA&cb_client=maps_sv.tactile.gps&w=224&h=298&yaw=233.94283&pitch=0&thumbfov=100"
            },
            {
                "about": "Street View & 360deg",
                "link": "https://streetviewpixels-pa.googleapis.com/v1/thumbnail?panoid=lcXa6tXOC98oN2wsAxPiLA&cb_client=maps_sv.tactile.gps&w=224&h=298&yaw=233.94283&pitch=0&thumbfov=100"
            }
        ],
        "link": "https://www.google.com/maps/place/Gangarampur+choto+masjid/data=!4m7!3m6!1s0x39f9c300117f99e7:0x1ad144b71a93155f!8m2!3d23.7306051!4d87.7723849!16s%2Fg%2F11thkwbw3b!19sChIJ55l_EQDD-TkRXxWTGrdE0Ro?authuser=0&hl=en&rclk=1",
        "coordinates": {
            "latitude": 23.7306051,
            "longitude": 87.77238489999999
        }
    }
]