[
    {
        "name": "Madina Masjid",
        "main_category": "Mosque",
        "address": "Madina Masjid, Government Junior College, Bhainsa, Telangana 504103",
        "detailed_address": {
            "ward": null,
            "street": "Government Junior College",
            "city": "Bhainsa",
            "postal_code": "504103",
            "state": "Telangana",
            "country_code": "IN"
        },
        "images": [
            {
                "about": "All",
                "link": "https://lh5.googleusercontent.com/p/AF1QipOgBfteuhgcz0S1My3oVNL-oqzpmOdD4y-HbFp6=w224-h398-k-no"
            },
            {
                "about": "Videos",
                "link": "https://lh5.googleusercontent.com/p/AF1QipOgBfteuhgcz0S1My3oVNL-oqzpmOdD4y-HbFp6=w224-h398-k-no"
            }
        ],
        "link": "https://www.google.com/maps/place/Madina+Masjid/data=!4m7!3m6!1s0x3bcdfe5aef2fd1e3:0x48c8397dc97ab0f6!8m2!3d19.1096769!4d77.9643594!16s%2Fg%2F11b7w99d4p!19sChIJ49Ev71r-zTsR9rB6yX05yEg?authuser=0&hl=en&rclk=1",
        "coordinates": {
            "latitude": 19.1096769,
            "longitude": 77.96435939999999
        }
    },
    {
        "name": "Masjid Panjesha",
        "main_category": "Mosque",
        "address": "Masjid Panjesha, masjid, panjesha marg, Bhainsa, Telangana 504103",
        "detailed_address": {
            "ward": null,
            "street": "masjid, panjesha marg",
            "city": "Bhainsa",
            "postal_code": null,
            "state": "Telangana",
            "country_code": "IN"
        },
        "images": [
            {
                "about": "All",
                "link": "https://lh5.googleusercontent.com/p/AF1QipO_s7rO64wG93YIcBuS6JQ_1TYMJqeHQFlVg1VY=w397-h298-k-no"
            },
            {
                "about": "Dome",
                "link": "https://lh5.googleusercontent.com/p/AF1QipNHmjHjXgfpP2Zu9d-le8RNY-FJC6BKJpNrJs1L=w397-h298-k-no"
            },
            {
                "about": "Videos",
                "link": "https://lh5.googleusercontent.com/p/AF1QipOXCbPtkew6WuGaOFY_ABwGxvaDcIKzLFKX_hg=w518-h298-k-no"
            },
            {
                "about": "Street View & 360deg",
                "link": "https://streetviewpixels-pa.googleapis.com/v1/thumbnail?panoid=TzWRqkK3svgcJm4jbP1L2g&cb_client=maps_sv.tactile.gps&w=224&h=298&yaw=271.78186&pitch=0&thumbfov=100"
            }
        ],
        "link": "https://www.google.com/maps/place/Masjid+Panjesha/data=!4m7!3m6!1s0x3bcdfe45594b318b:0xa9a4527a0d3bdd4e!8m2!3d19.1114013!4d77.9614446!16s%2Fg%2F11xfvxc4m!19sChIJizFLWUX-zTsRTt07DXpSpKk?authuser=0&hl=en&rclk=1",
        "coordinates": {
            "latitude": 19.1114013,
            "longitude": 77.9614446
        }
    },
    {
        "name": "Masjid_E_Quba",
        "main_category": "Mosque",
        "address": "Masjid_E_Quba, 2-5-216, beside Masjid E Quba Khila, Mohalla Badh, Adilabad, Telangana 504001",
        "detailed_address": {
            "ward": "Mohalla Badh",
            "street": "2-5-216, beside Masjid E Quba Khila",
            "city": "Adilabad",
            "postal_code": "504001",
            "state": "Telangana",
            "country_code": "IN"
        },
        "images": [
            {
                "about": "All",
                "link": "https://lh5.googleusercontent.com/p/AF1QipM_2i45qyYhzAh14r7YhaGwxYpd3IWg9t2VLxd6=w397-h298-k-no"
            },
            {
                "about": "Street View & 360deg",
                "link": "https://streetviewpixels-pa.googleapis.com/v1/thumbnail?panoid=gzyk9M54_rg3zqTk-6eHYA&cb_client=maps_sv.tactile.gps&w=224&h=298&yaw=291.87372&pitch=0&thumbfov=100"
            }
        ],
        "link": "https://www.google.com/maps/place/Masjid_E_Quba/data=!4m7!3m6!1s0x3bd25bedeaaaaaab:0xe29f9a411d92289b!8m2!3d19.6793188!4d78.5406475!16s%2Fg%2F11bwkvtnj8!19sChIJq6qq6u1b0jsRmyiSHUGan-I?authuser=0&hl=en&rclk=1",
        "coordinates": {
            "latitude": 19.6793188,
            "longitude": 78.54064749999999
        }
    },
    {
        "name": "Eid-Gah",
        "main_category": "Mosque",
        "address": "4XC4+J65 Eid-Gah, Palsi Road, Telangana 504103",
        "detailed_address": {
            "ward": null,
            "street": "4XC4+J65, Palsi Road",
            "city": null,
            "postal_code": "504103",
            "state": "Telangana",
            "country_code": "IN"
        },
        "images": [
            {
                "about": "All",
                "link": "https://lh5.googleusercontent.com/p/AF1QipOOHcV4Av33YHc62QhAq_rcGytaOXJ01tzQjBAj=w397-h298-k-no"
            }
        ],
        "link": "https://www.google.com/maps/place/Eid-Gah/data=!4m7!3m6!1s0x3bcdfe4b41f2b35b:0x49272df21ed88662!8m2!3d19.1215231!4d77.9556209!16s%2Fg%2F11b7lhbkzd!19sChIJW7PyQUv-zTsRYobYHvItJ0k?authuser=0&hl=en&rclk=1",
        "coordinates": {
            "latitude": 19.121523099999997,
            "longitude": 77.9556209
        }
    },
    {
        "name": "Masjid-e-Umar Farooq",
        "main_category": "Mosque",
        "address": "4X79+M2F Masjid-e-Umar Farooq, Umar Farooq St, Abadi, Bhainsa, Telangana 504103",
        "detailed_address": {
            "ward": "Abadi",
            "street": "4X79+M2F, Umar Farooq St",
            "city": "Bhainsa",
            "postal_code": "504103",
            "state": "Telangana",
            "country_code": "IN"
        },
        "images": [
            {
                "about": "All",
                "link": "https://lh5.googleusercontent.com/p/AF1QipOvyueRdlKI1LWXMOUq4HQk_p0gWPT1L__u-YB_=w529-h298-k-no"
            },
            {
                "about": "Videos",
                "link": "https://lh5.googleusercontent.com/p/AF1QipPjjkM98HDCDQzzsJgD5fJLCS-wEGPUH3t9Uucv=w529-h298-k-no"
            }
        ],
        "link": "https://www.google.com/maps/place/Masjid-e-Umar+Farooq/data=!4m7!3m6!1s0x3bcdfe50d026f4b3:0x9d2df10fc48b7b47!8m2!3d19.1141962!4d77.9675498!16s%2Fg%2F11c1s1_b43!19sChIJs_Qm0FD-zTsRR3uLxA_xLZ0?authuser=0&hl=en&rclk=1",
        "coordinates": {
            "latitude": 19.1141962,
            "longitude": 77.9675498
        }
    },
    {
        "name": "MASJID-E-MOMINAN",
        "main_category": "Mosque",
        "address": "4X76+4V9 MASJID-E-MOMINAN, mominan Galli, Siddhartha Nagar, Bhainsa, Telangana 504103",
        "detailed_address": {
            "ward": "Siddhartha Nagar",
            "street": "4X76+4V9, mominan Galli",
            "city": "Bhainsa",
            "postal_code": "504103",
            "state": "Telangana",
            "country_code": "IN"
        },
        "images": [
            {
                "about": "All",
                "link": "https://streetviewpixels-pa.googleapis.com/v1/thumbnail?panoid=wIOL1P3Wb5yEneQhKoLidw&cb_client=maps_sv.tactile.gps&w=224&h=298&yaw=210.08919&pitch=0&thumbfov=100"
            },
            {
                "about": "Street View & 360deg",
                "link": "https://streetviewpixels-pa.googleapis.com/v1/thumbnail?panoid=wIOL1P3Wb5yEneQhKoLidw&cb_client=maps_sv.tactile.gps&w=224&h=298&yaw=210.08919&pitch=0&thumbfov=100"
            }
        ],
        "link": "https://www.google.com/maps/place/MASJID-E-MOMINAN/data=!4m7!3m6!1s0x3bcdfe4fe1772615:0x1ea8449dd9031e42!8m2!3d19.1127883!4d77.9622459!16s%2Fg%2F11bymwdg7g!19sChIJFSZ34U_-zTsRQh4D2Z1EqB4?authuser=0&hl=en&rclk=1",
        "coordinates": {
            "latitude": 19.1127883,
            "longitude": 77.9622459
        }
    },
    {
        "name": "Jama Masjid",
        "main_category": "Mosque",
        "address": "4X76+PG6 Jama Masjid, Bhainsa, Telangana 504103",
        "detailed_address": {
            "ward": null,
            "street": "4X76+PG6",
            "city": "Bhainsa",
            "postal_code": "504103",
            "state": "Telangana",
            "country_code": "IN"
        },
        "images": [
            {
                "about": "All",
                "link": "https://lh5.googleusercontent.com/p/AF1QipOOgrUHLOdMq4ow9ZchExpw_0X5LRQ1t-ZLKZci=w662-h298-k-no"
            },
            {
                "about": "Dome",
                "link": "https://lh5.googleusercontent.com/p/AF1QipPr_r1EirkoSqgjJEldigr-BwPB1jUsSJBexJ7Z=w224-h298-k-no"
            },
            {
                "about": "Street View & 360deg",
                "link": "https://streetviewpixels-pa.googleapis.com/v1/thumbnail?panoid=yxaH3rSsDoJursPMBlAz6g&cb_client=maps_sv.tactile.gps&w=224&h=298&yaw=164.59575&pitch=0&thumbfov=100"
            }
        ],
        "link": "https://www.google.com/maps/place/Jama+Masjid/data=!4m7!3m6!1s0x3bcdfe4fcb6d4d3b:0x5b221d8cd9bf7450!8m2!3d19.1142804!4d77.961278!16s%2Fg%2F11by_ln6gj!19sChIJO01ty0_-zTsRUHS_2YwdIls?authuser=0&hl=en&rclk=1",
        "coordinates": {
            "latitude": 19.1142804,
            "longitude": 77.961278
        }
    },
    {
        "name": "Masjid E Tauheed Bhainsa",
        "main_category": "Mosque",
        "address": "Masjid E Tauheed Bhainsa, Government Junior College, near jr, Bhainsa, Telangana 504103",
        "detailed_address": {
            "ward": null,
            "street": "Government Junior College, near jr",
            "city": "Bhainsa",
            "postal_code": "504103",
            "state": "Telangana",
            "country_code": "IN"
        },
        "images": [
            {
                "about": "All",
                "link": "https://lh5.googleusercontent.com/p/AF1QipMm50rm2MxaD2v9fbc6hxmfw_aaHQngywumOIRQ=w529-h298-k-no"
            }
        ],
        "link": "https://www.google.com/maps/place/Masjid+E+Tauheed+Bhainsa/data=!4m7!3m6!1s0x3bcdfe5abe12d209:0xcb0d4c3a60c43c0e!8m2!3d19.1106262!4d77.9637239!16s%2Fg%2F11g8nzxgs0!19sChIJCdISvlr-zTsRDjzEYDpMDcs?authuser=0&hl=en&rclk=1",
        "coordinates": {
            "latitude": 19.1106262,
            "longitude": 77.96372389999999
        }
    },
    {
        "name": "masjid Abbu Bakar",
        "main_category": "Place of worship",
        "address": "4X68+JHW masjid Abbu Bakar, Bhainsa, Telangana 504103",
        "detailed_address": {
            "ward": null,
            "street": "4X68+JHW",
            "city": "Bhainsa",
            "postal_code": "504103",
            "state": "Telangana",
            "country_code": "IN"
        },
        "images": [
            {
                "about": "All",
                "link": "https://lh5.googleusercontent.com/p/AF1QipMjNnfOKEjJl9YMFzFzz95iTCBdW6sBGtnDwm3e=w397-h298-k-no"
            },
            {
                "about": "Videos",
                "link": "https://lh5.googleusercontent.com/p/AF1QipMz3AyOnMKKEipiB52e3jztMHz2rSw3o9oqffRf=w224-h398-k-no"
            }
        ],
        "link": "https://www.google.com/maps/place/masjid+Abbu+Bakar/data=!4m7!3m6!1s0x3bcdfe5a7461957f:0x7d00f2f5551ffdde!8m2!3d19.1116031!4d77.9664603!16s%2Fg%2F11c1v367gg!19sChIJf5VhdFr-zTsR3v0fVfXyAH0?authuser=0&hl=en&rclk=1",
        "coordinates": {
            "latitude": 19.1116031,
            "longitude": 77.9664603
        }
    },
    {
        "name": "Masjid E IbadurRahman Ahle Hadees",
        "main_category": "Mosque",
        "address": "XWG6+27P Masjid E IbadurRahman Ahle Hadees, Mudhole, Telangana 504102",
        "detailed_address": {
            "ward": null,
            "street": "XWG6+27P",
            "city": "Mudhole",
            "postal_code": "504102",
            "state": "Telangana",
            "country_code": "IN"
        },
        "images": [
            {
                "about": "All",
                "link": "https://lh5.googleusercontent.com/p/AF1QipOrOEe2MYCvaHvIPaqK9akdqVAFWZX2F7pbvczd=w272-h298-k-no"
            }
        ],
        "link": "https://www.google.com/maps/place/Masjid+E+IbadurRahman+Ahle+Hadees/data=!4m7!3m6!1s0x3bce080be6d32c33:0x252823fccc2f49dc!8m2!3d18.975097!4d77.9106939!16s%2Fg%2F11g7zv4hq8!19sChIJMyzT5gsIzjsR3EkvzPwjKCU?authuser=0&hl=en&rclk=1",
        "coordinates": {
            "latitude": 18.975096999999998,
            "longitude": 77.9106939
        }
    },
    {
        "name": "Osman Masjid",
        "main_category": "Mosque",
        "address": "4X47+RJX Osman Masjid, Asad Baba Nagar, Bhainsa, Telangana 504103",
        "detailed_address": {
            "ward": "Asad Baba Nagar",
            "street": "4X47+RJX",
            "city": "Bhainsa",
            "postal_code": "504103",
            "state": "Telangana",
            "country_code": "IN"
        },
        "images": [
            {
                "about": "All",
                "link": "https://lh5.googleusercontent.com/p/AF1QipMJk-qQCTUMu7cD5Elt9Zqk6YOwEwkijfuR4K7W=w224-h298-k-no"
            }
        ],
        "link": "https://www.google.com/maps/place/Osman+Masjid/data=!4m7!3m6!1s0x3bcdfe5b6bc0025d:0x854fb770d38fd2a3!8m2!3d19.107103!4d77.9641068!16s%2Fg%2F11cn6jvztk!19sChIJXQLAa1v-zTsRo9KP03C3T4U?authuser=0&hl=en&rclk=1",
        "coordinates": {
            "latitude": 19.107103,
            "longitude": 77.9641068
        }
    },
    {
        "name": "EK MINAR MASJID",
        "main_category": "Mosque",
        "address": "4X58+8P8 EK MINAR MASJID, Asad Baba Nagar, Bhainsa, Telangana 504103",
        "detailed_address": {
            "ward": "Asad Baba Nagar",
            "street": "4X58+8P8",
            "city": "Bhainsa",
            "postal_code": "504103",
            "state": "Telangana",
            "country_code": "IN"
        },
        "images": [],
        "link": "https://www.google.com/maps/place/EK+MINAR+MASJID/data=!4m7!3m6!1s0x3bcdfe5bc8742e03:0x9e4aca298cc82934!8m2!3d19.1082968!4d77.9668355!16s%2Fg%2F11c1wjq5wm!19sChIJAy50yFv-zTsRNCnIjCnKSp4?authuser=0&hl=en&rclk=1",
        "coordinates": {
            "latitude": 19.108296799999998,
            "longitude": 77.9668355
        }
    },
    {
        "name": "Zulfaquar Masjid",
        "main_category": "Mosque",
        "address": "Zulfaquar Masjid, Batti Galli, Bhainsa, Telangana 504103",
        "detailed_address": {
            "ward": null,
            "street": "Batti Galli",
            "city": "Bhainsa",
            "postal_code": "504103",
            "state": "Telangana",
            "country_code": "IN"
        },
        "images": [
            {
                "about": "All",
                "link": "https://lh5.googleusercontent.com/p/AF1QipM7E1ptmA3StCAANJRjlMm3n5uoMxAV_h7Zmycy=w645-h298-k-no"
            },
            {
                "about": "By owner",
                "link": "https://lh5.googleusercontent.com/p/AF1QipMbizTqvcVQus_gQbzxFRC87HvLcmH9Z_lLAqe3=w529-h298-k-no"
            },
            {
                "about": "Videos",
                "link": "https://lh5.googleusercontent.com/p/AF1QipMbizTqvcVQus_gQbzxFRC87HvLcmH9Z_lLAqe3=w529-h298-k-no"
            },
            {
                "about": "Street View & 360deg",
                "link": "https://streetviewpixels-pa.googleapis.com/v1/thumbnail?panoid=RlM5Kmut7SKS_-xEUA-pDQ&cb_client=maps_sv.tactile.gps&w=224&h=298&yaw=186.6167&pitch=0&thumbfov=100"
            }
        ],
        "link": "https://www.google.com/maps/place/Zulfaquar+Masjid/data=!4m7!3m6!1s0x3bcdfe458e005063:0x3327cc952a5d40c3!8m2!3d19.1106687!4d77.9585257!16s%2Fg%2F11b7lgcncq!19sChIJY1AAjkX-zTsRw0BdKpXMJzM?authuser=0&hl=en&rclk=1",
        "coordinates": {
            "latitude": 19.110668699999998,
            "longitude": 77.9585257
        }
    },
    {
        "name": "Kaali Masjid",
        "main_category": "Mosque",
        "address": "4X86+8VM Kaali Masjid, Bhainsa, Telangana 504103",
        "detailed_address": {
            "ward": null,
            "street": "4X86+8VM",
            "city": "Bhainsa",
            "postal_code": "504103",
            "state": "Telangana",
            "country_code": "IN"
        },
        "images": [
            {
                "about": "All",
                "link": "https://lh5.googleusercontent.com/p/AF1QipNvpnN9du_Lqo4FX_49BMYz5aPwfiDJ7HoIQmPi=w529-h298-k-no"
            },
            {
                "about": "Street View & 360deg",
                "link": "https://streetviewpixels-pa.googleapis.com/v1/thumbnail?panoid=7UNkzkU4nN0TY7Q7b8LN0g&cb_client=maps_sv.tactile.gps&w=224&h=298&yaw=291.4201&pitch=0&thumbfov=100"
            }
        ],
        "link": "https://www.google.com/maps/place/Kaali+Masjid/data=!4m7!3m6!1s0x3bcdff01ee4823b7:0x7c003f504db3c40c!8m2!3d19.1158403!4d77.9621864!16s%2Fg%2F11f6mcqf45!19sChIJtyNI7gH_zTsRDMSzTVA_AHw?authuser=0&hl=en&rclk=1",
        "coordinates": {
            "latitude": 19.1158403,
            "longitude": 77.9621864
        }
    },
    {
        "name": "Jama Masjid Balapur",
        "main_category": "Mosque",
        "address": "VVQ7+G42 Jama Masjid Balapur, Unnamed Road, Balapur Dharmabad, Maharashtra 431809",
        "detailed_address": {
            "ward": null,
            "street": "VVQ7+G42, Unnamed Road",
            "city": "Balapur Dharmabad",
            "postal_code": "431809",
            "state": "Maharashtra",
            "country_code": "IN"
        },
        "images": [
            {
                "about": "All",
                "link": "https://lh5.googleusercontent.com/p/AF1QipMJkNK-vU_Do9czheC7Jqbqj_A-muka-DBqJLEK=w401-h298-k-no"
            },
            {
                "about": "Dome",
                "link": "https://lh5.googleusercontent.com/p/AF1QipPdJUdhKksVkb-E2NhzlvMahyTF_jjkbrp9i3OV=w397-h298-k-no"
            }
        ],
        "link": "https://www.google.com/maps/place/Jama+Masjid+Balapur/data=!4m7!3m6!1s0x3bce09612b4f64b3:0xa43c832f950ffd33!8m2!3d18.8887613!4d77.8627531!16s%2Fg%2F11gbxb0tkx!19sChIJs2RPK2EJzjsRM_0PlS-DPKQ?authuser=0&hl=en&rclk=1",
        "coordinates": {
            "latitude": 18.8887613,
            "longitude": 77.86275309999999
        }
    },
    {
        "name": "Mehbobiya Masjid",
        "main_category": "Mosque",
        "address": "VRWX+4RW Mehbobiya Masjid, Unnamed Road, Dharmabad, Maharashtra 431809",
        "detailed_address": {
            "ward": null,
            "street": "VRWX+4RW, Unnamed Road",
            "city": "Dharmabad",
            "postal_code": "431809",
            "state": "Maharashtra",
            "country_code": "IN"
        },
        "images": [],
        "link": "https://www.google.com/maps/place/Mehbobiya+Masjid/data=!4m7!3m6!1s0x3bce09456ac5ab6f:0x36b472ee20305144!8m2!3d18.8953653!4d77.8495855!16s%2Fg%2F11g6zhfr0d!19sChIJb6vFakUJzjsRRFEwIO5ytDY?authuser=0&hl=en&rclk=1",
        "coordinates": {
            "latitude": 18.895365299999998,
            "longitude": 77.8495855
        }
    },
    {
        "name": "Makkah Masjid",
        "main_category": "Mosque",
        "address": "XWG6+PX2 Makkah Masjid, Mudhole, Telangana 504102",
        "detailed_address": {
            "ward": null,
            "street": "XWG6+PX2",
            "city": "Mudhole",
            "postal_code": "504102",
            "state": "Telangana",
            "country_code": "IN"
        },
        "images": [
            {
                "about": "All",
                "link": "https://lh5.googleusercontent.com/p/AF1QipOUWXLPsu_XIMirfS5trQJ2kkzaFf9m1NBcP9FW=w224-h398-k-no"
            },
            {
                "about": "Videos",
                "link": "https://lh5.googleusercontent.com/p/AF1QipOUWXLPsu_XIMirfS5trQJ2kkzaFf9m1NBcP9FW=w224-h398-k-no"
            }
        ],
        "link": "https://www.google.com/maps/place/Makkah+Masjid/data=!4m7!3m6!1s0x3bce0809755c9b3f:0x48d5663eeadd5675!8m2!3d18.976772!4d77.9123917!16s%2Fg%2F11c1xm9fpd!19sChIJP5tcdQkIzjsRdVbd6j5m1Ug?authuser=0&hl=en&rclk=1",
        "coordinates": {
            "latitude": 18.976772,
            "longitude": 77.9123917
        }
    },
    {
        "name": "Jama Masjid",
        "main_category": "Mosque",
        "address": "XWG6+C48 Jama Masjid, Mudhole, Telangana 504102",
        "detailed_address": {
            "ward": null,
            "street": "XWG6+C48",
            "city": "Mudhole",
            "postal_code": "504102",
            "state": "Telangana",
            "country_code": "IN"
        },
        "images": [
            {
                "about": "All",
                "link": "https://lh5.googleusercontent.com/p/AF1QipPdPdFewlW4GDNJxXp5PpXvU2UTrOudF1HULBiF=w529-h298-k-no"
            }
        ],
        "link": "https://www.google.com/maps/place/Jama+Masjid/data=!4m7!3m6!1s0x3bce080bcfe00875:0x521c3c0cceda907b!8m2!3d18.976033!4d77.910315!16s%2Fg%2F11cs6hpvpt!19sChIJdQjgzwsIzjsRe5Dazgw8HFI?authuser=0&hl=en&rclk=1",
        "coordinates": {
            "latitude": 18.976032999999997,
            "longitude": 77.910315
        }
    },
    {
        "name": "Masjid-E-Bilal",
        "main_category": "Religious destination",
        "address": "Ward no 8, Masjid-E-Bilal, Baraimam galliy, Bhainsa, Telangana 504103",
        "detailed_address": {
            "ward": null,
            "street": "Ward no 8, Baraimam galliy",
            "city": "Bhainsa",
            "postal_code": null,
            "state": "Telangana",
            "country_code": "IN"
        },
        "images": [
            {
                "about": "All",
                "link": "https://lh5.googleusercontent.com/p/AF1QipOeXRMip_U4-IJ_CiZ4cDzZz7qhp7J8WPm3x4w7=w397-h298-k-no"
            }
        ],
        "link": "https://www.google.com/maps/place/Masjid-E-Bilal/data=!4m7!3m6!1s0x3bcdff7d9ed1862d:0xc152153d2799454f!8m2!3d19.1132198!4d77.963905!16s%2Fg%2F11j018hd_k!19sChIJLYbRnn3_zTsRT0WZJz0VUsE?authuser=0&hl=en&rclk=1",
        "coordinates": {
            "latitude": 19.1132198,
            "longitude": 77.963905
        }
    },
    {
        "name": "ISLAMIA MASJID",
        "main_category": "Mosque",
        "address": "33P9+Q3G ISLAMIA MASJID, Unnamed Road, Pendapalle, Telangana 504109",
        "detailed_address": {
            "ward": null,
            "street": "33P9+Q3G, Unnamed Road",
            "city": "Pendapalle",
            "postal_code": "504109",
            "state": "Telangana",
            "country_code": "IN"
        },
        "images": [
            {
                "about": "All",
                "link": "https://lh5.googleusercontent.com/p/AF1QipNA9wPkaN0CRVUg1Rys0LL_Sup5TOGwnCqzUSB2=w529-h298-k-no"
            }
        ],
        "link": "https://www.google.com/maps/place/ISLAMIA+MASJID/data=!4m7!3m6!1s0x3bcdf9a84cf030af:0x3505c992c42fe512!8m2!3d19.0869441!4d78.0677168!16s%2Fg%2F11h1lsvqdn!19sChIJrzDwTKj5zTsREuUvxJLJBTU?authuser=0&hl=en&rclk=1",
        "coordinates": {
            "latitude": 19.0869441,
            "longitude": 78.0677168
        }
    },
    {
        "name": "EIDGAH MUDHOLE",
        "main_category": "Mosque",
        "address": "XWJ9+GF6 EIDGAH MUDHOLE, Mudhole, Telangana 504102",
        "detailed_address": {
            "ward": null,
            "street": "XWJ9+GF6",
            "city": "Mudhole",
            "postal_code": "504102",
            "state": "Telangana",
            "country_code": "IN"
        },
        "images": [],
        "link": "https://www.google.com/maps/place/EIDGAH+MUDHOLE/data=!4m7!3m6!1s0x3bce07fd6c3d37c5:0xd851295bd8707bd0!8m2!3d18.9812863!4d77.9186262!16s%2Fg%2F11gck4xmd2!19sChIJxTc9bP0HzjsR0Htw2FspUdg?authuser=0&hl=en&rclk=1",
        "coordinates": {
            "latitude": 18.9812863,
            "longitude": 77.91862619999999
        }
    },
    {
        "name": "Madina Masjid",
        "main_category": "Mosque",
        "address": "XWPC+CGC Madina Masjid, Mudhole St, Mudhole, Telangana 504102",
        "detailed_address": {
            "ward": null,
            "street": "XWPC+CGC, Mudhole St",
            "city": "Mudhole",
            "postal_code": "504102",
            "state": "Telangana",
            "country_code": "IN"
        },
        "images": [
            {
                "about": "All",
                "link": "https://lh5.googleusercontent.com/p/AF1QipOHTMLGNi6R8b3j-xqlImxFnO5KrHdnZUIJ1HRV=w224-h398-k-no"
            },
            {
                "about": "Videos",
                "link": "https://lh5.googleusercontent.com/p/AF1QipM0cRxabGW_HeDfxkrndRK4d7J9L0vDNompxYW8=w224-h398-k-no"
            }
        ],
        "link": "https://www.google.com/maps/place/Madina+Masjid/data=!4m7!3m6!1s0x3bce07fc0d5ab6d9:0xef39beed9a49c2b0!8m2!3d18.9860691!4d77.9212626!16s%2Fg%2F11fyzflsc6!19sChIJ2bZaDfwHzjsRsMJJmu2-Oe8?authuser=0&hl=en&rclk=1",
        "coordinates": {
            "latitude": 18.986069099999998,
            "longitude": 77.92126259999999
        }
    },
    {
        "name": "Masjid-E-Imam Unnissa",
        "main_category": "Mosque",
        "address": "4X88+73C Masjid-E-Imam Unnissa, Bhainsa, Telangana 504103",
        "detailed_address": {
            "ward": null,
            "street": "4X88+73C",
            "city": "Bhainsa",
            "postal_code": "504103",
            "state": "Telangana",
            "country_code": "IN"
        },
        "images": [
            {
                "about": "All",
                "link": "https://lh5.googleusercontent.com/p/AF1QipORlGPKY9FRAFC3XxBuza88SqSRlppowqS9wh5p=w397-h298-k-no"
            }
        ],
        "link": "https://www.google.com/maps/place/Masjid-E-Imam+Unnissa/data=!4m7!3m6!1s0x3bcdff48f9d34921:0xbfa3a3b4df1b04b1!8m2!3d19.1156767!4d77.965154!16s%2Fg%2F11n60wjr3b!19sChIJIUnT-Uj_zTsRsQQb37Sjo78?authuser=0&hl=en&rclk=1",
        "coordinates": {
            "latitude": 19.115676699999998,
            "longitude": 77.965154
        }
    },
    {
        "name": "Puspoor Jama Masjid",
        "main_category": "Mosque",
        "address": "22XJ+P6Q Puspoor Jama Masjid, Puspur, Telangana 504102",
        "detailed_address": {
            "ward": null,
            "street": "22XJ+P6Q",
            "city": "Puspur",
            "postal_code": "504102",
            "state": "Telangana",
            "country_code": "IN"
        },
        "images": [
            {
                "about": "All",
                "link": "https://lh5.googleusercontent.com/p/AF1QipMSL1wUlPuwtRNi-QBnxaDAeA9ZR5HozeTNzeCl=w224-h298-k-no"
            },
            {
                "about": "Dome",
                "link": "https://lh5.googleusercontent.com/p/AF1QipP6lcAjQZLSyC2_FLav2Sx-vax8aorTd_NWU2FK=w338-h298-k-no"
            }
        ],
        "link": "https://www.google.com/maps/place/Puspoor+Jama+Masjid/data=!4m7!3m6!1s0x3bcdfb8e2e750bc9:0x687fc9f12d518e7d!8m2!3d19.0493459!4d78.0306125!16s%2Fg%2F11hbnncv9l!19sChIJyQt1Lo77zTsRfY5RLfHJf2g?authuser=0&hl=en&rclk=1",
        "coordinates": {
            "latitude": 19.0493459,
            "longitude": 78.03061249999999
        }
    },
    {
        "name": "IDARA ANFA-UL-MADARIS",
        "main_category": "Mosque",
        "address": "IDARA ANFA-UL-MADARIS, Umar Farooq Abadi, Bhainsa, Telangana 504103",
        "detailed_address": {
            "ward": null,
            "street": "Umar Farooq Abadi",
            "city": "Bhainsa",
            "postal_code": "504103",
            "state": "Telangana",
            "country_code": "IN"
        },
        "images": [
            {
                "about": "All",
                "link": "https://lh5.googleusercontent.com/p/AF1QipPHPq1F6S-Jxnp_wDdHlAHytrupIIfvwy_tNQFx=w448-h298-k-no"
            },
            {
                "about": "Latest",
                "link": "https://lh5.googleusercontent.com/p/AF1QipPyxSdeB3xF-nAJEGYLvSywPfshWd3zqaiBjyux=w447-h298-k-no"
            },
            {
                "about": "Dome",
                "link": "https://lh5.googleusercontent.com/p/AF1QipPI33m8kBHvNJ19LKvq1S52p-Xo-WJUDxdXTjiE=w397-h298-k-no"
            }
        ],
        "link": "https://www.google.com/maps/place/IDARA+ANFA-UL-MADARIS/data=!4m7!3m6!1s0x3bcdff684c744727:0xdd4c8e59a5a31e73!8m2!3d19.1142023!4d77.9690341!16s%2Fg%2F11j2ccx398!19sChIJJ0d0TGj_zTsRcx6jpVmOTN0?authuser=0&hl=en&rclk=1",
        "coordinates": {
            "latitude": 19.1142023,
            "longitude": 77.9690341
        }
    },
    {
        "name": "Masjid e Raza",
        "main_category": "Mosque",
        "address": "XWF6+J4R Masjid e Raza, Mudhole, Telangana 504102",
        "detailed_address": {
            "ward": null,
            "street": "XWF6+J4R",
            "city": "Mudhole",
            "postal_code": "504102",
            "state": "Telangana",
            "country_code": "IN"
        },
        "images": [
            {
                "about": "All",
                "link": "https://lh5.googleusercontent.com/p/AF1QipNFpMnWq5Z4xC7Wbu2rmlpoHILUQabQdDyhUNyO=w224-h398-k-no"
            }
        ],
        "link": "https://www.google.com/maps/place/Masjid+e+Raza/data=!4m7!3m6!1s0x3bce080bf0b3996b:0x6a28aa7b8634486e!8m2!3d18.9741249!4d77.9102554!16s%2Fg%2F11gbk4v73l!19sChIJa5mz8AsIzjsRbkg0hnuqKGo?authuser=0&hl=en&rclk=1",
        "coordinates": {
            "latitude": 18.9741249,
            "longitude": 77.9102554
        }
    },
    {
        "name": "Deen E Muhammad Dargah",
        "main_category": "Mosque",
        "address": "4X87+PMF Deen E Muhammad Dargah, Bhainsa, Telangana 504103",
        "detailed_address": {
            "ward": null,
            "street": "4X87+PMF",
            "city": "Bhainsa",
            "postal_code": "504103",
            "state": "Telangana",
            "country_code": "IN"
        },
        "images": [
            {
                "about": "All",
                "link": "https://lh5.googleusercontent.com/p/AF1QipOjJbLOUYw6Pxfw-8EALNSN8W--epO21gauvNnb=w529-h298-k-no"
            },
            {
                "about": "Street View & 360deg",
                "link": "https://streetviewpixels-pa.googleapis.com/v1/thumbnail?panoid=tSy1vGoZql9lmCR-tz0BWg&cb_client=maps_sv.tactile.gps&w=224&h=298&yaw=100.65559&pitch=0&thumbfov=100"
            },
            {
                "about": "Videos",
                "link": "https://lh5.googleusercontent.com/p/AF1QipM78TCDvGWsxM6Rgqw1fzUdE8b_HqwE60dJEVBP=w298-h298-k-no"
            }
        ],
        "link": "https://www.google.com/maps/place/Deen+E+Muhammad+Dargah/data=!4m7!3m6!1s0x3bcdff0bce791d5b:0x5d1dfe69be5f14ea!8m2!3d19.1168214!4d77.9641861!16s%2Fg%2F11fq8r95lt!19sChIJWx15zgv_zTsR6hRfvmn-HV0?authuser=0&hl=en&rclk=1",
        "coordinates": {
            "latitude": 19.1168214,
            "longitude": 77.96418609999999
        }
    },
    {
        "name": "Masjid -e- Bilal",
        "main_category": "Mosque",
        "address": "VRRR+WQQ Masjid -e- Bilal, Dharmabad, Maharashtra 431809",
        "detailed_address": {
            "ward": null,
            "street": "VRRR+WQQ",
            "city": "Dharmabad",
            "postal_code": "431809",
            "state": "Maharashtra",
            "country_code": "IN"
        },
        "images": [
            {
                "about": "All",
                "link": "https://lh5.googleusercontent.com/p/AF1QipNx6d-OwNpZqHNX5kL7h8bHgbUcbEx5rBdSPvnn=w224-h298-k-no"
            },
            {
                "about": "Videos",
                "link": "https://lh5.googleusercontent.com/p/AF1QipOtRA59rAGtooqXeXA1WN_OU263uhwzXPDGXjvU=w224-h407-k-no"
            }
        ],
        "link": "https://www.google.com/maps/place/Masjid+-e-+Bilal/data=!4m7!3m6!1s0x3bce09521b8c2309:0xcc8cbdc30dbc6427!8m2!3d18.8923325!4d77.8419851!16s%2Fg%2F11c481zd1v!19sChIJCSOMG1IJzjsRJ2S8DcO9jMw?authuser=0&hl=en&rclk=1",
        "coordinates": {
            "latitude": 18.8923325,
            "longitude": 77.8419851
        }
    },
    {
        "name": "Madhar Khan Masjid",
        "main_category": "Mosque",
        "address": "4X23+8HV Madhar Khan Masjid, National Highway 222, Khan Auto Nagar, Bhainsa, Telangana 504103",
        "detailed_address": {
            "ward": "Khan Auto Nagar",
            "street": "4X23+8HV, National Highway 222",
            "city": "Bhainsa",
            "postal_code": "504103",
            "state": "Telangana",
            "country_code": "IN"
        },
        "images": [
            {
                "about": "All",
                "link": "https://lh5.googleusercontent.com/p/AF1QipP4jH7ci67OCVEgu1wVQwpiCe72He4UsCTtc1xk=w224-h298-k-no"
            },
            {
                "about": "Videos",
                "link": "https://lh5.googleusercontent.com/p/AF1QipMrCsnr1McjqZ4FBzwNNlZ3wQO3cQXke1QE6onm=w529-h298-k-no"
            }
        ],
        "link": "https://www.google.com/maps/place/Madhar+Khan+Masjid/data=!4m7!3m6!1s0x3bcdfe41b557545b:0xd92f6034489efa34!8m2!3d19.1008595!4d77.9539175!16s%2Fg%2F11b7c49jxk!19sChIJW1RXtUH-zTsRNPqeSDRgL9k?authuser=0&hl=en&rclk=1",
        "coordinates": {
            "latitude": 19.1008595,
            "longitude": 77.9539175
        }
    },
    {
        "name": "MOHAMMADIYA MASJID",
        "main_category": "Mosque",
        "address": "XVR7+2R5 MOHAMMADIYA MASJID, Nandgam, Telangana 504102",
        "detailed_address": {
            "ward": null,
            "street": "XVR7+2R5",
            "city": "Nandgam",
            "postal_code": "504102",
            "state": "Telangana",
            "country_code": "IN"
        },
        "images": [
            {
                "about": "All",
                "link": "https://lh5.googleusercontent.com/p/AF1QipNmGIGza_X-bueNJJKra2fFHfqPA__DQVwqXhBX=w529-h298-k-no"
            }
        ],
        "link": "https://www.google.com/maps/place/MOHAMMADIYA+MASJID/data=!4m7!3m6!1s0x3bce07528ded7757:0x80b1e2eefa1c65c1!8m2!3d18.9900182!4d77.8646149!16s%2Fg%2F11tcm00p9l!19sChIJV3ftjVIHzjsRwWUc-u7isYA?authuser=0&hl=en&rclk=1",
        "coordinates": {
            "latitude": 18.990018199999998,
            "longitude": 77.86461489999999
        }
    },
    {
        "name": "Makka masjid",
        "main_category": "Mosque",
        "address": "4X49+5GM Makka masjid, Owaisi nagar, Bhainsa, Telangana 504103",
        "detailed_address": {
            "ward": "Owaisi nagar",
            "street": "4X49+5GM",
            "city": "Bhainsa",
            "postal_code": "504103",
            "state": "Telangana",
            "country_code": "IN"
        },
        "images": [
            {
                "about": "All",
                "link": "https://lh5.googleusercontent.com/p/AF1QipOVp7oa0V5AS7MKc9oRUP0V9DMhuRA6LbaVxY2i=w224-h298-k-no"
            },
            {
                "about": "Videos",
                "link": "https://lh5.googleusercontent.com/p/AF1QipN80o16-wIDVhH9Hx2XPgMpHCfcdsMCFXsx0xne=w400-h298-k-no"
            }
        ],
        "link": "https://www.google.com/maps/place/Makka+masjid/data=!4m7!3m6!1s0x3bcdff0eae709cdd:0x6854d10775edfe3!8m2!3d19.1054591!4d77.9688006!16s%2Fg%2F11j7cswkz7!19sChIJ3Zxwrg7_zTsR499edxBNhQY?authuser=0&hl=en&rclk=1",
        "coordinates": {
            "latitude": 19.105459099999997,
            "longitude": 77.9688006
        }
    },
    {
        "name": "Jama masjid Taroda",
        "main_category": "Mosque",
        "address": "Jama masjid Taroda, Bus Stop, Tharoda, Taroda, Telangana 504102",
        "detailed_address": {
            "ward": null,
            "street": "Bus Stop, Tharoda",
            "city": "Taroda",
            "postal_code": "504102",
            "state": "Telangana",
            "country_code": "IN"
        },
        "images": [
            {
                "about": "All",
                "link": "https://lh5.googleusercontent.com/p/AF1QipPWYlnTnXFBlT9ZArQAe-HE1MI4jrImxTZmGatM=w528-h298-k-no"
            },
            {
                "about": "Videos",
                "link": "https://lh5.googleusercontent.com/p/AF1QipMiJWhUoR33m1E9A21c9K6JuU2dTnyqNrLHExw=w224-h407-k-no"
            }
        ],
        "link": "https://www.google.com/maps/place/Jama+masjid+Taroda/data=!4m7!3m6!1s0x3bcdfd8c41ffa3d9:0x6422385f670ace37!8m2!3d19.0130289!4d77.933492!16s%2Fg%2F11h585lwwn!19sChIJ2aP_QYz9zTsRN84KZ184ImQ?authuser=0&hl=en&rclk=1",
        "coordinates": {
            "latitude": 19.0130289,
            "longitude": 77.933492
        }
    },
    {
        "name": "Muslim Qabristan Nandgam",
        "main_category": "Mosque",
        "address": "XVR7+5J9 Muslim Qabristan Nandgam, Nandgam, Telangana 504102",
        "detailed_address": {
            "ward": null,
            "street": "XVR7+5J9",
            "city": "Nandgam",
            "postal_code": null,
            "state": "Telangana",
            "country_code": "IN"
        },
        "images": [],
        "link": "https://www.google.com/maps/place/Muslim+Qabristan+Nandgam/data=!4m7!3m6!1s0x3bce07ab91b1e49f:0x666a58e51e7530ef!8m2!3d18.9904156!4d77.8640952!16s%2Fg%2F11tmfljntd!19sChIJn-SxkasHzjsR7zB1HuVYamY?authuser=0&hl=en&rclk=1",
        "coordinates": {
            "latitude": 18.9904156,
            "longitude": 77.8640952
        }
    },
    {
        "name": "Masjid",
        "main_category": "Mosque",
        "address": "V4J3+G35 Masjid, Talveda, Telangana 503212",
        "detailed_address": {
            "ward": null,
            "street": "V4J3+G35",
            "city": "Talveda",
            "postal_code": "503212",
            "state": "Telangana",
            "country_code": "IN"
        },
        "images": [
            {
                "about": "All",
                "link": "https://lh5.googleusercontent.com/p/AF1QipMra2c2ujdLYY-zELW15yIg1WPq6eLgmyVT5ja0=w397-h298-k-no"
            },
            {
                "about": "Street View & 360deg",
                "link": "https://streetviewpixels-pa.googleapis.com/v1/thumbnail?panoid=3QOx_wj-qtdz_PBtOjFVdQ&cb_client=maps_sv.tactile.gps&w=224&h=298&yaw=110.09798&pitch=0&thumbfov=100"
            }
        ],
        "link": "https://www.google.com/maps/place/Masjid/data=!4m7!3m6!1s0x3bcde61bd6f5a8df:0x2075fc2b5df30b25!8m2!3d18.8812633!4d78.1027307!16s%2Fg%2F11d_bkbh7z!19sChIJ36j11hvmzTsRJQvzXSv8dSA?authuser=0&hl=en&rclk=1",
        "coordinates": {
            "latitude": 18.8812633,
            "longitude": 78.1027307
        }
    },
    {
        "name": "Eidgah",
        "main_category": "Mosque",
        "address": "VXQ2+7MV Eidgah, Unnamed Road, Basar, Telangana 504101",
        "detailed_address": {
            "ward": null,
            "street": "VXQ2+7MV, Unnamed Road",
            "city": "Basar",
            "postal_code": "504101",
            "state": "Telangana",
            "country_code": "IN"
        },
        "images": [
            {
                "about": "All",
                "link": "https://lh5.googleusercontent.com/p/AF1QipNKzM8qzdm0Y4mmaIUXDbNv95kVCWKXvPx4N0fX=w397-h298-k-no"
            },
            {
                "about": "Street View & 360deg",
                "link": "https://streetviewpixels-pa.googleapis.com/v1/thumbnail?panoid=sUgsBI8GYLSaWZV1o8--cg&cb_client=maps_sv.tactile.gps&w=224&h=298&yaw=285.1161&pitch=0&thumbfov=100"
            }
        ],
        "link": "https://www.google.com/maps/place/Eidgah/data=!4m7!3m6!1s0x3bcde164e3bf8225:0x2cf329b4e243115a!8m2!3d18.888246!4d77.951684!16s%2Fg%2F11jn2m4mzj!19sChIJJYK_42ThzTsRWhFD4rQp8yw?authuser=0&hl=en&rclk=1",
        "coordinates": {
            "latitude": 18.888246,
            "longitude": 77.951684
        }
    },
    {
        "name": "Masjid e Ansar",
        "main_category": "Mosque",
        "address": "XWH8+35H Masjid e Ansar, Mudhole, Telangana 504102",
        "detailed_address": {
            "ward": null,
            "street": "XWH8+35H",
            "city": "Mudhole",
            "postal_code": "504102",
            "state": "Telangana",
            "country_code": "IN"
        },
        "images": [],
        "link": "https://www.google.com/maps/place/Masjid+e+Ansar/data=!4m7!3m6!1s0x3bce0808663e36b7:0x507a7de2ed269433!8m2!3d18.9776815!4d77.9154895!16s%2Fg%2F11fyzflcvx!19sChIJtzY-ZggIzjsRM5Qm7eJ9elA?authuser=0&hl=en&rclk=1",
        "coordinates": {
            "latitude": 18.9776815,
            "longitude": 77.91548949999999
        }
    },
    {
        "name": "Jama Masjid",
        "main_category": "Place of worship",
        "address": "3W6R+V78 Jama Masjid, Dahegaon, Telangana 504102",
        "detailed_address": {
            "ward": null,
            "street": "3W6R+V78",
            "city": "Dahegaon",
            "postal_code": "504102",
            "state": "Telangana",
            "country_code": "IN"
        },
        "images": [
            {
                "about": "All",
                "link": "https://lh5.googleusercontent.com/p/AF1QipOpN31pNYpR7NQ4r9SRQZDNfbL3FvXhAe5_kdyV=w397-h298-k-no"
            },
            {
                "about": "Street View & 360deg",
                "link": "https://streetviewpixels-pa.googleapis.com/v1/thumbnail?panoid=y2grLjiOCNG9IRiaQNr5Hw&cb_client=maps_sv.tactile.gps&w=224&h=298&yaw=83.45545&pitch=0&thumbfov=100"
            }
        ],
        "link": "https://www.google.com/maps/place/Jama+Masjid/data=!4m7!3m6!1s0x3bcdfdefea2d5cf5:0x8b06b880e886f9f3!8m2!3d19.062155!4d77.9407105!16s%2Fg%2F11btxhlp73!19sChIJ9Vwt6u_9zTsR8_mG6IC4Bos?authuser=0&hl=en&rclk=1",
        "coordinates": {
            "latitude": 19.062155,
            "longitude": 77.9407105
        }
    },
    {
        "name": "BADA PAHAD DARGAH",
        "main_category": "Mosque",
        "address": "2WM6+PPG BADA PAHAD DARGAH, Machkal, Ramtek, Telangana 504102",
        "detailed_address": {
            "ward": null,
            "street": "2WM6+PPG",
            "city": "Machkal, Ramtek",
            "postal_code": null,
            "state": "Telangana",
            "country_code": "IN"
        },
        "images": [],
        "link": "https://www.google.com/maps/place/BADA+PAHAD+DARGAH/data=!4m7!3m6!1s0x3bce074c2139200b:0x84e068ff1f558712!8m2!3d19.0343064!4d77.9118191!16s%2Fg%2F11pz0mmz2n!19sChIJCyA5IUwHzjsREodVH_9o4IQ?authuser=0&hl=en&rclk=1",
        "coordinates": {
            "latitude": 19.0343064,
            "longitude": 77.9118191
        }
    },
    {
        "name": "Abdula mosque",
        "main_category": "Mosque",
        "address": "VRXV+96X Abdula mosque, Dharmabad, Maharashtra 431809",
        "detailed_address": {
            "ward": null,
            "street": "VRXV+96X",
            "city": "Dharmabad",
            "postal_code": "431809",
            "state": "Maharashtra",
            "country_code": "IN"
        },
        "images": [],
        "link": "https://www.google.com/maps/place/Abdula+mosque/data=!4m7!3m6!1s0x3bce099a3232c25d:0xe9ed8c5631fa0463!8m2!3d18.8985373!4d77.8428997!16s%2Fg%2F11vdm0pv73!19sChIJXcIyMpoJzjsRYwT6MVaM7ek?authuser=0&hl=en&rclk=1",
        "coordinates": {
            "latitude": 18.898537299999997,
            "longitude": 77.84289969999999
        }
    },
    {
        "name": "Jama masjid",
        "main_category": "Mosque",
        "address": "Jama masjid, Mahendher fertiliser, Ola, Telangana 504109",
        "detailed_address": {
            "ward": null,
            "street": "Mahendher fertiliser",
            "city": "Ola",
            "postal_code": "504109",
            "state": "Telangana",
            "country_code": "IN"
        },
        "images": [
            {
                "about": "All",
                "link": "https://lh5.googleusercontent.com/p/AF1QipNtbaCXVv1Oz3MKcnN6tBOIH0Vui1TGVQGRE7yQ=w224-h497-k-no"
            }
        ],
        "link": "https://www.google.com/maps/place/Jama+masjid/data=!4m7!3m6!1s0x3bd207e78142f0d5:0xfe16d5ecc5fee1da!8m2!3d19.1802439!4d78.0713271!16s%2Fg%2F11fv3lytz1!19sChIJ1fBCgecH0jsR2uH-xezVFv4?authuser=0&hl=en&rclk=1",
        "coordinates": {
            "latitude": 19.1802439,
            "longitude": 78.07132709999999
        }
    },
    {
        "name": "Masjid-e-umare-farooq",
        "main_category": "Mosque",
        "address": "VWCV+XWR Masjid-e-umare-farooq, Basar, Telangana 504101",
        "detailed_address": {
            "ward": null,
            "street": "VWCV+XWR",
            "city": "Basar",
            "postal_code": null,
            "state": "Telangana",
            "country_code": "IN"
        },
        "images": [
            {
                "about": "All",
                "link": "https://lh5.googleusercontent.com/p/AF1QipPtyRnx91kxEfzOh8PQUUNM1fB6XgDWR95YS43p=w397-h298-k-no"
            },
            {
                "about": "Street View & 360deg",
                "link": "https://streetviewpixels-pa.googleapis.com/v1/thumbnail?panoid=yfbF_T2VIjM7LW81sc9i8A&cb_client=maps_sv.tactile.gps&w=224&h=298&yaw=267.46387&pitch=0&thumbfov=100"
            },
            {
                "about": "Videos",
                "link": "https://lh5.googleusercontent.com/p/AF1QipPJg3vMw3HrbqWp-xay8x6k_a_gSm-7lBM3gQeK=w224-h398-k-no"
            }
        ],
        "link": "https://www.google.com/maps/place/Masjid-e-umare-farooq/data=!4m7!3m6!1s0x3bcde155a4892165:0xf683d03d0a4ee96e!8m2!3d18.872485!4d77.9447636!16s%2Fg%2F11pwxm21cv!19sChIJZSGJpFXhzTsRbulOCj3Qg_Y?authuser=0&hl=en&rclk=1",
        "coordinates": {
            "latitude": 18.872484999999998,
            "longitude": 77.9447636
        }
    },
    {
        "name": "Masjid-e-amina. msjd mynh",
        "main_category": "Mosque",
        "address": "WPVR+97F Masjid-e-amina. msjd mynh, Karkheli, Maharashtra 431808",
        "detailed_address": {
            "ward": null,
            "street": "WPVR+97F",
            "city": "Karkheli",
            "postal_code": "431808",
            "state": "Maharashtra",
            "country_code": "IN"
        },
        "images": [
            {
                "about": "All",
                "link": "https://lh5.googleusercontent.com/p/AF1QipPTDqSRrKF9yZtMMb3nSavdmn4PynEZb63stDAZ=w224-h298-k-no-pi-0-ya5.9999933-ro-0-fo100"
            },
            {
                "about": "Street View & 360deg",
                "link": "https://lh5.googleusercontent.com/p/AF1QipPTDqSRrKF9yZtMMb3nSavdmn4PynEZb63stDAZ=w224-h298-k-no-pi-0-ya5.9999933-ro-0-fo100"
            }
        ],
        "link": "https://www.google.com/maps/place/Masjid-e-amina.+%D9%85%D8%B3%D8%AC%D8%AF+%D8%A7%D9%85%DB%8C%D9%86%DB%81%E2%80%AD/data=!4m7!3m6!1s0x3bce1192d0aa5f01:0x825404f8dc0b7017!8m2!3d18.9434276!4d77.7406589!16s%2Fg%2F11rg7sjlld!19sChIJAV-q0JIRzjsRF3AL3PgEVII?authuser=0&hl=en&rclk=1",
        "coordinates": {
            "latitude": 18.9434276,
            "longitude": 77.7406589
        }
    },
    {
        "name": "Masjid e Mubeen",
        "main_category": "Mosque",
        "address": "XWF5+7JW Masjid e Mubeen, Mudhole, Telangana 504102",
        "detailed_address": {
            "ward": null,
            "street": "XWF5+7JW",
            "city": "Mudhole",
            "postal_code": "504102",
            "state": "Telangana",
            "country_code": "IN"
        },
        "images": [],
        "link": "https://www.google.com/maps/place/Masjid+e+Mubeen/data=!4m7!3m6!1s0x3bce080c712766a7:0x4da094a3ac35a2d9!8m2!3d18.9732415!4d77.9090696!16s%2Fg%2F11f0_gjyz0!19sChIJp2YncQwIzjsR2aI1rKOUoE0?authuser=0&hl=en&rclk=1",
        "coordinates": {
            "latitude": 18.9732415,
            "longitude": 77.9090696
        }
    },
    {
        "name": "Masjid-e-Ibrahim",
        "main_category": "Mosque",
        "address": "4X3F+MGW Masjid-e-Ibrahim, Owasi Nagar, Bhainsa, Telangana 504103",
        "detailed_address": {
            "ward": "Owasi Nagar",
            "street": "4X3F+MGW",
            "city": "Bhainsa",
            "postal_code": "504103",
            "state": "Telangana",
            "country_code": "IN"
        },
        "images": [
            {
                "about": "All",
                "link": "https://lh5.googleusercontent.com/p/AF1QipOoEU1YJySEn4_7Zhos4eNXZNQ-pk7MftimqMF5=w529-h298-k-no"
            }
        ],
        "link": "https://www.google.com/maps/place/Masjid-e-Ibrahim/data=!4m7!3m6!1s0x3bcdff2e3ed8c869:0x9a1ebb33c7592548!8m2!3d19.1042258!4d77.9738428!16s%2Fg%2F11jpgpwxgp!19sChIJacjYPi7_zTsRSCVZxzO7Hpo?authuser=0&hl=en&rclk=1",
        "coordinates": {
            "latitude": 19.1042258,
            "longitude": 77.9738428
        }
    },
    {
        "name": "Owaisi masjid",
        "main_category": "Mosque",
        "address": "4X3C+PVW Owaisi masjid, Rd number 2, Bhainsa, Telangana 504103",
        "detailed_address": {
            "ward": null,
            "street": "4X3C+PVW, Rd number 2",
            "city": "Bhainsa",
            "postal_code": "504103",
            "state": "Telangana",
            "country_code": "IN"
        },
        "images": [
            {
                "about": "All",
                "link": "https://lh5.googleusercontent.com/p/AF1QipN2qBcj1bacLG5mkM1RyVE5_C19TB5ipjsUp5W4=w224-h398-k-no"
            },
            {
                "about": "Videos",
                "link": "https://lh5.googleusercontent.com/p/AF1QipPg6bt5oVPHbgyL3OHfx8y4qnQzO4BpXG1pVetp=w224-h398-k-no"
            }
        ],
        "link": "https://www.google.com/maps/place/Owaisi+masjid/data=!4m7!3m6!1s0x3bcdffb38f817769:0x3746a83dd7b84291!8m2!3d19.1044739!4d77.9714137!16s%2Fg%2F11s5627lk5!19sChIJaXeBj7P_zTsRkUK41z2oRjc?authuser=0&hl=en&rclk=1",
        "coordinates": {
            "latitude": 19.1044739,
            "longitude": 77.9714137
        }
    },
    {
        "name": "Darul Uloom Faiz ul Quran",
        "main_category": "Mosque",
        "address": "XWRC+9P3 Darul Uloom Faiz ul Quran, Adilabad, Telangana 504102",
        "detailed_address": {
            "ward": null,
            "street": "XWRC+9P3",
            "city": "Adilabad",
            "postal_code": null,
            "state": "Telangana",
            "country_code": "IN"
        },
        "images": [
            {
                "about": "All",
                "link": "https://lh5.googleusercontent.com/p/AF1QipNUhJdA_k5_x5fvhKJuMMZKx6mzR537tlrXrr4B=w397-h298-k-no"
            }
        ],
        "link": "https://www.google.com/maps/place/Darul+Uloom+Faiz+ul+Quran/data=!4m7!3m6!1s0x3bce0764d16d9c37:0x9f8a0bf244810834!8m2!3d18.9908992!4d77.9218055!16s%2Fg%2F11g1fv10bs!19sChIJN5xt0WQHzjsRNAiBRPILip8?authuser=0&hl=en&rclk=1",
        "coordinates": {
            "latitude": 18.990899199999998,
            "longitude": 77.92180549999999
        }
    },
    {
        "name": "Masjid e Ilaqa e Mashaiq",
        "main_category": "Mosque",
        "address": "4X86+MR9 Masjid e Ilaqa e Mashaiq, Old Bazar Rd, Bhainsa, Telangana 504103",
        "detailed_address": {
            "ward": null,
            "street": "4X86+MR9, Old Bazar Rd",
            "city": "Bhainsa",
            "postal_code": "504103",
            "state": "Telangana",
            "country_code": "IN"
        },
        "images": [
            {
                "about": "All",
                "link": "https://lh5.googleusercontent.com/p/AF1QipNfAiKqiFdK6KltawTrdk7jCRBIweacxwWVSPM=w397-h298-k-no"
            },
            {
                "about": "Street View & 360deg",
                "link": "https://streetviewpixels-pa.googleapis.com/v1/thumbnail?panoid=TQH9Ts2VN92I-rJ5eOJ2Mw&cb_client=maps_sv.tactile.gps&w=224&h=298&yaw=330.3619&pitch=0&thumbfov=100"
            }
        ],
        "link": "https://www.google.com/maps/place/Masjid+e+Ilaqa+e+Mashaiq/data=!4m7!3m6!1s0x3bcdffbb718107df:0x308312419b8ea3ee!8m2!3d19.11667!4d77.9621098!16s%2Fg%2F11np7rc810!19sChIJ3weBcbv_zTsR7qOOm0ESgzA?authuser=0&hl=en&rclk=1",
        "coordinates": {
            "latitude": 19.11667,
            "longitude": 77.9621098
        }
    },
    {
        "name": "Dargah Ahmed Pasha Quadri",
        "main_category": "Mosque",
        "address": "XWF5+8JF Dargah Ahmed Pasha Quadri, Mudhole, Telangana 504102",
        "detailed_address": {
            "ward": null,
            "street": "XWF5+8JF",
            "city": "Mudhole",
            "postal_code": "504102",
            "state": "Telangana",
            "country_code": "IN"
        },
        "images": [],
        "link": "https://www.google.com/maps/place/Dargah+Ahmed+Pasha+Quadri/data=!4m7!3m6!1s0x3bce080c77299c19:0x9f92a587190f7f8e!8m2!3d18.973309!4d77.9090555!16s%2Fg%2F11fy_2cstl!19sChIJGZwpdwwIzjsRjn8PGYelkp8?authuser=0&hl=en&rclk=1",
        "coordinates": {
            "latitude": 18.973309,
            "longitude": 77.9090555
        }
    },
    {
        "name": "Aqsa Masjid",
        "main_category": "Mosque",
        "address": "4X4G+44V Aqsa Masjid, Bhainsa, Telangana 504103",
        "detailed_address": {
            "ward": null,
            "street": "4X4G+44V",
            "city": "Bhainsa",
            "postal_code": "504103",
            "state": "Telangana",
            "country_code": "IN"
        },
        "images": [
            {
                "about": "All",
                "link": "https://lh5.googleusercontent.com/p/AF1QipPqrgfGxuOuRGpWm8sYrEsWg6SZm8deox-iUVps=w224-h398-k-no"
            },
            {
                "about": "Videos",
                "link": "https://lh5.googleusercontent.com/p/AF1QipNp4puXfZz_YiaCnY8rE_z7XyyyC9HrAlKrb4je=w224-h407-k-no"
            }
        ],
        "link": "https://www.google.com/maps/place/Aqsa+Masjid/data=!4m7!3m6!1s0x3bcdffefc08d1e65:0x78398d3d727b1cd0!8m2!3d19.1053514!4d77.9752969!16s%2Fg%2F11jf0jv14x!19sChIJZR6NwO__zTsR0Bx7cj2NOXg?authuser=0&hl=en&rclk=1",
        "coordinates": {
            "latitude": 19.1053514,
            "longitude": 77.9752969
        }
    },
    {
        "name": "Dargah masjid",
        "main_category": "Mosque",
        "address": "4X86+MR9 Dargah masjid, Old Bazar Rd, Bhainsa, Telangana 504103",
        "detailed_address": {
            "ward": null,
            "street": "4X86+MR9, Old Bazar Rd",
            "city": "Bhainsa",
            "postal_code": "504103",
            "state": "Telangana",
            "country_code": "IN"
        },
        "images": [
            {
                "about": "All",
                "link": "https://lh5.googleusercontent.com/p/AF1QipNIUk8WfUNOZtV-nRP4L6sQk1UzLXzZNZ6w9k5S=w224-h298-k-no"
            }
        ],
        "link": "https://www.google.com/maps/place/Dargah+masjid/data=!4m7!3m6!1s0x3bcdff763fbf880f:0x512b48d84c4231e0!8m2!3d19.1167346!4d77.962365!16s%2Fg%2F11sz2st0k3!19sChIJD4i_P3b_zTsR4DFCTNhIK1E?authuser=0&hl=en&rclk=1",
        "coordinates": {
            "latitude": 19.1167346,
            "longitude": 77.96236499999999
        }
    },
    {
        "name": "Masjid kothwal",
        "main_category": "Mosque",
        "address": "VXP3+V4Q Masjid kothwal, Unnamed Road, Basar, Telangana 504101",
        "detailed_address": {
            "ward": null,
            "street": "VXP3+V4Q, Unnamed Road",
            "city": "Basar",
            "postal_code": "504101",
            "state": "Telangana",
            "country_code": "IN"
        },
        "images": [
            {
                "about": "All",
                "link": "https://lh5.googleusercontent.com/p/AF1QipP1ORtNr19gtgQ7RgBkjI8U29WMNHeLn0R4vQ5U=w224-h398-k-no"
            },
            {
                "about": "Dome",
                "link": "https://lh5.googleusercontent.com/p/AF1QipPvBsEVRY0HS4FOM6_fCqjAKJMBNFGewO0YTDkG=w529-h298-k-no"
            },
            {
                "about": "Street View & 360deg",
                "link": "https://streetviewpixels-pa.googleapis.com/v1/thumbnail?panoid=Z9Y_GxOZ2Y7n5AogyYZfYg&cb_client=maps_sv.tactile.gps&w=224&h=298&yaw=110.54984&pitch=0&thumbfov=100"
            }
        ],
        "link": "https://www.google.com/maps/place/Masjid+kothwal/data=!4m7!3m6!1s0x3bcde16442d9a5c5:0x6573bdfe9c430a9c!8m2!3d18.8872129!4d77.9528679!16s%2Fg%2F11kky5c5x4!19sChIJxaXZQmThzTsRnApDnP69c2U?authuser=0&hl=en&rclk=1",
        "coordinates": {
            "latitude": 18.887212899999998,
            "longitude": 77.9528679
        }
    },
    {
        "name": "Wattoli Darga ",
        "main_category": "Mosque",
        "address": "X3H6+4X6 Wattoli Darga , Wastapur, Telangana 504101",
        "detailed_address": {
            "ward": null,
            "street": "X3H6+4X6",
            "city": "Wastapur",
            "postal_code": "504101",
            "state": "Telangana",
            "country_code": "IN"
        },
        "images": [],
        "link": "https://www.google.com/maps/place/Wattoli+Darga+%F0%9F%95%8B/data=!4m7!3m6!1s0x3bcde5434ff9fddb:0x570612386c856213!8m2!3d18.977918!4d78.061883!16s%2Fg%2F11vb_7nnp1!19sChIJ2_35T0PlzTsRE2KFbDgSBlc?authuser=0&hl=en&rclk=1",
        "coordinates": {
            "latitude": 18.977918,
            "longitude": 78.061883
        }
    },
    {
        "name": "JAME MASJID msiid Nagepoor",
        "main_category": "Mosque",
        "address": "RX2W+G8Q JAME MASJID msiid Nagepoor, Basara Rd, near zphs, Nagepur, Telangana 503245",
        "detailed_address": {
            "ward": null,
            "street": "RX2W+G8Q, Basara Rd, near zphs",
            "city": "Nagepur",
            "postal_code": null,
            "state": "Telangana",
            "country_code": "IN"
        },
        "images": [],
        "link": "https://www.google.com/maps/place/JAME+MASJID+%E0%B0%AE%E0%B0%B8%E0%B1%80%E0%B0%A6%E0%B1%8D+Nagepoor/data=!4m7!3m6!1s0x3bcde1757e333251:0x3f5941690a1096c8!8m2!3d18.8013323!4d77.9958577!16s%2Fg%2F11h3kbhg6b!19sChIJUTIzfnXhzTsRyJYQCmlBWT8?authuser=0&hl=en&rclk=1",
        "coordinates": {
            "latitude": 18.8013323,
            "longitude": 77.9958577
        }
    },
    {
        "name": "msjid Masjid. msjd",
        "main_category": "Mosque",
        "address": "XP4V+9X7 msjid Masjid. msjd, Unnamed Road, Karkheli, Maharashtra 431808",
        "detailed_address": {
            "ward": null,
            "street": "XP4V+9X7, Unnamed Road",
            "city": "Karkheli",
            "postal_code": "431808",
            "state": "Maharashtra",
            "country_code": "IN"
        },
        "images": [
            {
                "about": "All",
                "link": "https://lh5.googleusercontent.com/p/AF1QipMs6gj8gxNv8RjHRoYIS013kpBAl2MmLT2wUqDW=w224-h298-k-no"
            }
        ],
        "link": "https://www.google.com/maps/place/%E0%A4%AE%E0%A4%B8%E0%A5%8D%E0%A4%9C%E0%A4%BF%E0%A4%A6+Masjid.+%D9%85%D8%B3%D8%AC%D8%AF%E2%80%AD/data=!4m7!3m6!1s0x3bce1126308120f5:0xa0e2b903ce8aaec5!8m2!3d18.9559238!4d77.7449283!16s%2Fg%2F11fkvy07w_!19sChIJ9SCBMCYRzjsRxa6KzgO54qA?authuser=0&hl=en&rclk=1",
        "coordinates": {
            "latitude": 18.9559238,
            "longitude": 77.7449283
        }
    },
    {
        "name": "Masjid -e-umar Farooq",
        "main_category": "Mosque",
        "address": "4X8C+X5Q Masjid -e-umar Farooq, Adilabad, Telangana 504001",
        "detailed_address": {
            "ward": null,
            "street": "4X8C+X5Q",
            "city": "Adilabad",
            "postal_code": "504001",
            "state": "Telangana",
            "country_code": "IN"
        },
        "images": [],
        "link": "https://www.google.com/maps/place/Masjid+-e-umar+Farooq/data=!4m7!3m6!1s0x3bcdfe5685ab8253:0xb3bfd2124501d21e!8m2!3d19.1174673!4d77.9704947!16s%2Fg%2F11c2k7blql!19sChIJU4KrhVb-zTsRHtIBRRLSv7M?authuser=0&hl=en&rclk=1",
        "coordinates": {
            "latitude": 19.117467299999998,
            "longitude": 77.9704947
        }
    },
    {
        "name": "Masjid e Ehtesabi",
        "main_category": "Mosque",
        "address": "XWF6+X43 Masjid e Ehtesabi, Mudhole, Telangana 504102",
        "detailed_address": {
            "ward": null,
            "street": "XWF6+X43",
            "city": "Mudhole",
            "postal_code": "504102",
            "state": "Telangana",
            "country_code": "IN"
        },
        "images": [],
        "link": "https://www.google.com/maps/place/Masjid+e+Ehtesabi/data=!4m7!3m6!1s0x3bce080bef54c367:0x4a93e5c981198351!8m2!3d18.9748753!4d77.9102991!16s%2Fg%2F11fyzfn1m_!19sChIJZ8NU7wsIzjsRUYMZgcnlk0o?authuser=0&hl=en&rclk=1",
        "coordinates": {
            "latitude": 18.9748753,
            "longitude": 77.9102991
        }
    },
    {
        "name": "Jama Masjid (Dhagaon)",
        "main_category": "Mosque",
        "address": "2V3M+H5J Jama Masjid (Dhagaon), Dhagaon, Telangana 504102",
        "detailed_address": {
            "ward": null,
            "street": "2V3M+H5J",
            "city": "Dhagaon",
            "postal_code": "504102",
            "state": "Telangana",
            "country_code": "IN"
        },
        "images": [
            {
                "about": "All",
                "link": "https://lh5.googleusercontent.com/p/AF1QipM7A9z4eknFuDnupeVpi7lcgrsExIjumjSeNyi5=w397-h298-k-no"
            }
        ],
        "link": "https://www.google.com/maps/place/Jama+Masjid+%28Dhagaon%29/data=!4m7!3m6!1s0x3bce0727bed48a03:0xca3f528a32d322e2!8m2!3d19.0039639!4d77.8828794!16s%2Fg%2F11trgx4wrs!19sChIJA4rUvicHzjsR4iLTMopSP8o?authuser=0&hl=en&rclk=1",
        "coordinates": {
            "latitude": 19.0039639,
            "longitude": 77.8828794
        }
    },
    {
        "name": "dawal malik dargah(Dhagaon)",
        "main_category": "Mosque",
        "address": "2V3M+965 dawal malik dargah(Dhagaon), Dhagaon, Telangana 504102",
        "detailed_address": {
            "ward": null,
            "street": "2V3M+965",
            "city": "Dhagaon",
            "postal_code": "504102",
            "state": "Telangana",
            "country_code": "IN"
        },
        "images": [],
        "link": "https://www.google.com/maps/place/dawal+malik+dargah%28Dhagaon%29/data=!4m7!3m6!1s0x3bce0784a4b48061:0xdbf15b4f084afd8f!8m2!3d19.0031897!4d77.8832948!16s%2Fg%2F11kjm3syc4!19sChIJYYC0pIQHzjsRj_1KCE9b8ds?authuser=0&hl=en&rclk=1",
        "coordinates": {
            "latitude": 19.0031897,
            "longitude": 77.8832948
        }
    },
    {
        "name": "Madarse Mohammadia Talim Ul Quran Wo Deniyat",
        "main_category": "Mosque",
        "address": "XWG7+PGX Madarse Mohammadia Talim Ul Quran Wo Deniyat, Mudhole, Telangana 504102",
        "detailed_address": {
            "ward": null,
            "street": "XWG7+PGX",
            "city": "Mudhole",
            "postal_code": "504102",
            "state": "Telangana",
            "country_code": "IN"
        },
        "images": [],
        "link": "https://www.google.com/maps/place/Madarse+Mohammadia+Talim+Ul+Quran+Wo+Deniyat/data=!4m7!3m6!1s0x3bce080855555555:0xa685082d5b291ae3!8m2!3d18.9768748!4d77.9138661!16s%2Fg%2F11fy_395k9!19sChIJVVVVVQgIzjsR4xopWy0IhaY?authuser=0&hl=en&rclk=1",
        "coordinates": {
            "latitude": 18.976874799999997,
            "longitude": 77.91386609999999
        }
    },
    {
        "name": "Masjid-e-mohammed ali khan",
        "main_category": "Mosque",
        "address": "4X66+HJX Masjid-e-mohammed ali khan, Bhainsa, Telangana 504103",
        "detailed_address": {
            "ward": null,
            "street": "4X66+HJX",
            "city": "Bhainsa",
            "postal_code": "504103",
            "state": "Telangana",
            "country_code": "IN"
        },
        "images": [
            {
                "about": "All",
                "link": "https://streetviewpixels-pa.googleapis.com/v1/thumbnail?panoid=39f_Mz6M83l5eWrRefQxzw&cb_client=maps_sv.tactile.gps&w=224&h=298&yaw=265.18326&pitch=0&thumbfov=100"
            },
            {
                "about": "Street View & 360deg",
                "link": "https://streetviewpixels-pa.googleapis.com/v1/thumbnail?panoid=39f_Mz6M83l5eWrRefQxzw&cb_client=maps_sv.tactile.gps&w=224&h=298&yaw=265.18326&pitch=0&thumbfov=100"
            },
            {
                "about": "Videos",
                "link": "https://lh5.googleusercontent.com/p/AF1QipMY87evyv6RoYiXQuZEw1V3Q34OFkAoNJEVmwbQ=w298-h298-k-no"
            }
        ],
        "link": "https://www.google.com/maps/place/Masjid-e-mohammed+ali+khan/data=!4m7!3m6!1s0x3bcdff51973f1793:0x47b905b99f17ef30!8m2!3d19.1115918!4d77.9615985!16s%2Fg%2F11pzpc_hb7!19sChIJkxc_l1H_zTsRMO8Xn7kFuUc?authuser=0&hl=en&rclk=1",
        "coordinates": {
            "latitude": 19.1115918,
            "longitude": 77.9615985
        }
    },
    {
        "name": "Jaama masjid",
        "main_category": "Mosque",
        "address": "Jaama masjid, Sirala, Telangana 504102",
        "detailed_address": {
            "ward": null,
            "street": null,
            "city": "Sirala",
            "postal_code": "504102",
            "state": "Telangana",
            "country_code": "IN"
        },
        "images": [
            {
                "about": "All",
                "link": "https://lh5.googleusercontent.com/p/AF1QipPOLTUyyXZsCC4uIMcGfOk5oB-Wmy9Wf9eeuioM=w224-h298-k-no"
            }
        ],
        "link": "https://www.google.com/maps/place/Jaama+masjid/data=!4m7!3m6!1s0x3bce012e97e91a7f:0x17cde4e89501898d!8m2!3d19.0732537!4d77.8971662!16s%2Fg%2F11rq8ffprn!19sChIJfxrply4BzjsRjYkBlejkzRc?authuser=0&hl=en&rclk=1",
        "coordinates": {
            "latitude": 19.0732537,
            "longitude": 77.8971662
        }
    },
    {
        "name": "Masjid Mahboobia",
        "main_category": "Mosque",
        "address": "4X47+736 Masjid Mahboobia, Bhainsa, Telangana 504103",
        "detailed_address": {
            "ward": null,
            "street": "4X47+736",
            "city": "Bhainsa",
            "postal_code": "504103",
            "state": "Telangana",
            "country_code": "IN"
        },
        "images": [
            {
                "about": "All",
                "link": "https://lh5.googleusercontent.com/p/AF1QipM9e4THfGjaSsFz6RYbiYNNCEq4WrIJHxRRPiv6=w228-h298-k-no"
            },
            {
                "about": "Dome",
                "link": "https://lh5.googleusercontent.com/p/AF1QipM9e4THfGjaSsFz6RYbiYNNCEq4WrIJHxRRPiv6=w228-h298-k-no"
            }
        ],
        "link": "https://www.google.com/maps/place/Masjid+Mahboobia/data=!4m7!3m6!1s0x3bcdffa54730d159:0x3070551ca0bf95d2!8m2!3d19.1056685!4d77.9626302!16s%2Fg%2F11n001s619!19sChIJWdEwR6X_zTsR0pW_oBxVcDA?authuser=0&hl=en&rclk=1",
        "coordinates": {
            "latitude": 19.1056685,
            "longitude": 77.96263019999999
        }
    },
    {
        "name": "Masjid e WALI",
        "main_category": "Mosque",
        "address": "4X49+MWR Masjid e WALI, Rd Number 1, Bhainsa, Telangana 504103",
        "detailed_address": {
            "ward": null,
            "street": "4X49+MWR, Rd Number 1",
            "city": "Bhainsa",
            "postal_code": "504103",
            "state": "Telangana",
            "country_code": "IN"
        },
        "images": [
            {
                "about": "All",
                "link": "https://lh5.googleusercontent.com/p/AF1QipOvIoUrmf9OpedxBCUmHqXLmvBm4XVmagcdl5xZ=w529-h298-k-no"
            }
        ],
        "link": "https://www.google.com/maps/place/Masjid+e+WALI/data=!4m7!3m6!1s0x3bcdffe159c3e0c5:0x924cdf0a90587653!8m2!3d19.1067472!4d77.9697721!16s%2Fg%2F11lrryyhw2!19sChIJxeDDWeH_zTsRU3ZYkArfTJI?authuser=0&hl=en&rclk=1",
        "coordinates": {
            "latitude": 19.106747199999997,
            "longitude": 77.9697721
        }
    },
    {
        "name": "Dastagir Saheb Burj",
        "main_category": "Mosque",
        "address": "2X6X+X44 Dastagir Saheb Burj, Edbid, Telangana 504102",
        "detailed_address": {
            "ward": null,
            "street": "2X6X+X44",
            "city": "Edbid",
            "postal_code": "504102",
            "state": "Telangana",
            "country_code": "IN"
        },
        "images": [
            {
                "about": "All",
                "link": "https://lh5.googleusercontent.com/p/AF1QipMsvpCw8OfZhbko_LLR9ChZWventR5Tm9A4Sw9V=w224-h298-k-no"
            }
        ],
        "link": "https://www.google.com/maps/place/Dastagir+Saheb+Burj/data=!4m7!3m6!1s0x3bcdfdd991c2255f:0xc03dc50b054bc67f!8m2!3d19.0131884!4d77.9979526!16s%2Fg%2F11pz0j6z29!19sChIJXyXCkdn9zTsRf8ZLBQvFPcA?authuser=0&hl=en&rclk=1",
        "coordinates": {
            "latitude": 19.0131884,
            "longitude": 77.99795259999999
        }
    },
    {
        "name": "Thimmapur masjid",
        "main_category": "Mosque",
        "address": "435F+Q9G Thimmapur masjid, Unnamed Road, Thimmapur, Telangana 504109",
        "detailed_address": {
            "ward": null,
            "street": "435F+Q9G, Unnamed Road",
            "city": "Thimmapur",
            "postal_code": "504109",
            "state": "Telangana",
            "country_code": "IN"
        },
        "images": [],
        "link": "https://www.google.com/maps/place/Thimmapur+masjid/data=!4m7!3m6!1s0x3bcdf93c28513963:0x7dcfb1f3b4f8e7af!8m2!3d19.1094489!4d78.0734603!16s%2Fg%2F11qzbkts3t!19sChIJYzlRKDz5zTsRr-f4tPOxz30?authuser=0&hl=en&rclk=1",
        "coordinates": {
            "latitude": 19.1094489,
            "longitude": 78.0734603
        }
    },
    {
        "name": "Quadanshah ali",
        "main_category": "Mosque",
        "address": "4X5F+FPC Quadanshah ali, Bhainsa, Telangana 504103",
        "detailed_address": {
            "ward": null,
            "street": "4X5F+FPC",
            "city": "Bhainsa",
            "postal_code": "504103",
            "state": "Telangana",
            "country_code": "IN"
        },
        "images": [
            {
                "about": "All",
                "link": "https://lh5.googleusercontent.com/p/AF1QipMo7YMe2R_8NWsr4i4G96ZYcdtTynI2neUeg7HU=w298-h298-k-no"
            },
            {
                "about": "Latest",
                "link": "https://lh5.googleusercontent.com/p/AF1QipPV1Ee2nFbroYB0I39O80uIKn1n3QT-YfKFZs3w=w298-h298-k-no"
            }
        ],
        "link": "https://www.google.com/maps/place/Quadanshah+ali/data=!4m7!3m6!1s0x3bcdff7a411bd27f:0xf18f2bb4d86febfc!8m2!3d19.1086944!4d77.9742549!16s%2Fg%2F11l6yhsc3v!19sChIJf9IbQXr_zTsR_Otv2LQrj_E?authuser=0&hl=en&rclk=1",
        "coordinates": {
            "latitude": 19.108694399999997,
            "longitude": 77.97425489999999
        }
    },
    {
        "name": "Eid gah. `ydgh",
        "main_category": "Mosque",
        "address": "VW8W+4HH Eid gah. `ydgh, Panchayat Raj Rd, Telangana 504101",
        "detailed_address": {
            "ward": null,
            "street": "VW8W+4HH, Panchayat Raj Rd",
            "city": null,
            "postal_code": "504101",
            "state": "Telangana",
            "country_code": "IN"
        },
        "images": [
            {
                "about": "All",
                "link": "https://streetviewpixels-pa.googleapis.com/v1/thumbnail?panoid=9cxRb6yYw3ubqS1FiTsE_g&cb_client=maps_sv.tactile.gps&w=224&h=298&yaw=176.42865&pitch=0&thumbfov=100"
            },
            {
                "about": "Street View & 360deg",
                "link": "https://streetviewpixels-pa.googleapis.com/v1/thumbnail?panoid=9cxRb6yYw3ubqS1FiTsE_g&cb_client=maps_sv.tactile.gps&w=224&h=298&yaw=176.42865&pitch=0&thumbfov=100"
            }
        ],
        "link": "https://www.google.com/maps/place/Eid+gah.+%D8%B9%DB%8C%D8%AF%DA%AF%D8%A7%DB%81%E2%80%AD/data=!4m7!3m6!1s0x3bcde137ecf0b249:0xa475a0ae08688f92!8m2!3d18.865304!4d77.9464759!16s%2Fg%2F11h9k5wz7t!19sChIJSbLw7DfhzTsRko9oCK6gdaQ?authuser=0&hl=en&rclk=1",
        "coordinates": {
            "latitude": 18.865304,
            "longitude": 77.9464759
        }
    },
    {
        "name": "JAMA MASJID",
        "main_category": "Mosque",
        "address": "433W+VC6 JAMA MASJID, Unnamed Road, Kallur, Telangana 504109",
        "detailed_address": {
            "ward": null,
            "street": "433W+VC6, Unnamed Road",
            "city": "Kallur",
            "postal_code": "504109",
            "state": "Telangana",
            "country_code": "IN"
        },
        "images": [
            {
                "about": "All",
                "link": "https://lh5.googleusercontent.com/p/AF1QipOehavqrhgCuigDU9-wJhAi77sU1lww4lrOImr-=w224-h459-k-no"
            },
            {
                "about": "Videos",
                "link": "https://lh5.googleusercontent.com/p/AF1QipOehavqrhgCuigDU9-wJhAi77sU1lww4lrOImr-=w224-h459-k-no"
            }
        ],
        "link": "https://www.google.com/maps/place/JAMA+MASJID/data=!4m7!3m6!1s0x3bcdf93e953482f7:0xc3dff5e66af38f82!8m2!3d19.1046594!4d78.0960113!16s%2Fg%2F11gwhk1782!19sChIJ94I0lT75zTsRgo_zaub138M?authuser=0&hl=en&rclk=1",
        "coordinates": {
            "latitude": 19.1046594,
            "longitude": 78.0960113
        }
    },
    {
        "name": "Dargah masjid",
        "main_category": "Mosque",
        "address": "4X85+RH4 Dargah masjid, Kisan Gally, Bhainsa, Telangana 504103",
        "detailed_address": {
            "ward": null,
            "street": "4X85+RH4, Kisan Gally",
            "city": "Bhainsa",
            "postal_code": "504103",
            "state": "Telangana",
            "country_code": "IN"
        },
        "images": [
            {
                "about": "All",
                "link": "https://lh5.googleusercontent.com/p/AF1QipN4VLE-280gwizsDZzevDhrzb-4vErUu_kLw4xV=w646-h298-k-no"
            },
            {
                "about": "Dome",
                "link": "https://lh5.googleusercontent.com/p/AF1QipO1DbHoxwCUVcQ4eJegcdaGQr-6jkAtYlV5XWLm=w397-h298-k-no"
            }
        ],
        "link": "https://www.google.com/maps/place/Dargah+masjid/data=!4m7!3m6!1s0x3bcdff8149341c71:0x4ab8fbf5c4f17c84!8m2!3d19.1170017!4d77.9589653!16s%2Fg%2F11n8wky035!19sChIJcRw0SYH_zTsRhHzxxPX7uEo?authuser=0&hl=en&rclk=1",
        "coordinates": {
            "latitude": 19.1170017,
            "longitude": 77.9589653
        }
    },
    {
        "name": "DARGA-E-HAZRATH AMRUH SAAB",
        "main_category": "Mosque",
        "address": "4VJR+5R2 DARGA-E-HAZRATH AMRUH SAAB, Bamni, Telangana 504103",
        "detailed_address": {
            "ward": null,
            "street": "4VJR+5R2",
            "city": "Bamni",
            "postal_code": "504103",
            "state": "Telangana",
            "country_code": "IN"
        },
        "images": [
            {
                "about": "All",
                "link": "https://lh5.googleusercontent.com/p/AF1QipMesDtmO_OMgJMBFOgcHSGD1PKN8XuG4822yYvF=w224-h298-k-no"
            }
        ],
        "link": "https://www.google.com/maps/place/DARGA-E-HAZRATH+AMRUH+SAAB/data=!4m7!3m6!1s0x3bce01ff76cf16eb:0x3ce087629589b43!8m2!3d19.1303904!4d77.8920271!16s%2Fg%2F11pcwyxd64!19sChIJ6xbPdv8BzjsRQ5tYKXYIzgM?authuser=0&hl=en&rclk=1",
        "coordinates": {
            "latitude": 19.1303904,
            "longitude": 77.89202709999999
        }
    },
    {
        "name": "Nagar masjid",
        "main_category": "Mosque",
        "address": "2462+FF8 Nagar masjid, Nagar, Telangana 504104",
        "detailed_address": {
            "ward": null,
            "street": "2462+FF8",
            "city": "Nagar",
            "postal_code": "504104",
            "state": "Telangana",
            "country_code": "IN"
        },
        "images": [
            {
                "about": "All",
                "link": "https://lh5.googleusercontent.com/p/AF1QipM2yg-4hs-FQtPPBy_EuMlhXFOyviqnqlq25Rm1=w224-h298-k-no"
            }
        ],
        "link": "https://www.google.com/maps/place/Nagar+masjid/data=!4m7!3m6!1s0x3bcdfb87f4e1ca07:0x97a41421f66a5818!8m2!3d19.010881!4d78.102116!16s%2Fg%2F11jt0w_z_l!19sChIJB8rh9If7zTsRGFhq9iEUpJc?authuser=0&hl=en&rclk=1",
        "coordinates": {
            "latitude": 19.010880999999998,
            "longitude": 78.102116
        }
    },
    {
        "name": "Jama masjid ashta",
        "main_category": "Mosque",
        "address": "W2M3+V9P Jama masjid ashta, Ashta, Telangana 504101",
        "detailed_address": {
            "ward": null,
            "street": "W2M3+V9P",
            "city": "Ashta",
            "postal_code": "504101",
            "state": "Telangana",
            "country_code": "IN"
        },
        "images": [
            {
                "about": "All",
                "link": "https://lh5.googleusercontent.com/p/AF1QipNjBoodYqVose-KC_U9008apZf7Ob61rgyPMNGI=w224-h360-k-no"
            }
        ],
        "link": "https://www.google.com/maps/place/Jama+masjid+ashta/data=!4m7!3m6!1s0x3bcde35a9ce42b59:0xffe320028c1cbff8!8m2!3d18.9347189!4d78.0034513!16s%2Fg%2F11pz2s9spl!19sChIJWSvknFrjzTsR-L8cjAIg4_8?authuser=0&hl=en&rclk=1",
        "coordinates": {
            "latitude": 18.9347189,
            "longitude": 78.0034513
        }
    },
    {
        "name": "Jama masjid",
        "main_category": "Mosque",
        "address": "W329+52F Jama masjid, Naleshwar, Binola, Telangana 503246",
        "detailed_address": {
            "ward": null,
            "street": "W329+52F",
            "city": "Naleshwar, Binola",
            "postal_code": "503246",
            "state": "Telangana",
            "country_code": "IN"
        },
        "images": [],
        "link": "https://www.google.com/maps/place/Jama+masjid/data=!4m7!3m6!1s0x3bcde56006a65bb5:0xa91c0bd3bb2daf87!8m2!3d18.9004336!4d78.067533!16s%2Fg%2F11rhp_r4kr!19sChIJtVumBmDlzTsRh68tu9MLHKk?authuser=0&hl=en&rclk=1",
        "coordinates": {
            "latitude": 18.9004336,
            "longitude": 78.067533
        }
    },
    {
        "name": "pedd gutttt deevuddu, dhrmaarN",
        "main_category": "Mosque",
        "address": "X3PH+PC pedd gutttt deevuddu, dhrmaarN, VIP ADDA, New Raipur (K), Telangana 504104",
        "detailed_address": {
            "ward": null,
            "street": "X3PH+PC VIP ADDA",
            "city": "New Raipur (K)",
            "postal_code": "504104",
            "state": "Telangana",
            "country_code": "IN"
        },
        "images": [
            {
                "about": "All",
                "link": "https://lh5.googleusercontent.com/p/AF1QipMAI27ENq95vF0SgBRCFIQh5lh00gVozVC-rFTw=w668-h298-k-no"
            },
            {
                "about": "Latest",
                "link": "https://lh5.googleusercontent.com/p/AF1QipNXcFXFi78-EBBusfXSwihppUCFj0yETASvk_K0=w224-h502-k-no"
            }
        ],
        "link": "https://www.google.com/maps/place/%E0%B0%AA%E0%B1%86%E0%B0%A6%E0%B1%8D%E0%B0%A6+%E0%B0%97%E0%B1%81%E0%B0%9F%E0%B1%8D%E0%B0%9F+%E0%B0%A6%E0%B1%87%E0%B0%B5%E0%B1%81%E0%B0%A1%E0%B1%81,+%E0%B0%A7%E0%B0%B0%E0%B1%8D%E0%B0%AE%E0%B0%BE%E0%B0%B0%E0%B0%82/data=!4m7!3m6!1s0x3bcde5abeb56f289:0xb9041ab83c7f2d55!8m2!3d18.9880077!4d78.07903!16s%2Fg%2F11vj7tb2v9!19sChIJifJW66vlzTsRVS1_PLgaBLk?authuser=0&hl=en&rclk=1",
        "coordinates": {
            "latitude": 18.9880077,
            "longitude": 78.07903
        }
    },
    {
        "name": "Eid Gah Pendpally",
        "main_category": "Mosque",
        "address": "33V5+4J5 Eid Gah Pendpally, Pendapalle, Telangana 504109",
        "detailed_address": {
            "ward": null,
            "street": "33V5+4J5",
            "city": "Pendapalle",
            "postal_code": null,
            "state": "Telangana",
            "country_code": "IN"
        },
        "images": [
            {
                "about": "All",
                "link": "https://lh5.googleusercontent.com/p/AF1QipPSTp_2BHMR3xitvmsDDROOGm5zh4b6Dvw5eytN=w224-h398-k-no"
            }
        ],
        "link": "https://www.google.com/maps/place/Eid+Gah+Pendpally/data=!4m7!3m6!1s0x3bcdf96438d2ab65:0x81c7b0a7ae7719bd!8m2!3d19.0927654!4d78.0591246!16s%2Fg%2F11h4s0gw3_!19sChIJZavSOGT5zTsRvRl3rqewx4E?authuser=0&hl=en&rclk=1",
        "coordinates": {
            "latitude": 19.092765399999998,
            "longitude": 78.05912459999999
        }
    },
    {
        "name": "Jamamasjid",
        "main_category": "Mosque",
        "address": "7W6V+HF4 Jamamasjid, Main Road, Kubeer, Telangana 504103",
        "detailed_address": {
            "ward": null,
            "street": "7W6V+HF4, Main Road",
            "city": "Kubeer",
            "postal_code": "504103",
            "state": "Telangana",
            "country_code": "IN"
        },
        "images": [],
        "link": "https://www.google.com/maps/place/Jamamasjid/data=!4m7!3m6!1s0x3bd201f63f663507:0xcf27423fc86287f2!8m2!3d19.2613867!4d77.943711!16s%2Fg%2F11hd6y_1v0!19sChIJBzVmP_YB0jsR8odiyD9CJ88?authuser=0&hl=en&rclk=1",
        "coordinates": {
            "latitude": 19.2613867,
            "longitude": 77.943711
        }
    },
    {
        "name": "Jamiya Masjid",
        "main_category": "Mosque",
        "address": "Jamiya Masjid, Panchagudi, Dharmara, Telangana 504104",
        "detailed_address": {
            "ward": null,
            "street": null,
            "city": "Panchagudi, Dharmara",
            "postal_code": "504104",
            "state": "Telangana",
            "country_code": "IN"
        },
        "images": [
            {
                "about": "All",
                "link": "https://lh5.googleusercontent.com/p/AF1QipM5i9IOOHW-ZlNoFoGvKpt8OwSV4QWEo83MMoeP=w397-h298-k-no"
            },
            {
                "about": "By owner",
                "link": "https://lh5.googleusercontent.com/p/AF1QipOih7VnTsEr7XFFl5v9hERLp6_XWIpIrFwoZPL2=w397-h298-k-no"
            }
        ],
        "link": "https://www.google.com/maps/place/Jamiya+Masjid/data=!4m7!3m6!1s0x3bcde5f57d5ce841:0x54a16d15ab8d2131!8m2!3d18.9698223!4d78.0838299!16s%2Fg%2F11g23bk4d8!19sChIJQehcffXlzTsRMSGNqxVtoVQ?authuser=0&hl=en&rclk=1",
        "coordinates": {
            "latitude": 18.9698223,
            "longitude": 78.0838299
        }
    },
    {
        "name": "Masjid e noor banu",
        "main_category": "Mosque",
        "address": "4298+7M3 Masjid e noor banu, Ekgaon, Telangana 504103",
        "detailed_address": {
            "ward": null,
            "street": "4298+7M3",
            "city": "Ekgaon",
            "postal_code": "504103",
            "state": "Telangana",
            "country_code": "IN"
        },
        "images": [],
        "link": "https://www.google.com/maps/place/Masjid+e+noor+banu/data=!4m7!3m6!1s0x3bcdff742aedeb0d:0x1cc2047094df4e93!8m2!3d19.1181434!4d78.0166847!16s%2Fg%2F11h6443h1y!19sChIJDevtKnT_zTsRk07flHAEwhw?authuser=0&hl=en&rclk=1",
        "coordinates": {
            "latitude": 19.118143399999997,
            "longitude": 78.0166847
        }
    },
    {
        "name": "Ajaz uddin mpp mudhole",
        "main_category": "Mosque",
        "address": "XWG6+X2V Ajaz uddin mpp mudhole, Mudhole, Telangana 504102",
        "detailed_address": {
            "ward": null,
            "street": "XWG6+X2V",
            "city": "Mudhole",
            "postal_code": "504102",
            "state": "Telangana",
            "country_code": "IN"
        },
        "images": [],
        "link": "https://www.google.com/maps/place/Ajaz+uddin+mpp+mudhole/data=!4m7!3m6!1s0x3bce092b3bed0477:0x9883546bb0eb0297!8m2!3d18.9774875!4d77.9100469!16s%2Fg%2F11l2byjt14!19sChIJdwTtOysJzjsRlwLrsGtUg5g?authuser=0&hl=en&rclk=1",
        "coordinates": {
            "latitude": 18.9774875,
            "longitude": 77.9100469
        }
    },
    {
        "name": "masjid-e-Ameena. Taroda",
        "main_category": "Mosque",
        "address": "2W6P+HMC masjid-e-Ameena. Taroda, Taroda, Telangana 504102",
        "detailed_address": {
            "ward": null,
            "street": "2W6P+HMC",
            "city": "Taroda",
            "postal_code": "504102",
            "state": "Telangana",
            "country_code": "IN"
        },
        "images": [
            {
                "about": "All",
                "link": "https://lh5.googleusercontent.com/p/AF1QipNNXnsNr9pWRJdMbnjVP4hsH-aYk6VWam9ZAAwB=w397-h298-k-no"
            }
        ],
        "link": "https://www.google.com/maps/place/masjid-e-Ameena.+Taroda/data=!4m7!3m6!1s0x3bcdfd8ced879fc7:0xa8c8d0a46a879700!8m2!3d19.0114475!4d77.9366469!16s%2Fg%2F11nx3xpp3n!19sChIJx5-H7Yz9zTsRAJeHaqTQyKg?authuser=0&hl=en&rclk=1",
        "coordinates": {
            "latitude": 19.0114475,
            "longitude": 77.9366469
        }
    },
    {
        "name": "Masjid E Madeena",
        "main_category": "Mosque",
        "address": "3XX8+XMW Masjid E Madeena, Vinayak Nagar, Bhainsa, Telangana 504103",
        "detailed_address": {
            "ward": "Vinayak Nagar",
            "street": "3XX8+XMW",
            "city": "Bhainsa",
            "postal_code": "504103",
            "state": "Telangana",
            "country_code": "IN"
        },
        "images": [
            {
                "about": "All",
                "link": "https://lh5.googleusercontent.com/p/AF1QipPutXHUROA6mOXdkgxxpjmhAgWeIiAppmcpdGjo=w397-h298-k-no"
            }
        ],
        "link": "https://www.google.com/maps/place/Masjid+E+Madeena/data=!4m7!3m6!1s0x3bcdfe67609b6a17:0xd10b98fe9ebd9b74!8m2!3d19.1!4d77.9667!16s%2Fg%2F11b7tns2dg!19sChIJF2qbYGf-zTsRdJu9nv6YC9E?authuser=0&hl=en&rclk=1",
        "coordinates": {
            "latitude": 19.099999999999998,
            "longitude": 77.9667
        }
    },
    {
        "name": "Chowk masjid",
        "main_category": "Mosque",
        "address": "XWF6+P52 Chowk masjid, Mudhole, Telangana 504102",
        "detailed_address": {
            "ward": null,
            "street": "XWF6+P52",
            "city": "Mudhole",
            "postal_code": "504102",
            "state": "Telangana",
            "country_code": "IN"
        },
        "images": [],
        "link": "https://www.google.com/maps/place/Chowk+masjid/data=!4m7!3m6!1s0x3bce096f7564b777:0x6713987bed345f0f!8m2!3d18.9741684!4d77.9104478!16s%2Fg%2F11vcm56l_7!19sChIJd7dkdW8JzjsRD1807XuYE2c?authuser=0&hl=en&rclk=1",
        "coordinates": {
            "latitude": 18.9741684,
            "longitude": 77.9104478
        }
    },
    {
        "name": "Jamiya masjeed",
        "main_category": "Mosque",
        "address": "2V6P+24P Jamiya masjeed, Dhagaon, Telangana 504102",
        "detailed_address": {
            "ward": null,
            "street": "2V6P+24P",
            "city": "Dhagaon",
            "postal_code": "504102",
            "state": "Telangana",
            "country_code": "IN"
        },
        "images": [],
        "link": "https://www.google.com/maps/place/Jamiya+masjeed/data=!4m7!3m6!1s0x3bce0737cb5af415:0x208e894c4f477351!8m2!3d19.0100923!4d77.8853172!16s%2Fg%2F11q3__dgl3!19sChIJFfRayzcHzjsRUXNHT0yJjiA?authuser=0&hl=en&rclk=1",
        "coordinates": {
            "latitude": 19.0100923,
            "longitude": 77.8853172
        }
    },
    {
        "name": "Dulha masjid",
        "main_category": "Mosque",
        "address": "4X76+QPR Dulha masjid, Bhainsa, Telangana 504103",
        "detailed_address": {
            "ward": null,
            "street": "4X76+QPR",
            "city": "Bhainsa",
            "postal_code": "504103",
            "state": "Telangana",
            "country_code": "IN"
        },
        "images": [
            {
                "about": "All",
                "link": "https://streetviewpixels-pa.googleapis.com/v1/thumbnail?panoid=25yq9p5lcGF0kLZIy1l_KA&cb_client=maps_sv.tactile.gps&w=224&h=298&yaw=300.3951&pitch=0&thumbfov=100"
            },
            {
                "about": "Street View & 360deg",
                "link": "https://streetviewpixels-pa.googleapis.com/v1/thumbnail?panoid=25yq9p5lcGF0kLZIy1l_KA&cb_client=maps_sv.tactile.gps&w=224&h=298&yaw=300.3951&pitch=0&thumbfov=100"
            }
        ],
        "link": "https://www.google.com/maps/place/Dulha+masjid/data=!4m7!3m6!1s0x3bcdff11036a7bc1:0x2af6a0e9a007d28e!8m2!3d19.1144859!4d77.9617514!16s%2Fg%2F11pzpf_hcw!19sChIJwXtqAxH_zTsRjtIHoOmg9io?authuser=0&hl=en&rclk=1",
        "coordinates": {
            "latitude": 19.1144859,
            "longitude": 77.9617514
        }
    },
    {
        "name": "Jamamasjid",
        "main_category": "Mosque",
        "address": "2X6W+RJ9 Jamamasjid, Edbid, Telangana 504102",
        "detailed_address": {
            "ward": null,
            "street": "2X6W+RJ9",
            "city": "Edbid",
            "postal_code": "504102",
            "state": "Telangana",
            "country_code": "IN"
        },
        "images": [],
        "link": "https://www.google.com/maps/place/Jamamasjid/data=!4m7!3m6!1s0x3bcdfd9419127871:0xbb4ac3774c96936d!8m2!3d19.0120371!4d77.9966174!16s%2Fg%2F11rchyqlgj!19sChIJcXgSGZT9zTsRbZOWTHfDSrs?authuser=0&hl=en&rclk=1",
        "coordinates": {
            "latitude": 19.0120371,
            "longitude": 77.99661739999999
        }
    },
    {
        "name": "Majid e abubakar",
        "main_category": "Mosque",
        "address": "4X68+H97 Majid e abubakar, New Abadi, Bhainsa, Telangana 504103",
        "detailed_address": {
            "ward": "New Abadi",
            "street": "4X68+H97",
            "city": "Bhainsa",
            "postal_code": "504103",
            "state": "Telangana",
            "country_code": "IN"
        },
        "images": [],
        "link": "https://www.google.com/maps/place/Majid+e+abubakar/data=!4m7!3m6!1s0x3bcdff58c1da7aab:0x219623bea3a45cb3!8m2!3d19.1113411!4d77.9659192!16s%2Fg%2F11sz2t10vn!19sChIJq3rawVj_zTsRs1yko74jliE?authuser=0&hl=en&rclk=1",
        "coordinates": {
            "latitude": 19.1113411,
            "longitude": 77.9659192
        }
    },
    {
        "name": "Maqbara masjid",
        "main_category": "Mosque",
        "address": "4X86+WF7 Maqbara masjid, Bhainsa, Telangana 504103",
        "detailed_address": {
            "ward": null,
            "street": "4X86+WF7",
            "city": "Bhainsa",
            "postal_code": "504103",
            "state": "Telangana",
            "country_code": "IN"
        },
        "images": [],
        "link": "https://www.google.com/maps/place/Maqbara+masjid/data=!4m7!3m6!1s0x3bcdff260e3b794f:0x8b0a022e971e6e24!8m2!3d19.117272!4d77.9611583!16s%2Fg%2F11sq9gjl68!19sChIJT3k7Dib_zTsRJG4ely4CCos?authuser=0&hl=en&rclk=1",
        "coordinates": {
            "latitude": 19.117272,
            "longitude": 77.9611583
        }
    },
    {
        "name": "Jama masjid (Kotalgaom)",
        "main_category": "Mosque",
        "address": "42X5+48M Jama masjid (Kotalgaom), Kotalgaom, Bhainsa, Kotalgaon, Telangana 504109",
        "detailed_address": {
            "ward": "Kotalgaom",
            "street": "42X5+48M",
            "city": "Bhainsa, Kotalgaon",
            "postal_code": null,
            "state": "Telangana",
            "country_code": "IN"
        },
        "images": [],
        "link": "https://www.google.com/maps/place/Jama+masjid+%28Kotalgaom%29/data=!4m7!3m6!1s0x3bcdff620818b4cb:0x849464b5944d2dae!8m2!3d19.1478345!4d78.0082907!16s%2Fg%2F11tnw1x59k!19sChIJy7QYCGL_zTsRri1NlLVklIQ?authuser=0&hl=en&rclk=1",
        "coordinates": {
            "latitude": 19.1478345,
            "longitude": 78.0082907
        }
    },
    {
        "name": "Momino mosque",
        "main_category": "Mosque",
        "address": "4X38+64M Momino mosque, New Abadi, Bhainsa, Telangana 504103",
        "detailed_address": {
            "ward": "New Abadi",
            "street": "4X38+64M",
            "city": "Bhainsa",
            "postal_code": "504103",
            "state": "Telangana",
            "country_code": "IN"
        },
        "images": [],
        "link": "https://www.google.com/maps/place/Momino+mosque/data=!4m7!3m6!1s0x3bcdfffea979f1ef:0x5d2c7b949536d054!8m2!3d19.1030811!4d77.9652985!16s%2Fg%2F11kqn0r70h!19sChIJ7_F5qf7_zTsRVNA2lZR7LF0?authuser=0&hl=en&rclk=1",
        "coordinates": {
            "latitude": 19.1030811,
            "longitude": 77.9652985
        }
    },
    {
        "name": "Haji Sahab Masjid",
        "main_category": "Mosque",
        "address": "4X76+WR5 Haji Sahab Masjid, Bhainsa, Telangana 504103",
        "detailed_address": {
            "ward": null,
            "street": "4X76+WR5",
            "city": "Bhainsa",
            "postal_code": "504103",
            "state": "Telangana",
            "country_code": "IN"
        },
        "images": [
            {
                "about": "All",
                "link": "https://streetviewpixels-pa.googleapis.com/v1/thumbnail?panoid=E_Lcerv3_HJ3ugkKDO5GGw&cb_client=maps_sv.tactile.gps&w=224&h=298&yaw=91.78546&pitch=0&thumbfov=100"
            },
            {
                "about": "Street View & 360deg",
                "link": "https://streetviewpixels-pa.googleapis.com/v1/thumbnail?panoid=E_Lcerv3_HJ3ugkKDO5GGw&cb_client=maps_sv.tactile.gps&w=224&h=298&yaw=91.78546&pitch=0&thumbfov=100"
            }
        ],
        "link": "https://www.google.com/maps/place/Haji+Sahab+Masjid/data=!4m7!3m6!1s0x3bcdffd89e630f21:0x6958ac2f4082e62d!8m2!3d19.114766!4d77.9621118!16s%2Fg%2F11r0wdt94j!19sChIJIQ9jntj_zTsRLeaCQC-sWGk?authuser=0&hl=en&rclk=1",
        "coordinates": {
            "latitude": 19.114766,
            "longitude": 77.9621118
        }
    },
    {
        "name": "Qureshi's dayra",
        "main_category": "Mosque",
        "address": "XW74+RV Qureshi's dayra, Mudhole, Telangana 504102",
        "detailed_address": {
            "ward": null,
            "street": "XW74+RV",
            "city": "Mudhole",
            "postal_code": null,
            "state": "Telangana",
            "country_code": "IN"
        },
        "images": [],
        "link": "https://www.google.com/maps/place/Qureshi%27s+dayra/data=!4m7!3m6!1s0x3bce09a66983ce9b:0x9269f425b8a9c771!8m2!3d18.9645492!4d77.9071758!16s%2Fg%2F11kphpbb44!19sChIJm86DaaYJzjsRccepuCX0aZI?authuser=0&hl=en&rclk=1",
        "coordinates": {
            "latitude": 18.9645492,
            "longitude": 77.90717579999999
        }
    },
    {
        "name": "Masjid e Gausheya",
        "main_category": "Mosque",
        "address": "4VRH+QWR Masjid e Gausheya, Bamni, Telangana 504103",
        "detailed_address": {
            "ward": null,
            "street": "4VRH+QWR",
            "city": "Bamni",
            "postal_code": "504103",
            "state": "Telangana",
            "country_code": "IN"
        },
        "images": [],
        "link": "https://www.google.com/maps/place/Masjid+e+Gausheya/data=!4m7!3m6!1s0x3bce01ed15c57fa9:0x41081cab448ddcaa!8m2!3d19.1419818!4d77.8797538!16s%2Fg%2F11rf9xpdcx!19sChIJqX_FFe0BzjsRqtyNRKscCEE?authuser=0&hl=en&rclk=1",
        "coordinates": {
            "latitude": 19.1419818,
            "longitude": 77.8797538
        }
    },
    {
        "name": "Jama masjid",
        "main_category": "Mosque",
        "address": "XR2M+XH9 Jama masjid, JewlaBuzurg, Jawala, Telangana 504102",
        "detailed_address": {
            "ward": null,
            "street": "XR2M+XH9",
            "city": "JewlaBuzurg, Jawala",
            "postal_code": "504102",
            "state": "Telangana",
            "country_code": "IN"
        },
        "images": [],
        "link": "https://www.google.com/maps/place/Jama+masjid/data=!4m7!3m6!1s0x3bce0fa40d8bb217:0xcbc4166bd40c1b17!8m2!3d18.9523864!4d77.834005!16s%2Fg%2F11s58b6fbg!19sChIJF7KLDaQPzjsRFxsM1GsWxMs?authuser=0&hl=en&rclk=1",
        "coordinates": {
            "latitude": 18.952386399999998,
            "longitude": 77.83400499999999
        }
    },
    {
        "name": "Masjid e mohammadiya",
        "main_category": "Mosque",
        "address": "4X78+7FX Masjid e mohammadiya, Bhainsa, Telangana 504103",
        "detailed_address": {
            "ward": null,
            "street": "4X78+7FX",
            "city": "Bhainsa",
            "postal_code": "504103",
            "state": "Telangana",
            "country_code": "IN"
        },
        "images": [],
        "link": "https://www.google.com/maps/place/Masjid+e+mohammadiya/data=!4m7!3m6!1s0x3bcdffafe5575e1f:0xadcb9e0d27ec98a!8m2!3d19.1131596!4d77.9653526!16s%2Fg%2F11qbh1lndc!19sChIJH15X5a__zTsRisl-0uC53Ao?authuser=0&hl=en&rclk=1",
        "coordinates": {
            "latitude": 19.1131596,
            "longitude": 77.9653526
        }
    },
    {
        "name": "Sarkari masjid",
        "main_category": "Mosque",
        "address": "4X76+7FF Sarkari masjid, Bhainsa, Telangana 504103",
        "detailed_address": {
            "ward": null,
            "street": "4X76+7FF",
            "city": "Bhainsa",
            "postal_code": "504103",
            "state": "Telangana",
            "country_code": "IN"
        },
        "images": [],
        "link": "https://www.google.com/maps/place/Sarkari+masjid/data=!4m7!3m6!1s0x3bcdff1e48424da9:0xe5975291b8aab459!8m2!3d19.1131196!4d77.9611631!16s%2Fg%2F11sq9fy4l6!19sChIJqU1CSB7_zTsRWbSquJFSl-U?authuser=0&hl=en&rclk=1",
        "coordinates": {
            "latitude": 19.113119599999997,
            "longitude": 77.9611631
        }
    },
    {
        "name": "Masjid e Fatima",
        "main_category": "Mosque",
        "address": "4X5G+9P4 Masjid e Fatima, Bhainsa, Telangana 504103",
        "detailed_address": {
            "ward": null,
            "street": "4X5G+9P4",
            "city": "Bhainsa",
            "postal_code": "504103",
            "state": "Telangana",
            "country_code": "IN"
        },
        "images": [],
        "link": "https://www.google.com/maps/place/Masjid+e+Fatima/data=!4m7!3m6!1s0x3bcdffb3b5a3debf:0x2063de0cbf29b1de!8m2!3d19.1083892!4d77.9768327!16s%2Fg%2F11l29xysl3!19sChIJv96jtbP_zTsR3rEpvwzeYyA?authuser=0&hl=en&rclk=1",
        "coordinates": {
            "latitude": 19.108389199999998,
            "longitude": 77.9768327
        }
    },
    {
        "name": "JAMA MASJID",
        "main_category": "Mosque",
        "address": "JAMA MASJID, Machkal, Telangana 504102",
        "detailed_address": {
            "ward": null,
            "street": null,
            "city": "Machkal",
            "postal_code": null,
            "state": "Telangana",
            "country_code": "IN"
        },
        "images": [
            {
                "about": "All",
                "link": "https://lh5.googleusercontent.com/p/AF1QipOAFgrfw2wzCVdemMtmLLtKV3MNXaCopyPxkWZr=w224-h298-k-no"
            },
            {
                "about": "Latest",
                "link": "https://lh5.googleusercontent.com/p/AF1QipPfpdppQD1oKOtGQYgPJPlpIdBGa-5F6kcwsHVq=w654-h298-k-no"
            },
            {
                "about": "By owner",
                "link": "https://lh5.googleusercontent.com/p/AF1QipPyb7RGANNTmyo4T21_b9vB-PXi_hld3nsB0wUx=w224-h298-k-no"
            }
        ],
        "link": "https://www.google.com/maps/place/JAMA+MASJID/data=!4m7!3m6!1s0x3bce073eb765a829:0x30cc2f98dd04e9a1!8m2!3d19.0397058!4d77.9159634!16s%2Fg%2F11pz0fyctc!19sChIJKahltz4HzjsRoekE3ZgvzDA?authuser=0&hl=en&rclk=1",
        "coordinates": {
            "latitude": 19.0397058,
            "longitude": 77.9159634
        }
    },
    {
        "name": "smshaanvaattik",
        "main_category": "Mosque",
        "address": "539X+CCJ smshaanvaattik, adilaabaadu, Telangana 504109",
        "detailed_address": {
            "ward": null,
            "street": "539X+CCJ",
            "city": "adilaabaadu",
            "postal_code": "504109",
            "state": "Telangana",
            "country_code": "IN"
        },
        "images": [],
        "link": "https://www.google.com/maps/place/%E0%B0%B8%E0%B1%8D%E0%B0%AE%E0%B0%B6%E0%B0%BE%E0%B0%A8%E0%B0%B5%E0%B0%BE%E0%B0%9F%E0%B0%BF%E0%B0%95/data=!4m7!3m6!1s0x3bcdf97b97a183ab:0xe00cb011d279594d!8m2!3d19.1682263!4d78.0990057!16s%2Fg%2F11v5bbbfvm!19sChIJq4Ohl3v5zTsRTVl50hGwDOA?authuser=0&hl=en&rclk=1",
        "coordinates": {
            "latitude": 19.1682263,
            "longitude": 78.09900569999999
        }
    },
    {
        "name": "Jama masjid Mohammadia godapur",
        "main_category": "Mosque",
        "address": "6V2P+QWW Jama masjid Mohammadia godapur, Godapur, Telangana 504103",
        "detailed_address": {
            "ward": null,
            "street": "6V2P+QWW",
            "city": "Godapur",
            "postal_code": "504103",
            "state": "Telangana",
            "country_code": "IN"
        },
        "images": [
            {
                "about": "All",
                "link": "https://lh5.googleusercontent.com/p/AF1QipOdourqdP8sWhaWV0YaXg9ScrPW1OTbCooNBCfj=w224-h298-k-no"
            }
        ],
        "link": "https://www.google.com/maps/place/Jama+masjid+Mohammadia+godapur/data=!4m7!3m6!1s0x3bd1ff67c74f1d71:0x6fbccdef3e8d57!8m2!3d19.2027752!4d77.8869778!16s%2Fg%2F11rn96vg7f!19sChIJcR1Px2f_0TsRV40-7828bwA?authuser=0&hl=en&rclk=1",
        "coordinates": {
            "latitude": 19.202775199999998,
            "longitude": 77.8869778
        }
    },
    {
        "name": "Jama Masjid Limba",
        "main_category": "Mosque",
        "address": "523V+7F2 Jama Masjid Limba, Limba Khurd, Telangana 504109",
        "detailed_address": {
            "ward": null,
            "street": "523V+7F2",
            "city": "Limba Khurd",
            "postal_code": "504109",
            "state": "Telangana",
            "country_code": "IN"
        },
        "images": [
            {
                "about": "All",
                "link": "https://lh5.googleusercontent.com/p/AF1QipOCmS3JQnOFRiCPYeUAMv18tmU6BqtHCXY29Izd=w529-h298-k-no"
            }
        ],
        "link": "https://www.google.com/maps/place/Jama+Masjid+Limba/data=!4m7!3m6!1s0x3bcdf91c30be5c01:0x41b0942c84df9744!8m2!3d19.1531407!4d78.0436445!16s%2Fg%2F11v9z80ywd!19sChIJAVy-MBz5zTsRRJffhCyUsEE?authuser=0&hl=en&rclk=1",
        "coordinates": {
            "latitude": 19.153140699999998,
            "longitude": 78.0436445
        }
    },
    {
        "name": "Madeena masjid",
        "main_category": "Mosque",
        "address": "52C6+V34 Madeena masjid, Chintalabori, Telangana 504103",
        "detailed_address": {
            "ward": null,
            "street": "52C6+V34",
            "city": "Chintalabori",
            "postal_code": null,
            "state": "Telangana",
            "country_code": "IN"
        },
        "images": [
            {
                "about": "All",
                "link": "https://lh5.googleusercontent.com/p/AF1QipMK8U9XiEJoWxLfkBnHyUzlWbQAePRAVYRAQ2ur=w529-h298-k-no"
            },
            {
                "about": "By owner",
                "link": "https://lh5.googleusercontent.com/p/AF1QipOllghA3y7jUpq94FnppCCHhxbVsr8vEQHYkxbD=w661-h298-k-no"
            },
            {
                "about": "Videos",
                "link": "https://lh5.googleusercontent.com/p/AF1QipOSmx7jmu354SZxJNeZI2Gg4GPFUcswRac7BEwh=w224-h398-k-no"
            }
        ],
        "link": "https://www.google.com/maps/place/Madeena+masjid/data=!4m7!3m6!1s0x3bcdffe967e8faaf:0xe0043d36fece529!8m2!3d19.1722582!4d78.0101075!16s%2Fg%2F11lgkmzqrf!19sChIJr_roZ-n_zTsRKeXsb9NDAA4?authuser=0&hl=en&rclk=1",
        "coordinates": {
            "latitude": 19.172258199999998,
            "longitude": 78.01010749999999
        }
    },
    {
        "name": "Mosque",
        "main_category": "Mosque",
        "address": "54G3+83C Mosque, Unnamed Road, Kuntala, Telangana 504109",
        "detailed_address": {
            "ward": null,
            "street": "54G3+83C, Unnamed Road",
            "city": "Kuntala",
            "postal_code": "504109",
            "state": "Telangana",
            "country_code": "IN"
        },
        "images": [],
        "link": "https://www.google.com/maps/place/Mosque/data=!4m7!3m6!1s0x3bcdf9d025e5219f:0x95288131dbc628f8!8m2!3d19.1758173!4d78.1026331!16s%2Fg%2F11nn534w_k!19sChIJnyHlJdD5zTsR-CjG2zGBKJU?authuser=0&hl=en&rclk=1",
        "coordinates": {
            "latitude": 19.1758173,
            "longitude": 78.10263309999999
        }
    },
    {
        "name": "Jama Masjid",
        "main_category": "Association or organization",
        "address": "4XR4+6G Jama Masjid, Mirzapur, Siddur, Telangana 504103",
        "detailed_address": {
            "ward": null,
            "street": "4XR4+6G",
            "city": "Mirzapur, Siddur",
            "postal_code": "504103",
            "state": "Telangana",
            "country_code": "IN"
        },
        "images": [],
        "link": "https://www.google.com/maps/place/Jama+Masjid/data=!4m7!3m6!1s0x3bcdff170abc4c7d:0x7f87ae410c8c72e!8m2!3d19.1389125!4d77.9577969!16s%2Fg%2F11vcm2zgyv!19sChIJfUy8Chf_zTsRLsfIEOR6-Ac?authuser=0&hl=en&rclk=1",
        "coordinates": {
            "latitude": 19.1389125,
            "longitude": 77.95779689999999
        }
    },
    {
        "name": "Jama masjid",
        "main_category": "Religious destination",
        "address": "2WHX+8J5 Jama masjid, Unnamed Road, Mudgal, Telangana 504102",
        "detailed_address": {
            "ward": null,
            "street": "2WHX+8J5, Unnamed Road",
            "city": "Mudgal",
            "postal_code": "504102",
            "state": "Telangana",
            "country_code": "IN"
        },
        "images": [],
        "link": "https://www.google.com/maps/place/Jama+masjid/data=!4m7!3m6!1s0x3bcdfdadd8816f9b:0xeec65d13756df0ec!8m2!3d19.0282676!4d77.9491179!16s%2Fg%2F11js4nngbp!19sChIJm2-B2K39zTsR7PBtdRNdxu4?authuser=0&hl=en&rclk=1",
        "coordinates": {
            "latitude": 19.0282676,
            "longitude": 77.94911789999999
        }
    },
    {
        "name": "Mosque",
        "main_category": "Mosque",
        "address": "V23P+64R Mosque, Binola, Abbapur B, Telangana 503246",
        "detailed_address": {
            "ward": null,
            "street": "V23P+64R",
            "city": "Binola, Abbapur B",
            "postal_code": "503246",
            "state": "Telangana",
            "country_code": "IN"
        },
        "images": [
            {
                "about": "All",
                "link": "https://lh5.googleusercontent.com/p/AF1QipNtak5X2HqCuLxjh8r0uAfvM2SI9n_Ibkr9TozT=w224-h298-k-no"
            }
        ],
        "link": "https://www.google.com/maps/place/Mosque/data=!4m7!3m6!1s0x3bcde6d95e2f713f:0x4911a7c1ec28e174!8m2!3d18.8531021!4d78.0352664!16s%2Fg%2F11g9nhhhng!19sChIJP3EvXtnmzTsRdOEo7MGnEUk?authuser=0&hl=en&rclk=1",
        "coordinates": {
            "latitude": 18.853102099999997,
            "longitude": 78.0352664
        }
    },
    {
        "name": "Masjid e rahmat wayi lingi sanwli",
        "main_category": "Mosque",
        "address": "5VHV+7M Masjid e rahmat wayi lingi sanwli, Sanwali, Telangana 504103",
        "detailed_address": {
            "ward": null,
            "street": "5VHV+7M",
            "city": "Sanwali",
            "postal_code": null,
            "state": "Telangana",
            "country_code": "IN"
        },
        "images": [
            {
                "about": "All",
                "link": "https://lh5.googleusercontent.com/p/AF1QipN9J21oh3Ur8fqthELnkMMHYOc3UiZxEweF8CyE=w529-h298-k-no"
            }
        ],
        "link": "https://www.google.com/maps/place/Masjid+e+rahmat+wayi+lingi+sanwli/data=!4m7!3m6!1s0x3bd1ff51b4c00ebd:0x99ad3e5f1ac806ec!8m2!3d19.1781415!4d77.8941574!16s%2Fg%2F11rp5ck9mf!19sChIJvQ7AtFH_0TsR7AbIGl8-rZk?authuser=0&hl=en&rclk=1",
        "coordinates": {
            "latitude": 19.1781415,
            "longitude": 77.8941574
        }
    },
    {
        "name": "Masjid",
        "main_category": "Mosque",
        "address": "23HP+VRV Masjid, Lokeshwaram, Telangana 504104",
        "detailed_address": {
            "ward": null,
            "street": "23HP+VRV",
            "city": "Lokeshwaram",
            "postal_code": null,
            "state": "Telangana",
            "country_code": "IN"
        },
        "images": [],
        "link": "https://www.google.com/maps/place/Masjid/data=!4m7!3m6!1s0x3bcdfb3d97c6beb1:0xffec44d109005d16!8m2!3d19.029744!4d78.0870508!16s%2Fg%2F11sy1hj3tx!19sChIJsb7Glz37zTsRFl0ACdFE7P8?authuser=0&hl=en&rclk=1",
        "coordinates": {
            "latitude": 19.029744,
            "longitude": 78.0870508
        }
    },
    {
        "name": "Eidgah",
        "main_category": "Mosque",
        "address": "VVV3+W3G Eidgah, Dharmabad, Maharashtra 431809",
        "detailed_address": {
            "ward": null,
            "street": "VVV3+W3G",
            "city": "Dharmabad",
            "postal_code": "431809",
            "state": "Maharashtra",
            "country_code": "IN"
        },
        "images": [],
        "link": "https://www.google.com/maps/place/Eidgah/data=!4m7!3m6!1s0x3bce0944b9955555:0x2c7f6deecd9cffea!8m2!3d18.8948082!4d77.8527185!16s%2Fg%2F11sscs8plg!19sChIJVVWVuUQJzjsR6v-cze5tfyw?authuser=0&hl=en&rclk=1",
        "coordinates": {
            "latitude": 18.8948082,
            "longitude": 77.8527185
        }
    },
    {
        "name": "EIDGAH DHRAMABAD",
        "main_category": "Mosque",
        "address": "VRVV+R48 EIDGAH DHRAMABAD, Unnamed Road, Dharmabad, Maharashtra 431809",
        "detailed_address": {
            "ward": null,
            "street": "VRVV+R48, Unnamed Road",
            "city": "Dharmabad",
            "postal_code": "431809",
            "state": "Maharashtra",
            "country_code": "IN"
        },
        "images": [
            {
                "about": "All",
                "link": "https://lh5.googleusercontent.com/p/AF1QipNRSCXDk8HnZ9ZU3MWrFEie8sx1ml8mND7sa0NM=w397-h298-k-no"
            }
        ],
        "link": "https://www.google.com/maps/place/EIDGAH+DHRAMABAD/data=!4m7!3m6!1s0x3bce092dd865ad23:0x43491ca1bbc7ba99!8m2!3d18.8945295!4d77.8428327!16s%2Fg%2F11p5csnn80!19sChIJI61l2C0JzjsRmbrHu6EcSUM?authuser=0&hl=en&rclk=1",
        "coordinates": {
            "latitude": 18.8945295,
            "longitude": 77.8428327
        }
    },
    {
        "name": "Masjid",
        "main_category": "Mosque",
        "address": "VW8Q+JJP Masjid, Basar, Telangana 504101",
        "detailed_address": {
            "ward": null,
            "street": "VW8Q+JJP",
            "city": "Basar",
            "postal_code": null,
            "state": "Telangana",
            "country_code": "IN"
        },
        "images": [
            {
                "about": "All",
                "link": "https://streetviewpixels-pa.googleapis.com/v1/thumbnail?panoid=tXejCpgeH-Dci7VJdoZVIg&cb_client=maps_sv.tactile.gps&w=224&h=298&yaw=211.38228&pitch=0&thumbfov=100"
            },
            {
                "about": "Street View & 360deg",
                "link": "https://streetviewpixels-pa.googleapis.com/v1/thumbnail?panoid=tXejCpgeH-Dci7VJdoZVIg&cb_client=maps_sv.tactile.gps&w=224&h=298&yaw=211.38228&pitch=0&thumbfov=100"
            }
        ],
        "link": "https://www.google.com/maps/place/Masjid/data=!4m7!3m6!1s0x3bcde10cc7f5aca5:0x9964a345088a20b6!8m2!3d18.8665932!4d77.9390706!16s%2Fg%2F11rvgjzrxx!19sChIJpaz1xwzhzTsRtiCKCEWjZJk?authuser=0&hl=en&rclk=1",
        "coordinates": {
            "latitude": 18.8665932,
            "longitude": 77.9390706
        }
    },
    {
        "name": "msjid abdullaa dhrmaabaad",
        "main_category": "Mosque",
        "address": "VRXV+96X msjid abdullaa dhrmaabaad, Dharmabad, Maharashtra 431809",
        "detailed_address": {
            "ward": null,
            "street": "VRXV+96X",
            "city": "Dharmabad",
            "postal_code": "431809",
            "state": "Maharashtra",
            "country_code": "IN"
        },
        "images": [],
        "link": "https://www.google.com/maps/place/%E0%A4%AE%E0%A4%B8%E0%A5%8D%E0%A4%9C%E0%A4%BF%E0%A4%A6+%E0%A4%85%E0%A4%AC%E0%A4%A6%E0%A5%81%E0%A4%B2%E0%A5%8D%E0%A4%B2%E0%A4%BE+%E0%A4%A7%E0%A4%B0%E0%A4%AE%E0%A4%BE%E0%A4%AC%E0%A4%BE%E0%A4%A6/data=!4m7!3m6!1s0x3bce0967bce8ba71:0x5190a887bf5c3eed!8m2!3d18.8985374!4d77.8428997!16s%2Fg%2F11v0qg1xjx!19sChIJcbrovGcJzjsR7T5cv4eokFE?authuser=0&hl=en&rclk=1",
        "coordinates": {
            "latitude": 18.8985374,
            "longitude": 77.84289969999999
        }
    },
    {
        "name": "Jama Masjid Kumsara",
        "main_category": "Place of worship",
        "address": "3X4J+HF4 Jama Masjid Kumsara, Kumsari, Telangana 504102",
        "detailed_address": {
            "ward": null,
            "street": "3X4J+HF4",
            "city": "Kumsari",
            "postal_code": "504102",
            "state": "Telangana",
            "country_code": "IN"
        },
        "images": [],
        "link": "https://www.google.com/maps/place/Jama+Masjid+Kumsara/data=!4m7!3m6!1s0x3bcdfdf4c8eb8289:0xb93d9f7ee6f71881!8m2!3d19.0563878!4d77.9812025!16s%2Fg%2F11rfc9rrc6!19sChIJiYLryPT9zTsRgRj35n6fPbk?authuser=0&hl=en&rclk=1",
        "coordinates": {
            "latitude": 19.0563878,
            "longitude": 77.9812025
        }
    },
    {
        "name": "Makkah masjid Binola",
        "main_category": "Mosque",
        "address": "V3Q5+XQQ Makkah masjid Binola, Binola, Telangana 503246",
        "detailed_address": {
            "ward": null,
            "street": "V3Q5+XQQ",
            "city": "Binola",
            "postal_code": "503246",
            "state": "Telangana",
            "country_code": "IN"
        },
        "images": [],
        "link": "https://www.google.com/maps/place/Makkah+masjid+Binola/data=!4m7!3m6!1s0x3bcde736e5d409a3:0x654b084de71f1403!8m2!3d18.8899684!4d78.0594874!16s%2Fg%2F11t7c6nbsr!19sChIJownU5TbnzTsRAxQf500IS2U?authuser=0&hl=en&rclk=1",
        "coordinates": {
            "latitude": 18.8899684,
            "longitude": 78.0594874
        }
    },
    {
        "name": "Shadulla Husain chilla",
        "main_category": "Mosque",
        "address": "VRQV+6W9 Shadulla Husain chilla, Ratnali Rd, Shanker Gunj, Dharmabad, Maharashtra 431809",
        "detailed_address": {
            "ward": "Shanker Gunj",
            "street": "VRQV+6W9, Ratnali Rd",
            "city": "Dharmabad",
            "postal_code": "431809",
            "state": "Maharashtra",
            "country_code": "IN"
        },
        "images": [
            {
                "about": "All",
                "link": "https://lh5.googleusercontent.com/p/AF1QipMDpDGzLTrsVJi6qpmmLNQ8Qh0ooZjaw1AdifV3=w224-h497-k-no"
            }
        ],
        "link": "https://www.google.com/maps/place/Shadulla+Husain+chilla/data=!4m7!3m6!1s0x3bce09836eb28fc7:0xcf04da1252de8024!8m2!3d18.88805!4d77.844847!16s%2Fg%2F11s2rcbrdz!19sChIJx4-yboMJzjsRJIDeUhLaBM8?authuser=0&hl=en&rclk=1",
        "coordinates": {
            "latitude": 18.88805,
            "longitude": 77.844847
        }
    }
]