[
    {
        "name": "Chakmir Jumma Masjid",
        "main_category": "Mosque",
        "address": "G757+8WQ Chakmir Jumma Masjid, Gauripur, Maheshtala, West Bengal 700142",
        "detailed_address": {
            "ward": "Gauripur",
            "street": "G757+8WQ",
            "city": "Maheshtala",
            "postal_code": "700142",
            "state": "West Bengal",
            "country_code": "IN"
        },
        "images": [
            {
                "about": "All",
                "link": "https://lh5.googleusercontent.com/p/AF1QipOuXmsxUZXB1Kv5lOZj21UTyU0t2uHwfJ1__rB3=w224-h398-k-no"
            },
            {
                "about": "Latest",
                "link": "https://lh5.googleusercontent.com/p/AF1QipMCmcN1HzYYSslJXgULvRf9rTVuE4V5QkLnq5dX=w224-h345-k-no"
            },
            {
                "about": "Videos",
                "link": "https://lh5.googleusercontent.com/p/AF1QipNsjyCPlSW_JgU1IlGQz2S4MpET_5bRqtQWpq5L=w224-h398-k-no"
            }
        ],
        "link": "https://www.google.com/maps/place/Chakmir+Jumma+Masjid/data=!4m7!3m6!1s0x3a027be745a9105d:0x8a72b348b3f7d237!8m2!3d22.5083337!4d88.2648552!16s%2Fg%2F1q6jdkm6g!19sChIJXRCpRed7AjoRN9L3s0izcoo?authuser=0&hl=en&rclk=1",
        "coordinates": {
            "latitude": 22.508333699999998,
            "longitude": 88.2648552
        }
    },
    {
        "name": "Eidgaah Masjid",
        "main_category": "Mosque",
        "address": "MR5R+X43 Eidgaah Masjid, Chhabra, Rajasthan 325220",
        "detailed_address": {
            "ward": null,
            "street": "MR5R+X43",
            "city": "Chhabra",
            "postal_code": "325220",
            "state": "Rajasthan",
            "country_code": "IN"
        },
        "images": [
            {
                "about": "All",
                "link": "https://lh5.googleusercontent.com/p/AF1QipOe6C0LFlyJN2I5uFxFqY9uNzqr0-UVYoqHFI3A=w224-h298-k-no"
            },
            {
                "about": "Videos",
                "link": "https://lh5.googleusercontent.com/p/AF1QipP4xOSP8P_AtZ-cfHDzGO_1kVjYnhCwod_GncvJ=w224-h398-k-no"
            }
        ],
        "link": "https://www.google.com/maps/place/Eidgaah+Masjid/data=!4m7!3m6!1s0x397aea8f27dd995f:0xf56f3c47ca095bec!8m2!3d24.6598883!4d76.8402886!16s%2Fg%2F12ml2vmdh!19sChIJX5ndJ4_qejkR7FsJykc8b_U?authuser=0&hl=en&rclk=1",
        "coordinates": {
            "latitude": 24.6598883,
            "longitude": 76.8402886
        }
    },
    {
        "name": "Noori Jama Masjid",
        "main_category": "Mosque",
        "address": "MVF3+3CC Noori Jama Masjid, Wallabh Nagar, (Tower Colony), Vallabh Nagar, Chhabra, Rajasthan 325220",
        "detailed_address": {
            "ward": "Vallabh Nagar",
            "street": "MVF3+3CC, Wallabh Nagar, (Tower Colony)",
            "city": "Chhabra, Acholi",
            "postal_code": "325220",
            "state": "Rajasthan",
            "country_code": "IN"
        },
        "images": [
            {
                "about": "All",
                "link": "https://lh5.googleusercontent.com/p/AF1QipPWjER89RuckDX9Y2ETKOv6EgCEZZyA6vaksbH0=w529-h298-k-no"
            }
        ],
        "link": "https://www.google.com/maps/place/Noori+Jama+Masjid/data=!4m7!3m6!1s0x397aeaebf281fb0b:0xd6dd82556f4b4379!8m2!3d24.6726813!4d76.8535307!16s%2Fg%2F12mq2tfy2!19sChIJC_uB8uvqejkReUNLb1WC3dY?authuser=0&hl=en&rclk=1",
        "coordinates": {
            "latitude": 24.672681299999997,
            "longitude": 76.8535307
        }
    },
    {
        "name": "Masjid-E-Hamja",
        "main_category": "Mosque",
        "address": "F6VM+MJ7 Masjid-E-Hamja, Balarampur, Maheshtala, West Bengal 700141",
        "detailed_address": {
            "ward": "Balarampur",
            "street": "F6VM+MJ7",
            "city": "Maheshtala",
            "postal_code": "700141",
            "state": "West Bengal",
            "country_code": "IN"
        },
        "images": [
            {
                "about": "All",
                "link": "https://lh5.googleusercontent.com/p/AF1QipMHAd4eJikJa3sQvB6-Py8eN2eVkXqIh5iSyzYP=w529-h298-k-no"
            },
            {
                "about": "Dome",
                "link": "https://lh5.googleusercontent.com/p/AF1QipP9XRBe_M6uI1uS0mOUCv1J9qjRiN84wRLauug5=w224-h298-k-no"
            }
        ],
        "link": "https://www.google.com/maps/place/Masjid-E-Hamja/data=!4m7!3m6!1s0x3a027c125516d7c1:0xc1b4468e3d03de25!8m2!3d22.4941539!4d88.2340406!16s%2Fg%2F11dzt3sdvd!19sChIJwdcWVRJ8AjoRJd4DPY5GtME?authuser=0&hl=en&rclk=1",
        "coordinates": {
            "latitude": 22.4941539,
            "longitude": 88.2340406
        }
    },
    {
        "name": "Johripura Masjid",
        "main_category": "Mosque",
        "address": "MV62+39V Johripura Masjid, Johripura, Chhabra, Rajasthan 325220",
        "detailed_address": {
            "ward": "Johripura",
            "street": "MV62+39V",
            "city": "Chhabra",
            "postal_code": "325220",
            "state": "Rajasthan",
            "country_code": "IN"
        },
        "images": [
            {
                "about": "All",
                "link": "https://lh5.googleusercontent.com/p/AF1QipM99ZhysQD4jvEIH7jfKdOJFSsApqdPnm1fF0Dk=w224-h471-k-no"
            }
        ],
        "link": "https://www.google.com/maps/place/Johripura+Masjid/data=!4m7!3m6!1s0x397aeaf3623576b3:0xfdf6d564a6671691!8m2!3d24.6602418!4d76.8509209!16s%2Fg%2F1hhn3mfv6!19sChIJs3Y1YvPqejkRkRZnpmTV9v0?authuser=0&hl=en&rclk=1",
        "coordinates": {
            "latitude": 24.660241799999998,
            "longitude": 76.85092089999999
        }
    },
    {
        "name": "Chabra Jama Masjid",
        "main_category": "Mosque",
        "address": "569G+QHX Chabra Jama Masjid, Ondagram Stn- Kamardanga- Gopinathpur Etajhira- Patrahati- Gamidya Rd, Chabra, West Bengal 722144",
        "detailed_address": {
            "ward": null,
            "street": "569G+QHX, Ondagram Stn- Kamardanga- Gopinathpur Etajhira- Patrahati- Gamidya Rd",
            "city": "Chabra",
            "postal_code": null,
            "state": "West Bengal",
            "country_code": "IN"
        },
        "images": [
            {
                "about": "All",
                "link": "https://lh5.googleusercontent.com/p/AF1QipPYXtnUC60gijV87_7pPPdhuFDg5cHAuoHkPqSv=w224-h298-k-no"
            },
            {
                "about": "Videos",
                "link": "https://lh5.googleusercontent.com/p/AF1QipOKE9CY4EZD40dcURSvDZvN4dnJ2NHp_Ezhu_Sc=w224-h398-k-no"
            }
        ],
        "link": "https://www.google.com/maps/place/Chabra+Jama+Masjid/data=!4m7!3m6!1s0x39f799c15f811edf:0x795d34d2663a3cf7!8m2!3d23.1694974!4d87.2264823!16s%2Fg%2F11h56jbztk!19sChIJ3x6BX8GZ9zkR9zw6ZtI0XXk?authuser=0&hl=en&rclk=1",
        "coordinates": {
            "latitude": 23.169497399999997,
            "longitude": 87.2264823
        }
    },
    {
        "name": "Masjid-E-Eliyas msjd",
        "main_category": "Mosque",
        "address": "Masjid-E-Eliyas msjd, Rameshwarpur, 700140, Dakhin Chatta Kalikapukur, Maheshtala, West Bengal",
        "detailed_address": {
            "ward": "Dakhin Chatta Kalikapukur",
            "street": "Rameshwarpur, 700140",
            "city": "Maheshtala, Chatta Rameshwarpur",
            "postal_code": null,
            "state": "West Bengal",
            "country_code": "IN"
        },
        "images": [
            {
                "about": "All",
                "link": "https://lh5.googleusercontent.com/p/AF1QipN0lmNT2tJGGbd7K7PUMBxqcdFhZOegSFYV5Z5g=w529-h298-k-no"
            }
        ],
        "link": "https://www.google.com/maps/place/Masjid-E-Eliyas+%D9%85%D8%B3%D8%AC%D8%AF%E2%80%AD/data=!4m7!3m6!1s0x3a027c63a165c269:0x52e7e488ce4e337d!8m2!3d22.4713643!4d88.2336633!16s%2Fg%2F11gclyp3v9!19sChIJacJloWN8AjoRfTNOzojk51I?authuser=0&hl=en&rclk=1",
        "coordinates": {
            "latitude": 22.471364299999998,
            "longitude": 88.23366329999999
        }
    },
    {
        "name": "Jama Masjid",
        "main_category": "Mosque",
        "address": "MR6X+2FW Jama Masjid, Chhabra, Rajasthan 325220",
        "detailed_address": {
            "ward": null,
            "street": "MR6X+2FW",
            "city": "Chhabra",
            "postal_code": "325220",
            "state": "Rajasthan",
            "country_code": "IN"
        },
        "images": [
            {
                "about": "All",
                "link": "https://lh5.googleusercontent.com/p/AF1QipMUXsKVuYdYogrTKB07A2ramPc8AfI5b15XzLNX=w397-h298-k-no"
            },
            {
                "about": "Street View & 360deg",
                "link": "https://streetviewpixels-pa.googleapis.com/v1/thumbnail?panoid=okQxct6BB8f_10Chc9m4fg&cb_client=maps_sv.tactile.gps&w=224&h=298&yaw=283.0383&pitch=0&thumbfov=100"
            }
        ],
        "link": "https://www.google.com/maps/place/Jama+Masjid/data=!4m7!3m6!1s0x397aea8cabd22b71:0xf4314ab344743e53!8m2!3d24.6601024!4d76.848705!16s%2Fg%2F1hhhyn0l7!19sChIJcSvSq4zqejkRUz50RLNKMfQ?authuser=0&hl=en&rclk=1",
        "coordinates": {
            "latitude": 24.6601024,
            "longitude": 76.848705
        }
    },
    {
        "name": "Chakmir Azad Nagar Ghousia Masjid",
        "main_category": "Mosque",
        "address": "Chakmir Azad Nagar Ghousia Masjid, Govindapur, Benepukur, Maheshtala, West Bengal 700140",
        "detailed_address": {
            "ward": "Govindapur, Benepukur",
            "street": null,
            "city": "Maheshtala",
            "postal_code": "700140",
            "state": "West Bengal",
            "country_code": "IN"
        },
        "images": [
            {
                "about": "All",
                "link": "https://lh5.googleusercontent.com/p/AF1QipPA8IGJfSeoa7NJgbIBBuKY3u44yNt44ribK4zr=w397-h298-k-no"
            }
        ],
        "link": "https://www.google.com/maps/place/Chakmir+Azad+Nagar+Ghousia+Masjid/data=!4m7!3m6!1s0x3a027bcba7012d41:0x1396b228cbe973f9!8m2!3d22.5078898!4d88.2668794!16s%2Fg%2F11j0b3s3w2!19sChIJQS0Bp8t7AjoR-XPpyyiylhM?authuser=0&hl=en&rclk=1",
        "coordinates": {
            "latitude": 22.507889799999997,
            "longitude": 88.2668794
        }
    },
    {
        "name": "Dawoodi Bohra masjid chhabra",
        "main_category": "Mosque",
        "address": "MR6X+9JX Dawoodi Bohra masjid chhabra, Chhabra, Rajasthan 325220",
        "detailed_address": {
            "ward": null,
            "street": "MR6X+9JX",
            "city": "Chhabra",
            "postal_code": "325220",
            "state": "Rajasthan",
            "country_code": "IN"
        },
        "images": [
            {
                "about": "All",
                "link": "https://lh5.googleusercontent.com/p/AF1QipNof4Od5a2BxBeTAk0o2OHnK1j2RV-QWCz2NKHq=w635-h298-k-no"
            }
        ],
        "link": "https://www.google.com/maps/place/Dawoodi+Bohra+masjid+chhabra/data=!4m7!3m6!1s0x397aeaf34c9a5da3:0xeea7b321379a0952!8m2!3d24.6609934!4d76.8491144!16s%2Fg%2F11gbwyj42p!19sChIJo12aTPPqejkRUgmaNyGzp-4?authuser=0&hl=en&rclk=1",
        "coordinates": {
            "latitude": 24.6609934,
            "longitude": 76.84911439999999
        }
    },
    {
        "name": "Bilaal Masjid",
        "main_category": "Mosque",
        "address": "MR8X+M9V Bilaal Masjid, Slaughter Colony Rd, Chhabra, Rajasthan 325220",
        "detailed_address": {
            "ward": null,
            "street": "MR8X+M9V, Slaughter Colony Rd",
            "city": "Chhabra",
            "postal_code": "325220",
            "state": "Rajasthan",
            "country_code": "IN"
        },
        "images": [
            {
                "about": "All",
                "link": "https://lh5.googleusercontent.com/p/AF1QipOsP65d_ObDoMgQupUdHM92vY3qDXntgjGifBB9=w397-h298-k-no"
            },
            {
                "about": "Videos",
                "link": "https://lh5.googleusercontent.com/p/AF1QipOYm0ZUWIagNSYyN_pr7-KXdo5XWwLhBCfKc-2_=w224-h453-k-no"
            }
        ],
        "link": "https://www.google.com/maps/place/Bilaal+Masjid/data=!4m7!3m6!1s0x397aea92b0c8fd65:0x7ba521b2103c3b09!8m2!3d24.6667329!4d76.8484157!16s%2Fg%2F11c1tf40b6!19sChIJZf3IsJLqejkRCTs8ELIhpXs?authuser=0&hl=en&rclk=1",
        "coordinates": {
            "latitude": 24.6667329,
            "longitude": 76.84841569999999
        }
    },
    {
        "name": "Madina Masjid",
        "main_category": "Mosque",
        "address": "MV73+C5W Madina Masjid, Koli Mohalla, Kothar Mohalla, Shahpura, Chhabra, Rajasthan 311404",
        "detailed_address": {
            "ward": "Kothar Mohalla",
            "street": "MV73+C5W, Koli Mohalla",
            "city": "Shahpura, Chhabra",
            "postal_code": "311404",
            "state": "Rajasthan",
            "country_code": "IN"
        },
        "images": [],
        "link": "https://www.google.com/maps/place/Madina+Masjid/data=!4m7!3m6!1s0x397aeaf24ec773a5:0x8a6f1e7150f0e7d9!8m2!3d24.663622!4d76.8529389!16s%2Fg%2F11c53blbyc!19sChIJpXPHTvLqejkR2efwUHEeb4o?authuser=0&hl=en&rclk=1",
        "coordinates": {
            "latitude": 24.663622,
            "longitude": 76.8529389
        }
    }
]