[
    {
        "name": "Masjid Dulha-Badshah",
        "main_category": "Mosque",
        "address": "Masjid Dulha-Badshah, Nehru Colony, Sehore, Madhya Pradesh 466001",
        "detailed_address": {
            "ward": "Nehru Colony",
            "street": null,
            "city": "Sehore",
            "postal_code": "466001",
            "state": "Madhya Pradesh",
            "country_code": "IN"
        },
        "images": [
            {
                "about": "All",
                "link": "https://lh5.googleusercontent.com/p/AF1QipMrUptbdKYaM8SD0_8PL36AJlnvt9l8EhhOmah4=w224-h298-k-no"
            }
        ],
        "link": "https://www.google.com/maps/place/Masjid+Dulha-Badshah/data=!4m7!3m6!1s0x397cf33fc3072e09:0x61e70a2ea768b6eb!8m2!3d23.2033691!4d77.0774549!16s%2Fg%2F1hjgnqz3p!19sChIJCS4Hwz_zfDkR67Zopy4K52E?authuser=0&hl=en&rclk=1",
        "coordinates": {
            "latitude": 23.2033691,
            "longitude": 77.07745489999999
        }
    },
    {
        "name": "Motibaba Mandir Gwaltoli Sehore",
        "main_category": "Hindu temple",
        "address": "636V+G28 Motibaba Mandir Gwaltoli Sehore, Badi Gwal Toli, Ganj, Sehore, Madhya Pradesh 466001",
        "detailed_address": {
            "ward": "Badi Gwal Toli, Ganj",
            "street": "636V+G28",
            "city": "Sehore",
            "postal_code": "466001",
            "state": "Madhya Pradesh",
            "country_code": "IN"
        },
        "images": [
            {
                "about": "All",
                "link": "https://lh5.googleusercontent.com/p/AF1QipP_3texkIVOT5TXoLBX3v-442vDgRoTw03Pfbgf=w397-h298-k-no"
            }
        ],
        "link": "https://www.google.com/maps/place/Motibaba+Mandir+Gwaltoli+Sehore/data=!4m7!3m6!1s0x397cf35b14557e5f:0xaf64c296cd0c339d!8m2!3d23.2112989!4d77.092592!16s%2Fg%2F11f03rps3d!19sChIJX35VFFvzfDkRnTMMzZbCZK8?authuser=0&hl=en&rclk=1",
        "coordinates": {
            "latitude": 23.2112989,
            "longitude": 77.092592
        }
    },
    {
        "name": "Jama Masjid Sarai",
        "main_category": "Mosque",
        "address": "632M+R4X Jama Masjid Sarai, Sindhi Colony, Sehore, Madhya Pradesh 466001",
        "detailed_address": {
            "ward": "Sindhi Colony",
            "street": "632M+R4X",
            "city": "Sehore",
            "postal_code": "466001",
            "state": "Madhya Pradesh",
            "country_code": "IN"
        },
        "images": [
            {
                "about": "All",
                "link": "https://lh5.googleusercontent.com/p/AF1QipMxLlDtYuU2JsOaj6dOY81llbABHF4aRd-7PvbE=w224-h398-k-no"
            }
        ],
        "link": "https://www.google.com/maps/place/Jama+Masjid+Sarai/data=!4m7!3m6!1s0x397cf3818956ab9d:0xe010b09a8dbd79f4!8m2!3d23.202179!4d77.0827175!16s%2Fg%2F11t9f2ktq6!19sChIJnatWiYHzfDkR9Hm9jZqwEOA?authuser=0&hl=en&rclk=1",
        "coordinates": {
            "latitude": 23.202178999999997,
            "longitude": 77.0827175
        }
    },
    {
        "name": "Masjid Nawab Sahab",
        "main_category": "Mosque",
        "address": "632F+CMW Masjid Nawab Sahab, near Pukhta masjid, Qusba, Sehore, Madhya Pradesh 466001",
        "detailed_address": {
            "ward": "Qusba",
            "street": "632F+CMW, near Pukhta masjid",
            "city": "Sehore",
            "postal_code": "466001",
            "state": "Madhya Pradesh",
            "country_code": "IN"
        },
        "images": [
            {
                "about": "All",
                "link": "https://streetviewpixels-pa.googleapis.com/v1/thumbnail?panoid=cPpaP8P4Hpm-zDloLEmQQQ&cb_client=maps_sv.tactile.gps&w=224&h=298&yaw=197.78423&pitch=0&thumbfov=100"
            },
            {
                "about": "Street View & 360deg",
                "link": "https://streetviewpixels-pa.googleapis.com/v1/thumbnail?panoid=cPpaP8P4Hpm-zDloLEmQQQ&cb_client=maps_sv.tactile.gps&w=224&h=298&yaw=197.78423&pitch=0&thumbfov=100"
            }
        ],
        "link": "https://www.google.com/maps/place/Masjid+Nawab+Sahab/data=!4m7!3m6!1s0x397cf364fd74de35:0x7c66d6bbef13f91a!8m2!3d23.2008542!4d77.0744284!16s%2Fg%2F11s2j425j4!19sChIJNd50_WTzfDkRGvkT77vWZnw?authuser=0&hl=en&rclk=1",
        "coordinates": {
            "latitude": 23.2008542,
            "longitude": 77.0744284
        }
    },
    {
        "name": "Markaz Pukhta Masjid",
        "main_category": "Mosque",
        "address": "632F+GPW Markaz Pukhta Masjid, Pukhta Masjid Gohapura, Qusba, Sehore, Madhya Pradesh 466001",
        "detailed_address": {
            "ward": "Qusba",
            "street": "632F+GPW, Pukhta Masjid Gohapura",
            "city": "Sehore",
            "postal_code": "466001",
            "state": "Madhya Pradesh",
            "country_code": "IN"
        },
        "images": [
            {
                "about": "All",
                "link": "https://streetviewpixels-pa.googleapis.com/v1/thumbnail?panoid=QFbD2ph4uztqOMLUW_w07w&cb_client=maps_sv.tactile.gps&w=224&h=298&yaw=358.23795&pitch=0&thumbfov=100"
            },
            {
                "about": "Street View & 360deg",
                "link": "https://streetviewpixels-pa.googleapis.com/v1/thumbnail?panoid=QFbD2ph4uztqOMLUW_w07w&cb_client=maps_sv.tactile.gps&w=224&h=298&yaw=358.23795&pitch=0&thumbfov=100"
            }
        ],
        "link": "https://www.google.com/maps/place/Markaz+Pukhta+Masjid/data=!4m7!3m6!1s0x397cf354b590d719:0x4bf28934ed9795db!8m2!3d23.2013505!4d77.0743313!16s%2Fg%2F11t1j_nn19!19sChIJGdeQtVTzfDkR25WX7TSJ8ks?authuser=0&hl=en&rclk=1",
        "coordinates": {
            "latitude": 23.2013505,
            "longitude": 77.0743313
        }
    },
    {
        "name": "Macca Masjid Jmanpura",
        "main_category": "Mosque",
        "address": "632C+RXW Macca Masjid Jmanpura, Qusba, Sehore, Madhya Pradesh 466001",
        "detailed_address": {
            "ward": "Qusba",
            "street": "632C+RXW",
            "city": "Sehore",
            "postal_code": "466001",
            "state": "Madhya Pradesh",
            "country_code": "IN"
        },
        "images": [
            {
                "about": "All",
                "link": "https://streetviewpixels-pa.googleapis.com/v1/thumbnail?panoid=_dODCqu2twUKZFbOpO5wPg&cb_client=maps_sv.tactile.gps&w=224&h=298&yaw=85.26078&pitch=0&thumbfov=100"
            },
            {
                "about": "Street View & 360deg",
                "link": "https://streetviewpixels-pa.googleapis.com/v1/thumbnail?panoid=_dODCqu2twUKZFbOpO5wPg&cb_client=maps_sv.tactile.gps&w=224&h=298&yaw=85.26078&pitch=0&thumbfov=100"
            }
        ],
        "link": "https://www.google.com/maps/place/Macca+Masjid+Jmanpura/data=!4m7!3m6!1s0x397cf323b207d2fb:0xcc16f9d7270ced83!8m2!3d23.2021216!4d77.072467!16s%2Fg%2F11t5wg_qb2!19sChIJ-9IHsiPzfDkRg-0MJ9f5Fsw?authuser=0&hl=en&rclk=1",
        "coordinates": {
            "latitude": 23.202121599999998,
            "longitude": 77.072467
        }
    },
    {
        "name": "Eidgah",
        "main_category": "Mosque",
        "address": "53W8+C4 Eidgah, Sehore, Madhya Pradesh 466001",
        "detailed_address": {
            "ward": null,
            "street": "53W8+C4",
            "city": "Sehore",
            "postal_code": null,
            "state": "Madhya Pradesh",
            "country_code": "IN"
        },
        "images": [],
        "link": "https://www.google.com/maps/place/Eidgah/data=!4m7!3m6!1s0x397cf3d332fc58bd:0x60c9a622b8abe43c!8m2!3d23.1961232!4d77.0653183!16s%2Fg%2F11s2j3q0th!19sChIJvVj8MtPzfDkRPOSruCKmyWA?authuser=0&hl=en&rclk=1",
        "coordinates": {
            "latitude": 23.1961232,
            "longitude": 77.0653183
        }
    },
    {
        "name": "Jama Masjid Jadeed",
        "main_category": "Mosque",
        "address": "632M+R4X Jama Masjid Jadeed, Sindhi Colony, Sehore, Madhya Pradesh 466001",
        "detailed_address": {
            "ward": "Sindhi Colony",
            "street": "632M+R4X",
            "city": "Sehore",
            "postal_code": "466001",
            "state": "Madhya Pradesh",
            "country_code": "IN"
        },
        "images": [
            {
                "about": "All",
                "link": "https://lh5.googleusercontent.com/p/AF1QipORmpRPBRAgAPB2RDAh-Zm043zbZuN8N5AwLE-D=w298-h298-k-no"
            },
            {
                "about": "Dome",
                "link": "https://lh5.googleusercontent.com/p/AF1QipPD5m7Lnwe-kruQkp5Fc2wLzxlxFkVgBttQRNEl=w224-h298-k-no"
            }
        ],
        "link": "https://www.google.com/maps/place/Jama+Masjid+Jadeed/data=!4m7!3m6!1s0x397cf3b89db749b3:0xe3a2500ecf214299!8m2!3d23.2021318!4d77.0828884!16s%2Fg%2F11t7vly85y!19sChIJs0m3nbjzfDkRmUIhzw5QouM?authuser=0&hl=en&rclk=1",
        "coordinates": {
            "latitude": 23.2021318,
            "longitude": 77.0828884
        }
    },
    {
        "name": "Masjid bhopali phatak",
        "main_category": "Mosque",
        "address": "632G+455 Masjid bhopali phatak, Qusba, Sehore, Madhya Pradesh 466001",
        "detailed_address": {
            "ward": "Qusba",
            "street": "632G+455",
            "city": "Sehore",
            "postal_code": null,
            "state": "Madhya Pradesh",
            "country_code": "IN"
        },
        "images": [
            {
                "about": "All",
                "link": "https://streetviewpixels-pa.googleapis.com/v1/thumbnail?panoid=56QbnRhX0IyFtctfYyb2qA&cb_client=maps_sv.tactile.gps&w=224&h=298&yaw=239.08736&pitch=0&thumbfov=100"
            },
            {
                "about": "Street View & 360deg",
                "link": "https://streetviewpixels-pa.googleapis.com/v1/thumbnail?panoid=56QbnRhX0IyFtctfYyb2qA&cb_client=maps_sv.tactile.gps&w=224&h=298&yaw=239.08736&pitch=0&thumbfov=100"
            }
        ],
        "link": "https://www.google.com/maps/place/Masjid+bhopali+phatak/data=!4m7!3m6!1s0x397cf3ba70b7342d:0xe538edd3d027a8a7!8m2!3d23.2003186!4d77.0754818!16s%2Fg%2F11tp6v7bgm!19sChIJLTS3cLrzfDkRp6gn0NPtOOU?authuser=0&hl=en&rclk=1",
        "coordinates": {
            "latitude": 23.2003186,
            "longitude": 77.07548179999999
        }
    },
    {
        "name": "Masjid paltan wali",
        "main_category": "Mosque",
        "address": "Masjid paltan wali, near bus stand, Paltan area, Sehore, Madhya Pradesh 466001",
        "detailed_address": {
            "ward": "Paltan area",
            "street": "near bus stand",
            "city": "Sehore",
            "postal_code": "466001",
            "state": "Madhya Pradesh",
            "country_code": "IN"
        },
        "images": [
            {
                "about": "All",
                "link": "https://streetviewpixels-pa.googleapis.com/v1/thumbnail?panoid=jTlRzgDmJfotb8QJMBUA5A&cb_client=maps_sv.tactile.gps&w=224&h=298&yaw=336.99777&pitch=0&thumbfov=100"
            },
            {
                "about": "Street View & 360deg",
                "link": "https://streetviewpixels-pa.googleapis.com/v1/thumbnail?panoid=jTlRzgDmJfotb8QJMBUA5A&cb_client=maps_sv.tactile.gps&w=224&h=298&yaw=336.99777&pitch=0&thumbfov=100"
            }
        ],
        "link": "https://www.google.com/maps/place/Masjid+paltan+wali/data=!4m7!3m6!1s0x397cf3a48abc980f:0x20077159f16435f0!8m2!3d23.203548!4d77.0844234!16s%2Fg%2F11k476ylws!19sChIJD5i8iqTzfDkR8DVk8VlxByA?authuser=0&hl=en&rclk=1",
        "coordinates": {
            "latitude": 23.203547999999998,
            "longitude": 77.08442339999999
        }
    },
    {
        "name": "Grand Jama Masjid",
        "main_category": "Mosque",
        "address": "53X9+HFW Grand Jama Masjid, Qusba, Sehore, Madhya Pradesh 466001",
        "detailed_address": {
            "ward": "Qusba",
            "street": "53X9+HFW",
            "city": "Sehore",
            "postal_code": "466001",
            "state": "Madhya Pradesh",
            "country_code": "IN"
        },
        "images": [],
        "link": "https://www.google.com/maps/place/Grand+Jama+Masjid/data=!4m7!3m6!1s0x397cf3f562782f0f:0x9838a0891dbcff79!8m2!3d23.1991356!4d77.0685101!16s%2Fg%2F11qbhmmdh_!19sChIJDy94YvXzfDkRef-8HYmgOJg?authuser=0&hl=en&rclk=1",
        "coordinates": {
            "latitude": 23.199135599999998,
            "longitude": 77.0685101
        }
    },
    {
        "name": "Chopde Vali masjid",
        "main_category": "Mosque",
        "address": "633F+G38 Chopde Vali masjid, Qusba, Sehore, Madhya Pradesh 466001",
        "detailed_address": {
            "ward": "Qusba",
            "street": "633F+G38",
            "city": "Sehore",
            "postal_code": "466001",
            "state": "Madhya Pradesh",
            "country_code": "IN"
        },
        "images": [
            {
                "about": "All",
                "link": "https://lh5.googleusercontent.com/p/AF1QipM2LRgWWphkzrSwZiX_NgAL1T3EU5_YzmdBau-1=w397-h298-k-no"
            },
            {
                "about": "Street View & 360deg",
                "link": "https://streetviewpixels-pa.googleapis.com/v1/thumbnail?panoid=DRMRL-jTgl6xgNn-9byg9w&cb_client=maps_sv.tactile.gps&w=224&h=298&yaw=248.75362&pitch=0&thumbfov=100"
            }
        ],
        "link": "https://www.google.com/maps/place/Chopde+Vali+masjid/data=!4m7!3m6!1s0x397cf355157c0fd9:0x68234a8182635b97!8m2!3d23.2037874!4d77.0727048!16s%2Fg%2F11td_qn074!19sChIJ2Q98FVXzfDkRl1tjgoFKI2g?authuser=0&hl=en&rclk=1",
        "coordinates": {
            "latitude": 23.2037874,
            "longitude": 77.0727048
        }
    },
    {
        "name": "Masjid Barahdari",
        "main_category": "Mosque",
        "address": "53X9+VR4 Masjid Barahdari, Qusba, Sehore, Madhya Pradesh 466001",
        "detailed_address": {
            "ward": "Qusba",
            "street": "53X9+VR4",
            "city": "Sehore",
            "postal_code": "466001",
            "state": "Madhya Pradesh",
            "country_code": "IN"
        },
        "images": [
            {
                "about": "All",
                "link": "https://lh5.googleusercontent.com/p/AF1QipMXJ28cCw1d_4SU1wvRr3MAU9sHxNewl2IePsGg=w224-h337-k-no"
            },
            {
                "about": "Dome",
                "link": "https://lh5.googleusercontent.com/p/AF1QipMXJ28cCw1d_4SU1wvRr3MAU9sHxNewl2IePsGg=w224-h337-k-no"
            }
        ],
        "link": "https://www.google.com/maps/place/Masjid+Barahdari/data=!4m7!3m6!1s0x397cf3fd24815a61:0xe07b157af5e1ca24!8m2!3d23.1996195!4d77.0695554!16s%2Fg%2F11kb2h4kg0!19sChIJYVqBJP3zfDkRJMrh9XoVe-A?authuser=0&hl=en&rclk=1",
        "coordinates": {
            "latitude": 23.199619499999997,
            "longitude": 77.0695554
        }
    },
    {
        "name": "Qalandari Masjid",
        "main_category": "Mosque",
        "address": "632F+GV3 Qalandari Masjid, Qusba, Sehore, Madhya Pradesh 466001",
        "detailed_address": {
            "ward": "Qusba",
            "street": "632F+GV3",
            "city": "Sehore",
            "postal_code": "466001",
            "state": "Madhya Pradesh",
            "country_code": "IN"
        },
        "images": [
            {
                "about": "All",
                "link": "https://streetviewpixels-pa.googleapis.com/v1/thumbnail?panoid=q8EZrT3wcT8PzcXu3rY2sw&cb_client=maps_sv.tactile.gps&w=224&h=298&yaw=328.64603&pitch=0&thumbfov=100"
            },
            {
                "about": "Street View & 360deg",
                "link": "https://streetviewpixels-pa.googleapis.com/v1/thumbnail?panoid=q8EZrT3wcT8PzcXu3rY2sw&cb_client=maps_sv.tactile.gps&w=224&h=298&yaw=328.64603&pitch=0&thumbfov=100"
            }
        ],
        "link": "https://www.google.com/maps/place/Qalandari+Masjid/data=!4m7!3m6!1s0x397cf3a0c7981805:0x298cd552b1ed7ee0!8m2!3d23.2012906!4d77.0748537!16s%2Fg%2F11rzggp6pd!19sChIJBRiYx6DzfDkR4H7tsVLVjCk?authuser=0&hl=en&rclk=1",
        "coordinates": {
            "latitude": 23.2012906,
            "longitude": 77.07485369999999
        }
    },
    {
        "name": "Masjid Turaab khan",
        "main_category": "Mosque",
        "address": "53XF+CV6 Masjid Turaab khan, nizamat road, near rathod temple, Qusba, Sehore, Madhya Pradesh 466001",
        "detailed_address": {
            "ward": "Qusba",
            "street": "53XF+CV6, nizamat road, near rathod temple",
            "city": "Sehore",
            "postal_code": "466001",
            "state": "Madhya Pradesh",
            "country_code": "IN"
        },
        "images": [
            {
                "about": "All",
                "link": "https://streetviewpixels-pa.googleapis.com/v1/thumbnail?panoid=WBW1M1fdAa2hxKT60PMwuA&cb_client=maps_sv.tactile.gps&w=224&h=298&yaw=55.46103&pitch=0&thumbfov=100"
            },
            {
                "about": "Street View & 360deg",
                "link": "https://streetviewpixels-pa.googleapis.com/v1/thumbnail?panoid=WBW1M1fdAa2hxKT60PMwuA&cb_client=maps_sv.tactile.gps&w=224&h=298&yaw=55.46103&pitch=0&thumbfov=100"
            }
        ],
        "link": "https://www.google.com/maps/place/Masjid+Turaab+khan/data=!4m7!3m6!1s0x397cf38b34431e89:0xd8da138d0a918156!8m2!3d23.1985294!4d77.0746487!16s%2Fg%2F11sf5myq2v!19sChIJiR5DNIvzfDkRVoGRCo0T2tg?authuser=0&hl=en&rclk=1",
        "coordinates": {
            "latitude": 23.198529399999998,
            "longitude": 77.0746487
        }
    },
    {
        "name": "masjid",
        "main_category": "Bar",
        "address": "632M+V45 masjid, Sindhi Colony, Sehore, Madhya Pradesh 466001",
        "detailed_address": {
            "ward": "Sindhi Colony",
            "street": "632M+V45",
            "city": "Sehore",
            "postal_code": "466001",
            "state": "Madhya Pradesh",
            "country_code": "IN"
        },
        "images": [],
        "link": "https://www.google.com/maps/place/masjid/data=!4m7!3m6!1s0x397cf3e51b05f019:0xa8ca672b56b0e3be!8m2!3d23.2021312!4d77.0828631!16s%2Fg%2F11shf9bnpq!19sChIJGfAFG-XzfDkRvuOwVitnyqg?authuser=0&hl=en&rclk=1",
        "coordinates": {
            "latitude": 23.2021312,
            "longitude": 77.0828631
        }
    },
    {
        "name": "Nasri masjid",
        "main_category": "Mosque",
        "address": "633P+X24 Nasri masjid, Ganj, Sehore, Madhya Pradesh 466001",
        "detailed_address": {
            "ward": "Ganj",
            "street": "633P+X24",
            "city": "Sehore",
            "postal_code": "466001",
            "state": "Madhya Pradesh",
            "country_code": "IN"
        },
        "images": [
            {
                "about": "All",
                "link": "https://streetviewpixels-pa.googleapis.com/v1/thumbnail?panoid=LsK5gsLZrZRYYHMpkAt7uA&cb_client=maps_sv.tactile.gps&w=224&h=298&yaw=4.089059&pitch=0&thumbfov=100"
            },
            {
                "about": "Street View & 360deg",
                "link": "https://streetviewpixels-pa.googleapis.com/v1/thumbnail?panoid=LsK5gsLZrZRYYHMpkAt7uA&cb_client=maps_sv.tactile.gps&w=224&h=298&yaw=4.089059&pitch=0&thumbfov=100"
            }
        ],
        "link": "https://www.google.com/maps/place/Nasri+masjid/data=!4m7!3m6!1s0x397cf3830ed375a3:0x8bd7372e7bd9ccd7!8m2!3d23.2048545!4d77.0850791!16s%2Fg%2F11k48ypmmb!19sChIJo3XTDoPzfDkR18zZey4314s?authuser=0&hl=en&rclk=1",
        "coordinates": {
            "latitude": 23.2048545,
            "longitude": 77.0850791
        }
    },
    {
        "name": "Masjid Molsari",
        "main_category": "Mosque",
        "address": "632F+H4F Masjid Molsari, SP office ke peeche, Kalar Mohalla, Qusba, Sehore, Madhya Pradesh 466001",
        "detailed_address": {
            "ward": "Qusba",
            "street": "632F+H4F, SP office ke peeche, Kalar Mohalla",
            "city": "Sehore",
            "postal_code": "466001",
            "state": "Madhya Pradesh",
            "country_code": "IN"
        },
        "images": [
            {
                "about": "All",
                "link": "https://streetviewpixels-pa.googleapis.com/v1/thumbnail?panoid=U8kv0JzMs-EH-Qu8XkN9WA&cb_client=maps_sv.tactile.gps&w=224&h=298&yaw=281.38983&pitch=0&thumbfov=100"
            },
            {
                "about": "Street View & 360deg",
                "link": "https://streetviewpixels-pa.googleapis.com/v1/thumbnail?panoid=U8kv0JzMs-EH-Qu8XkN9WA&cb_client=maps_sv.tactile.gps&w=224&h=298&yaw=281.38983&pitch=0&thumbfov=100"
            }
        ],
        "link": "https://www.google.com/maps/place/Masjid+Molsari/data=!4m7!3m6!1s0x397cf388c875fe85:0x699ff8b37df76eb0!8m2!3d23.2015063!4d77.0728305!16s%2Fg%2F11thnp4wqf!19sChIJhf51yIjzfDkRsG73fbP4n2k?authuser=0&hl=en&rclk=1",
        "coordinates": {
            "latitude": 23.2015063,
            "longitude": 77.0728305
        }
    },
    {
        "name": "Adam Masjid ,Bohra masjid",
        "main_category": "Mosque",
        "address": "Adam Masjid ,Bohra masjid, Bohra masjid, Qusba, Sehore, Madhya Pradesh 466001",
        "detailed_address": {
            "ward": "Qusba",
            "street": "Bohra masjid",
            "city": "Sehore",
            "postal_code": "466001",
            "state": "Madhya Pradesh",
            "country_code": "IN"
        },
        "images": [
            {
                "about": "All",
                "link": "https://streetviewpixels-pa.googleapis.com/v1/thumbnail?panoid=oPpN105T58eawwIhpAJ9yA&cb_client=maps_sv.tactile.gps&w=224&h=298&yaw=323.8244&pitch=0&thumbfov=100"
            },
            {
                "about": "Street View & 360deg",
                "link": "https://streetviewpixels-pa.googleapis.com/v1/thumbnail?panoid=oPpN105T58eawwIhpAJ9yA&cb_client=maps_sv.tactile.gps&w=224&h=298&yaw=323.8244&pitch=0&thumbfov=100"
            }
        ],
        "link": "https://www.google.com/maps/place/Adam+Masjid+,Bohra+masjid/data=!4m7!3m6!1s0x397cf3c1432cd7ad:0x10c3a00347c5e86!8m2!3d23.1992915!4d77.0717633!16s%2Fg%2F11sjytym4z!19sChIJrdcsQ8HzfDkRhl58NAA6DAE?authuser=0&hl=en&rclk=1",
        "coordinates": {
            "latitude": 23.199291499999998,
            "longitude": 77.0717633
        }
    },
    {
        "name": "Mohhamadi Masjid",
        "main_category": "Mosque",
        "address": "632G+V63 Mohhamadi Masjid, Deewan Bagh, Qusba, Sehore, Madhya Pradesh 466001",
        "detailed_address": {
            "ward": "Deewan Bagh, Qusba",
            "street": "632G+V63",
            "city": "Sehore",
            "postal_code": "466001",
            "state": "Madhya Pradesh",
            "country_code": "IN"
        },
        "images": [],
        "link": "https://www.google.com/maps/place/Mohhamadi+Masjid/data=!4m7!3m6!1s0x397cf31589615555:0xd692aef7a615d37d!8m2!3d23.2021264!4d77.075536!16s%2Fg%2F11sscs98kb!19sChIJVVVhiRXzfDkRfdMVpveuktY?authuser=0&hl=en&rclk=1",
        "coordinates": {
            "latitude": 23.202126399999997,
            "longitude": 77.075536
        }
    },
    {
        "name": "Madina masjid",
        "main_category": "Mosque",
        "address": "53XM+WQ2 Madina masjid, Swadesh Nagar, Sehore, Madhya Pradesh 466001",
        "detailed_address": {
            "ward": "Swadesh Nagar",
            "street": "53XM+WQ2",
            "city": "Sehore",
            "postal_code": "466001",
            "state": "Madhya Pradesh",
            "country_code": "IN"
        },
        "images": [],
        "link": "https://www.google.com/maps/place/Madina+masjid/data=!4m7!3m6!1s0x397cf3437126c551:0xd613f246a386b96c!8m2!3d23.1997564!4d77.0843999!16s%2Fg%2F11j_5d25ml!19sChIJUcUmcUPzfDkRbLmGo0byE9Y?authuser=0&hl=en&rclk=1",
        "coordinates": {
            "latitude": 23.1997564,
            "longitude": 77.0843999
        }
    },
    {
        "name": "Reyazul masjid Galla mandi",
        "main_category": "Mosque",
        "address": "Reyazul masjid Galla mandi, Reyazul masjid, Galla Mandi Rd, Nehru Colony, Sehore, Madhya Pradesh 466001",
        "detailed_address": {
            "ward": "Nehru Colony",
            "street": "Reyazul masjid, Galla Mandi Rd",
            "city": "Sehore",
            "postal_code": "466001",
            "state": "Madhya Pradesh",
            "country_code": "IN"
        },
        "images": [
            {
                "about": "All",
                "link": "https://streetviewpixels-pa.googleapis.com/v1/thumbnail?panoid=qgY4b1BY6EoRjJJ1Nr_idw&cb_client=maps_sv.tactile.gps&w=224&h=298&yaw=98.83652&pitch=0&thumbfov=100"
            },
            {
                "about": "Street View & 360deg",
                "link": "https://streetviewpixels-pa.googleapis.com/v1/thumbnail?panoid=qgY4b1BY6EoRjJJ1Nr_idw&cb_client=maps_sv.tactile.gps&w=224&h=298&yaw=98.83652&pitch=0&thumbfov=100"
            }
        ],
        "link": "https://www.google.com/maps/place/Reyazul+masjid+Galla+mandi/data=!4m7!3m6!1s0x397cf3642a04a7f7:0xaa8f4d79ca78a7e2!8m2!3d23.2099765!4d77.0801403!16s%2Fg%2F11qbj84vch!19sChIJ96cEKmTzfDkR4qd4ynlNj6o?authuser=0&hl=en&rclk=1",
        "coordinates": {
            "latitude": 23.2099765,
            "longitude": 77.0801403
        }
    },
    {
        "name": "Masjid horajjani Qasba",
        "main_category": "Mosque",
        "address": "53XC+QX8 Masjid horajjani Qasba, Qusba, Sehore, Madhya Pradesh 466001",
        "detailed_address": {
            "ward": "Qusba",
            "street": "53XC+QX8",
            "city": "Sehore",
            "postal_code": "466001",
            "state": "Madhya Pradesh",
            "country_code": "IN"
        },
        "images": [
            {
                "about": "All",
                "link": "https://streetviewpixels-pa.googleapis.com/v1/thumbnail?panoid=LUePYMDlIstboJ0mGPt6mA&cb_client=maps_sv.tactile.gps&w=224&h=298&yaw=183.47752&pitch=0&thumbfov=100"
            },
            {
                "about": "Street View & 360deg",
                "link": "https://streetviewpixels-pa.googleapis.com/v1/thumbnail?panoid=LUePYMDlIstboJ0mGPt6mA&cb_client=maps_sv.tactile.gps&w=224&h=298&yaw=183.47752&pitch=0&thumbfov=100"
            }
        ],
        "link": "https://www.google.com/maps/place/Masjid+horajjani+Qasba/data=!4m7!3m6!1s0x397cf3000268d1e5:0x3c7efcee069f7d79!8m2!3d23.1994167!4d77.0724381!16s%2Fg%2F11vjx7gc9d!19sChIJ5dFoAgDzfDkReX2fBu78fjw?authuser=0&hl=en&rclk=1",
        "coordinates": {
            "latitude": 23.1994167,
            "longitude": 77.0724381
        }
    }
]