[
    {
        "name": "naahr khol kii msjid Meo Mewat. Firozpur Jhirka Mewat Haryana",
        "main_category": "Mosque",
        "address": "RW4F+PPQ naahr khol kii msjid Meo Mewat. Firozpur Jhirka Mewat Haryana, Ferozepur Jhirka Rural, Haryana 122104",
        "detailed_address": {
            "ward": null,
            "street": "RW4F+PPQ",
            "city": "Ferozepur Jhirka Rural",
            "postal_code": "122104",
            "state": "Haryana",
            "country_code": "IN"
        },
        "images": [
            {
                "about": "All",
                "link": "https://lh5.googleusercontent.com/p/AF1QipOARKpAJzM0_kO0EYlSMjWxI1XRmExvc9ddzNci=w397-h298-k-no"
            },
            {
                "about": "Street View & 360deg",
                "link": "https://lh5.googleusercontent.com/p/AF1QipORhLhiGso1e3Z1E4-XkDriKUFVhMrWJCNSFnPD=w224-h298-k-no-pi-0-ya110.99998-ro-0-fo100"
            },
            {
                "about": "Videos",
                "link": "https://lh5.googleusercontent.com/p/AF1QipMhFzVqCfKBf5AP9zSstz-tfOcFGINmEujBQEMw=w529-h298-k-no"
            }
        ],
        "link": "https://www.google.com/maps/place/%E0%A4%A8%E0%A4%BE%E0%A4%B9%E0%A4%B0+%E0%A4%96%E0%A5%8B%E0%A4%B2+%E0%A4%95%E0%A5%80+%E0%A4%AE%E0%A4%B8%E0%A5%8D%E0%A4%9C%E0%A4%BF%E0%A4%A6+Meo+Mewat.+Firozpur+Jhirka+Mewat+Haryana/data=!4m7!3m6!1s0x3972c5043c55bf6f:0x58351f99b17a00f9!8m2!3d27.8068437!4d76.9243721!16s%2Fg%2F11ghz3bnr1!19sChIJb79VPATFcjkR-QB6sZkfNVg?authuser=0&hl=en&rclk=1",
        "coordinates": {
            "latitude": 27.806843699999998,
            "longitude": 76.9243721
        }
    },
    {
        "name": "Aqsa Masjid",
        "main_category": "Mosque",
        "address": "RX64+93M Aqsa Masjid, Village Thekri, Tehsil, Firozpur Jhirka, Haryana 122104",
        "detailed_address": {
            "ward": null,
            "street": "RX64+93M, Village Thekri, Tehsil",
            "city": "Firozpur Jhirka, Dhanwala",
            "postal_code": "122104",
            "state": "Haryana",
            "country_code": "IN"
        },
        "images": [
            {
                "about": "All",
                "link": "https://lh5.googleusercontent.com/p/AF1QipOuHTU0cWkiokoljA5HzPZOk0VhOFylLoCHppzE=w529-h298-k-no"
            }
        ],
        "link": "https://www.google.com/maps/place/Aqsa+Masjid/data=!4m7!3m6!1s0x3972c5a9afca8dab:0x7414d8528d132596!8m2!3d27.8109679!4d76.9551818!16s%2Fg%2F11f6dfy2_5!19sChIJq43Kr6nFcjkRliUTjVLYFHQ?authuser=0&hl=en&rclk=1",
        "coordinates": {
            "latitude": 27.810967899999998,
            "longitude": 76.95518179999999
        }
    },
    {
        "name": "Madersa Masjid Kameda",
        "main_category": "Mosque",
        "address": "Madersa Masjid Kameda, Firozpur Jhirka, Haryana 122104",
        "detailed_address": {
            "ward": null,
            "street": null,
            "city": "Firozpur Jhirka",
            "postal_code": "122104",
            "state": "Haryana",
            "country_code": "IN"
        },
        "images": [
            {
                "about": "All",
                "link": "https://lh5.googleusercontent.com/p/AF1QipNOYAOzLTv3S2tc3s55qRb-gfSHgBf_d8ZhuvAw=w224-h398-k-no"
            },
            {
                "about": "Videos",
                "link": "https://lh5.googleusercontent.com/p/AF1QipNSkTHOF9ux9sgil0LoCPba8rh6ukieEE8R7eCZ=w224-h400-k-no"
            }
        ],
        "link": "https://www.google.com/maps/place/Madersa+Masjid+Kameda/data=!4m7!3m6!1s0x3972c47b6f59105f:0x335f1c7f8d25fdf6!8m2!3d27.7807295!4d76.9578103!16s%2Fg%2F11hbk_xzg5!19sChIJXxBZb3vEcjkR9v0ljX8cXzM?authuser=0&hl=en&rclk=1",
        "coordinates": {
            "latitude": 27.7807295,
            "longitude": 76.95781029999999
        }
    },
    {
        "name": "Choti Masjid Bilakpur",
        "main_category": "Mosque",
        "address": "QWCX+77M Choti Masjid Bilakpur, Maholi, Firozpur Jhirka, Haryana 122104",
        "detailed_address": {
            "ward": null,
            "street": "QWCX+77M",
            "city": "Maholi, Firozpur Jhirka",
            "postal_code": "122104",
            "state": "Haryana",
            "country_code": "IN"
        },
        "images": [
            {
                "about": "All",
                "link": "https://lh5.googleusercontent.com/p/AF1QipNHm20-epGdq6fTPK2_yuCARIfocKRWRdDdLzIp=w224-h298-k-no"
            },
            {
                "about": "Videos",
                "link": "https://lh5.googleusercontent.com/p/AF1QipOaIiTguI_DiW5k9enHY2Byhw9s0IvjsXl4Ik8y=w224-h398-k-no"
            }
        ],
        "link": "https://www.google.com/maps/place/Choti+Masjid+Bilakpur/data=!4m7!3m6!1s0x3972c4761998cbef:0xd306844816f7a11c!8m2!3d27.7707166!4d76.9481855!16s%2Fg%2F11hbkpn78d!19sChIJ78uYGXbEcjkRHKH3FkiEBtM?authuser=0&hl=en&rclk=1",
        "coordinates": {
            "latitude": 27.7707166,
            "longitude": 76.9481855
        }
    },
    {
        "name": "Eidgah Wali Masjid",
        "main_category": "Mosque",
        "address": "QXQ2+QMW Eidgah Wali Masjid, Firozpur Jhirka, Haryana 122104",
        "detailed_address": {
            "ward": null,
            "street": "QXQ2+QMW",
            "city": "Firozpur Jhirka",
            "postal_code": "122104",
            "state": "Haryana",
            "country_code": "IN"
        },
        "images": [],
        "link": "https://www.google.com/maps/place/Eidgah+Wali+Masjid/data=!4m7!3m6!1s0x3972c46894099cbd:0x86f81382b4fd9238!8m2!3d27.7894777!4d76.9517187!16s%2Fg%2F11g8dk7kv8!19sChIJvZwJlGjEcjkROJL9tIIT-IY?authuser=0&hl=en&rclk=1",
        "coordinates": {
            "latitude": 27.7894777,
            "longitude": 76.9517187
        }
    },
    {
        "name": "Paltan Wali Masjid",
        "main_category": "Mosque",
        "address": "QXJ3+H68 Paltan Wali Masjid, Firozpur Jhirka, Haryana 122104",
        "detailed_address": {
            "ward": null,
            "street": "QXJ3+H68",
            "city": "Firozpur Jhirka",
            "postal_code": "122104",
            "state": "Haryana",
            "country_code": "IN"
        },
        "images": [
            {
                "about": "All",
                "link": "https://lh5.googleusercontent.com/p/AF1QipPl6aHJ8yClj8TQaRVvxJ80ZAuSOvUJWKOAStga=w397-h298-k-no"
            }
        ],
        "link": "https://www.google.com/maps/place/Paltan+Wali+Masjid/data=!4m7!3m6!1s0x3972c47aa894b687:0x519475e490a11140!8m2!3d27.7814132!4d76.9530863!16s%2Fg%2F11f54k3bkm!19sChIJh7aUqHrEcjkRQBGhkOR1lFE?authuser=0&hl=en&rclk=1",
        "coordinates": {
            "latitude": 27.7814132,
            "longitude": 76.9530863
        }
    },
    {
        "name": "Madina Masjid",
        "main_category": "Mosque",
        "address": "QXJ2+47V Madina Masjid, Unnamed Road, Shiv Colony, Madina Colony, Firozpur Jhirka, Haryana 122104",
        "detailed_address": {
            "ward": "Shiv Colony, Madina Colony",
            "street": "QXJ2+47V, Unnamed Road",
            "city": "Firozpur Jhirka",
            "postal_code": "122104",
            "state": "Haryana",
            "country_code": "IN"
        },
        "images": [
            {
                "about": "All",
                "link": "https://lh5.googleusercontent.com/p/AF1QipMZKO8uHgZe9-m14UcaSp84pj2V9Tou6f-k4-_f=w224-h395-k-no"
            },
            {
                "about": "Videos",
                "link": "https://lh5.googleusercontent.com/p/AF1QipMZKO8uHgZe9-m14UcaSp84pj2V9Tou6f-k4-_f=w224-h395-k-no"
            }
        ],
        "link": "https://www.google.com/maps/place/Madina+Masjid/data=!4m7!3m6!1s0x3972c47047c2b425:0x5a1bc1322df0f2d8!8m2!3d27.7803721!4d76.9506693!16s%2Fg%2F11f54kkc9p!19sChIJJbTCR3DEcjkR2PLwLTLBG1o?authuser=0&hl=en&rclk=1",
        "coordinates": {
            "latitude": 27.780372099999997,
            "longitude": 76.9506693
        }
    },
    {
        "name": "Meo Masjid Firozpur Jhirka",
        "main_category": "Mosque",
        "address": "RW4J+PCP Meo Masjid Firozpur Jhirka, Ferozepur Jhirka Rural, Haryana 122104",
        "detailed_address": {
            "ward": null,
            "street": "RW4J+PCP",
            "city": "Ferozepur Jhirka Rural",
            "postal_code": "122104",
            "state": "Haryana",
            "country_code": "IN"
        },
        "images": [
            {
                "about": "All",
                "link": "https://lh5.googleusercontent.com/p/AF1QipOz7KA4q1bYQWnI4yXIJKdYormXR7FEZSskHMJr=w397-h298-k-no"
            }
        ],
        "link": "https://www.google.com/maps/place/Meo+Masjid+Firozpur+Jhirka/data=!4m7!3m6!1s0x3972c55d17cf7441:0xdd3b009640688e8b!8m2!3d27.8068353!4d76.9310844!16s%2Fg%2F11f6nflmrt!19sChIJQXTPF13FcjkRi45oQJYAO90?authuser=0&hl=en&rclk=1",
        "coordinates": {
            "latitude": 27.8068353,
            "longitude": 76.9310844
        }
    },
    {
        "name": "islaamii mdrsaa",
        "main_category": "Mosque",
        "address": "QWXQ+V4J islaamii mdrsaa, Firozpur Jhirka, Haryana 122104",
        "detailed_address": {
            "ward": null,
            "street": "QWXQ+V4J",
            "city": "Firozpur Jhirka",
            "postal_code": "122104",
            "state": "Haryana",
            "country_code": "IN"
        },
        "images": [],
        "link": "https://www.google.com/maps/place/%E0%A4%87%E0%A4%B8%E0%A5%8D%E0%A4%B2%E0%A4%BE%E0%A4%AE%E0%A5%80+%E0%A4%AE%E0%A4%A6%E0%A4%B0%E0%A4%B8%E0%A4%BE/data=!4m7!3m6!1s0x3972c5bc7578bb7f:0xb73ffce64c0eec51!8m2!3d27.7997144!4d76.9377762!16s%2Fg%2F11l_gnx0mg!19sChIJf7t4dbzFcjkRUewOTOb8P7c?authuser=0&hl=en&rclk=1",
        "coordinates": {
            "latitude": 27.7997144,
            "longitude": 76.9377762
        }
    },
    {
        "name": "Masjid Abu Bakr",
        "main_category": "Mosque",
        "address": "Ward no 2, Masjid Abu Bakr, behind Bharat Petrol Pump, Firozpur Jhirka, Haryana 122104",
        "detailed_address": {
            "ward": null,
            "street": "Ward no 2, behind Bharat Petrol Pump",
            "city": "Firozpur Jhirka",
            "postal_code": "122104",
            "state": "Haryana",
            "country_code": "IN"
        },
        "images": [
            {
                "about": "All",
                "link": "https://lh5.googleusercontent.com/p/AF1QipPXGv8TEkHSaSMPHpqHoxGv9bIA_k--Qhfnp7eD=w529-h298-k-no"
            }
        ],
        "link": "https://www.google.com/maps/place/Masjid+Abu+Bakr/data=!4m7!3m6!1s0x3972c5bd8a2f08bb:0xbfb151b5b9a1ca1d!8m2!3d27.8027996!4d76.954817!16s%2Fg%2F11llx58hs3!19sChIJuwgvir3FcjkRHcqhubVRsb8?authuser=0&hl=en&rclk=1",
        "coordinates": {
            "latitude": 27.8027996,
            "longitude": 76.95481699999999
        }
    },
    {
        "name": "Rajoli masjid",
        "main_category": "Mosque",
        "address": "RX2C+V8F Rajoli masjid, Ferozepur Jhirka Rural, Haryana 122104",
        "detailed_address": {
            "ward": null,
            "street": "RX2C+V8F",
            "city": "Ferozepur Jhirka Rural",
            "postal_code": "122104",
            "state": "Haryana",
            "country_code": "IN"
        },
        "images": [
            {
                "about": "All",
                "link": "https://lh5.googleusercontent.com/p/AF1QipPR4oKjoX5QUW3282lXCnmWaAA0lAJnB_QPibeC=w224-h298-k-no"
            },
            {
                "about": "Videos",
                "link": "https://lh5.googleusercontent.com/p/AF1QipORdd_EB1YjU_-MVBR3E51C5yHJgrNE5VMNbKK2=w224-h389-k-no"
            }
        ],
        "link": "https://www.google.com/maps/place/Rajoli+masjid/data=!4m7!3m6!1s0x3972c531ff10a21d:0xccca53b17530013f!8m2!3d27.8021874!4d76.9708!16s%2Fg%2F11qslsc0b_!19sChIJHaIQ_zHFcjkRPwEwdbFTysw?authuser=0&hl=en&rclk=1",
        "coordinates": {
            "latitude": 27.802187399999998,
            "longitude": 76.9708
        }
    },
    {
        "name": "Old mosque",
        "main_category": "Mosque",
        "address": "RW5C+R6 Old mosque, Ferozepur Jhirka Rural, Haryana 122108",
        "detailed_address": {
            "ward": null,
            "street": "RW5C+R6",
            "city": "Ferozepur Jhirka Rural",
            "postal_code": "122108",
            "state": "Haryana",
            "country_code": "IN"
        },
        "images": [
            {
                "about": "All",
                "link": "https://streetviewpixels-pa.googleapis.com/v1/thumbnail?panoid=C5lOowlvsgpD_7tiGjaq4Q&cb_client=maps_sv.tactile.gps&w=224&h=298&yaw=258.92465&pitch=0&thumbfov=100"
            },
            {
                "about": "Street View & 360deg",
                "link": "https://streetviewpixels-pa.googleapis.com/v1/thumbnail?panoid=C5lOowlvsgpD_7tiGjaq4Q&cb_client=maps_sv.tactile.gps&w=224&h=298&yaw=258.92465&pitch=0&thumbfov=100"
            },
            {
                "about": "Videos",
                "link": "https://lh5.googleusercontent.com/p/AF1QipN1EH07ytDuRz6BaxHcl5WDVke1bdHMuJEERQFX=w224-h398-k-no"
            }
        ],
        "link": "https://www.google.com/maps/place/Old+mosque/data=!4m7!3m6!1s0x3972c5c049503043:0x8edebaef6766df0d!8m2!3d27.8095432!4d76.9205809!16s%2Fg%2F11sh5zh7yv!19sChIJQzBQScDFcjkRDd9mZ--63o4?authuser=0&hl=en&rclk=1",
        "coordinates": {
            "latitude": 27.8095432,
            "longitude": 76.92058089999999
        }
    },
    {
        "name": "gyaa sniyaa baas",
        "main_category": "Mosque",
        "address": "RW6V+729 gyaa sniyaa baas, Ferozepur Jhirka Rural, Haryana 122104",
        "detailed_address": {
            "ward": null,
            "street": "RW6V+729",
            "city": "Ferozepur Jhirka Rural",
            "postal_code": "122104",
            "state": "Haryana",
            "country_code": "IN"
        },
        "images": [
            {
                "about": "All",
                "link": "https://lh5.googleusercontent.com/p/AF1QipNvI2QldU8IJuvp5UVBEKMC-mN8DpRn5gIAo6Dh=w298-h298-k-no"
            },
            {
                "about": "Videos",
                "link": "https://lh5.googleusercontent.com/p/AF1QipMQA3xX8bYi0szuU1p8UB4DZMJT4aTbsDSlMIZC=w224-h398-k-no"
            }
        ],
        "link": "https://www.google.com/maps/place/%E0%A4%97%E0%A4%AF%E0%A4%BE+%E0%A4%B8%E0%A4%A8%E0%A4%BF%E0%A4%AF%E0%A4%BE+%E0%A4%AC%E0%A4%BE%E0%A4%B8/data=!4m7!3m6!1s0x3972c5bd16f4be1b:0x987aaa717f3db58c!8m2!3d27.8106677!4d76.9426166!16s%2Fg%2F11qsdjx17h!19sChIJG770Fr3FcjkRjLU9f3Gqepg?authuser=0&hl=en&rclk=1",
        "coordinates": {
            "latitude": 27.8106677,
            "longitude": 76.9426166
        }
    },
    {
        "name": "Mosque firozpur jhirka",
        "main_category": "Mosque",
        "address": "QWPX+CC6 Mosque firozpur jhirka, Firozpur Jhirka, Haryana 122104",
        "detailed_address": {
            "ward": null,
            "street": "QWPX+CC6",
            "city": "Firozpur Jhirka",
            "postal_code": "122104",
            "state": "Haryana",
            "country_code": "IN"
        },
        "images": [
            {
                "about": "All",
                "link": "https://streetviewpixels-pa.googleapis.com/v1/thumbnail?panoid=xbTzNcDREW-2o9vQFQ0Fuw&cb_client=maps_sv.tactile.gps&w=224&h=298&yaw=255.44818&pitch=0&thumbfov=100"
            },
            {
                "about": "Street View & 360deg",
                "link": "https://streetviewpixels-pa.googleapis.com/v1/thumbnail?panoid=xbTzNcDREW-2o9vQFQ0Fuw&cb_client=maps_sv.tactile.gps&w=224&h=298&yaw=255.44818&pitch=0&thumbfov=100"
            }
        ],
        "link": "https://www.google.com/maps/place/Mosque+firozpur+jhirka/data=!4m7!3m6!1s0x3972c5dfb1b69e91:0x8a5b74cff134538d!8m2!3d27.7860346!4d76.9485228!16s%2Fg%2F11flc17mwg!19sChIJkZ62sd_FcjkRjVM08c90W4o?authuser=0&hl=en&rclk=1",
        "coordinates": {
            "latitude": 27.786034599999997,
            "longitude": 76.94852279999999
        }
    },
    {
        "name": "Mirazi Mosque. +Kabristan",
        "main_category": "Mosque",
        "address": "QWWW+W33 Mirazi Mosque. +Kabristan, Firozpur Jhirka, Haryana 122104",
        "detailed_address": {
            "ward": null,
            "street": "QWWW+W33",
            "city": "Firozpur Jhirka",
            "postal_code": "122104",
            "state": "Haryana",
            "country_code": "IN"
        },
        "images": [
            {
                "about": "All",
                "link": "https://lh5.googleusercontent.com/p/AF1QipObTH3UjYcJrPoiihV7QdCiiZfFgL2eGvyWRGvK=w529-h298-k-no"
            },
            {
                "about": "Videos",
                "link": "https://lh5.googleusercontent.com/p/AF1QipOL4vfCg_GKiFdRnDnQEGess-JhpgaioLsCn-nD=w224-h403-k-no"
            }
        ],
        "link": "https://www.google.com/maps/place/Mirazi+Mosque.+%2BKabristan/data=!4m7!3m6!1s0x3972c59261ce78cd:0x4114e7591dc76f09!8m2!3d27.7972736!4d76.945183!16s%2Fg%2F11j32qrp7b!19sChIJzXjOYZLFcjkRCW_HHVnnFEE?authuser=0&hl=en&rclk=1",
        "coordinates": {
            "latitude": 27.7972736,
            "longitude": 76.945183
        }
    },
    {
        "name": "TEHSIL WALI MASJID",
        "main_category": "Mosque",
        "address": "TEHSIL WALI MASJID, Near tehsil, Firozpur Jhirka, Haryana 122104",
        "detailed_address": {
            "ward": null,
            "street": "Near tehsil",
            "city": "Firozpur Jhirka",
            "postal_code": "122104",
            "state": "Haryana",
            "country_code": "IN"
        },
        "images": [
            {
                "about": "All",
                "link": "https://streetviewpixels-pa.googleapis.com/v1/thumbnail?panoid=8sp2opEBq8reUO8UsQ9pWQ&cb_client=maps_sv.tactile.gps&w=224&h=298&yaw=142.93106&pitch=0&thumbfov=100"
            },
            {
                "about": "Street View & 360deg",
                "link": "https://streetviewpixels-pa.googleapis.com/v1/thumbnail?panoid=8sp2opEBq8reUO8UsQ9pWQ&cb_client=maps_sv.tactile.gps&w=224&h=298&yaw=142.93106&pitch=0&thumbfov=100"
            }
        ],
        "link": "https://www.google.com/maps/place/TEHSIL+WALI+MASJID/data=!4m7!3m6!1s0x3972c5e75d94b155:0xffb3943912d7a306!8m2!3d27.7863458!4d76.9456984!16s%2Fg%2F11h94v8l4g!19sChIJVbGUXefFcjkRBqPXEjmUs_8?authuser=0&hl=en&rclk=1",
        "coordinates": {
            "latitude": 27.7863458,
            "longitude": 76.9456984
        }
    },
    {
        "name": "Masjid",
        "main_category": "Mosque",
        "address": "QWVX+979 Masjid, Ward No 13, Firozpur Jhirka, Haryana 122104",
        "detailed_address": {
            "ward": "Ward No 13",
            "street": "QWVX+979",
            "city": "Firozpur Jhirka",
            "postal_code": "122104",
            "state": "Haryana",
            "country_code": "IN"
        },
        "images": [
            {
                "about": "All",
                "link": "https://lh5.googleusercontent.com/p/AF1QipNUEEYdJymMl5verN0PDfRyApBj_W4YQYsnYOtJ=w473-h298-k-no"
            },
            {
                "about": "Dome",
                "link": "https://lh5.googleusercontent.com/p/AF1QipNUEEYdJymMl5verN0PDfRyApBj_W4YQYsnYOtJ=w473-h298-k-no"
            }
        ],
        "link": "https://www.google.com/maps/place/Masjid/data=!4m7!3m6!1s0x3972c515673c9e5d:0x66706b4da189b2!8m2!3d27.7934148!4d76.9482306!16s%2Fg%2F11qnfwj50h!19sChIJXZ48ZxXFcjkRsomhTWtwZgA?authuser=0&hl=en&rclk=1",
        "coordinates": {
            "latitude": 27.793414799999997,
            "longitude": 76.9482306
        }
    },
    {
        "name": "MASJID A QUBA",
        "main_category": "Mosque",
        "address": "QXX2+794 MASJID A QUBA, Ward No. 1, Firozpur Jhirka, Haryana 122104",
        "detailed_address": {
            "ward": "Ward No. 1",
            "street": "QXX2+794",
            "city": "Firozpur Jhirka",
            "postal_code": "122104",
            "state": "Haryana",
            "country_code": "IN"
        },
        "images": [
            {
                "about": "All",
                "link": "https://lh5.googleusercontent.com/p/AF1QipPcSPdZirSkubN9ZLQWatdMvHngDpwNOM5fbqo4=w404-h298-k-no"
            }
        ],
        "link": "https://www.google.com/maps/place/MASJID+A+QUBA/data=!4m7!3m6!1s0x3972c592bfe8db2b:0x36650c8b7d6f5593!8m2!3d27.7981362!4d76.9509673!16s%2Fg%2F11fpr85ccj!19sChIJK9vov5LFcjkRk1VvfYsMZTY?authuser=0&hl=en&rclk=1",
        "coordinates": {
            "latitude": 27.7981362,
            "longitude": 76.9509673
        }
    },
    {
        "name": "Aamin wali masjid",
        "main_category": "Mosque",
        "address": "QWRX+GW3 Aamin wali masjid, Firozpur Jhirka, Haryana 122104",
        "detailed_address": {
            "ward": null,
            "street": "QWRX+GW3",
            "city": "Firozpur Jhirka",
            "postal_code": "122104",
            "state": "Haryana",
            "country_code": "IN"
        },
        "images": [
            {
                "about": "All",
                "link": "https://lh5.googleusercontent.com/p/AF1QipOcCCOQVODczuKywwhmP8cL-h6AdMahYHRcueZH=w224-h398-k-no"
            },
            {
                "about": "Videos",
                "link": "https://lh5.googleusercontent.com/p/AF1QipM8GTk3Wi_AE2Fx78ib_PP2s6POim2A8aSveyJr=w224-h398-k-no"
            }
        ],
        "link": "https://www.google.com/maps/place/Aamin+wali+masjid/data=!4m7!3m6!1s0x3972c5f32c702c35:0xc06c792cb4645ac0!8m2!3d27.791269!4d76.949809!16s%2Fg%2F11rmq5d33_!19sChIJNSxwLPPFcjkRwFpktCx5bMA?authuser=0&hl=en&rclk=1",
        "coordinates": {
            "latitude": 27.791269,
            "longitude": 76.949809
        }
    },
    {
        "name": "peNtt vaalii msjid",
        "main_category": "Mosque",
        "address": "QXW2+3H3 peNtt vaalii msjid, Firozpur Jhirka, Haryana 122104",
        "detailed_address": {
            "ward": null,
            "street": "QXW2+3H3",
            "city": "Firozpur Jhirka",
            "postal_code": "122104",
            "state": "Haryana",
            "country_code": "IN"
        },
        "images": [
            {
                "about": "All",
                "link": "https://streetviewpixels-pa.googleapis.com/v1/thumbnail?panoid=YurKWVzk6tm1PQm0sDa0DQ&cb_client=maps_sv.tactile.gps&w=224&h=298&yaw=261.0903&pitch=0&thumbfov=100"
            },
            {
                "about": "Street View & 360deg",
                "link": "https://streetviewpixels-pa.googleapis.com/v1/thumbnail?panoid=YurKWVzk6tm1PQm0sDa0DQ&cb_client=maps_sv.tactile.gps&w=224&h=298&yaw=261.0903&pitch=0&thumbfov=100"
            }
        ],
        "link": "https://www.google.com/maps/place/%E0%A4%AA%E0%A5%87%E0%A4%82%E0%A4%9F+%E0%A4%B5%E0%A4%BE%E0%A4%B2%E0%A5%80+%E0%A4%AE%E0%A4%B8%E0%A5%8D%E0%A4%9C%E0%A4%BF%E0%A4%A6/data=!4m7!3m6!1s0x3972c5adf35d8293:0xc4271e548c97ff6b!8m2!3d27.7951431!4d76.9514216!16s%2Fg%2F11gr4j3z9g!19sChIJk4Jd863FcjkRa_-XjFQeJ8Q?authuser=0&hl=en&rclk=1",
        "coordinates": {
            "latitude": 27.795143099999997,
            "longitude": 76.9514216
        }
    },
    {
        "name": "MD Shahbaz",
        "main_category": "Mosque",
        "address": "QWWW+75R MD Shahbaz, Firozpur Jhirka, Haryana 122104",
        "detailed_address": {
            "ward": null,
            "street": "QWWW+75R",
            "city": "Firozpur Jhirka",
            "postal_code": "122104",
            "state": "Haryana",
            "country_code": "IN"
        },
        "images": [
            {
                "about": "All",
                "link": "https://streetviewpixels-pa.googleapis.com/v1/thumbnail?panoid=tl3ktPzScVa-ixfhywNmAg&cb_client=maps_sv.tactile.gps&w=224&h=298&yaw=175.1396&pitch=0&thumbfov=100"
            },
            {
                "about": "Street View & 360deg",
                "link": "https://streetviewpixels-pa.googleapis.com/v1/thumbnail?panoid=tl3ktPzScVa-ixfhywNmAg&cb_client=maps_sv.tactile.gps&w=224&h=298&yaw=175.1396&pitch=0&thumbfov=100"
            }
        ],
        "link": "https://www.google.com/maps/place/MD+Shahbaz/data=!4m7!3m6!1s0x3972c5dfb930854f:0xfd17325f0c83e1d4!8m2!3d27.795727!4d76.9453854!16s%2Fg%2F11hfxzg23d!19sChIJT4Uwud_FcjkR1OGDDF8yF_0?authuser=0&hl=en&rclk=1",
        "coordinates": {
            "latitude": 27.795727,
            "longitude": 76.94538539999999
        }
    },
    {
        "name": "Munshi Nazeer Masjid FEROZEPUR JHIRKA",
        "main_category": "Mosque",
        "address": "QWQX+R4C Munshi Nazeer Masjid FEROZEPUR JHIRKA, Firozpur Jhirka, Haryana 122104",
        "detailed_address": {
            "ward": null,
            "street": "QWQX+R4C",
            "city": "Firozpur Jhirka",
            "postal_code": "122104",
            "state": "Haryana",
            "country_code": "IN"
        },
        "images": [
            {
                "about": "All",
                "link": "https://lh5.googleusercontent.com/p/AF1QipPPNJSQryFgy7KPvPa_QFCVbc1jtmEYHHVmTgAY=w224-h473-k-no"
            }
        ],
        "link": "https://www.google.com/maps/place/Munshi+Nazeer+Masjid+FEROZEPUR+JHIRKA/data=!4m7!3m6!1s0x3972c58bf1a55d0b:0xac11fa7c671b057a!8m2!3d27.7896044!4d76.9477768!16s%2Fg%2F11q3mr2ln5!19sChIJC12l8YvFcjkRegUbZ3z6Eaw?authuser=0&hl=en&rclk=1",
        "coordinates": {
            "latitude": 27.789604399999998,
            "longitude": 76.9477768
        }
    },
    {
        "name": "Masjid",
        "main_category": "Mosque",
        "address": "QXM3+W3M Masjid, Subhash Colony, Firozpur Jhirka, Haryana 122104",
        "detailed_address": {
            "ward": "Subhash Colony",
            "street": "QXM3+W3M",
            "city": "Firozpur Jhirka",
            "postal_code": "122104",
            "state": "Haryana",
            "country_code": "IN"
        },
        "images": [
            {
                "about": "All",
                "link": "https://lh5.googleusercontent.com/p/AF1QipOA1OOm9_2y3B9iC7SxEHUhyIiqoNvKeAQYVETi=w530-h298-k-no"
            }
        ],
        "link": "https://www.google.com/maps/place/Masjid/data=!4m7!3m6!1s0x3972c5ad4764d869:0x5685771db6f45848!8m2!3d27.7848683!4d76.9533075!16s%2Fg%2F11sjgqx1ww!19sChIJadhkR63FcjkRSFj0th13hVY?authuser=0&hl=en&rclk=1",
        "coordinates": {
            "latitude": 27.7848683,
            "longitude": 76.9533075
        }
    },
    {
        "name": "shaahii jaamaa msjid",
        "main_category": "Mosque",
        "address": "shaahii jaamaa msjid, Jama Masjid, Garh Andar, Firozpur Jhirka, Haryana 122104",
        "detailed_address": {
            "ward": "Garh Andar",
            "street": "Jama Masjid",
            "city": "Firozpur Jhirka",
            "postal_code": "122104",
            "state": "Haryana",
            "country_code": "IN"
        },
        "images": [
            {
                "about": "All",
                "link": "https://lh5.googleusercontent.com/p/AF1QipMkJJmVVREEB4fAblVQD6TtiAQZ_Kx-l615zOx6=w224-h298-k-no"
            }
        ],
        "link": "https://www.google.com/maps/place/%E0%A4%B6%E0%A4%BE%E0%A4%B9%E0%A5%80+%E0%A4%9C%E0%A4%BE%E0%A4%AE%E0%A4%BE+%E0%A4%AE%E0%A4%B8%E0%A5%8D%E0%A4%9C%E0%A4%BF%E0%A4%A6/data=!4m7!3m6!1s0x3972c501fd8fe295:0xd0e586372cef5fda!8m2!3d27.7882408!4d76.9415772!16s%2Fg%2F11s3qp9kpp!19sChIJleKP_QHFcjkR2l_vLDeG5dA?authuser=0&hl=en&rclk=1",
        "coordinates": {
            "latitude": 27.7882408,
            "longitude": 76.9415772
        }
    },
    {
        "name": "Badarpuriya Masjid",
        "main_category": "Mosque",
        "address": "QXQ6+MH Badarpuriya Masjid, Firozpur Jhirka, Haryana 122104",
        "detailed_address": {
            "ward": null,
            "street": "QXQ6+MH",
            "city": "Firozpur Jhirka",
            "postal_code": null,
            "state": "Haryana",
            "country_code": "IN"
        },
        "images": [],
        "link": "https://www.google.com/maps/place/Badarpuriya+Masjid/data=!4m7!3m6!1s0x3972c56ae53f217f:0x752b4b7797915e72!8m2!3d27.7892182!4d76.9614242!16s%2Fg%2F11s5n4n_bh!19sChIJfyE_5WrFcjkRcl6Rl3dLK3U?authuser=0&hl=en&rclk=1",
        "coordinates": {
            "latitude": 27.789218199999997,
            "longitude": 76.9614242
        }
    },
    {
        "name": "Al-khan masjid",
        "main_category": "Mosque",
        "address": "QXX3+38J Al-khan masjid, Firozpur Jhirka, Haryana 122104",
        "detailed_address": {
            "ward": null,
            "street": "QXX3+38J",
            "city": "Firozpur Jhirka",
            "postal_code": "122104",
            "state": "Haryana",
            "country_code": "IN"
        },
        "images": [],
        "link": "https://www.google.com/maps/place/Al-khan+masjid/data=!4m7!3m6!1s0x3972c5e108f45ddb:0xce38d81da30d71fb!8m2!3d27.7977106!4d76.953273!16s%2Fg%2F11n8_wgrb1!19sChIJ2130COHFcjkR-3ENox3YOM4?authuser=0&hl=en&rclk=1",
        "coordinates": {
            "latitude": 27.7977106,
            "longitude": 76.953273
        }
    },
    {
        "name": "Masjid - E - Hussainia",
        "main_category": "Mosque",
        "address": "QXH7+V49 Masjid - E - Hussainia, Firozpur Jhirka, Haryana 122104",
        "detailed_address": {
            "ward": null,
            "street": "QXH7+V49",
            "city": "Firozpur Jhirka",
            "postal_code": "122104",
            "state": "Haryana",
            "country_code": "IN"
        },
        "images": [
            {
                "about": "All",
                "link": "https://lh5.googleusercontent.com/p/AF1QipOC4gkDYNdwEKPsgrhgXWLkpQYOXwpPwhIPEtlQ=w224-h298-k-no"
            },
            {
                "about": "Street View & 360deg",
                "link": "https://streetviewpixels-pa.googleapis.com/v1/thumbnail?panoid=JbTCwmFhkcaHVnsXX0gpUA&cb_client=maps_sv.tactile.gps&w=224&h=298&yaw=39.8465&pitch=0&thumbfov=100"
            },
            {
                "about": "Videos",
                "link": "https://lh5.googleusercontent.com/p/AF1QipPHpAcvGYeJsBLI0HQwCSKPwCpkeUUmhEXOkdv6=w529-h298-k-no"
            }
        ],
        "link": "https://www.google.com/maps/place/Masjid+-+E+-+Hussainia/data=!4m7!3m6!1s0x3972c5cb367d8de1:0xcfd7d1f274fbfd91!8m2!3d27.7796536!4d76.9628706!16s%2Fg%2F11q95jl40y!19sChIJ4Y19NsvFcjkRkf37dPLR188?authuser=0&hl=en&rclk=1",
        "coordinates": {
            "latitude": 27.7796536,
            "longitude": 76.9628706
        }
    },
    {
        "name": "Purani Maszid",
        "main_category": "Mosque",
        "address": "QWQR+6GF Purani Maszid, Garh Andar, Firozpur Jhirka, Haryana 122104",
        "detailed_address": {
            "ward": "Garh Andar",
            "street": "QWQR+6GF",
            "city": "Firozpur Jhirka",
            "postal_code": "122104",
            "state": "Haryana",
            "country_code": "IN"
        },
        "images": [],
        "link": "https://www.google.com/maps/place/Purani+Maszid/data=!4m7!3m6!1s0x3972c56d9fea9531:0x78e956646c8b3116!8m2!3d27.7880886!4d76.9412592!16s%2Fg%2F11kj7175rw!19sChIJMZXqn23FcjkRFjGLbGRW6Xg?authuser=0&hl=en&rclk=1",
        "coordinates": {
            "latitude": 27.7880886,
            "longitude": 76.94125919999999
        }
    },
    {
        "name": "jeNkhaa vaalii msjid",
        "main_category": "Mosque",
        "address": "RW6P+CVG jeNkhaa vaalii msjid, Ferozepur Jhirka Rural, Haryana 122104",
        "detailed_address": {
            "ward": null,
            "street": "RW6P+CVG",
            "city": "Ferozepur Jhirka Rural",
            "postal_code": "122104",
            "state": "Haryana",
            "country_code": "IN"
        },
        "images": [],
        "link": "https://www.google.com/maps/place/%E0%A4%9C%E0%A5%87%E0%A4%82%E0%A4%96%E0%A4%BE+%E0%A4%B5%E0%A4%BE%E0%A4%B2%E0%A5%80+%E0%A4%AE%E0%A4%B8%E0%A5%8D%E0%A4%9C%E0%A4%BF%E0%A4%A6/data=!4m7!3m6!1s0x3972c5fcdc23b82d:0x7f3150869afe9266!8m2!3d27.8110646!4d76.937194!16s%2Fg%2F11v191cb34!19sChIJLbgj3PzFcjkRZpL-moZQMX8?authuser=0&hl=en&rclk=1",
        "coordinates": {
            "latitude": 27.811064599999998,
            "longitude": 76.93719399999999
        }
    },
    {
        "name": "AYYUB HAFIZ HOUSE",
        "main_category": "Mosque",
        "address": "QWPR+6RP AYYUB HAFIZ HOUSE, Gujar Nangla, Firozpur Jhirka, Haryana 122108",
        "detailed_address": {
            "ward": null,
            "street": "QWPR+6RP",
            "city": "Gujar Nangla, Firozpur Jhirka",
            "postal_code": "122108",
            "state": "Haryana",
            "country_code": "IN"
        },
        "images": [
            {
                "about": "All",
                "link": "https://lh5.googleusercontent.com/p/AF1QipO7T4zNCBgaXSCXMfMK1H9lZwOkgcOp9JceypUP=w224-h398-k-no"
            }
        ],
        "link": "https://www.google.com/maps/place/AYYUB+HAFIZ+HOUSE/data=!4m7!3m6!1s0x3972c54657a795e9:0x4b6adf60a0b5e057!8m2!3d27.7855942!4d76.9420926!16s%2Fg%2F11vfbbfgz9!19sChIJ6ZWnV0bFcjkRV-C1oGDfaks?authuser=0&hl=en&rclk=1",
        "coordinates": {
            "latitude": 27.7855942,
            "longitude": 76.9420926
        }
    },
    {
        "name": "msjid kaalaa kaa baas",
        "main_category": "Mosque",
        "address": "RW6X+FR2 msjid kaalaa kaa baas, Firozpur Jhirka, Ferozepur Jhirka Rural, Haryana 122104",
        "detailed_address": {
            "ward": null,
            "street": "RW6X+FR2",
            "city": "Firozpur Jhirka, Ferozepur Jhirka Rural",
            "postal_code": null,
            "state": "Haryana",
            "country_code": "IN"
        },
        "images": [],
        "link": "https://www.google.com/maps/place/%E0%A4%AE%E0%A4%B8%E0%A5%8D%E0%A4%9C%E0%A4%BF%E0%A4%A6+%E0%A4%95%E0%A4%BE%E0%A4%B2%E0%A4%BE+%E0%A4%95%E0%A4%BE+%E0%A4%AC%E0%A4%BE%E0%A4%B8/data=!4m7!3m6!1s0x3972c50710df41ad:0xe3666420afdfeab9!8m2!3d27.8111463!4d76.9495011!16s%2Fg%2F11r4gmtc_h!19sChIJrUHfEAfFcjkRuerfryBkZuM?authuser=0&hl=en&rclk=1",
        "coordinates": {
            "latitude": 27.811146299999997,
            "longitude": 76.94950109999999
        }
    },
    {
        "name": "Badi Masjid Rajoli",
        "main_category": "Mosque",
        "address": "RX3C+84G Badi Masjid Rajoli, Rajoli, Ferozepur Jhirka Rural, Haryana 122104",
        "detailed_address": {
            "ward": null,
            "street": "RX3C+84G",
            "city": "Rajoli, Ferozepur Jhirka Rural",
            "postal_code": "122104",
            "state": "Haryana",
            "country_code": "IN"
        },
        "images": [
            {
                "about": "All",
                "link": "https://lh5.googleusercontent.com/p/AF1QipNC6vxVfoErj0YBldT9u2EI2nAeJ77uW5p8EozC=w224-h398-k-no"
            },
            {
                "about": "Videos",
                "link": "https://lh5.googleusercontent.com/p/AF1QipNC6vxVfoErj0YBldT9u2EI2nAeJ77uW5p8EozC=w224-h398-k-no"
            }
        ],
        "link": "https://www.google.com/maps/place/Badi+Masjid+Rajoli/data=!4m7!3m6!1s0x3972c589ca8fef53:0xbb0b5aff365b855a!8m2!3d27.8033117!4d76.9703292!16s%2Fg%2F11v5s4wdbv!19sChIJU--PyonFcjkRWoVbNv9aC7s?authuser=0&hl=en&rclk=1",
        "coordinates": {
            "latitude": 27.8033117,
            "longitude": 76.9703292
        }
    },
    {
        "name": "Masjid (Mosque)",
        "main_category": "Mosque",
        "address": "QXR5+87J Masjid (Mosque), Mandapur Rd, Firozpur Jhirka, Haryana 122104",
        "detailed_address": {
            "ward": null,
            "street": "QXR5+87J, Mandapur Rd",
            "city": "Firozpur Jhirka",
            "postal_code": "122104",
            "state": "Haryana",
            "country_code": "IN"
        },
        "images": [],
        "link": "https://www.google.com/maps/place/Masjid+%28Mosque%29/data=!4m7!3m6!1s0x3972c5390a4a81e1:0x30011879df3eeaa0!8m2!3d27.7900594!4d76.9578639!16s%2Fg%2F11t7sjh6z_!19sChIJ4YFKCjnFcjkRoOo-33kYATA?authuser=0&hl=en&rclk=1",
        "coordinates": {
            "latitude": 27.790059399999997,
            "longitude": 76.95786389999999
        }
    },
    {
        "name": "NAI MASJID",
        "main_category": "Mosque",
        "address": "QWVV+MHC NAI MASJID, Firozpur Jhirka, Haryana 122104",
        "detailed_address": {
            "ward": null,
            "street": "QWVV+MHC",
            "city": "Firozpur Jhirka",
            "postal_code": "122104",
            "state": "Haryana",
            "country_code": "IN"
        },
        "images": [],
        "link": "https://www.google.com/maps/place/NAI+MASJID/data=!4m7!3m6!1s0x3972c54c4b90326b:0x970e38f555d1a9a3!8m2!3d27.7941963!4d76.9439007!16s%2Fg%2F11kb4dlnb0!19sChIJazKQS0zFcjkRo6nRVfU4Dpc?authuser=0&hl=en&rclk=1",
        "coordinates": {
            "latitude": 27.7941963,
            "longitude": 76.9439007
        }
    },
    {
        "name": "Ladkha Wali MASJID",
        "main_category": "Mosque",
        "address": "QWPW+WHP Ladkha Wali MASJID, Firozpur Jhirka, Haryana 122104",
        "detailed_address": {
            "ward": null,
            "street": "QWPW+WHP",
            "city": "Firozpur Jhirka",
            "postal_code": null,
            "state": "Haryana",
            "country_code": "IN"
        },
        "images": [
            {
                "about": "All",
                "link": "https://lh5.googleusercontent.com/p/AF1QipOQ37fDQjYblthumG0MAZp0dd74eW2dZooi5SoH=w397-h298-k-no"
            },
            {
                "about": "Street View & 360deg",
                "link": "https://streetviewpixels-pa.googleapis.com/v1/thumbnail?panoid=vtj0gFMvoX6HvGPhWh568Q&cb_client=maps_sv.tactile.gps&w=224&h=298&yaw=155.1946&pitch=0&thumbfov=100"
            },
            {
                "about": "Videos",
                "link": "https://lh5.googleusercontent.com/p/AF1QipM8J5z4tkI43Oh_7C4oRSCWOKEtaASlWVcmehZW=w224-h398-k-no"
            }
        ],
        "link": "https://www.google.com/maps/place/Ladkha+Wali+MASJID/data=!4m7!3m6!1s0x3972c5c9ca64e33d:0xa01bb62fb32eca85!8m2!3d27.7873427!4d76.9464633!16s%2Fg%2F11t9y0zgbx!19sChIJPeNkysnFcjkRhcousy-2G6A?authuser=0&hl=en&rclk=1",
        "coordinates": {
            "latitude": 27.7873427,
            "longitude": 76.94646329999999
        }
    },
    {
        "name": "Lal kua wali Masjid",
        "main_category": "Mosque",
        "address": "QWQW+7M3 Lal kua wali Masjid, Firozpur Jhirka, Haryana 122104",
        "detailed_address": {
            "ward": null,
            "street": "QWQW+7M3",
            "city": "Firozpur Jhirka",
            "postal_code": "122104",
            "state": "Haryana",
            "country_code": "IN"
        },
        "images": [
            {
                "about": "All",
                "link": "https://streetviewpixels-pa.googleapis.com/v1/thumbnail?panoid=UnYc4pR_B13m0f1p_SDWIA&cb_client=maps_sv.tactile.gps&w=224&h=298&yaw=279.1223&pitch=0&thumbfov=100"
            },
            {
                "about": "Street View & 360deg",
                "link": "https://streetviewpixels-pa.googleapis.com/v1/thumbnail?panoid=UnYc4pR_B13m0f1p_SDWIA&cb_client=maps_sv.tactile.gps&w=224&h=298&yaw=279.1223&pitch=0&thumbfov=100"
            },
            {
                "about": "Videos",
                "link": "https://lh5.googleusercontent.com/p/AF1QipMdbvJ3tAbOS1HzElhVxbJBZaONDOvJSB_C0l2I=w224-h309-k-no"
            }
        ],
        "link": "https://www.google.com/maps/place/Lal+kua+wali+Masjid/data=!4m7!3m6!1s0x3972c50e4857ae59:0x98e77a1d557a8ba0!8m2!3d27.7881355!4d76.9466795!16s%2Fg%2F11hgh5c4vq!19sChIJWa5XSA7FcjkRoIt6VR1655g?authuser=0&hl=en&rclk=1",
        "coordinates": {
            "latitude": 27.7881355,
            "longitude": 76.9466795
        }
    },
    {
        "name": "Daberwali Masjid ( Masjideiliyas )",
        "main_category": "Mosque",
        "address": "RX22+MH8 Daberwali Masjid ( Masjideiliyas ), Firozpur Jhirka, Haryana 122104",
        "detailed_address": {
            "ward": null,
            "street": "RX22+MH8",
            "city": "Firozpur Jhirka",
            "postal_code": "122104",
            "state": "Haryana",
            "country_code": "IN"
        },
        "images": [],
        "link": "https://www.google.com/maps/place/Daberwali+Masjid+%28+Masjideiliyas+%29/data=!4m7!3m6!1s0x3972c597615e8bd9:0x53856fb374ebfc70!8m2!3d27.8016706!4d76.9514515!16s%2Fg%2F11vldprfkq!19sChIJ2YteYZfFcjkRcPzrdLNvhVM?authuser=0&hl=en&rclk=1",
        "coordinates": {
            "latitude": 27.801670599999998,
            "longitude": 76.95145149999999
        }
    },
    {
        "name": "Noorani masjid",
        "main_category": "Mosque",
        "address": "QWXX+PF7 Noorani masjid, Ward No. 1, Firozpur Jhirka, Haryana 122104",
        "detailed_address": {
            "ward": "Ward No. 1",
            "street": "QWXX+PF7",
            "city": "Firozpur Jhirka",
            "postal_code": "122104",
            "state": "Haryana",
            "country_code": "IN"
        },
        "images": [],
        "link": "https://www.google.com/maps/place/Noorani+masjid/data=!4m7!3m6!1s0x3972c5bb312ca42d:0x4509fab5db1d959!8m2!3d27.7992932!4d76.9486794!16s%2Fg%2F11l6_446p_!19sChIJLaQsMbvFcjkRWdmxXaufUAQ?authuser=0&hl=en&rclk=1",
        "coordinates": {
            "latitude": 27.799293199999997,
            "longitude": 76.9486794
        }
    },
    {
        "name": "QUBA MASJID",
        "main_category": "Mosque",
        "address": "QWVV+MHC QUBA MASJID, Firozpur Jhirka, Haryana 122104",
        "detailed_address": {
            "ward": null,
            "street": "QWVV+MHC",
            "city": "Firozpur Jhirka",
            "postal_code": "122104",
            "state": "Haryana",
            "country_code": "IN"
        },
        "images": [
            {
                "about": "All",
                "link": "https://lh5.googleusercontent.com/p/AF1QipO5iQEe8vGe8XNLXwIvlQROHh_coAF62gUNJT1w=w529-h298-k-no"
            },
            {
                "about": "Latest",
                "link": "https://lh5.googleusercontent.com/p/AF1QipO5iQEe8vGe8XNLXwIvlQROHh_coAF62gUNJT1w=w529-h298-k-no"
            }
        ],
        "link": "https://www.google.com/maps/place/QUBA+MASJID/data=!4m7!3m6!1s0x3972c533cc4e0aa9:0x230fe2606bd1e1df!8m2!3d27.7941522!4d76.9439446!16s%2Fg%2F11kjghnwg1!19sChIJqQpOzDPFcjkR3-HRa2DiDyM?authuser=0&hl=en&rclk=1",
        "coordinates": {
            "latitude": 27.7941522,
            "longitude": 76.9439446
        }
    },
    {
        "name": "HAJI RAHMAT MISJID",
        "main_category": "Mosque",
        "address": "RX23+GC4 HAJI RAHMAT MISJID, Firozpur Jhirka, Haryana 122104",
        "detailed_address": {
            "ward": null,
            "street": "RX23+GC4",
            "city": "Firozpur Jhirka",
            "postal_code": null,
            "state": "Haryana",
            "country_code": "IN"
        },
        "images": [
            {
                "about": "All",
                "link": "https://streetviewpixels-pa.googleapis.com/v1/thumbnail?panoid=sewWafcgs0akc3nUrVE1fw&cb_client=maps_sv.tactile.gps&w=224&h=298&yaw=137.39134&pitch=0&thumbfov=100"
            },
            {
                "about": "Street View & 360deg",
                "link": "https://streetviewpixels-pa.googleapis.com/v1/thumbnail?panoid=sewWafcgs0akc3nUrVE1fw&cb_client=maps_sv.tactile.gps&w=224&h=298&yaw=137.39134&pitch=0&thumbfov=100"
            }
        ],
        "link": "https://www.google.com/maps/place/HAJI+RAHMAT+MISJID/data=!4m7!3m6!1s0x3972c5cd17be6d91:0x5d868325b2dc95c7!8m2!3d27.8012713!4d76.9535712!16s%2Fg%2F11snvkc7zs!19sChIJkW2-F83FcjkRx5XcsiWDhl0?authuser=0&hl=en&rclk=1",
        "coordinates": {
            "latitude": 27.8012713,
            "longitude": 76.9535712
        }
    },
    {
        "name": "Eidgah Colony Masjid",
        "main_category": "Mosque",
        "address": "QXQ2+JW9 Eidgah Colony Masjid, Mandapur Rd, Eidgah Colony, Firozpur Jhirka, Haryana 122104",
        "detailed_address": {
            "ward": "Eidgah Colony",
            "street": "QXQ2+JW9, Mandapur Rd",
            "city": "Firozpur Jhirka",
            "postal_code": "122104",
            "state": "Haryana",
            "country_code": "IN"
        },
        "images": [],
        "link": "https://www.google.com/maps/place/Eidgah+Colony+Masjid/data=!4m7!3m6!1s0x3972c54b94f76d09:0x692c06e2cf42c6ca!8m2!3d27.7889944!4d76.9524256!16s%2Fg%2F11l1kr5zhx!19sChIJCW33lEvFcjkRysZCz-IGLGk?authuser=0&hl=en&rclk=1",
        "coordinates": {
            "latitude": 27.7889944,
            "longitude": 76.9524256
        }
    },
    {
        "name": "Eid Gaah",
        "main_category": "Mosque",
        "address": "QXQ3+98P Eid Gaah, Firozpur Jhirka, Haryana 122104",
        "detailed_address": {
            "ward": null,
            "street": "QXQ3+98P",
            "city": "Firozpur Jhirka",
            "postal_code": "122104",
            "state": "Haryana",
            "country_code": "IN"
        },
        "images": [],
        "link": "https://www.google.com/maps/place/Eid+Gaah/data=!4m7!3m6!1s0x3972c46604ffffff:0xa17ed1c11a0835df!8m2!3d27.7884573!4d76.9533237!16s%2Fg%2F11txmzldh6!19sChIJ____BGbEcjkR3zUIGsHRfqE?authuser=0&hl=en&rclk=1",
        "coordinates": {
            "latitude": 27.788457299999997,
            "longitude": 76.9533237
        }
    },
    {
        "name": "Cr7_soyab",
        "main_category": "Mosque",
        "address": "QWWW+75R Cr7_soyab, Firozpur Jhirka, Haryana 122104",
        "detailed_address": {
            "ward": null,
            "street": "QWWW+75R",
            "city": "Firozpur Jhirka",
            "postal_code": "122104",
            "state": "Haryana",
            "country_code": "IN"
        },
        "images": [
            {
                "about": "All",
                "link": "https://streetviewpixels-pa.googleapis.com/v1/thumbnail?panoid=tl3ktPzScVa-ixfhywNmAg&cb_client=maps_sv.tactile.gps&w=224&h=298&yaw=162.92857&pitch=0&thumbfov=100"
            },
            {
                "about": "Street View & 360deg",
                "link": "https://streetviewpixels-pa.googleapis.com/v1/thumbnail?panoid=tl3ktPzScVa-ixfhywNmAg&cb_client=maps_sv.tactile.gps&w=224&h=298&yaw=162.92857&pitch=0&thumbfov=100"
            }
        ],
        "link": "https://www.google.com/maps/place/Cr7_soyab/data=!4m7!3m6!1s0x3972c5f1f00738b1:0x46d29e7a1c2da9ef!8m2!3d27.7958579!4d76.9454024!16s%2Fg%2F11t6m_rdy5!19sChIJsTgH8PHFcjkR76ktHHqe0kY?authuser=0&hl=en&rclk=1",
        "coordinates": {
            "latitude": 27.795857899999998,
            "longitude": 76.94540239999999
        }
    },
    {
        "name": "Sarpanch Masjid",
        "main_category": "Mosque",
        "address": "Sarpanch Masjid, NH 248A, Ferozepur Jhirka Rural, Dhanwala, Haryana 122104",
        "detailed_address": {
            "ward": null,
            "street": "NH 248A",
            "city": "Ferozepur Jhirka Rural, Dhanwala",
            "postal_code": "122104",
            "state": "Haryana",
            "country_code": "IN"
        },
        "images": [],
        "link": "https://www.google.com/maps/place/Sarpanch+Masjid/data=!4m7!3m6!1s0x3972c51db7aae31d:0xa954e854948c4c6d!8m2!3d27.8106705!4d76.9542567!16s%2Fg%2F11q1vxrvfz!19sChIJHeOqtx3FcjkRbUyMlFToVKk?authuser=0&hl=en&rclk=1",
        "coordinates": {
            "latitude": 27.8106705,
            "longitude": 76.9542567
        }
    },
    {
        "name": "Haji Ibrahim Eidgah",
        "main_category": "Mosque",
        "address": "QXQ3+92M Haji Ibrahim Eidgah, Firozpur Jhirka, Haryana 122104",
        "detailed_address": {
            "ward": null,
            "street": "QXQ3+92M",
            "city": "Firozpur Jhirka",
            "postal_code": "122104",
            "state": "Haryana",
            "country_code": "IN"
        },
        "images": [
            {
                "about": "All",
                "link": "https://lh5.googleusercontent.com/p/AF1QipMsSFFEGWW7e3y9xygxcliJYsiS33-Cj4Vr1-RP=w397-h298-k-no"
            },
            {
                "about": "Videos",
                "link": "https://lh5.googleusercontent.com/p/AF1QipMckc75-Hr7PcapWelbuI15Qdep8ZVJbPJp4L1Y=w224-h398-k-no"
            }
        ],
        "link": "https://www.google.com/maps/place/Haji+Ibrahim+Eidgah/data=!4m7!3m6!1s0x3972c57bb6a0481b:0x143532dbca437eb4!8m2!3d27.7884565!4d76.9525341!16s%2Fg%2F11sr667hs7!19sChIJG0igtnvFcjkRtH5DytsyNRQ?authuser=0&hl=en&rclk=1",
        "coordinates": {
            "latitude": 27.7884565,
            "longitude": 76.9525341
        }
    },
    {
        "name": "msjid",
        "main_category": "Mosque",
        "address": "RW8Q+XPQ msjid, Ferozepur Jhirka Rural, Haryana 122104",
        "detailed_address": {
            "ward": null,
            "street": "RW8Q+XPQ",
            "city": "Ferozepur Jhirka Rural",
            "postal_code": "122104",
            "state": "Haryana",
            "country_code": "IN"
        },
        "images": [],
        "link": "https://www.google.com/maps/place/%E0%A4%AE%E0%A4%B8%E0%A5%8D%E0%A4%9C%E0%A4%BF%E0%A4%A6/data=!4m7!3m6!1s0x3972c55a8936ac65:0x67603ea4b5750589!8m2!3d27.8174712!4d76.9393568!16s%2Fg%2F11lsrqwsq3!19sChIJZaw2iVrFcjkRiQV1taQ-YGc?authuser=0&hl=en&rclk=1",
        "coordinates": {
            "latitude": 27.8174712,
            "longitude": 76.9393568
        }
    },
    {
        "name": "Nizar Khan Masjid",
        "main_category": "Mosque",
        "address": "RX2C+V83 Nizar Khan Masjid, Rajoli, Ferozepur Jhirka Rural, Haryana 122104",
        "detailed_address": {
            "ward": null,
            "street": "RX2C+V83",
            "city": "Rajoli, Ferozepur Jhirka Rural",
            "postal_code": "122104",
            "state": "Haryana",
            "country_code": "IN"
        },
        "images": [],
        "link": "https://www.google.com/maps/place/Nizar+Khan+Masjid/data=!4m7!3m6!1s0x3972c546184d4fd3:0x60bee4c1b8a168a3!8m2!3d27.8021457!4d76.9708036!16s%2Fg%2F11v3g25dl3!19sChIJ009NGEbFcjkRo2ihuMHkvmA?authuser=0&hl=en&rclk=1",
        "coordinates": {
            "latitude": 27.8021457,
            "longitude": 76.9708036
        }
    },
    {
        "name": "Jamia Masjid",
        "main_category": "Mosque",
        "address": "PXRJ+67W Jamia Masjid, Firozpur Jhirka, Haryana 122104",
        "detailed_address": {
            "ward": null,
            "street": "PXRJ+67W",
            "city": "Firozpur Jhirka",
            "postal_code": "122104",
            "state": "Haryana",
            "country_code": "IN"
        },
        "images": [],
        "link": "https://www.google.com/maps/place/Jamia+Masjid/data=!4m7!3m6!1s0x3972c305880a1447:0x92e9a2f94b883e63!8m2!3d27.7406084!4d76.9807009!16s%2Fg%2F11ss497phf!19sChIJRxQKiAXDcjkRYz6IS_mi6ZI?authuser=0&hl=en&rclk=1",
        "coordinates": {
            "latitude": 27.7406084,
            "longitude": 76.9807009
        }
    }
]