[
    {
        "name": "Jama Masjid",
        "main_category": "Mosque",
        "address": "Jama Masjid, Old Delhi, Delhi, 110006",
        "detailed_address": {
            "ward": "Jama Masjid, Old Delhi",
            "street": null,
            "city": "Delhi",
            "postal_code": "110006",
            "state": "Delhi",
            "country_code": "IN"
        },
        "images": [
            {
                "about": "All",
                "link": "https://lh5.googleusercontent.com/p/AF1QipMak1D51ms3fAec8Hv85TWzznlDqiSG6WVzH1oo=w447-h298-k-no"
            },
            {
                "about": "Latest",
                "link": "https://lh5.googleusercontent.com/p/AF1QipNNRpm0-dXpgV9oJsKWwcImDfg9o81awCWu2hlm=w224-h398-k-no"
            },
            {
                "about": "Videos",
                "link": "https://lh5.googleusercontent.com/p/AF1QipMlxs5wfHk0o905fntq2LudrTJLkjZky0yCrLHV=w529-h298-k-no"
            },
            {
                "about": "National Boot House",
                "link": "https://lh5.googleusercontent.com/p/AF1QipM5PMl5iJ13XFmdtykdBe9uqqkRj7XNcGjDk_Gd=w529-h298-k-no"
            },
            {
                "about": "Dome",
                "link": "https://lh5.googleusercontent.com/p/AF1QipN2U6zM28o9erhatzJ_mJpeLOkFiGCQiEtj0B9g=w274-h298-k-no"
            },
            {
                "about": "Street View & 360deg",
                "link": "https://lh5.googleusercontent.com/p/AF1QipPz_Omqh6xT1_brAdCRe0ER_BM8EZGxJGXxUSA=w224-h298-k-no-pi-30.000002-ya291.3302-ro-0-fo100"
            }
        ],
        "link": "https://www.google.com/maps/place/Jama+Masjid/data=!4m7!3m6!1s0x390cfd18df89b215:0xdd57369e29bf9d96!8m2!3d28.6506792!4d77.2334421!16zL20vMDR5emo1!19sChIJFbKJ3xj9DDkRlp2_KZ42V90?authuser=0&hl=en&rclk=1",
        "coordinates": {
            "latitude": 28.6506792,
            "longitude": 77.23344209999999
        }
    },
    {
        "name": "Makka Masjid",
        "main_category": "Mosque",
        "address": "Makka Masjid, Pustha Road Number 1 Block T Gautampuri Shahdara nii dillii North East Delhi Delhi 110053 Republic of",
        "detailed_address": {
            "ward": "Block T, Goutampuri, Shahdara",
            "street": "Pustha Road Number 1 Block T Gautampuri Shahdara nii dillii North East Delhi Delhi 110053 Republic of",
            "city": "Delhi",
            "postal_code": null,
            "state": "Delhi",
            "country_code": "IN"
        },
        "images": [
            {
                "about": "All",
                "link": "https://lh5.googleusercontent.com/p/AF1QipNo4Pi656PdkBK_V0R9ChvY4_baabFLSeUzz6DR=w397-h298-k-no"
            },
            {
                "about": "Street View & 360deg",
                "link": "https://streetviewpixels-pa.googleapis.com/v1/thumbnail?panoid=zM8t9-grkU-dQJXeGVqm9A&cb_client=maps_sv.tactile.gps&w=224&h=298&yaw=30.122131&pitch=0&thumbfov=100"
            }
        ],
        "link": "https://www.google.com/maps/place/Makka+Masjid/data=!4m7!3m6!1s0x390cfc674a9ede99:0xe95186c652219f27!8m2!3d28.6796026!4d77.2649226!16s%2Fg%2F11b7lm3cqk!19sChIJmd6eSmf8DDkRJ58hUsaGUek?authuser=0&hl=en&rclk=1",
        "coordinates": {
            "latitude": 28.6796026,
            "longitude": 77.26492259999999
        }
    },
    {
        "name": "JAMA MASJID UMAR BIN KHATTAB",
        "main_category": "Mosque",
        "address": "G8W3+XWV JAMA MASJID UMAR BIN KHATTAB, Kalindi Kunj Rd, Block H, Jamia Nagar, Okhla, New Delhi, Delhi 110025",
        "detailed_address": {
            "ward": "Block H, Jamia Nagar, Okhla",
            "street": "G8W3+XWV, Kalindi Kunj Rd",
            "city": "New Delhi",
            "postal_code": "110025",
            "state": "Delhi",
            "country_code": "IN"
        },
        "images": [
            {
                "about": "All",
                "link": "https://lh5.googleusercontent.com/p/AF1QipOS-aNvf8ha-zvD7RznrM5VbvpBLjVGk6hrPpIo=w397-h298-k-no"
            },
            {
                "about": "Dome",
                "link": "https://lh5.googleusercontent.com/p/AF1QipN5I4HTqxaJ6Uck7rxjCkN318ZiKxKi3zHrZwbk=w529-h298-k-no"
            },
            {
                "about": "Videos",
                "link": "https://lh5.googleusercontent.com/p/AF1QipOFdVXzUm7-rqHoQC7VJWTwaeVwl-En8tOs_D0S=w224-h398-k-no"
            }
        ],
        "link": "https://www.google.com/maps/place/JAMA+MASJID+UMAR+BIN+KHATTAB/data=!4m7!3m6!1s0x390ce51eb7ea0bfd:0xe968824c610cc265!8m2!3d28.5474867!4d77.3047909!16s%2Fg%2F11h7p6jtqd!19sChIJ_Qvqtx7lDDkRZcIMYUyCaOk?authuser=0&hl=en&rclk=1",
        "coordinates": {
            "latitude": 28.5474867,
            "longitude": 77.3047909
        }
    },
    {
        "name": "Masjid E Aqsa",
        "main_category": "Mosque",
        "address": "6HR2+9R3 Masjid E Aqsa, Mahadipur Bangar, Mahadipur Khadar, Uttar Pradesh 203209",
        "detailed_address": {
            "ward": null,
            "street": "6HR2+9R3",
            "city": "Mahadipur Bangar, Mahadipur Khadar",
            "postal_code": "203209",
            "state": "Uttar Pradesh",
            "country_code": "IN"
        },
        "images": [
            {
                "about": "All",
                "link": "https://lh5.googleusercontent.com/p/AF1QipNxPxyWuPmM1SWwDiskCi2gAz5kXE5WmjebpmGA=w383-h298-k-no"
            },
            {
                "about": "Dome",
                "link": "https://lh5.googleusercontent.com/p/AF1QipPPDTXVujHrnLg6yvg3G3qtI6bc60d6pmBcnOuB=w397-h298-k-no"
            },
            {
                "about": "Videos",
                "link": "https://lh5.googleusercontent.com/p/AF1QipN5L-StZcJlxck5ulWorf-nIxZ5hGYuUPxUEtQs=w224-h497-k-no"
            }
        ],
        "link": "https://www.google.com/maps/place/Masjid+E+Aqsa/data=!4m7!3m6!1s0x390cc9d2b5e5861d:0xe3184b3b71ff4be6!8m2!3d28.2408927!4d77.5520588!16s%2Fg%2F11f29zws3p!19sChIJHYbltdLJDDkR5kv_cTtLGOM?authuser=0&hl=en&rclk=1",
        "coordinates": {
            "latitude": 28.2408927,
            "longitude": 77.5520588
        }
    },
    {
        "name": "Jama Masjid Khapa",
        "main_category": "Mosque",
        "address": "C5JC+VQ2 Jama Masjid Khapa, Surla, Madhya Pradesh 480224",
        "detailed_address": {
            "ward": null,
            "street": "C5JC+VQ2",
            "city": "Surla",
            "postal_code": "480224",
            "state": "Madhya Pradesh",
            "country_code": "IN"
        },
        "images": [
            {
                "about": "All",
                "link": "https://lh5.googleusercontent.com/p/AF1QipOjvAh0fta32KQ3s5BkYfyTmCruLtVFF76hXGoV=w397-h298-k-no"
            }
        ],
        "link": "https://www.google.com/maps/place/Jama+Masjid+Khapa/data=!4m7!3m6!1s0x397fe568b49e1aff:0x3a62e33cb592916c!8m2!3d22.4321431!4d79.1718907!16s%2Fg%2F11g8vc7ycm!19sChIJ_xqetGjlfzkRbJGStTzjYjo?authuser=0&hl=en&rclk=1",
        "coordinates": {
            "latitude": 22.432143099999998,
            "longitude": 79.17189069999999
        }
    },
    {
        "name": "khastagul Masjid",
        "main_category": "Mosque",
        "address": "M7X5+VPJ khastagul Masjid, Street No. 17, Block C, Goutampuri, Shahdara, Delhi, 110053",
        "detailed_address": {
            "ward": "Block C, Goutampuri, Shahdara",
            "street": "M7X5+VPJ, Street No. 17",
            "city": "Delhi",
            "postal_code": "110053",
            "state": "Delhi",
            "country_code": "IN"
        },
        "images": [],
        "link": "https://www.google.com/maps/place/khastagul+Masjid/data=!4m7!3m6!1s0x390cfc3ee7e64d6b:0x2eaf347ee8a2fd14!8m2!3d28.6997085!4d77.2592707!16s%2Fg%2F11f2w6w5kj!19sChIJa03m5z78DDkRFP2i6H40ry4?authuser=0&hl=en&rclk=1",
        "coordinates": {
            "latitude": 28.6997085,
            "longitude": 77.2592707
        }
    },
    {
        "name": "Jama Mosque",
        "main_category": "Religious destination",
        "address": "CXFJ+56R Jama Mosque, Khapa, Maharashtra 441101",
        "detailed_address": {
            "ward": null,
            "street": "CXFJ+56R",
            "city": "Khapa",
            "postal_code": "441101",
            "state": "Maharashtra",
            "country_code": "IN"
        },
        "images": [],
        "link": "https://www.google.com/maps/place/Jama+Mosque/data=!4m7!3m6!1s0x3bd4e0e726681821:0x3e4f1ac621a71a50!8m2!3d21.4229977!4d78.9805042!16s%2Fg%2F11g8kck51f!19sChIJIRhoJufg1DsRUBqnIcYaTz4?authuser=0&hl=en&rclk=1",
        "coordinates": {
            "latitude": 21.4229977,
            "longitude": 78.9805042
        }
    },
    {
        "name": "Masjid kameda",
        "main_category": "Mosque",
        "address": "QXFG+M35 Masjid kameda, Kameda, Haryana 122104",
        "detailed_address": {
            "ward": null,
            "street": "QXFG+M35",
            "city": "Kameda",
            "postal_code": null,
            "state": "Haryana",
            "country_code": "IN"
        },
        "images": [
            {
                "about": "All",
                "link": "https://streetviewpixels-pa.googleapis.com/v1/thumbnail?panoid=tgB4DOZLFFNdhf0g8FcGmQ&cb_client=maps_sv.tactile.gps&w=224&h=298&yaw=46.43471&pitch=0&thumbfov=100"
            },
            {
                "about": "Street View & 360deg",
                "link": "https://streetviewpixels-pa.googleapis.com/v1/thumbnail?panoid=tgB4DOZLFFNdhf0g8FcGmQ&cb_client=maps_sv.tactile.gps&w=224&h=298&yaw=46.43471&pitch=0&thumbfov=100"
            }
        ],
        "link": "https://www.google.com/maps/place/Masjid+kameda/data=!4m7!3m6!1s0x3972c5669a9264af:0x1414760785900807!8m2!3d27.7741373!4d76.9752403!16s%2Fg%2F11f9y830_v!19sChIJr2SSmmbFcjkRBwiQhQd2FBQ?authuser=0&hl=en&rclk=1",
        "coordinates": {
            "latitude": 27.7741373,
            "longitude": 76.9752403
        }
    },
    {
        "name": "Jama masjid khapa patan",
        "main_category": "Mosque",
        "address": "73X6+CR2 Jama masjid khapa patan, Jama masjid Khapa, Patan, Maharashtra",
        "detailed_address": {
            "ward": null,
            "street": "73X6+CR2, Jama masjid Khapa",
            "city": "Patan, Bidkawadas",
            "postal_code": null,
            "state": "Maharashtra",
            "country_code": "IN"
        },
        "images": [
            {
                "about": "All",
                "link": "https://streetviewpixels-pa.googleapis.com/v1/thumbnail?panoid=tu3OnO-9aemxPf0Fri5Vfg&cb_client=maps_sv.tactile.gps&w=224&h=298&yaw=310.95944&pitch=0&thumbfov=100"
            },
            {
                "about": "Street View & 360deg",
                "link": "https://streetviewpixels-pa.googleapis.com/v1/thumbnail?panoid=tu3OnO-9aemxPf0Fri5Vfg&cb_client=maps_sv.tactile.gps&w=224&h=298&yaw=310.95944&pitch=0&thumbfov=100"
            }
        ],
        "link": "https://www.google.com/maps/place/Jama+masjid+khapa+patan/data=!4m7!3m6!1s0x3bd4c3564cbbf43f:0x3d45c0d61568b13!8m2!3d21.2985046!4d79.0620252!16s%2Fg%2F11gms0kg_5!19sChIJP_S7TFbD1DsRE4tWYQ1c1AM?authuser=0&hl=en&rclk=1",
        "coordinates": {
            "latitude": 21.298504599999998,
            "longitude": 79.0620252
        }
    },
    {
        "name": "Kuaa Wali Masjid",
        "main_category": "Mosque",
        "address": "Kuaa Wali Masjid, Hathiya, Uttar Pradesh 281405",
        "detailed_address": {
            "ward": null,
            "street": "Kuaa Wali Masjid",
            "city": "Hathiya",
            "postal_code": null,
            "state": "Uttar Pradesh",
            "country_code": "IN"
        },
        "images": [
            {
                "about": "All",
                "link": "https://lh5.googleusercontent.com/p/AF1QipM2120Fp72eMlxhs-jenb2K1MDYPn1Zzuh21TTI=w397-h298-k-no"
            },
            {
                "about": "Videos",
                "link": "https://lh5.googleusercontent.com/p/AF1QipPDwjiM3Whd9YpC2SWr8z_KAwx_dB8LNcLunGJK=w224-h398-k-no"
            }
        ],
        "link": "https://www.google.com/maps/place/Kuaa+Wali+Masjid/data=!4m7!3m6!1s0x39731b1a2f72e641:0xa5b83455e8bb3bff!8m2!3d27.5965264!4d77.3753937!16s%2Fg%2F11hkqpxzp3!19sChIJQeZyLxobczkR_zu76FU0uKU?authuser=0&hl=en&rclk=1",
        "coordinates": {
            "latitude": 27.5965264,
            "longitude": 77.37539369999999
        }
    },
    {
        "name": "Masjid Kasab Pura",
        "main_category": "Mosque",
        "address": "6692+G64 Masjid Kasab Pura, Quraishi Nagar,, Kamptee, Maharashtra 441002",
        "detailed_address": {
            "ward": "Sanjay Nagar Bengali Colony",
            "street": "6692+G64, Quraishi Nagar,",
            "city": "Kamptee",
            "postal_code": "441002",
            "state": "Maharashtra",
            "country_code": "IN"
        },
        "images": [
            {
                "about": "All",
                "link": "https://streetviewpixels-pa.googleapis.com/v1/thumbnail?panoid=ZJAtbA7J7aKjhMzbj8-o2w&cb_client=maps_sv.tactile.gps&w=224&h=298&yaw=228.11041&pitch=0&thumbfov=100"
            },
            {
                "about": "Street View & 360deg",
                "link": "https://streetviewpixels-pa.googleapis.com/v1/thumbnail?panoid=ZJAtbA7J7aKjhMzbj8-o2w&cb_client=maps_sv.tactile.gps&w=224&h=298&yaw=228.11041&pitch=0&thumbfov=100"
            },
            {
                "about": "Videos",
                "link": "https://lh5.googleusercontent.com/p/AF1QipPbyscAHQIGT11fLzgv61QWEizERMrQxTroCP0W=w224-h398-k-no"
            }
        ],
        "link": "https://www.google.com/maps/place/Masjid+Kasab+Pura/data=!4m7!3m6!1s0x3bd4c8aa724744fb:0x738f77dac082f8ee!8m2!3d21.218764!4d79.2005863!16s%2Fg%2F11cn3qkpbb!19sChIJ-0RHcqrI1DsR7viCwNp3j3M?authuser=0&hl=en&rclk=1",
        "coordinates": {
            "latitude": 21.218764,
            "longitude": 79.2005863
        }
    },
    {
        "name": "Jamia Masjid Mekho Khapa",
        "main_category": "Mosque",
        "address": "JMPC+CW9 Jamia Masjid Mekho Khapa, Topi Chagharzi, Buner, Khyber Pakhtunkhwa, Pakistan",
        "detailed_address": {
            "ward": null,
            "street": "JMPC+CW9",
            "city": "Topi Chagharzi",
            "postal_code": null,
            "state": "Buner, Khyber Pakhtunkhwa",
            "country_code": "PK"
        },
        "images": [],
        "link": "https://www.google.com/maps/place/Jamia+Masjid+Mekho+Khapa/data=!4m7!3m6!1s0x38de81310c0932a7:0x816b063168ffca71!8m2!3d34.6360432!4d72.6723528!16s%2Fg%2F11h0_phmx2!19sChIJpzIJDDGB3jgRccr_aDEGa4E?authuser=0&hl=en&rclk=1",
        "coordinates": {
            "latitude": 34.636043199999996,
            "longitude": 72.6723528
        }
    },
    {
        "name": "Madina Masjid Shahbas",
        "main_category": "Mosque",
        "address": "339M+3JX Madina Masjid Shahbas, Gundbas, Haryana 122107",
        "detailed_address": {
            "ward": null,
            "street": "339M+3JX",
            "city": "Gundbas",
            "postal_code": "122107",
            "state": "Haryana",
            "country_code": "IN"
        },
        "images": [
            {
                "about": "All",
                "link": "https://lh5.googleusercontent.com/p/AF1QipNVkg6AH2ESRCytPVVPwxQ17kLpb-e6lUG7yw4T=w224-h298-k-no"
            }
        ],
        "link": "https://www.google.com/maps/place/Madina+Masjid+Shahbas/data=!4m7!3m6!1s0x390d2de8d6aa5bcd:0xa7c513dc3d4781a7!8m2!3d28.0677341!4d77.0840975!16s%2Fg%2F11gr5_wlyy!19sChIJzVuq1ugtDTkRp4FHPdwTxac?authuser=0&hl=en&rclk=1",
        "coordinates": {
            "latitude": 28.0677341,
            "longitude": 77.0840975
        }
    },
    {
        "name": "Madina masjid salahka",
        "main_category": "Mosque",
        "address": "5XVP+W5X Madina masjid salahka, Salahka, Haryana 122103",
        "detailed_address": {
            "ward": null,
            "street": "5XVP+W5X",
            "city": "Salahka",
            "postal_code": "122103",
            "state": "Haryana",
            "country_code": "IN"
        },
        "images": [],
        "link": "https://www.google.com/maps/place/Madina+masjid+salahka/data=!4m7!3m6!1s0x390d31334fbaa1e3:0xc790ab57bfe2c24d!8m2!3d28.1948582!4d76.9854957!16s%2Fg%2F11rgh1vcf1!19sChIJ46G6TzMxDTkRTcLiv1erkMc?authuser=0&hl=en&rclk=1",
        "coordinates": {
            "latitude": 28.1948582,
            "longitude": 76.9854957
        }
    },
    {
        "name": "Mohamadiya masjid kasam hapajji",
        "main_category": "Mosque",
        "address": "W37H+2WF Mohamadiya masjid kasam hapajji, Khanpur Ghati, Haryana 122108",
        "detailed_address": {
            "ward": null,
            "street": "W37H+2WF",
            "city": "Khanpur Ghati",
            "postal_code": null,
            "state": "Haryana",
            "country_code": "IN"
        },
        "images": [],
        "link": "https://www.google.com/maps/place/Mohamadiya+masjid+kasam+hapajji/data=!4m7!3m6!1s0x3972d1038c4cf34b:0x4047ee183b0158d5!8m2!3d27.9125686!4d77.0797955!16s%2Fg%2F11v60rg9f2!19sChIJS_NMjAPRcjkR1VgBOxjuR0A?authuser=0&hl=en&rclk=1",
        "coordinates": {
            "latitude": 27.9125686,
            "longitude": 77.0797955
        }
    },
    {
        "name": "KURKENIYA KA BAAS WALI MASJID",
        "main_category": "Mosque",
        "address": "HX7C+JPQ KURKENIYA KA BAAS WALI MASJID, Phootaki, Rajasthan 321024",
        "detailed_address": {
            "ward": null,
            "street": "HX7C+JPQ",
            "city": "Phootaki",
            "postal_code": "321024",
            "state": "Rajasthan",
            "country_code": "IN"
        },
        "images": [],
        "link": "https://www.google.com/maps/place/KURKENIYA+KA+BAAS+WALI+MASJID/data=!4m7!3m6!1s0x3972ef571454a429:0x9421a85d9e37e2!8m2!3d27.5640955!4d76.9718557!16s%2Fg%2F11rtj5wfb5!19sChIJKaRUFFfvcjkR4jeeXaghlAA?authuser=0&hl=en&rclk=1",
        "coordinates": {
            "latitude": 27.5640955,
            "longitude": 76.97185569999999
        }
    },
    {
        "name": "Mdina Mewat Masjid Khuspuri",
        "main_category": "Mosque",
        "address": "JW5X+Q68 Mdina Mewat Masjid Khuspuri, Bas Burja, Rajasthan 321024",
        "detailed_address": {
            "ward": null,
            "street": "JW5X+Q68",
            "city": "Bas Burja",
            "postal_code": "321024",
            "state": "Rajasthan",
            "country_code": "IN"
        },
        "images": [
            {
                "about": "All",
                "link": "https://lh5.googleusercontent.com/p/AF1QipNwjtNOKDSwb4Y6cugT3EIRE_MmjcEmGOUsHcJx=w224-h298-k-no"
            }
        ],
        "link": "https://www.google.com/maps/place/Mdina+Mewat+Masjid+Khuspuri/data=!4m7!3m6!1s0x3972e98f95d655a1:0xba4ef1618d7aa3b9!8m2!3d27.6094149!4d76.9480688!16s%2Fg%2F11p5nwl4qt!19sChIJoVXWlY_pcjkRuaN6jWHxTro?authuser=0&hl=en&rclk=1",
        "coordinates": {
            "latitude": 27.609414899999997,
            "longitude": 76.9480688
        }
    },
    {
        "name": "Masjid",
        "main_category": "Place of worship",
        "address": "9G2X+329 Masjid, Kasarwa, Shahpur, Uttar Pradesh 251318",
        "detailed_address": {
            "ward": "Kasarwa",
            "street": "9G2X+329",
            "city": "Shahpur",
            "postal_code": null,
            "state": "Uttar Pradesh",
            "country_code": "IN"
        },
        "images": [
            {
                "about": "All",
                "link": "https://streetviewpixels-pa.googleapis.com/v1/thumbnail?panoid=CXUyj8_MusWI16UsDetYoA&cb_client=maps_sv.tactile.gps&w=224&h=298&yaw=280.38315&pitch=0&thumbfov=100"
            },
            {
                "about": "Street View & 360deg",
                "link": "https://streetviewpixels-pa.googleapis.com/v1/thumbnail?panoid=CXUyj8_MusWI16UsDetYoA&cb_client=maps_sv.tactile.gps&w=224&h=298&yaw=280.38315&pitch=0&thumbfov=100"
            }
        ],
        "link": "https://www.google.com/maps/place/Masjid/data=!4m7!3m6!1s0x390c3de1a531501f:0x4709964c422012b!8m2!3d29.3501661!4d77.5476117!16s%2Fg%2F11tn6c73gh!19sChIJH1AxpeE9DDkRKwEixGSZcAQ?authuser=0&hl=en&rclk=1",
        "coordinates": {
            "latitude": 29.3501661,
            "longitude": 77.54761169999999
        }
    },
    {
        "name": "MAKKA MASJID DHADOLI",
        "main_category": "Mosque",
        "address": "W3FQ+4R4 MAKKA MASJID DHADOLI, Dhadoli Kalan, Haryana 122108",
        "detailed_address": {
            "ward": null,
            "street": "W3FQ+4R4",
            "city": "Dhadoli Kalan",
            "postal_code": "122108",
            "state": "Haryana",
            "country_code": "IN"
        },
        "images": [],
        "link": "https://www.google.com/maps/place/MAKKA+MASJID+DHADOLI/data=!4m7!3m6!1s0x3972d1545c76f223:0x35aa3640f8d85f0e!8m2!3d27.9227722!4d77.0895634!16s%2Fg%2F11n31yd8r2!19sChIJI_J2XFTRcjkRDl_Y-EA2qjU?authuser=0&hl=en&rclk=1",
        "coordinates": {
            "latitude": 27.922772199999997,
            "longitude": 77.0895634
        }
    },
    {
        "name": "aashik e rsuul msjid khaapaa",
        "main_category": "Mosque",
        "address": "W429+665 aashik e rsuul msjid khaapaa, Khapa Bihari, Madhya Pradesh 480110",
        "detailed_address": {
            "ward": null,
            "street": "W429+665",
            "city": "Khapa Bihari",
            "postal_code": "480110",
            "state": "Madhya Pradesh",
            "country_code": "IN"
        },
        "images": [
            {
                "about": "All",
                "link": "https://streetviewpixels-pa.googleapis.com/v1/thumbnail?panoid=SCmrfHO5gPjDxyHXsSFjpg&cb_client=maps_sv.tactile.gps&w=224&h=298&yaw=281.17975&pitch=0&thumbfov=100"
            },
            {
                "about": "Street View & 360deg",
                "link": "https://streetviewpixels-pa.googleapis.com/v1/thumbnail?panoid=SCmrfHO5gPjDxyHXsSFjpg&cb_client=maps_sv.tactile.gps&w=224&h=298&yaw=281.17975&pitch=0&thumbfov=100"
            }
        ],
        "link": "https://www.google.com/maps/place/%E0%A4%86%E0%A4%B6%E0%A4%BF%E0%A4%95+%E0%A4%8F+%E0%A4%B0%E0%A4%B8%E0%A5%82%E0%A4%B2+%E0%A4%AE%E0%A4%B8%E0%A5%8D%E0%A4%9C%E0%A4%BF%E0%A4%A6+%E0%A4%96%E0%A4%BE%E0%A4%AA%E0%A4%BE/data=!4m7!3m6!1s0x3bd547f817536b6b:0x418f55d118220f9d!8m2!3d21.9005985!4d79.1181828!16s%2Fg%2F11vbvrmkry!19sChIJa2tTF_hH1TsRnQ8iGNFVj0E?authuser=0&hl=en&rclk=1",
        "coordinates": {
            "latitude": 21.900598499999997,
            "longitude": 79.1181828
        }
    }
]