[
    {
        "name": "Dighwara Jama Masjid",
        "main_category": "Mosque",
        "address": "P2R2+JVH Dighwara Jama Masjid, Raipatti, Mirpur Bhual, Dighwara, Bihar 841207",
        "detailed_address": {
            "ward": "Raipatti, Mirpur Bhual",
            "street": "P2R2+JVH",
            "city": "Dighwara",
            "postal_code": "841207",
            "state": "Bihar",
            "country_code": "IN"
        },
        "images": [
            {
                "about": "All",
                "link": "https://lh5.googleusercontent.com/p/AF1QipPLH1ai0FquB7QUdBXQBaCUAfg-415-1XPCIxdg=w397-h298-k-no"
            }
        ],
        "link": "https://www.google.com/maps/place/Dighwara+Jama+Masjid/data=!4m7!3m6!1s0x39ed524074b4b30f:0x213fe17d7e9b6a04!8m2!3d25.7415564!4d85.0022395!16s%2Fg%2F11bz_z2c2w!19sChIJD7O0dEBS7TkRBGqbfn3hPyE?authuser=0&hl=en&rclk=1",
        "coordinates": {
            "latitude": 25.7415564,
            "longitude": 85.0022395
        }
    },
    {
        "name": "Purana Thana Masjid",
        "main_category": "Mosque",
        "address": "PXQW+Q2F Purana Thana Masjid, Raipatti, Dighwara, Bihar 841207",
        "detailed_address": {
            "ward": "Raipatti",
            "street": "PXQW+Q2F",
            "city": "Dighwara",
            "postal_code": "841207",
            "state": "Bihar",
            "country_code": "IN"
        },
        "images": [
            {
                "about": "All",
                "link": "https://lh5.googleusercontent.com/p/AF1QipNwex8g_10NyaIUQk33q9wRJYDn03hCZ0tF_Sl_=w298-h298-k-no"
            }
        ],
        "link": "https://www.google.com/maps/place/Purana+Thana+Masjid/data=!4m7!3m6!1s0x39ed5316ce854607:0x91ecd31112b9f1a2!8m2!3d25.7394304!4d84.9950339!16s%2Fg%2F11fd5162wh!19sChIJB0aFzhZT7TkRovG5EhHT7JE?authuser=0&hl=en&rclk=1",
        "coordinates": {
            "latitude": 25.7394304,
            "longitude": 84.9950339
        }
    },
    {
        "name": "Iqra Masjid",
        "main_category": "Mosque",
        "address": "P2W9+4C9 Iqra Masjid, Dighwara, Bihar 841207",
        "detailed_address": {
            "ward": null,
            "street": "P2W9+4C9",
            "city": "Dighwara",
            "postal_code": "841207",
            "state": "Bihar",
            "country_code": "IN"
        },
        "images": [
            {
                "about": "All",
                "link": "https://lh5.googleusercontent.com/p/AF1QipN-0k4VgBsiXhBCn5ypxSuMy575K3FMrNj9f8w=w637-h298-k-no"
            }
        ],
        "link": "https://www.google.com/maps/place/Iqra+Masjid/data=!4m7!3m6!1s0x39ed539efdb342cb:0x65f7f1c3b6d19be1!8m2!3d25.7452934!4d85.0186027!16s%2Fg%2F11q22vzz06!19sChIJy0Kz_Z5T7TkR4ZvRtsPx92U?authuser=0&hl=en&rclk=1",
        "coordinates": {
            "latitude": 25.745293399999998,
            "longitude": 85.0186027
        }
    },
    {
        "name": "Madina Masjid Basatpur",
        "main_category": "Mosque",
        "address": "Ward No.16, Madina Masjid Basatpur, Mirpur Bhual, Dighwara, Bihar 841207",
        "detailed_address": {
            "ward": "Mirpur Bhual",
            "street": "Ward No.16",
            "city": "Dighwara",
            "postal_code": "841207",
            "state": "Bihar",
            "country_code": "IN"
        },
        "images": [],
        "link": "https://www.google.com/maps/place/Madina+Masjid+Basatpur/data=!4m7!3m6!1s0x39ed53c752833bb5:0x20d6d0d8033ade97!8m2!3d25.7429614!4d85.0103764!16s%2Fg%2F11rrqp5_kv!19sChIJtTuDUsdT7TkRl946A9jQ1iA?authuser=0&hl=en&rclk=1",
        "coordinates": {
            "latitude": 25.7429614,
            "longitude": 85.0103764
        }
    }
]