[
    {
        "name": "Masjid Darut Tauheed",
        "main_category": "Mosque",
        "address": "Ward No.26, Masjid Darut Tauheed, Tauheed Nagar, Near, Kamla Rai College Rd, Gopalganj, Bihar 841428",
        "detailed_address": {
            "ward": "Arar",
            "street": "Ward No.26, Tauheed Nagar, Near, Kamla Rai College Rd",
            "city": "Gopalganj",
            "postal_code": "841428",
            "state": "Bihar",
            "country_code": "IN"
        },
        "images": [
            {
                "about": "All",
                "link": "https://lh5.googleusercontent.com/p/AF1QipPaYZ0JgSh4r2pqOU4Bjw7LZBeJZYh7uLny9Vi7=w596-h298-k-no"
            },
            {
                "about": "By owner",
                "link": "https://lh5.googleusercontent.com/p/AF1QipMhEnjfTEg1ql3cA2J0S04B9iCs8DzC8CZtmDxV=w596-h298-k-no"
            }
        ],
        "link": "https://www.google.com/maps/place/Masjid+Darut+Tauheed/data=!4m7!3m6!1s0x39931ad7ad0b0ab9:0xa4ea691822d2f90f!8m2!3d26.4558123!4d84.4461287!16s%2Fg%2F11gbkxlvfz!19sChIJuQoLrdcakzkRD_nSIhhp6qQ?authuser=0&hl=en&rclk=1",
        "coordinates": {
            "latitude": 26.455812299999998,
            "longitude": 84.4461287
        }
    },
    {
        "name": "Sukulwa kala Masjid",
        "main_category": "Mosque",
        "address": "Sukulwa kala Masjid, Sukulwa kala, Gopalganj, Sukulwa Kalan, Bihar 841428",
        "detailed_address": {
            "ward": null,
            "street": "Sukulwa kala",
            "city": "Gopalganj, Sukulwa Kalan",
            "postal_code": "841428",
            "state": "Bihar",
            "country_code": "IN"
        },
        "images": [
            {
                "about": "All",
                "link": "https://lh5.googleusercontent.com/p/AF1QipO_HYREC5nuA-wE-EX2xqm7cCMmttfdXJkGveuw=w512-h298-k-no"
            },
            {
                "about": "By owner",
                "link": "https://lh5.googleusercontent.com/p/AF1QipPpWWYEdVJf_IhAZFhTwsPEUQRGZ0KR0hqV9fiU=w224-h298-k-no"
            }
        ],
        "link": "https://www.google.com/maps/place/Sukulwa+kala+Masjid/data=!4m7!3m6!1s0x399305a1e470e9d1:0x8ed0e691a52a1cef!8m2!3d26.4743565!4d84.3918224!16s%2Fg%2F11f08wy8hp!19sChIJ0elw5KEFkzkR7xwqpZHm0I4?authuser=0&hl=en&rclk=1",
        "coordinates": {
            "latitude": 26.4743565,
            "longitude": 84.3918224
        }
    },
    {
        "name": "Madina Masjid Dargah",
        "main_category": "Mosque",
        "address": "FC5R+3Q5 Madina Masjid Dargah, Gopalganj, Bihar 841428",
        "detailed_address": {
            "ward": null,
            "street": "FC5R+3Q5",
            "city": "Gopalganj",
            "postal_code": "841428",
            "state": "Bihar",
            "country_code": "IN"
        },
        "images": [
            {
                "about": "All",
                "link": "https://lh5.googleusercontent.com/p/AF1QipO_H5a5Po5tUZjqIO_Q5QVpzMuO1L2pq6zwaqut=w397-h298-k-no"
            },
            {
                "about": "Dome",
                "link": "https://lh5.googleusercontent.com/p/AF1QipNZX64IGXaEl9MF9F8nOAt1CRgAwHMy2dgQrRLQ=w298-h298-k-no"
            },
            {
                "about": "Videos",
                "link": "https://lh5.googleusercontent.com/p/AF1QipOm3L-ulojJSVOpXWX_yLdXrde-R8DH58CQ_epM=w224-h398-k-no"
            },
            {
                "about": "Street View & 360deg",
                "link": "https://streetviewpixels-pa.googleapis.com/v1/thumbnail?panoid=aDSh_zlkkkc2aJxE4fQjXw&cb_client=maps_sv.tactile.gps&w=224&h=298&yaw=226.07054&pitch=0&thumbfov=100"
            }
        ],
        "link": "https://www.google.com/maps/place/Madina+Masjid+Dargah/data=!4m7!3m6!1s0x39931ad46a68df0f:0x29228a3da10495c3!8m2!3d26.457631!4d84.4419814!16s%2Fg%2F11cm1424rr!19sChIJD99oatQakzkRw5UEoT2KIik?authuser=0&hl=en&rclk=1",
        "coordinates": {
            "latitude": 26.457631,
            "longitude": 84.4419814
        }
    },
    {
        "name": "Hajiyapur Masjid",
        "main_category": "Mosque",
        "address": "FF83+R8Q Hajiyapur Masjid, Hajiyapur, Gopalganj, Bihar 841428",
        "detailed_address": {
            "ward": "Hajiyapur",
            "street": "FF83+R8Q",
            "city": "Gopalganj",
            "postal_code": "841428",
            "state": "Bihar",
            "country_code": "IN"
        },
        "images": [
            {
                "about": "All",
                "link": "//lh3.googleusercontent.com/yvTLdcQrHb3g04SZut2hsicDh06wvBvAchW1v6UwUG3C1uYeXBS_Yzf_oPqozRw=w529-h298-k-no"
            }
        ],
        "link": "https://www.google.com/maps/place/Hajiyapur+Masjid/data=!4m7!3m6!1s0x39931ac49760538f:0xb9c08766cff1afe5!8m2!3d26.4670875!4d84.4533563!16s%2Fg%2F11ggs8lm89!19sChIJj1Ngl8QakzkR5a_xz2aHwLk?authuser=0&hl=en&rclk=1",
        "coordinates": {
            "latitude": 26.467087499999998,
            "longitude": 84.4533563
        }
    },
    {
        "name": "Markaz Jama Masjid",
        "main_category": "Mosque",
        "address": "FC7Q+9RP Markaz Jama Masjid, Ward No. 15, Gopalganj, Bihar 841428",
        "detailed_address": {
            "ward": "Ward No. 15",
            "street": "FC7Q+9RP",
            "city": "Gopalganj",
            "postal_code": "841428",
            "state": "Bihar",
            "country_code": "IN"
        },
        "images": [
            {
                "about": "All",
                "link": "https://lh5.googleusercontent.com/p/AF1QipMm5Ncp7M3yqsHCLL9OosjFMSkTSQGOEtbwZ-0T=w224-h298-k-no"
            },
            {
                "about": "Street View & 360deg",
                "link": "https://streetviewpixels-pa.googleapis.com/v1/thumbnail?panoid=VkVco4oRjzYAp_JOGQOctw&cb_client=maps_sv.tactile.gps&w=224&h=298&yaw=288.67337&pitch=0&thumbfov=100"
            }
        ],
        "link": "https://www.google.com/maps/place/Markaz+Jama+Masjid/data=!4m7!3m6!1s0x39931ad295613835:0x5a4eb701b9bd9aa7!8m2!3d26.4634595!4d84.4395871!16s%2Fg%2F11cjgfb7gk!19sChIJNThhldIakzkRp5q9uQG3Tlo?authuser=0&hl=en&rclk=1",
        "coordinates": {
            "latitude": 26.4634595,
            "longitude": 84.4395871
        }
    },
    {
        "name": "Eidgaah Bhitbherwan 7",
        "main_category": "Mosque",
        "address": "FCJQ+QV7 Eidgaah Bhitbherwan 7, Shambhu Path, Ward 7, Gopalganj, Bihar 841428",
        "detailed_address": {
            "ward": "Ward 7",
            "street": "FCJQ+QV7, Shambhu Path",
            "city": "Gopalganj",
            "postal_code": "841428",
            "state": "Bihar",
            "country_code": "IN"
        },
        "images": [
            {
                "about": "All",
                "link": "https://lh5.googleusercontent.com/p/AF1QipMJ0lxku8YxkeeuWdSxcfmjiWC7qwkjYxIr56UL=w224-h298-k-no"
            },
            {
                "about": "Dome",
                "link": "https://lh5.googleusercontent.com/p/AF1QipO5lSCLCk3vDdzIa_cWF4cwF5OydHKtqLowNnb5=w224-h398-k-no"
            }
        ],
        "link": "https://www.google.com/maps/place/Eidgaah+Bhitbherwan+7/data=!4m7!3m6!1s0x39931ab4985f8c21:0x2f2a8f91e1f30d86!8m2!3d26.4819107!4d84.4396731!16s%2Fg%2F11b70112gh!19sChIJIYxfmLQakzkRhg3z4ZGPKi8?authuser=0&hl=en&rclk=1",
        "coordinates": {
            "latitude": 26.4819107,
            "longitude": 84.4396731
        }
    },
    {
        "name": "Nuri Masjid",
        "main_category": "Mosque",
        "address": "FC89+RQC Nuri Masjid, Fathan, Bihar 841428",
        "detailed_address": {
            "ward": null,
            "street": "FC89+RQC",
            "city": "Fathan",
            "postal_code": "841428",
            "state": "Bihar",
            "country_code": "IN"
        },
        "images": [
            {
                "about": "All",
                "link": "https://lh5.googleusercontent.com/p/AF1QipNOPuDnHMTY9p0Df7WHU-Jchwr65Rp8AlIyqxBa=w224-h298-k-no"
            },
            {
                "about": "Street View & 360deg",
                "link": "https://streetviewpixels-pa.googleapis.com/v1/thumbnail?panoid=KyM4o5WLNZSFr2h7o8kXHQ&cb_client=maps_sv.tactile.gps&w=224&h=298&yaw=43.322784&pitch=0&thumbfov=100"
            }
        ],
        "link": "https://www.google.com/maps/place/Nuri+Masjid/data=!4m7!3m6!1s0x3993053da9b569bf:0xf387c6af6b44b5e4!8m2!3d26.467069!4d84.4194058!16s%2Fg%2F11c60dlsp1!19sChIJv2m1qT0FkzkR5LVEa6_Gh_M?authuser=0&hl=en&rclk=1",
        "coordinates": {
            "latitude": 26.467069,
            "longitude": 84.41940579999999
        }
    },
    {
        "name": "Masjid Hafsah Bint Umar",
        "main_category": "Mosque",
        "address": "FC5M+7J4 Masjid Hafsah Bint Umar, Gopalganj, Bihar 841428",
        "detailed_address": {
            "ward": null,
            "street": "FC5M+7J4",
            "city": "Gopalganj",
            "postal_code": "841428",
            "state": "Bihar",
            "country_code": "IN"
        },
        "images": [
            {
                "about": "All",
                "link": "https://lh5.googleusercontent.com/p/AF1QipMkmL1TXPsi4MpDkZxEehmOcdidDevfygx0DNZE=w529-h298-k-no"
            }
        ],
        "link": "https://www.google.com/maps/place/Masjid+Hafsah+Bint+Umar/data=!4m7!3m6!1s0x3993052bf1879a8d:0xdf3433b5a4e3ecb4!8m2!3d26.4581469!4d84.4340762!16s%2Fg%2F11fzb21fsx!19sChIJjZqH8SsFkzkRtOzjpLUzNN8?authuser=0&hl=en&rclk=1",
        "coordinates": {
            "latitude": 26.4581469,
            "longitude": 84.43407619999999
        }
    },
    {
        "name": "Sadullahpur Masjid",
        "main_category": "Mosque",
        "address": "FFP2+293 Sadullahpur Masjid, Mathia, Bihar 841428",
        "detailed_address": {
            "ward": null,
            "street": "FFP2+293",
            "city": "Mathia",
            "postal_code": "841428",
            "state": "Bihar",
            "country_code": "IN"
        },
        "images": [
            {
                "about": "All",
                "link": "https://lh5.googleusercontent.com/p/AF1QipMrKFRD2K0S0sDByQlLSfty3ABC5GYrMSTaFQ3O=w224-h298-k-no"
            },
            {
                "about": "Dome",
                "link": "https://lh5.googleusercontent.com/p/AF1QipMI1nSr8EYE7bYg5EKku-m_a9clenEIVQGK1AX3=w529-h298-k-no"
            },
            {
                "about": "Videos",
                "link": "https://lh5.googleusercontent.com/p/AF1QipP2W2f8YL6U4oDRehrr52jtlqCC2LBVjMIgjX3K=w224-h398-k-no"
            },
            {
                "about": "Street View & 360deg",
                "link": "https://streetviewpixels-pa.googleapis.com/v1/thumbnail?panoid=yRkuybYuW52NSxUMhA_Djg&cb_client=maps_sv.tactile.gps&w=224&h=298&yaw=345.10202&pitch=0&thumbfov=100"
            }
        ],
        "link": "https://www.google.com/maps/place/Sadullahpur+Masjid/data=!4m7!3m6!1s0x39931aba4fc8fc25:0x59d0ffd96bd8a83b!8m2!3d26.4850192!4d84.4509101!16s%2Fg%2F11c55rtkbn!19sChIJJfzIT7oakzkRO6jYa9n_0Fk?authuser=0&hl=en&rclk=1",
        "coordinates": {
            "latitude": 26.4850192,
            "longitude": 84.4509101
        }
    },
    {
        "name": "Badi Masjid",
        "main_category": "Mosque",
        "address": "Badi Masjid, Bari Masjid, Fathan, Bihar 841428",
        "detailed_address": {
            "ward": null,
            "street": "Bari Masjid",
            "city": "Fathan",
            "postal_code": "841428",
            "state": "Bihar",
            "country_code": "IN"
        },
        "images": [
            {
                "about": "All",
                "link": "https://lh5.googleusercontent.com/p/AF1QipNQxEKB20lZP6PnKX3rWt6RgfJ9H7ZvoaDjWIqg=w397-h298-k-no"
            },
            {
                "about": "Videos",
                "link": "https://lh5.googleusercontent.com/p/AF1QipPkZeHZHDHAd1USA6IH-KjCQnMAadYOO7_e7gcM=w224-h398-k-no"
            }
        ],
        "link": "https://www.google.com/maps/place/Badi+Masjid/data=!4m7!3m6!1s0x3993053d395b4451:0xbff60d0d2622619b!8m2!3d26.4650088!4d84.4187998!16s%2Fg%2F11h0v9xqs!19sChIJUURbOT0FkzkRm2EiJg0N9r8?authuser=0&hl=en&rclk=1",
        "coordinates": {
            "latitude": 26.4650088,
            "longitude": 84.4187998
        }
    },
    {
        "name": "Chhapiya Babri Masjid",
        "main_category": "Mosque",
        "address": "ward no.24, Chhapiya Babri Masjid, ward no.24, Chhapiya, Harkhua, Bihar 841427",
        "detailed_address": {
            "ward": "Chhapiya",
            "street": "ward no.24, ward no.24",
            "city": "Harkhua",
            "postal_code": null,
            "state": "Bihar",
            "country_code": "IN"
        },
        "images": [
            {
                "about": "All",
                "link": "https://lh5.googleusercontent.com/p/AF1QipNdRFMTX-QdgkMSPW9sqHeT4A3riiwgNIbzDNzE=w397-h298-k-no"
            }
        ],
        "link": "https://www.google.com/maps/place/Chhapiya+Babri+Masjid/data=!4m7!3m6!1s0x39931b299db423a3:0xfec794a5ccb50762!8m2!3d26.4504649!4d84.4444102!16s%2Fg%2F11f4_35646!19sChIJoyO0nSkbkzkRYge1zKWUx_4?authuser=0&hl=en&rclk=1",
        "coordinates": {
            "latitude": 26.4504649,
            "longitude": 84.4444102
        }
    },
    {
        "name": "Shahbajwan Masjid",
        "main_category": "Mosque",
        "address": "FC58+332 Shahbajwan Masjid, Shahbajwan, Bihar 841428",
        "detailed_address": {
            "ward": null,
            "street": "FC58+332",
            "city": "Shahbajwan",
            "postal_code": "841428",
            "state": "Bihar",
            "country_code": "IN"
        },
        "images": [
            {
                "about": "All",
                "link": "https://lh5.googleusercontent.com/p/AF1QipMId_x3EqZKG6fB2B0KmcScYFlUA4PDSCqwuKjU=w224-h398-k-no"
            }
        ],
        "link": "https://www.google.com/maps/place/Shahbajwan+Masjid/data=!4m7!3m6!1s0x3993051f2df60f45:0x6409f95d19e41052!8m2!3d26.4576279!4d84.4151435!16s%2Fg%2F11cmsfbzjs!19sChIJRQ_2LR8FkzkRUhDkGV35CWQ?authuser=0&hl=en&rclk=1",
        "coordinates": {
            "latitude": 26.4576279,
            "longitude": 84.4151435
        }
    },
    {
        "name": "Domahata Chhoti Masjid",
        "main_category": "Mosque",
        "address": "FF6F+VV6 Domahata Chhoti Masjid, Domahata, Bihar 841428",
        "detailed_address": {
            "ward": null,
            "street": "FF6F+VV6",
            "city": "Domahata",
            "postal_code": "841428",
            "state": "Bihar",
            "country_code": "IN"
        },
        "images": [
            {
                "about": "All",
                "link": "https://lh5.googleusercontent.com/p/AF1QipNz4HY4RoHuVR-er5Vn6ACH9wz2kqTlkaNa7WUJ=w397-h298-k-no"
            }
        ],
        "link": "https://www.google.com/maps/place/Domahata+Chhoti+Masjid/data=!4m7!3m6!1s0x39931afbdbfaa97f:0x34006a9a5f76de9b!8m2!3d26.4621668!4d84.474655!16s%2Fg%2F1hhhd_5rm!19sChIJf6n62_sakzkRm952X5pqADQ?authuser=0&hl=en&rclk=1",
        "coordinates": {
            "latitude": 26.4621668,
            "longitude": 84.474655
        }
    },
    {
        "name": "Banjari Masjid",
        "main_category": "Mosque",
        "address": "FCGF+WGJ Banjari Masjid, Banjari, Bihar 841428",
        "detailed_address": {
            "ward": null,
            "street": "FCGF+WGJ",
            "city": "Banjari",
            "postal_code": "841428",
            "state": "Bihar",
            "country_code": "IN"
        },
        "images": [
            {
                "about": "All",
                "link": "https://lh5.googleusercontent.com/p/AF1QipOs_iKVQvs3ItkTAdI2WD8SHpenmwUL8ndUSBTE=w224-h298-k-no"
            },
            {
                "about": "Street View & 360deg",
                "link": "https://streetviewpixels-pa.googleapis.com/v1/thumbnail?panoid=ueeD8el5WS2JU7yY3pbJiA&cb_client=maps_sv.tactile.gps&w=224&h=298&yaw=214.82016&pitch=0&thumbfov=100"
            }
        ],
        "link": "https://www.google.com/maps/place/Banjari+Masjid/data=!4m7!3m6!1s0x39930547403ef0e3:0x8625757c6f7932ec!8m2!3d26.477329!4d84.423763!16s%2Fg%2F11d_ypshvw!19sChIJ4_A-QEcFkzkR7DJ5b3x1JYY?authuser=0&hl=en&rclk=1",
        "coordinates": {
            "latitude": 26.477328999999997,
            "longitude": 84.423763
        }
    },
    {
        "name": "Noori Masjid",
        "main_category": "Mosque",
        "address": "FC8F+462 Noori Masjid, Takiya bankat,gopalganj,bihar, Fatahan Rd, Gopalganj, Bihar 841428",
        "detailed_address": {
            "ward": null,
            "street": "FC8F+462, Takiya bankat,gopalganj,bihar, Fatahan Rd",
            "city": "Gopalganj, Takia Yakub",
            "postal_code": "841428",
            "state": "Bihar",
            "country_code": "IN"
        },
        "images": [],
        "link": "https://www.google.com/maps/place/Noori+Masjid/data=!4m7!3m6!1s0x3993053b5c8cd919:0xe431d2f6d230f299!8m2!3d26.4652729!4d84.4230207!16s%2Fg%2F11c1wr9x2x!19sChIJGdmMXDsFkzkRmfIw0vbSMeQ?authuser=0&hl=en&rclk=1",
        "coordinates": {
            "latitude": 26.4652729,
            "longitude": 84.4230207
        }
    },
    {
        "name": "Rahimbaksh Masjid",
        "main_category": "Mosque",
        "address": "CF9M+QM7 Rahimbaksh Masjid, Dhankhar, manjhagarh, Gopalganj, Bihar 841427",
        "detailed_address": {
            "ward": null,
            "street": "CF9M+QM7 Dhankhar, manjhagarh",
            "city": "Gopalganj",
            "postal_code": "841427",
            "state": "Bihar",
            "country_code": "IN"
        },
        "images": [
            {
                "about": "All",
                "link": "https://lh5.googleusercontent.com/p/AF1QipMiLE7J8X43GvK-osN61w38znnivg7b1WJaUU-6=w397-h298-k-no"
            }
        ],
        "link": "https://www.google.com/maps/place/Rahimbaksh+Masjid/data=!4m7!3m6!1s0x39931b834abd1ff1:0x235e0209100a60f6!8m2!3d26.4194018!4d84.4841639!16s%2Fg%2F11c60tqqdt!19sChIJ8R-9SoMbkzkR9mAKEAkCXiM?authuser=0&hl=en&rclk=1",
        "coordinates": {
            "latitude": 26.4194018,
            "longitude": 84.4841639
        }
    },
    {
        "name": "MASJID- E- M.M.H School",
        "main_category": "Mosque",
        "address": "FC3C+M97 MASJID- E- M.M.H School, Gopalganj, Bihar 841440",
        "detailed_address": {
            "ward": null,
            "street": "FC3C+M97",
            "city": "Gopalganj",
            "postal_code": "841440",
            "state": "Bihar",
            "country_code": "IN"
        },
        "images": [
            {
                "about": "All",
                "link": "https://streetviewpixels-pa.googleapis.com/v1/thumbnail?panoid=pruzH0pVZkx7BGF0mYu7QA&cb_client=maps_sv.tactile.gps&w=224&h=298&yaw=5.6375566&pitch=0&thumbfov=100"
            },
            {
                "about": "Street View & 360deg",
                "link": "https://streetviewpixels-pa.googleapis.com/v1/thumbnail?panoid=pruzH0pVZkx7BGF0mYu7QA&cb_client=maps_sv.tactile.gps&w=224&h=298&yaw=5.6375566&pitch=0&thumbfov=100"
            },
            {
                "about": "Videos",
                "link": "https://lh5.googleusercontent.com/p/AF1QipM1OVIntiSk8QeXpTuyJDXj2cAby1JQ6mOgLq3o=w298-h298-k-no"
            }
        ],
        "link": "https://www.google.com/maps/place/MASJID-+E-+M.M.H+School/data=!4m7!3m6!1s0x39930520ea2f0a05:0xea2c613a289914dd!8m2!3d26.4541501!4d84.4209265!16s%2Fg%2F11c6chvrp8!19sChIJBQov6iAFkzkR3RSZKDphLOo?authuser=0&hl=en&rclk=1",
        "coordinates": {
            "latitude": 26.4541501,
            "longitude": 84.4209265
        }
    },
    {
        "name": "Jama Masjid Rampur madho",
        "main_category": "Mosque",
        "address": "G9VM+5VC Jama Masjid Rampur madho, Gopalganj, Bihar 841505",
        "detailed_address": {
            "ward": null,
            "street": "G9VM+5VC",
            "city": "Gopalganj",
            "postal_code": "841505",
            "state": "Bihar",
            "country_code": "IN"
        },
        "images": [
            {
                "about": "All",
                "link": "https://lh5.googleusercontent.com/p/AF1QipO6oRZwrUqAxV_CYpaJPekt1uC2PR6qbUhB09vO=w397-h298-k-no"
            },
            {
                "about": "Videos",
                "link": "https://lh5.googleusercontent.com/p/AF1QipPO4L-os64FIxNYcUEwwWHeBaf0VLI_cNxo46gG=w529-h298-k-no"
            }
        ],
        "link": "https://www.google.com/maps/place/Jama+Masjid+Rampur+madho/data=!4m7!3m6!1s0x39930f1d3cf0f3ef:0xbae6b7da77cb93d2!8m2!3d26.5429355!4d84.3846419!16s%2Fg%2F11f15cv76d!19sChIJ7_PwPB0PkzkR0pPLd9q35ro?authuser=0&hl=en&rclk=1",
        "coordinates": {
            "latitude": 26.5429355,
            "longitude": 84.38464189999999
        }
    },
    {
        "name": "Miralipur Badi Eidgah",
        "main_category": "Mosque",
        "address": "CCXX+VW4 Miralipur Badi Eidgah, Gopalganj, Bihar 841427",
        "detailed_address": {
            "ward": null,
            "street": "CCXX+VW4",
            "city": "Gopalganj",
            "postal_code": null,
            "state": "Bihar",
            "country_code": "IN"
        },
        "images": [
            {
                "about": "All",
                "link": "https://lh5.googleusercontent.com/p/AF1QipPQavaSJ9t4CWsdFU7h6vtndBAE4Z4XEkxX-u27=w529-h298-k-no"
            }
        ],
        "link": "https://www.google.com/maps/place/Miralipur+Badi+Eidgah/data=!4m7!3m6!1s0x39931bb28b917eb9:0xa0043ffa90082fdc!8m2!3d26.4496418!4d84.4498162!16s%2Fg%2F11hyq374kb!19sChIJuX6Ri7IbkzkR3C8IkPo_BKA?authuser=0&hl=en&rclk=1",
        "coordinates": {
            "latitude": 26.4496418,
            "longitude": 84.4498162
        }
    },
    {
        "name": "Purani Masjid",
        "main_category": "Mosque",
        "address": "Purani Masjid, mauje tirbirwan 841428, Gopalganj, Bihar",
        "detailed_address": {
            "ward": null,
            "street": "mauje tirbirwan 841428",
            "city": "Gopalganj, Tirbirwa",
            "postal_code": null,
            "state": "Bihar",
            "country_code": "IN"
        },
        "images": [
            {
                "about": "All",
                "link": "https://lh5.googleusercontent.com/p/AF1QipNzF-N6s2OmS4QuXoneOrdl0ZugHPlUQrd2DGk8=w224-h298-k-no"
            }
        ],
        "link": "https://www.google.com/maps/place/Purani+Masjid/data=!4m7!3m6!1s0x39931aa88915bdc3:0xe56354cc2169723a!8m2!3d26.4972143!4d84.4478837!16s%2Fg%2F11fy5f3cjw!19sChIJw70ViagakzkROnJpIcxUY-U?authuser=0&hl=en&rclk=1",
        "coordinates": {
            "latitude": 26.4972143,
            "longitude": 84.44788369999999
        }
    },
    {
        "name": "Aawesi Jama Masjid",
        "main_category": "Mosque",
        "address": "FCP5+7M3 Aawesi Jama Masjid, Basdila, Nawka Tola, Basdila Khas, Bihar",
        "detailed_address": {
            "ward": "Nawka Tola",
            "street": "FCP5+7M3, Basdila",
            "city": "Basdila Khas",
            "postal_code": null,
            "state": "Bihar",
            "country_code": "IN"
        },
        "images": [
            {
                "about": "All",
                "link": "https://streetviewpixels-pa.googleapis.com/v1/thumbnail?panoid=i2SoAIFakBb7JkifceDCOw&cb_client=maps_sv.tactile.gps&w=224&h=298&yaw=24.611008&pitch=0&thumbfov=100"
            },
            {
                "about": "Street View & 360deg",
                "link": "https://streetviewpixels-pa.googleapis.com/v1/thumbnail?panoid=i2SoAIFakBb7JkifceDCOw&cb_client=maps_sv.tactile.gps&w=224&h=298&yaw=24.611008&pitch=0&thumbfov=100"
            }
        ],
        "link": "https://www.google.com/maps/place/Aawesi+Jama+Masjid/data=!4m7!3m6!1s0x39930587d2686643:0x86b1464a4d45482d!8m2!3d26.4856359!4d84.4091799!16s%2Fg%2F11gjhn77c3!19sChIJQ2Zo0ocFkzkRLUhFTUpGsYY?authuser=0&hl=en&rclk=1",
        "coordinates": {
            "latitude": 26.4856359,
            "longitude": 84.4091799
        }
    },
    {
        "name": "Sareyan Mission Masjid",
        "main_category": "Mosque",
        "address": "Sareyan Mission Masjid, Sareya Mission ward no. 2, Bihar 841428",
        "detailed_address": {
            "ward": null,
            "street": "Sareya Mission ward no. 2",
            "city": null,
            "postal_code": "841428",
            "state": "Bihar",
            "country_code": "IN"
        },
        "images": [],
        "link": "https://www.google.com/maps/place/Sareyan+Mission+Masjid/data=!4m7!3m6!1s0x39931ab3e530e985:0xff9d5869b441627c!8m2!3d26.4833945!4d84.443014!16s%2Fg%2F11gd1vy27x!19sChIJhekw5bMakzkRfGJBtGlYnf8?authuser=0&hl=en&rclk=1",
        "coordinates": {
            "latitude": 26.4833945,
            "longitude": 84.44301399999999
        }
    },
    {
        "name": "HEDAIT MASJID",
        "main_category": "Mosque",
        "address": "FC8F+8XW HEDAIT MASJID, Takia Bankat, Takia Yakub, Bihar 841428",
        "detailed_address": {
            "ward": null,
            "street": "FC8F+8XW",
            "city": "Takia Bankat, Takia Yakub",
            "postal_code": "841428",
            "state": "Bihar",
            "country_code": "IN"
        },
        "images": [
            {
                "about": "All",
                "link": "https://lh5.googleusercontent.com/p/AF1QipMtKESYhZ0vG46_1FcCjUP4_HHNsEC_Waw8gvjf=w224-h398-k-no"
            },
            {
                "about": "Street View & 360deg",
                "link": "https://streetviewpixels-pa.googleapis.com/v1/thumbnail?panoid=sII3yMUY2v2PHRNhXQuoJw&cb_client=maps_sv.tactile.gps&w=224&h=298&yaw=281.31537&pitch=0&thumbfov=100"
            },
            {
                "about": "Videos",
                "link": "https://lh5.googleusercontent.com/p/AF1QipPn0mwQTuj54astNkInvxczDYvKU_TAz9DlHCxu=w224-h398-k-no"
            }
        ],
        "link": "https://www.google.com/maps/place/HEDAIT+MASJID/data=!4m7!3m6!1s0x3993053b1fab753b:0xcaad9215611b74a7!8m2!3d26.4658627!4d84.4249657!16s%2Fg%2F11c6tllbbm!19sChIJO3WrHzsFkzkRp3QbYRWSrco?authuser=0&hl=en&rclk=1",
        "coordinates": {
            "latitude": 26.4658627,
            "longitude": 84.4249657
        }
    },
    {
        "name": "New jama masjid ujranarayanpur",
        "main_category": "Mosque",
        "address": "C82X+9RP New jama masjid ujranarayanpur, Gopalganj, Bihar 841440",
        "detailed_address": {
            "ward": null,
            "street": "C82X+9RP",
            "city": "Gopalganj",
            "postal_code": null,
            "state": "Bihar",
            "country_code": "IN"
        },
        "images": [
            {
                "about": "All",
                "link": "https://lh5.googleusercontent.com/p/AF1QipOL67jemFPSdq6RjnJjLZk7yv2h4kdw1wWdzfHx=w224-h298-k-no"
            }
        ],
        "link": "https://www.google.com/maps/place/New+jama+masjid+ujranarayanpur/data=!4m7!3m6!1s0x399301b7e99dcac1:0x932a8421fc7e0e15!8m2!3d26.4009703!4d84.3495727!16s%2Fg%2F11qnk7k8kf!19sChIJwcqd6bcBkzkRFQ5-_CGEKpM?authuser=0&hl=en&rclk=1",
        "coordinates": {
            "latitude": 26.400970299999997,
            "longitude": 84.3495727
        }
    },
    {
        "name": "Gaus nagar masjid",
        "main_category": "Mosque",
        "address": "FC2F+7R3 Gaus nagar masjid, Gopalganj, Bihar 841440",
        "detailed_address": {
            "ward": null,
            "street": "FC2F+7R3",
            "city": "Gopalganj",
            "postal_code": null,
            "state": "Bihar",
            "country_code": "IN"
        },
        "images": [
            {
                "about": "All",
                "link": "https://lh5.googleusercontent.com/p/AF1QipOxWxKm9cJL60XpMg0XtJg5RVNzyugqqWcQm7U9=w224-h298-k-no"
            }
        ],
        "link": "https://www.google.com/maps/place/Gaus+nagar+masjid/data=!4m7!3m6!1s0x399305f8cf19a2f5:0xa6332edff47c444d!8m2!3d26.4506282!4d84.4245575!16s%2Fg%2F11tn_2lf16!19sChIJ9aIZz_gFkzkRTUR89N8uM6Y?authuser=0&hl=en&rclk=1",
        "coordinates": {
            "latitude": 26.450628199999997,
            "longitude": 84.42455749999999
        }
    },
    {
        "name": "Badi Masjid",
        "main_category": "Place of worship",
        "address": "Badi Masjid, Masjid Road,Sareyan,Gopalganj,Bihar-841428",
        "detailed_address": {
            "ward": "Haziapur",
            "street": "Masjid Road,Sareyan,Gopalganj,Bihar-841428",
            "city": null,
            "postal_code": null,
            "state": "Bihar",
            "country_code": "IN"
        },
        "images": [
            {
                "about": "All",
                "link": "https://lh5.googleusercontent.com/p/AF1QipNpyAykqtthWfHtcP3S9v-Je0FoVvvoEDaXQJfe=w224-h397-k-no"
            }
        ],
        "link": "https://www.google.com/maps/place/Badi+Masjid/data=!4m7!3m6!1s0x39931ace69a6fc71:0x928ee93ad7793312!8m2!3d26.4669986!4d84.4446799!16s%2Fg%2F11b6rc1q2k!19sChIJcfymac4akzkREjN51zrpjpI?authuser=0&hl=en&rclk=1",
        "coordinates": {
            "latitude": 26.4669986,
            "longitude": 84.4446799
        }
    },
    {
        "name": "Gausia Masjid Amaithi Khurd",
        "main_category": "Mosque",
        "address": "CCJV+CQ5 Gausia Masjid Amaithi Khurd, Maharajganj - Barharia - Gopalganj Rd, Kavilashpur, Bihar 841440",
        "detailed_address": {
            "ward": null,
            "street": "CCJV+CQ5, Maharajganj - Barharia - Gopalganj Rd",
            "city": "Kavilashpur",
            "postal_code": "841440",
            "state": "Bihar",
            "country_code": "IN"
        },
        "images": [
            {
                "about": "All",
                "link": "https://lh5.googleusercontent.com/p/AF1QipM9bDyyikXhZvtFczv7GoLZDdwvmDca9A6moqQ2=w397-h298-k-no"
            },
            {
                "about": "Videos",
                "link": "https://lh5.googleusercontent.com/p/AF1QipMqJj_Q7-OuPfEQ8u8dqTHiwvBaesTCDwmbWjQn=w224-h398-k-no"
            }
        ],
        "link": "https://www.google.com/maps/place/Gausia+Masjid+Amaithi+Khurd/data=!4m7!3m6!1s0x39931bd3f92df35d:0x230f76e615e7445f!8m2!3d26.4310083!4d84.4444858!16s%2Fg%2F11h4nblg90!19sChIJXfMt-dMbkzkRX0TnFeZ2DyM?authuser=0&hl=en&rclk=1",
        "coordinates": {
            "latitude": 26.4310083,
            "longitude": 84.4444858
        }
    },
    {
        "name": "Turkahan Masjid",
        "main_category": "Mosque",
        "address": "FC4G+J9Q Turkahan Masjid, SH45, Gopalganj, Bihar 841428",
        "detailed_address": {
            "ward": null,
            "street": "FC4G+J9Q, SH45",
            "city": "Gopalganj",
            "postal_code": "841428",
            "state": "Bihar",
            "country_code": "IN"
        },
        "images": [
            {
                "about": "All",
                "link": "https://lh5.googleusercontent.com/p/AF1QipOc8RbcJQpepqrAREkjKdPFwmftprpGfk82avUh=w224-h298-k-no"
            }
        ],
        "link": "https://www.google.com/maps/place/Turkahan+Masjid/data=!4m7!3m6!1s0x399305591a0ad181:0x1e4f6389ee779a1!8m2!3d26.4565914!4d84.4259783!16s%2Fg%2F11mw5d9k37!19sChIJgdEKGlkFkzkRoXnnnjj25AE?authuser=0&hl=en&rclk=1",
        "coordinates": {
            "latitude": 26.456591399999997,
            "longitude": 84.4259783
        }
    },
    {
        "name": "Bhitbherwa masjid purab tola",
        "main_category": "Mosque",
        "address": "FCJQ+MQH Bhitbherwa masjid purab tola, Gopalganj, Bihar 841428",
        "detailed_address": {
            "ward": null,
            "street": "FCJQ+MQH",
            "city": "Gopalganj",
            "postal_code": null,
            "state": "Bihar",
            "country_code": "IN"
        },
        "images": [
            {
                "about": "All",
                "link": "https://lh5.googleusercontent.com/p/AF1QipNnIKkZZiM9MvJPrLkmCGcIriEnKirysByFSgJW=w224-h298-k-no"
            }
        ],
        "link": "https://www.google.com/maps/place/Bhitbherwa+masjid+purab+tola/data=!4m7!3m6!1s0x39931b50b72ea4a7:0x34e7a29e972d7e5a!8m2!3d26.4816952!4d84.4394739!16s%2Fg%2F11h12t4dmp!19sChIJp6Qut1AbkzkRWn4tl56i5zQ?authuser=0&hl=en&rclk=1",
        "coordinates": {
            "latitude": 26.481695199999997,
            "longitude": 84.4394739
        }
    },
    {
        "name": "Purani Masjid",
        "main_category": "Mosque",
        "address": "CFRF+7FV Purani Masjid, Chhawahi Takki, Gopalganj, Bihar 841427",
        "detailed_address": {
            "ward": null,
            "street": "CFRF+7FV, Chhawahi Takki",
            "city": "Gopalganj, Chhabahi Shikmi",
            "postal_code": "841427",
            "state": "Bihar",
            "country_code": "IN"
        },
        "images": [
            {
                "about": "All",
                "link": "https://lh5.googleusercontent.com/p/AF1QipMxPbAX0JByhoGn5_ivNeN_Efoo4PbP4RLJ-mUV=w397-h298-k-no"
            },
            {
                "about": "Dome",
                "link": "https://lh5.googleusercontent.com/p/AF1QipOoYqRn7hi6p9CFx__SDFZL19rK0gjwTrCTm81U=w224-h448-k-no"
            }
        ],
        "link": "https://www.google.com/maps/place/Purani+Masjid/data=!4m7!3m6!1s0x39931b9470b46a31:0x4d84bb5efd6dd135!8m2!3d26.4407323!4d84.473657!16s%2Fg%2F11flgg07q8!19sChIJMWq0cJQbkzkRNdFt_V67hE0?authuser=0&hl=en&rclk=1",
        "coordinates": {
            "latitude": 26.4407323,
            "longitude": 84.473657
        }
    },
    {
        "name": "Mosque",
        "main_category": "Mosque",
        "address": "FC4V+JWQ Mosque, Friends colony, Bhitbherwa, Gopalganj, Bihar 841428",
        "detailed_address": {
            "ward": "Friends colony, Bhitbherwa",
            "street": "FC4V+JWQ",
            "city": "Gopalganj",
            "postal_code": "841428",
            "state": "Bihar",
            "country_code": "IN"
        },
        "images": [
            {
                "about": "All",
                "link": "https://lh5.googleusercontent.com/p/AF1QipMRgRdmqSIZdM6e3gOPuerPJfbjoUu6VKsYQBk=w224-h497-k-no"
            },
            {
                "about": "Dome",
                "link": "https://lh5.googleusercontent.com/p/AF1QipMz48zsquy8t4nfDNyH18DTHMwavvIUdYkI70o3=w224-h298-k-no"
            },
            {
                "about": "Videos",
                "link": "https://lh5.googleusercontent.com/p/AF1QipMJ2TzDM_y0suIjhBSGdPq3PDBSmu-L7EWJBfc6=w529-h298-k-no"
            }
        ],
        "link": "https://www.google.com/maps/place/Mosque/data=!4m7!3m6!1s0x39931b042976ad55:0xab3f65a6d20cd98d!8m2!3d26.4565803!4d84.4448719!16s%2Fg%2F11frrgb8lf!19sChIJVa12KQQbkzkRjdkM0qZlP6s?authuser=0&hl=en&rclk=1",
        "coordinates": {
            "latitude": 26.4565803,
            "longitude": 84.4448719
        }
    },
    {
        "name": "Takiya Masjid",
        "main_category": "Mosque",
        "address": "FC7F+FMW Takiya Masjid, Gopalganj, Bihar 841428",
        "detailed_address": {
            "ward": null,
            "street": "FC7F+FMW",
            "city": "Gopalganj",
            "postal_code": "841428",
            "state": "Bihar",
            "country_code": "IN"
        },
        "images": [
            {
                "about": "All",
                "link": "https://lh5.googleusercontent.com/p/AF1QipMrCkL3nccc_P2mz7rVtsDTX3-lFV9ro8ZDnnyQ=w529-h298-k-no"
            },
            {
                "about": "Street View & 360deg",
                "link": "https://streetviewpixels-pa.googleapis.com/v1/thumbnail?panoid=2LVUtKCnwgPfcoFbaiboWQ&cb_client=maps_sv.tactile.gps&w=224&h=298&yaw=314.2812&pitch=0&thumbfov=100"
            },
            {
                "about": "Videos",
                "link": "https://lh5.googleusercontent.com/p/AF1QipPpJc9GnNK_t_Nh6JEz5iVf-yRInNRb6XtrPcm4=w224-h467-k-no"
            }
        ],
        "link": "https://www.google.com/maps/place/Takiya+Masjid/data=!4m7!3m6!1s0x399305541b98ce6d:0x64e76ce43552abc9!8m2!3d26.4637806!4d84.4250312!16s%2Fg%2F11qbc55c8b!19sChIJbc6YG1QFkzkRyatSNeRs52Q?authuser=0&hl=en&rclk=1",
        "coordinates": {
            "latitude": 26.4637806,
            "longitude": 84.42503119999999
        }
    },
    {
        "name": "Belal Masjid",
        "main_category": "Mosque",
        "address": "FF25+GQ8 Belal Masjid, Gaon, Arar, Gopalganj, Bahora Tola, Bihar 841427",
        "detailed_address": {
            "ward": "Arar",
            "street": "FF25+GQ8, Gaon",
            "city": "Gopalganj, Bahora Tola",
            "postal_code": "841427",
            "state": "Bihar",
            "country_code": "IN"
        },
        "images": [
            {
                "about": "All",
                "link": "https://lh5.googleusercontent.com/p/AF1QipNGUuV-09qJwun8Euw7wUDUbtzxhDcsjm8vL_mG=w397-h298-k-no"
            },
            {
                "about": "Street View & 360deg",
                "link": "https://streetviewpixels-pa.googleapis.com/v1/thumbnail?panoid=UyzcIUO5kD8CovbDQyT0lw&cb_client=maps_sv.tactile.gps&w=224&h=298&yaw=195.50818&pitch=0&thumbfov=100"
            }
        ],
        "link": "https://www.google.com/maps/place/Belal+Masjid/data=!4m7!3m6!1s0x39931be8ad33b5a7:0xff5e384869a08c31!8m2!3d26.4512862!4d84.4594611!16s%2Fg%2F11pkc8r3zs!19sChIJp7UzregbkzkRMYygaUg4Xv8?authuser=0&hl=en&rclk=1",
        "coordinates": {
            "latitude": 26.4512862,
            "longitude": 84.4594611
        }
    },
    {
        "name": "Noori Masjid, Bhitbherwan, Paschim Tola",
        "main_category": "Mosque",
        "address": "FCPH+FX5 Noori Masjid, Bhitbherwan, Paschim Tola, Gopalganj, Bihar 841428",
        "detailed_address": {
            "ward": null,
            "street": "FCPH+FX5",
            "city": "Gopalganj",
            "postal_code": null,
            "state": "Bihar",
            "country_code": "IN"
        },
        "images": [
            {
                "about": "All",
                "link": "https://streetviewpixels-pa.googleapis.com/v1/thumbnail?panoid=RB2z1sz2gbG16emHWiZ58Q&cb_client=maps_sv.tactile.gps&w=224&h=298&yaw=59.14777&pitch=0&thumbfov=100"
            },
            {
                "about": "Street View & 360deg",
                "link": "https://streetviewpixels-pa.googleapis.com/v1/thumbnail?panoid=RB2z1sz2gbG16emHWiZ58Q&cb_client=maps_sv.tactile.gps&w=224&h=298&yaw=59.14777&pitch=0&thumbfov=100"
            }
        ],
        "link": "https://www.google.com/maps/place/Noori+Masjid,+Bhitbherwan,+Paschim+Tola/data=!4m7!3m6!1s0x39930539ba653949:0x2df61021b94c8a88!8m2!3d26.4861423!4d84.429996!16s%2Fg%2F11nnpqs24g!19sChIJSTllujkFkzkRiIpMuSEQ9i0?authuser=0&hl=en&rclk=1",
        "coordinates": {
            "latitude": 26.486142299999997,
            "longitude": 84.429996
        }
    },
    {
        "name": "mtthiyaa , msjid",
        "main_category": "Mosque",
        "address": "mtthiyaa , msjid, ward3 ward3, Bihar 841428",
        "detailed_address": {
            "ward": null,
            "street": "ward3 ward3",
            "city": null,
            "postal_code": "841428",
            "state": "Bihar",
            "country_code": "IN"
        },
        "images": [
            {
                "about": "All",
                "link": "https://streetviewpixels-pa.googleapis.com/v1/thumbnail?panoid=LeKrwTio1SI3m_4-ZhoVZA&cb_client=maps_sv.tactile.gps&w=224&h=298&yaw=223.04886&pitch=0&thumbfov=100"
            },
            {
                "about": "Street View & 360deg",
                "link": "https://streetviewpixels-pa.googleapis.com/v1/thumbnail?panoid=LeKrwTio1SI3m_4-ZhoVZA&cb_client=maps_sv.tactile.gps&w=224&h=298&yaw=223.04886&pitch=0&thumbfov=100"
            }
        ],
        "link": "https://www.google.com/maps/place/%E0%A4%AE%E0%A4%A0%E0%A4%BF%E0%A4%AF%E0%A4%BE+,+%E0%A4%AE%E0%A4%B8%E0%A5%8D%E0%A4%9C%E0%A4%BF%E0%A4%A6/data=!4m7!3m6!1s0x39931b5c56f26919:0x95ffc088d7ae2256!8m2!3d26.476892!4d84.452036!16s%2Fg%2F11nm9r874y!19sChIJGWnyVlwbkzkRViKu14jA_5U?authuser=0&hl=en&rclk=1",
        "coordinates": {
            "latitude": 26.476892,
            "longitude": 84.45203599999999
        }
    },
    {
        "name": "Masjid",
        "main_category": "Mosque",
        "address": "9FJ6+4W6 Masjid, Gopalganj, Chhitauli, Bihar 841440",
        "detailed_address": {
            "ward": null,
            "street": "9FJ6+4W6",
            "city": "Gopalganj, Chhitauli",
            "postal_code": "841440",
            "state": "Bihar",
            "country_code": "IN"
        },
        "images": [
            {
                "about": "All",
                "link": "https://streetviewpixels-pa.googleapis.com/v1/thumbnail?panoid=8g9Y33IEJiLAcOOAo7vUVA&cb_client=maps_sv.tactile.gps&w=224&h=298&yaw=140.71161&pitch=0&thumbfov=100"
            },
            {
                "about": "Street View & 360deg",
                "link": "https://streetviewpixels-pa.googleapis.com/v1/thumbnail?panoid=8g9Y33IEJiLAcOOAo7vUVA&cb_client=maps_sv.tactile.gps&w=224&h=298&yaw=140.71161&pitch=0&thumbfov=100"
            }
        ],
        "link": "https://www.google.com/maps/place/Masjid/data=!4m7!3m6!1s0x39931dc3d2a6836d:0xa705045eb3812570!8m2!3d26.3802841!4d84.4622563!16s%2Fg%2F11kbpjg9vc!19sChIJbYOm0sMdkzkRcCWBs14EBac?authuser=0&hl=en&rclk=1",
        "coordinates": {
            "latitude": 26.380284099999997,
            "longitude": 84.46225629999999
        }
    },
    {
        "name": "Noori Masjid duldulia Gopalganj Bihar",
        "main_category": "Mosque",
        "address": "CFJJ+QV9 Noori Masjid duldulia Gopalganj Bihar, Jagnnatha, Duldulia, Bihar 841427",
        "detailed_address": {
            "ward": null,
            "street": "CFJJ+QV9",
            "city": "Jagnnatha, Duldulia",
            "postal_code": "841427",
            "state": "Bihar",
            "country_code": "IN"
        },
        "images": [],
        "link": "https://www.google.com/maps/place/Noori+Masjid+duldulia+Gopalganj+Bihar/data=!4m7!3m6!1s0x39931b37c0fd3bd7:0x1ec27c4b400c0a78!8m2!3d26.4319125!4d84.482228!16s%2Fg%2F11hkhcjbjw!19sChIJ1zv9wDcbkzkReAoMQEt8wh4?authuser=0&hl=en&rclk=1",
        "coordinates": {
            "latitude": 26.4319125,
            "longitude": 84.48222799999999
        }
    },
    {
        "name": "Ekderwa Eidgah Gopalganj",
        "main_category": "Mosque",
        "address": "Ekderwa Eidgah Gopalganj, Eidgah, Ekderwa, Bihar 841428",
        "detailed_address": {
            "ward": null,
            "street": "Eidgah",
            "city": "Ekderwa",
            "postal_code": "841428",
            "state": "Bihar",
            "country_code": "IN"
        },
        "images": [
            {
                "about": "All",
                "link": "https://lh5.googleusercontent.com/p/AF1QipMwd2CoJdRYjlcjcY49BzHH0z-g6PWMq32Rrr4c=w234-h298-k-no"
            },
            {
                "about": "By owner",
                "link": "https://lh5.googleusercontent.com/p/AF1QipMwd2CoJdRYjlcjcY49BzHH0z-g6PWMq32Rrr4c=w234-h298-k-no"
            },
            {
                "about": "Videos",
                "link": "https://lh5.googleusercontent.com/p/AF1QipOvZW3Lb5gYaD5E7eOGdJ1oG5kgq48ndZjT-VEx=w529-h298-k-no"
            },
            {
                "about": "Street View & 360deg",
                "link": "https://streetviewpixels-pa.googleapis.com/v1/thumbnail?panoid=v0wOxxKx9iU3KIBAY-QCTw&cb_client=maps_sv.tactile.gps&w=224&h=298&yaw=271.52374&pitch=0&thumbfov=100"
            }
        ],
        "link": "https://www.google.com/maps/place/Ekderwa+Eidgah+Gopalganj/data=!4m7!3m6!1s0x3993050daee962b5:0xd8275f93aae95bf8!8m2!3d26.4952736!4d84.41166!16s%2Fg%2F11fskcsmf0!19sChIJtWLprg0FkzkR-FvpqpNfJ9g?authuser=0&hl=en&rclk=1",
        "coordinates": {
            "latitude": 26.495273599999997,
            "longitude": 84.41166
        }
    },
    {
        "name": "GADDI TOLA MASJID",
        "main_category": "Mosque",
        "address": "GADDI TOLA MASJID, GaddiTola, Manjha Paschimi, Gopalganj, Bihar 841427",
        "detailed_address": {
            "ward": "GaddiTola",
            "street": null,
            "city": "Manjha Paschimi, Gopalganj",
            "postal_code": "841427",
            "state": "Bihar",
            "country_code": "IN"
        },
        "images": [
            {
                "about": "All",
                "link": "https://lh5.googleusercontent.com/p/AF1QipN9DNnF7oLhhwm3qeE-C1NdBcy0FBy0bGdv4IHe=w224-h298-k-no"
            }
        ],
        "link": "https://www.google.com/maps/place/GADDI+TOLA+MASJID/data=!4m7!3m6!1s0x39931d290bb7b54b:0x131f442f0fdf3a2a!8m2!3d26.3907929!4d84.4819661!16s%2Fg%2F11l2tjgyrb!19sChIJS7W3CykdkzkRKjrfDy9EHxM?authuser=0&hl=en&rclk=1",
        "coordinates": {
            "latitude": 26.390792899999997,
            "longitude": 84.4819661
        }
    },
    {
        "name": "Masjid near petrol pump gopalganj",
        "main_category": "Mosque",
        "address": "FC7Q+6JR Masjid near petrol pump gopalganj, Ward No. 15, Banakata, Gopalganj, Bihar 841428",
        "detailed_address": {
            "ward": "Ward No. 15, Banakata",
            "street": "FC7Q+6JR",
            "city": "Gopalganj",
            "postal_code": "841428",
            "state": "Bihar",
            "country_code": "IN"
        },
        "images": [],
        "link": "https://www.google.com/maps/place/Masjid+near+petrol+pump+gopalganj/data=!4m7!3m6!1s0x39931bf81e20ca71:0xb21fe036a7bbfd4e!8m2!3d26.463305!4d84.4389304!16s%2Fg%2F11kj0v8k70!19sChIJccogHvgbkzkRTv27pzbgH7I?authuser=0&hl=en&rclk=1",
        "coordinates": {
            "latitude": 26.463305,
            "longitude": 84.43893039999999
        }
    },
    {
        "name": "Masjid & library Jangalia",
        "main_category": "Mosque",
        "address": "FC6P+W5 Masjid & library Jangalia, Ward No. 15, Banakata, Gopalganj, Bihar 841428",
        "detailed_address": {
            "ward": "Ward No. 15, Banakata",
            "street": "FC6P+W5",
            "city": "Gopalganj",
            "postal_code": "841428",
            "state": "Bihar",
            "country_code": "IN"
        },
        "images": [],
        "link": "https://www.google.com/maps/place/Masjid+%26+library+Jangalia/data=!4m7!3m6!1s0x399305d0ecc35209:0x34a3ee63f9d444ed!8m2!3d26.4622394!4d84.4356263!16s%2Fg%2F11rnj2z0lc!19sChIJCVLD7NAFkzkR7UTU-WPuozQ?authuser=0&hl=en&rclk=1",
        "coordinates": {
            "latitude": 26.462239399999998,
            "longitude": 84.4356263
        }
    },
    {
        "name": "Mariyam masjid",
        "main_category": "Mosque",
        "address": "FCCR+WWX Mariyam masjid, Police Line, Gopalganj, Bihar 841428",
        "detailed_address": {
            "ward": "Police Line",
            "street": "FCCR+WWX",
            "city": "Gopalganj",
            "postal_code": "841428",
            "state": "Bihar",
            "country_code": "IN"
        },
        "images": [
            {
                "about": "All",
                "link": "https://lh5.googleusercontent.com/p/AF1QipMtL9Sz0XyHx4VGOkjSY99vWAjTbndmm3kkVzGe=w224-h398-k-no"
            },
            {
                "about": "Street View & 360deg",
                "link": "https://streetviewpixels-pa.googleapis.com/v1/thumbnail?panoid=khvJc1ufH9D0WMUhemZVkQ&cb_client=maps_sv.tactile.gps&w=224&h=298&yaw=233.95612&pitch=0&thumbfov=100"
            }
        ],
        "link": "https://www.google.com/maps/place/Mariyam+masjid/data=!4m7!3m6!1s0x39931b3644207bb3:0xc178e76e0004fb96!8m2!3d26.4723552!4d84.4423664!16s%2Fg%2F11p_2hcq91!19sChIJs3sgRDYbkzkRlvsEAG7neME?authuser=0&hl=en&rclk=1",
        "coordinates": {
            "latitude": 26.4723552,
            "longitude": 84.4423664
        }
    },
    {
        "name": "Eidgaah",
        "main_category": "Mosque",
        "address": "FC5R+2QV Eidgaah, Gopalganj, Bihar 841427",
        "detailed_address": {
            "ward": null,
            "street": "FC5R+2QV",
            "city": "Gopalganj",
            "postal_code": null,
            "state": "Bihar",
            "country_code": "IN"
        },
        "images": [
            {
                "about": "All",
                "link": "https://lh5.googleusercontent.com/p/AF1QipNjKiT5_j7UPspRmEomptO8yEDsiRWVbAYzfbJj=w397-h298-k-no"
            },
            {
                "about": "Street View & 360deg",
                "link": "https://streetviewpixels-pa.googleapis.com/v1/thumbnail?panoid=aDSh_zlkkkc2aJxE4fQjXw&cb_client=maps_sv.tactile.gps&w=224&h=298&yaw=234.7333&pitch=0&thumbfov=100"
            }
        ],
        "link": "https://www.google.com/maps/place/Eidgaah/data=!4m7!3m6!1s0x39931b37b2c5299f:0x67441e9bba2a3e59!8m2!3d26.4576114!4d84.441915!16s%2Fg%2F11nnry3jp8!19sChIJnynFsjcbkzkRWT4qupseRGc?authuser=0&hl=en&rclk=1",
        "coordinates": {
            "latitude": 26.457611399999998,
            "longitude": 84.441915
        }
    },
    {
        "name": "BHITBHERWA TAJ MASJID",
        "main_category": "Place of worship",
        "address": "FCMJ+4P9 BHITBHERWA TAJ MASJID, Gopalganj, Bihar 841428",
        "detailed_address": {
            "ward": null,
            "street": "FCMJ+4P9",
            "city": "Gopalganj",
            "postal_code": "841428",
            "state": "Bihar",
            "country_code": "IN"
        },
        "images": [
            {
                "about": "All",
                "link": "https://lh5.googleusercontent.com/p/AF1QipPif2dcsYGA3P6pUoiKvFEslgxEVtdtR3be5yB0=w224-h336-k-no"
            }
        ],
        "link": "https://www.google.com/maps/place/BHITBHERWA+TAJ+MASJID/data=!4m7!3m6!1s0x3993052a9d2bfe4d:0xe1670005a2f5ed85!8m2!3d26.4821453!4d84.4328492!16s%2Fg%2F11t3hrftbg!19sChIJTf4rnSoFkzkRhe31ogUAZ-E?authuser=0&hl=en&rclk=1",
        "coordinates": {
            "latitude": 26.4821453,
            "longitude": 84.43284919999999
        }
    },
    {
        "name": "JAMA MASJID jm` msjd, UJARA NARAYAN PUR",
        "main_category": "Mosque",
        "address": "C933+PM3 JAMA MASJID jm` msjd, UJARA NARAYAN PUR, Gopalganj, Bihar 841440",
        "detailed_address": {
            "ward": null,
            "street": "C933+PM3",
            "city": "Gopalganj",
            "postal_code": "841440",
            "state": "Bihar",
            "country_code": "IN"
        },
        "images": [],
        "link": "https://www.google.com/maps/place/JAMA+MASJID+%D8%AC%D8%A7%D9%85%D8%B9+%D9%85%D8%B3%D8%AC%D8%AF,+UJARA+NARAYAN+PUR%E2%80%AD/data=!4m7!3m6!1s0x399307a382981249:0x2e74685cc3a4f8a4!8m2!3d26.4042634!4d84.354171!16s%2Fg%2F11rnb20zml!19sChIJSRKYgqMHkzkRpPikw1xodC4?authuser=0&hl=en&rclk=1",
        "coordinates": {
            "latitude": 26.404263399999998,
            "longitude": 84.354171
        }
    },
    {
        "name": "Eidgaah Bhitbherwan ward 7,",
        "main_category": "Mosque",
        "address": "Eidgaah Bhitbherwan ward 7,, Bhitbherwan East Tola, Bhitbherwa, Gopalganj, Bihar 841428",
        "detailed_address": {
            "ward": "Bhitbherwa",
            "street": "Bhitbherwan East Tola",
            "city": "Gopalganj",
            "postal_code": "841428",
            "state": "Bihar",
            "country_code": "IN"
        },
        "images": [
            {
                "about": "All",
                "link": "https://streetviewpixels-pa.googleapis.com/v1/thumbnail?panoid=j0R4Xi87hewxrwFOXE4Btg&cb_client=maps_sv.tactile.gps&w=224&h=298&yaw=23.30112&pitch=0&thumbfov=100"
            },
            {
                "about": "Dome",
                "link": "https://lh5.googleusercontent.com/p/AF1QipMFBzzGtmp9XnN-9HzVUqjbV4EQTNWLrIRWHQYn=w655-h298-k-no"
            },
            {
                "about": "By owner",
                "link": "https://lh5.googleusercontent.com/p/AF1QipMFBzzGtmp9XnN-9HzVUqjbV4EQTNWLrIRWHQYn=w655-h298-k-no"
            },
            {
                "about": "Street View & 360deg",
                "link": "https://streetviewpixels-pa.googleapis.com/v1/thumbnail?panoid=j0R4Xi87hewxrwFOXE4Btg&cb_client=maps_sv.tactile.gps&w=224&h=298&yaw=23.30112&pitch=0&thumbfov=100"
            }
        ],
        "link": "https://www.google.com/maps/place/Eidgaah+Bhitbherwan+ward+7,/data=!4m7!3m6!1s0x39931b98ffe4d8b1:0xaf3dcccb4def563e!8m2!3d26.457803!4d84.4482517!16s%2Fg%2F11ghny5zbc!19sChIJsdjk_5gbkzkRPlbvTcvMPa8?authuser=0&hl=en&rclk=1",
        "coordinates": {
            "latitude": 26.457803,
            "longitude": 84.4482517
        }
    },
    {
        "name": "Muhammadi Masjid",
        "main_category": "Mosque",
        "address": "99QC+85G Muhammadi Masjid, Gopalganj, Bihar 841440",
        "detailed_address": {
            "ward": null,
            "street": "99QC+85G",
            "city": "Gopalganj",
            "postal_code": "841440",
            "state": "Bihar",
            "country_code": "IN"
        },
        "images": [
            {
                "about": "All",
                "link": "https://streetviewpixels-pa.googleapis.com/v1/thumbnail?panoid=0-5XvikSDlMJuAKCV1vKWg&cb_client=maps_sv.tactile.gps&w=224&h=298&yaw=64.95033&pitch=0&thumbfov=100"
            },
            {
                "about": "Street View & 360deg",
                "link": "https://streetviewpixels-pa.googleapis.com/v1/thumbnail?panoid=0-5XvikSDlMJuAKCV1vKWg&cb_client=maps_sv.tactile.gps&w=224&h=298&yaw=64.95033&pitch=0&thumbfov=100"
            }
        ],
        "link": "https://www.google.com/maps/place/Muhammadi+Masjid/data=!4m7!3m6!1s0x399303cbce1aff95:0x11f461c76c638c58!8m2!3d26.3883091!4d84.3704548!16s%2Fg%2F11txtcfbw2!19sChIJlf8azssDkzkRWIxjbMdh9BE?authuser=0&hl=en&rclk=1",
        "coordinates": {
            "latitude": 26.388309099999997,
            "longitude": 84.37045479999999
        }
    },
    {
        "name": "Semra, Jama masjid",
        "main_category": "Mosque",
        "address": "C9VV+WX8 Semra, Jama masjid, Gopalganj, Semra, Bihar 841440",
        "detailed_address": {
            "ward": null,
            "street": "C9VV+WX8",
            "city": "Gopalganj, Semra",
            "postal_code": "841440",
            "state": "Bihar",
            "country_code": "IN"
        },
        "images": [],
        "link": "https://www.google.com/maps/place/Semra,+Jama+masjid/data=!4m7!3m6!1s0x39930507e3aab4b9:0xdac2b1b18cd99141!8m2!3d26.4447874!4d84.3949463!16s%2Fg%2F11v3q5c19n!19sChIJubSq4wcFkzkRQZHZjLGxwto?authuser=0&hl=en&rclk=1",
        "coordinates": {
            "latitude": 26.4447874,
            "longitude": 84.3949463
        }
    },
    {
        "name": "Jama masjid nautan khurd",
        "main_category": "Mosque",
        "address": "F87G+RR7 Jama masjid nautan khurd, Gopalganj, Natan Kalan, Bihar 841425",
        "detailed_address": {
            "ward": null,
            "street": "F87G+RR7",
            "city": "Gopalganj, Natan Kalan",
            "postal_code": "841425",
            "state": "Bihar",
            "country_code": "IN"
        },
        "images": [],
        "link": "https://www.google.com/maps/place/Jama+masjid+nautan+khurd/data=!4m7!3m6!1s0x399307b62310e275:0xed7ada7246163bc1!8m2!3d26.4645627!4d84.3270846!16s%2Fg%2F11tjpw_mwj!19sChIJdeIQI7YHkzkRwTsWRnLaeu0?authuser=0&hl=en&rclk=1",
        "coordinates": {
            "latitude": 26.4645627,
            "longitude": 84.32708459999999
        }
    },
    {
        "name": "NOORI MASJID, BHITBHERWAN (Paschim Tola)",
        "main_category": "Non-profit organization",
        "address": "NOORI MASJID, BHITBHERWAN (Paschim Tola), Gopalganj Bypass, Banjari, Bihar 841428",
        "detailed_address": {
            "ward": null,
            "street": "Gopalganj Bypass",
            "city": "Banjari",
            "postal_code": "841428",
            "state": "Bihar",
            "country_code": "IN"
        },
        "images": [
            {
                "about": "All",
                "link": "https://streetviewpixels-pa.googleapis.com/v1/thumbnail?panoid=sb0yBLXkHyIxAZA5qKDKTw&cb_client=maps_sv.tactile.gps&w=224&h=298&yaw=162.86845&pitch=0&thumbfov=100"
            },
            {
                "about": "Street View & 360deg",
                "link": "https://streetviewpixels-pa.googleapis.com/v1/thumbnail?panoid=sb0yBLXkHyIxAZA5qKDKTw&cb_client=maps_sv.tactile.gps&w=224&h=298&yaw=162.86845&pitch=0&thumbfov=100"
            }
        ],
        "link": "https://www.google.com/maps/place/NOORI+MASJID,+BHITBHERWAN+%28Paschim+Tola%29/data=!4m7!3m6!1s0x399305735002fa3d:0xe9da15a75e069bc!8m2!3d26.4735056!4d84.4253362!16s%2Fg%2F11s3b84pnc!19sChIJPfoCUHMFkzkRvGngdVqhnQ4?authuser=0&hl=en&rclk=1",
        "coordinates": {
            "latitude": 26.4735056,
            "longitude": 84.42533619999999
        }
    }
]