[
    {
        "name": "Jamia Masjid Madni, Batala Colony",
        "main_category": "Mosque",
        "address": "C432+2Q2 Jamia Masjid Madni, Batala Colony, Batala Colony Faisalabad, Punjab, Pakistan",
        "detailed_address": {
            "ward": "Batala Colony",
            "street": "C432+2Q2",
            "city": "Faisalabad",
            "postal_code": null,
            "state": "Faisalabad, Punjab",
            "country_code": "PK"
        },
        "images": [
            {
                "about": "All",
                "link": "https://lh5.googleusercontent.com/p/AF1QipNsYza50UdFzcKc72bE6z9EoqbHWJ3dwKRImc4P=w224-h309-k-no"
            },
            {
                "about": "Dome",
                "link": "https://lh5.googleusercontent.com/p/AF1QipM7C0ZWCgCI4dgrM8yMYpPHzZpiUKp5aMAXjBuL=w224-h331-k-no"
            },
            {
                "about": "Videos",
                "link": "https://lh5.googleusercontent.com/p/AF1QipO0y-ODm06cpnFjGUnKFaP4xL3pB6kRAr_RWDkS=w224-h398-k-no"
            }
        ],
        "link": "https://www.google.com/maps/place/Jamia+Masjid+Madni,+Batala+Colony/data=!4m7!3m6!1s0x3922680830ddc129:0x122b8815c4dd47d7!8m2!3d31.4025201!4d73.1019042!16s%2Fg%2F1tczhwcn!19sChIJKcHdMAhoIjkR10fdxBWIKxI?authuser=0&hl=en&rclk=1",
        "coordinates": {
            "latitude": 31.4025201,
            "longitude": 73.10190419999999
        }
    },
    {
        "name": "Hazrat Hazi Peer Rehmatullah",
        "main_category": "Mosque",
        "address": "R622+HF9 Hazrat Hazi Peer Rehmatullah, Thathari Gate, Batala, Punjab 143505",
        "detailed_address": {
            "ward": "Thathari Gate",
            "street": "R622+HF9",
            "city": "Batala",
            "postal_code": "143505",
            "state": "Punjab",
            "country_code": "IN"
        },
        "images": [
            {
                "about": "All",
                "link": "https://lh5.googleusercontent.com/p/AF1QipOQZUTcIyhurcuH96sklaW6-y2zmyqy43ajFjBL=w529-h298-k-no"
            }
        ],
        "link": "https://www.google.com/maps/place/Hazrat+Hazi+Peer+Rehmatullah/data=!4m7!3m6!1s0x391bc3a2bc673c75:0x8dcd009115623a3a!8m2!3d31.8014001!4d75.2012202!16s%2Fg%2F11ghpxrr8l!19sChIJdTxnvKLDGzkROjpiFZEAzY0?authuser=0&hl=en&rclk=1",
        "coordinates": {
            "latitude": 31.8014001,
            "longitude": 75.2012202
        }
    },
    {
        "name": "Congress bhawan mosque",
        "main_category": "Mosque",
        "address": "R59X+Q9Q Congress bhawan mosque, Batala - Amritsar Rd, Dhir, Batala, Punjab 143505",
        "detailed_address": {
            "ward": null,
            "street": "R59X+Q9Q, Batala - Amritsar Rd, Dhir",
            "city": "Batala",
            "postal_code": "143505",
            "state": "Punjab",
            "country_code": "IN"
        },
        "images": [
            {
                "about": "All",
                "link": "https://lh5.googleusercontent.com/p/AF1QipN1wzJOpr_6yMyGdYzP8enrmn3c0oHiIB_45Hh_=w397-h298-k-no"
            }
        ],
        "link": "https://www.google.com/maps/place/Congress+bhawan+mosque/data=!4m7!3m6!1s0x391bc3f72403ca85:0xf8fec7ddb0f1398e!8m2!3d31.8194558!4d75.1984999!16s%2Fg%2F11hz0jrtsv!19sChIJhcoDJPfDGzkRjjnxsN3H_vg?authuser=0&hl=en&rclk=1",
        "coordinates": {
            "latitude": 31.8194558,
            "longitude": 75.1984999
        }
    },
    {
        "name": "Peer Babe Di Dargah",
        "main_category": "Mosque",
        "address": "R645+M32 Peer Babe Di Dargah, Achli Gate, Batala, Punjab 143505",
        "detailed_address": {
            "ward": "Achli Gate",
            "street": "R645+M32",
            "city": "Batala",
            "postal_code": "143505",
            "state": "Punjab",
            "country_code": "IN"
        },
        "images": [
            {
                "about": "All",
                "link": "https://lh5.googleusercontent.com/p/AF1QipOxhbBY3crIe4tGf1PLEMKsXytn3w9y9JV2hGW9=w397-h298-k-no"
            }
        ],
        "link": "https://www.google.com/maps/place/Peer+Babe+Di+Dargah/data=!4m7!3m6!1s0x391bc3376696b387:0x194130eef35fef78!8m2!3d31.80663!4d75.2076299!16s%2Fg%2F11fjy3y8w7!19sChIJh7OWZjfDGzkReO9f8-4wQRk?authuser=0&hl=en&rclk=1",
        "coordinates": {
            "latitude": 31.80663,
            "longitude": 75.2076299
        }
    },
    {
        "name": "Jami Mosque, Batala",
        "main_category": "Mosque",
        "address": "R653+JJ8 Jami Mosque, Batala, Achli Gate, Batala, Punjab 143505",
        "detailed_address": {
            "ward": "Achli Gate",
            "street": "R653+JJ8",
            "city": "Batala",
            "postal_code": "143505",
            "state": "Punjab",
            "country_code": "IN"
        },
        "images": [
            {
                "about": "All",
                "link": "https://lh5.googleusercontent.com/p/AF1QipMjBunA3yP-0yX54XV-ovb4O5C5AaFO_UR7-bue=w448-h298-k-no"
            }
        ],
        "link": "https://www.google.com/maps/place/Jami+Mosque,+Batala/data=!4m7!3m6!1s0x391bc32e4f6b4f61:0x36ce9e823099fff6!8m2!3d31.8090471!4d75.2040865!16s%2Fg%2F11hfgj5_1k!19sChIJYU9rTy7DGzkR9v-ZMIKezjY?authuser=0&hl=en&rclk=1",
        "coordinates": {
            "latitude": 31.809047099999997,
            "longitude": 75.2040865
        }
    },
    {
        "name": "Makkah Masjid",
        "main_category": "Mosque",
        "address": "R57V+VJX Makkah Masjid, Bank Colony, Bhandari Gate, Batala, Punjab 143505",
        "detailed_address": {
            "ward": "Bank Colony, Bhandari Gate",
            "street": "R57V+VJX",
            "city": "Batala",
            "postal_code": "143505",
            "state": "Punjab",
            "country_code": "IN"
        },
        "images": [],
        "link": "https://www.google.com/maps/place/Makkah+Masjid/data=!4m7!3m6!1s0x391bc3d53bcd89bd:0x308f99c2de7547b7!8m2!3d31.8147486!4d75.1941127!16s%2Fg%2F11q4dq8rk8!19sChIJvYnNO9XDGzkRt0d13sKZjzA?authuser=0&hl=en&rclk=1",
        "coordinates": {
            "latitude": 31.814748599999998,
            "longitude": 75.19411269999999
        }
    },
    {
        "name": "Islamic Masjid",
        "main_category": "Mosque",
        "address": "R59X+VF6 Islamic Masjid, Batala, Punjab 143505",
        "detailed_address": {
            "ward": null,
            "street": "R59X+VF6",
            "city": "Batala",
            "postal_code": null,
            "state": "Punjab",
            "country_code": "IN"
        },
        "images": [],
        "link": "https://www.google.com/maps/place/Islamic+Masjid/data=!4m7!3m6!1s0x391bc33e4a32c887:0x5289f4d7eace502!8m2!3d31.8196649!4d75.1986309!16s%2Fg%2F11h7p5jxm4!19sChIJh8gySj7DGzkRAuWsfk2fKAU?authuser=0&hl=en&rclk=1",
        "coordinates": {
            "latitude": 31.8196649,
            "longitude": 75.1986309
        }
    }
]