[
    {
        "name": "Jama Masjid",
        "main_category": "Mosque",
        "address": "32RC+G48 Jama Masjid, Jagdalpur, Chhattisgarh 494001",
        "detailed_address": {
            "ward": null,
            "street": "32RC+G48",
            "city": "Jagdalpur",
            "postal_code": "494001",
            "state": "Chhattisgarh",
            "country_code": "IN"
        },
        "images": [
            {
                "about": "All",
                "link": "https://lh5.googleusercontent.com/p/AF1QipN1Fw0I14EA4PSmze7AwVw3chJG12YtVA794uFl=w397-h298-k-no"
            },
            {
                "about": "Dome",
                "link": "https://lh5.googleusercontent.com/p/AF1QipMSTUqWQ6O6yxkmqtMpaMo10Qpw0AynLIBU_DoL=w224-h497-k-no"
            },
            {
                "about": "Videos",
                "link": "https://lh5.googleusercontent.com/p/AF1QipPoz1nTJvnIb3Wo86y5LvoATG0Sj15uKRYYXuhj=w224-h398-k-no"
            }
        ],
        "link": "https://www.google.com/maps/place/Jama+Masjid/data=!4m7!3m6!1s0x3a301215e9eb1a61:0x17b7bb3fd04d2d7f!8m2!3d19.0912994!4d82.020342!16s%2Fg%2F1wzt0s_c!19sChIJYRrr6RUSMDoRfy1N0D-7txc?authuser=0&hl=en&rclk=1",
        "coordinates": {
            "latitude": 19.0912994,
            "longitude": 82.020342
        }
    },
    {
        "name": "Gousiya Masjid",
        "main_category": "Mosque",
        "address": "Gousiya Masjid, Shabri seat covar and sofa seat, Geedam Rd, Jaiswal Colony, Jagdalpur, Chhattisgarh 494001",
        "detailed_address": {
            "ward": "Jaiswal Colony",
            "street": "Shabri seat covar and sofa seat, Geedam Rd",
            "city": "Jagdalpur",
            "postal_code": "494001",
            "state": "Chhattisgarh",
            "country_code": "IN"
        },
        "images": [
            {
                "about": "All",
                "link": "https://lh5.googleusercontent.com/p/AF1QipN9cJBuhDXiLtYEWp27Aj7XpxSR0CasDaA6-Wze=w397-h298-k-no"
            },
            {
                "about": "Dome",
                "link": "https://lh5.googleusercontent.com/p/AF1QipNA8vpRAoCveykx160DzVTwt2GO3dE79Y1MtV6A=w224-h309-k-no"
            },
            {
                "about": "Videos",
                "link": "https://lh5.googleusercontent.com/p/AF1QipOdCS9Tq_iYllNhatKTniQ2lOVwC1b40Ggyvtjt=w224-h398-k-no"
            },
            {
                "about": "Street View & 360deg",
                "link": "https://streetviewpixels-pa.googleapis.com/v1/thumbnail?panoid=MtPk31WRgT8PR2hyoBtzQg&cb_client=maps_sv.tactile.gps&w=224&h=298&yaw=337.77188&pitch=0&thumbfov=100"
            }
        ],
        "link": "https://www.google.com/maps/place/Gousiya+Masjid/data=!4m7!3m6!1s0x3a301246bf626a4f:0xfee288bbd388dcc2!8m2!3d19.0817129!4d82.0122637!16s%2Fg%2F11c1g5p2h9!19sChIJT2piv0YSMDoRwtyI07uI4v4?authuser=0&hl=en&rclk=1",
        "coordinates": {
            "latitude": 19.0817129,
            "longitude": 82.01226369999999
        }
    },
    {
        "name": "Zikr-un-Nabi Masjid",
        "main_category": "Mosque",
        "address": "32GJ+642 Zikr-un-Nabi Masjid, Vrindavan Colony, Jagdalpur, Chhattisgarh 494001",
        "detailed_address": {
            "ward": "Vrindavan Colony",
            "street": "32GJ+642",
            "city": "Jagdalpur",
            "postal_code": "494001",
            "state": "Chhattisgarh",
            "country_code": "IN"
        },
        "images": [
            {
                "about": "All",
                "link": "https://lh5.googleusercontent.com/p/AF1QipO4Qs3bua_3Clq-24mN5OnVFTToaxV86CBELxri=w224-h318-k-no"
            },
            {
                "about": "Dome",
                "link": "https://lh5.googleusercontent.com/p/AF1QipPCLspqkBJhkS5yE8KWaWoOtsT53BhDnYHdgAUv=w476-h298-k-no"
            }
        ],
        "link": "https://www.google.com/maps/place/Zikr-un-Nabi+Masjid/data=!4m7!3m6!1s0x3a3012700438622f:0xef7897f7a98036c3!8m2!3d19.075518!4d82.0302736!16s%2Fg%2F11d_x7xggq!19sChIJL2I4BHASMDoRwzaAqfeXeO8?authuser=0&hl=en&rclk=1",
        "coordinates": {
            "latitude": 19.075518,
            "longitude": 82.0302736
        }
    },
    {
        "name": "HAJi MOHAMMAD YUSUF KHAN SAHAB SABIQ MOAJJIN JAMA MASJID JAGDALPUR",
        "main_category": "Mosque",
        "address": "4X7R+3F8 HAJi MOHAMMAD YUSUF KHAN SAHAB SABIQ MOAJJIN JAMA MASJID JAGDALPUR, Jagdalpur, Chhattisgarh 494005",
        "detailed_address": {
            "ward": null,
            "street": "4X7R+3F8",
            "city": "Jagdalpur",
            "postal_code": "494005",
            "state": "Chhattisgarh",
            "country_code": "IN"
        },
        "images": [
            {
                "about": "All",
                "link": "https://lh5.googleusercontent.com/p/AF1QipNLV0mq7uyjbmiGKyWGQ5W5UCVmpqJxaBX5DhIG=w447-h298-k-no"
            },
            {
                "about": "Videos",
                "link": "https://lh5.googleusercontent.com/p/AF1QipM9QAxfxzgeMMYZgTQfnJKjCBWMl4mlyaA2wGPI=w224-h497-k-no"
            }
        ],
        "link": "https://www.google.com/maps/place/HAJi+MOHAMMAD+YUSUF+KHAN+SAHAB+SABIQ+MOAJJIN+JAMA+MASJID+JAGDALPUR/data=!4m7!3m6!1s0x3a30117c244db14b:0xf8c50d3336ea167b!8m2!3d19.112666!4d81.991199!16s%2Fg%2F11g6rl_4rg!19sChIJS7FNJHwRMDoRexbqNjMNxfg?authuser=0&hl=en&rclk=1",
        "coordinates": {
            "latitude": 19.112666,
            "longitude": 81.991199
        }
    },
    {
        "name": "Masjid Royal Garden",
        "main_category": "Mosque",
        "address": "3XRQ+G59 Masjid Royal Garden, Royal Garden St, Tetarkhuti, Abhanpur, Jagdalpur, Chhattisgarh 494005",
        "detailed_address": {
            "ward": "Tetarkhuti, Abhanpur",
            "street": "3XRQ+G59, Royal Garden St",
            "city": "Jagdalpur",
            "postal_code": "494005",
            "state": "Chhattisgarh",
            "country_code": "IN"
        },
        "images": [
            {
                "about": "All",
                "link": "https://lh5.googleusercontent.com/p/AF1QipOTda0immU36_oTmMmTEBwkWN_WfB75MqAcwrQN=w224-h298-k-no"
            }
        ],
        "link": "https://www.google.com/maps/place/Masjid+Royal+Garden/data=!4m7!3m6!1s0x3a30135045e5ea3f:0x26aec59da2a49e32!8m2!3d19.0912997!4d81.9879805!16s%2Fg%2F11j7g9r329!19sChIJP-rlRVATMDoRMp6kop3FriY?authuser=0&hl=en&rclk=1",
        "coordinates": {
            "latitude": 19.0912997,
            "longitude": 81.98798049999999
        }
    },
    {
        "name": "Noori masjid",
        "main_category": "Mosque",
        "address": "32FQ+2Q7 Noori masjid, Chhattisgarh 494001",
        "detailed_address": {
            "ward": null,
            "street": "32FQ+2Q7",
            "city": null,
            "postal_code": "494001",
            "state": "Chhattisgarh",
            "country_code": "IN"
        },
        "images": [
            {
                "about": "All",
                "link": "https://lh5.googleusercontent.com/p/AF1QipNa-0akWd0Wg1kubL5_Cq6yxQDPNbNVJtHCQFy8=w529-h298-k-no"
            }
        ],
        "link": "https://www.google.com/maps/place/Noori+masjid/data=!4m7!3m6!1s0x3a3013edfa0a4f25:0x54a8ba4e1b18b7cf!8m2!3d19.0720329!4d82.0392694!16s%2Fg%2F11pklwq90h!19sChIJJU8K-u0TMDoRz7cYG066qFQ?authuser=0&hl=en&rclk=1",
        "coordinates": {
            "latitude": 19.0720329,
            "longitude": 82.0392694
        }
    },
    {
        "name": "Ooth wale baba Dargah sarif",
        "main_category": "Mosque",
        "address": "32P9+7PM Ooth wale baba Dargah sarif, Jagdalpur, Chhattisgarh 494001",
        "detailed_address": {
            "ward": null,
            "street": "32P9+7PM",
            "city": "Jagdalpur",
            "postal_code": "494001",
            "state": "Chhattisgarh",
            "country_code": "IN"
        },
        "images": [
            {
                "about": "All",
                "link": "https://lh5.googleusercontent.com/p/AF1QipNmYA6NQMR6kUgDGi6-Gk4-Ymzj1aJsjFJGA0uN=w397-h298-k-no"
            },
            {
                "about": "Dome",
                "link": "https://lh5.googleusercontent.com/p/AF1QipPprd2P_QmuMBqOx2LRg1Vem9B4gR6Bk9EE5UFa=w224-h298-k-no"
            },
            {
                "about": "Street View & 360deg",
                "link": "https://streetviewpixels-pa.googleapis.com/v1/thumbnail?panoid=BvGZbo3ZBMvXZ0U-5GWtEg&cb_client=maps_sv.tactile.gps&w=224&h=298&yaw=152.03726&pitch=0&thumbfov=100"
            }
        ],
        "link": "https://www.google.com/maps/place/Ooth+wale+baba+Dargah+sarif/data=!4m7!3m6!1s0x3a30130bbfca1735:0x8462a1624ced2daf!8m2!3d19.0857088!4d82.0192852!16s%2Fg%2F11h7cb0xzq!19sChIJNRfKvwsTMDoRry3tTGKhYoQ?authuser=0&hl=en&rclk=1",
        "coordinates": {
            "latitude": 19.0857088,
            "longitude": 82.0192852
        }
    },
    {
        "name": "Sadar Masjid (Mosque)",
        "main_category": "Seminary",
        "address": "32QF+HH8 Sadar Masjid (Mosque), Jagdalpur, Chhattisgarh 494001",
        "detailed_address": {
            "ward": null,
            "street": "32QF+HH8",
            "city": "Jagdalpur",
            "postal_code": "494001",
            "state": "Chhattisgarh",
            "country_code": "IN"
        },
        "images": [],
        "link": "https://www.google.com/maps/place/Sadar+Masjid+%28Mosque%29/data=!4m7!3m6!1s0x3a3013a6130caf35:0x16f3fb11ae8201c!8m2!3d19.0889043!4d82.0239608!16s%2Fg%2F11gjty8b4s!19sChIJNa8ME6YTMDoRHCDoGrE_bwE?authuser=0&hl=en&rclk=1",
        "coordinates": {
            "latitude": 19.0889043,
            "longitude": 82.0239608
        }
    }
]