[
    {
        "name": "JAMA MASJID jm` msjd",
        "main_category": "Mosque",
        "address": "CGH6+PQV JAMA MASJID jm` msjd, Bazar Galli, Navgaon, Maharashtra 431137",
        "detailed_address": {
            "ward": null,
            "street": "CGH6+PQV, Bazar Galli",
            "city": "Navgaon",
            "postal_code": "431137",
            "state": "Maharashtra",
            "country_code": "IN"
        },
        "images": [
            {
                "about": "All",
                "link": "https://lh5.googleusercontent.com/p/AF1QipNt5hENyfGCvSqLCoi9eL1Cf5_rLeZumSt7I2Ck=w224-h298-k-no"
            },
            {
                "about": "Street View & 360deg",
                "link": "https://streetviewpixels-pa.googleapis.com/v1/thumbnail?panoid=6Ek3qSVXmnvP056wiLrbgA&cb_client=maps_sv.tactile.gps&w=224&h=298&yaw=183.90437&pitch=0&thumbfov=100"
            }
        ],
        "link": "https://www.google.com/maps/place/JAMA+MASJID+%D8%AC%D8%A7%D9%85%D8%B9+%D9%85%D8%B3%D8%AC%D8%AF%E2%80%AD/data=!4m7!3m6!1s0x3bdb1768e39a1b97:0xf890bc71610a9643!8m2!3d19.4293665!4d75.5119132!16s%2Fg%2F11b7l7b2pk!19sChIJlxua42gX2zsRQ5YKYXG8kPg?authuser=0&hl=en&rclk=1",
        "coordinates": {
            "latitude": 19.4293665,
            "longitude": 75.5119132
        }
    },
    {
        "name": "Jama Masjid",
        "main_category": "Mosque",
        "address": "WR69+HMQ Jama Masjid, Sawantwadi, Maharashtra 416510",
        "detailed_address": {
            "ward": null,
            "street": "WR69+HMQ",
            "city": "Sawantwadi",
            "postal_code": "416510",
            "state": "Maharashtra",
            "country_code": "IN"
        },
        "images": [],
        "link": "https://www.google.com/maps/place/Jama+Masjid/data=!4m7!3m6!1s0x3bbff55fcf713e57:0xc3847766227cf59e!8m2!3d15.9114531!4d73.819241!16s%2Fg%2F11c30vc5l4!19sChIJVz5xz1_1vzsRnvV8ImZ3hMM?authuser=0&hl=en&rclk=1",
        "coordinates": {
            "latitude": 15.9114531,
            "longitude": 73.81924099999999
        }
    },
    {
        "name": "Masjid E Rahman , msjd rHmn",
        "main_category": "Mosque",
        "address": "Masjid E Rahman , msjd rHmn, Seona, Shivna, Maharashtra 431132",
        "detailed_address": {
            "ward": null,
            "street": null,
            "city": "Seona, Shivna",
            "postal_code": "431132",
            "state": "Maharashtra",
            "country_code": "IN"
        },
        "images": [
            {
                "about": "All",
                "link": "https://lh5.googleusercontent.com/p/AF1QipM9iGA23nMaNX36o7chDamjOt2fBRLcYLZ9E84s=w224-h298-k-no"
            },
            {
                "about": "Latest",
                "link": "https://lh5.googleusercontent.com/p/AF1QipOmpuVhCJX2fzyErKLTQHOfefPuWbYQuNd_Hvcf=w224-h398-k-no"
            },
            {
                "about": "Videos",
                "link": "https://lh5.googleusercontent.com/p/AF1QipOmpuVhCJX2fzyErKLTQHOfefPuWbYQuNd_Hvcf=w224-h398-k-no"
            }
        ],
        "link": "https://www.google.com/maps/place/Masjid+E+Rahman+,+%D9%85%D8%B3%D8%AC%D8%AF+%D8%B1%D8%AD%D9%85%D8%A7%D9%86%E2%80%AD/data=!4m7!3m6!1s0x3bda2a272aadb5d5:0x246b4d91afb173c8!8m2!3d20.4747794!4d75.8040376!16s%2Fg%2F11bzq4mbg5!19sChIJ1bWtKicq2jsRyHOxr5FNayQ?authuser=0&hl=en&rclk=1",
        "coordinates": {
            "latitude": 20.4747794,
            "longitude": 75.8040376
        }
    },
    {
        "name": "Jama Masjid Seona.jm` msjd sywn",
        "main_category": "Mosque",
        "address": "FRG3+54R Jama Masjid Seona.jm` msjd sywn, Seona, Shivna, Maharashtra 431132",
        "detailed_address": {
            "ward": null,
            "street": "FRG3+54R",
            "city": "Seona, Shivna",
            "postal_code": "431132",
            "state": "Maharashtra",
            "country_code": "IN"
        },
        "images": [
            {
                "about": "All",
                "link": "https://lh5.googleusercontent.com/p/AF1QipOxvokIIc8oo45-3Tm_dZhYY64vRpZZW0j-Qm5N=w529-h298-k-no"
            }
        ],
        "link": "https://www.google.com/maps/place/Jama+Masjid+Seona.%D8%AC%D8%A7%D9%85%D8%B9+%D9%85%D8%B3%D8%AC%D8%AF+%D8%B3%DB%8C%D9%88%D9%86%D8%A7%E2%80%AD/data=!4m7!3m6!1s0x3bda2a2139cf2c2f:0xdf2a84fd823c1374!8m2!3d20.4754855!4d75.8027669!16s%2Fg%2F11bzq2_60r!19sChIJLyzPOSEq2jsRdBM8gv2EKt8?authuser=0&hl=en&rclk=1",
        "coordinates": {
            "latitude": 20.475485499999998,
            "longitude": 75.8027669
        }
    },
    {
        "name": "hujuur gule gulshn shaa baabaa kaadrii",
        "main_category": "Mosque",
        "address": "X8P8+G2H hujuur gule gulshn shaa baabaa kaadrii, Bhadane, Maharashtra 424304",
        "detailed_address": {
            "ward": null,
            "street": "X8P8+G2H",
            "city": "Bhadane",
            "postal_code": "424304",
            "state": "Maharashtra",
            "country_code": "IN"
        },
        "images": [
            {
                "about": "All",
                "link": "https://lh5.googleusercontent.com/p/AF1QipMjf9NHfMGp3w8U_Y8MkmqFHi50rKkfmLUdDKm6=w224-h298-k-no"
            },
            {
                "about": "Videos",
                "link": "https://lh5.googleusercontent.com/p/AF1QipNOsaYS_GAC5N0tCiLX0rqOqZUV8qQ-lr4hO_6t=w298-h298-k-no"
            }
        ],
        "link": "https://www.google.com/maps/place/%E0%A4%B9%E0%A5%81%E0%A4%9C%E0%A5%82%E0%A4%B0+%E0%A4%97%E0%A5%81%E0%A4%B2%E0%A5%87+%E0%A4%97%E0%A5%81%E0%A4%B2%E0%A4%B6%E0%A4%A8+%E0%A4%B6%E0%A4%BE+%E0%A4%AC%E0%A4%BE%E0%A4%AC%E0%A4%BE+%E0%A4%95%E0%A4%BE%E0%A4%A6%E0%A4%B0%E0%A5%80/data=!4m7!3m6!1s0x3bdefbad5ac657f3:0xc21d766e857418e5!8m2!3d20.9863077!4d74.3151116!16s%2Fg%2F11r_y0hl95!19sChIJ81fGWq373jsR5Rh0hW52HcI?authuser=0&hl=en&rclk=1",
        "coordinates": {
            "latitude": 20.986307699999998,
            "longitude": 74.3151116
        }
    },
    {
        "name": "MASJID ASHAB-E-SUFFA",
        "main_category": "Mosque",
        "address": "G5RP+QF6 MASJID ASHAB-E-SUFFA, Mirza Nagar, Buldana, Maharashtra 443001",
        "detailed_address": {
            "ward": "Mirza Nagar",
            "street": "G5RP+QF6",
            "city": "Buldana",
            "postal_code": "443001",
            "state": "Maharashtra",
            "country_code": "IN"
        },
        "images": [
            {
                "about": "All",
                "link": "https://lh5.googleusercontent.com/p/AF1QipPWHCZA219FWXuRuK46CpdfMasKle5Pd58ibp94=w224-h298-k-no"
            },
            {
                "about": "Street View & 360deg",
                "link": "https://streetviewpixels-pa.googleapis.com/v1/thumbnail?panoid=5I3-XfH5nucwN4NRc41nOw&cb_client=maps_sv.tactile.gps&w=224&h=298&yaw=41.84858&pitch=0&thumbfov=100"
            },
            {
                "about": "Videos",
                "link": "https://lh5.googleusercontent.com/p/AF1QipN3CRrx_LXpXlwQfWr4i6QNPEsBgKNH_p7LjMY8=w224-h398-k-no"
            }
        ],
        "link": "https://www.google.com/maps/place/MASJID+ASHAB-E-SUFFA/data=!4m7!3m6!1s0x3bd9f7d36589d26f:0x573757761b92d6e9!8m2!3d20.5419021!4d76.1861283!16s%2Fg%2F11gmcq_24g!19sChIJb9KJZdP32TsR6daSG3ZXN1c?authuser=0&hl=en&rclk=1",
        "coordinates": {
            "latitude": 20.541902099999998,
            "longitude": 76.1861283
        }
    },
    {
        "name": "Masjid Tajud Shariya",
        "main_category": "Mosque",
        "address": "5PF3+XM8 Masjid Tajud Shariya, Viravali, Yawal, Maharashtra 425304",
        "detailed_address": {
            "ward": "Viravali",
            "street": "5PF3+XM8",
            "city": "Yawal",
            "postal_code": "425304",
            "state": "Maharashtra",
            "country_code": "IN"
        },
        "images": [],
        "link": "https://www.google.com/maps/place/Masjid+Tajud+Shariya/data=!4m7!3m6!1s0x3bd901a71339101f:0xd8bec46efd4b19a7!8m2!3d21.1749207!4d75.7042099!16s%2Fg%2F11v02zsfht!19sChIJHxA5E6cB2TsRpxlL_W7Evtg?authuser=0&hl=en&rclk=1",
        "coordinates": {
            "latitude": 21.174920699999998,
            "longitude": 75.7042099
        }
    },
    {
        "name": "Jama masjid",
        "main_category": "Mosque",
        "address": "HX6J+QMX Jama masjid, Sawaladbara, Maharashtra 431132",
        "detailed_address": {
            "ward": null,
            "street": "HX6J+QMX",
            "city": "Sawaladbara",
            "postal_code": "431132",
            "state": "Maharashtra",
            "country_code": "IN"
        },
        "images": [],
        "link": "https://www.google.com/maps/place/Jama+masjid/data=!4m7!3m6!1s0x3bd989162a8518dd:0xfcc398dd29f6ec0e!8m2!3d20.5620517!4d75.9817776!16s%2Fg%2F11kjjg1l2k!19sChIJ3RiFKhaJ2TsRDuz2Kd2Yw_w?authuser=0&hl=en&rclk=1",
        "coordinates": {
            "latitude": 20.562051699999998,
            "longitude": 75.9817776
        }
    },
    {
        "name": "Imadi Makan",
        "main_category": "Apartment building",
        "address": "Imadi Makan, oppo bohri masjid, Manohar Market, Hauz Qazi, Chandni Chowk, savda, Delhi, 110006",
        "detailed_address": {
            "ward": "Manohar Market, Hauz Qazi, Chandni Chowk",
            "street": "oppo bohri masjid",
            "city": "savda, Delhi",
            "postal_code": null,
            "state": "Delhi",
            "country_code": "IN"
        },
        "images": [
            {
                "about": "All",
                "link": "https://streetviewpixels-pa.googleapis.com/v1/thumbnail?panoid=shhYkN7mF47ia434gB2wZA&cb_client=maps_sv.tactile.gps&w=224&h=298&yaw=62.147358&pitch=0&thumbfov=100"
            },
            {
                "about": "Street View & 360deg",
                "link": "https://streetviewpixels-pa.googleapis.com/v1/thumbnail?panoid=shhYkN7mF47ia434gB2wZA&cb_client=maps_sv.tactile.gps&w=224&h=298&yaw=62.147358&pitch=0&thumbfov=100"
            }
        ],
        "link": "https://www.google.com/maps/place/Imadi+Makan/data=!4m7!3m6!1s0x390cfd539a40e0a7:0x50d2cabfff064d79!8m2!3d28.6504886!4d77.2303621!16s%2Fg%2F11s1szf3xj!19sChIJp-BAmlP9DDkReU0G_7_K0lA?authuser=0&hl=en&rclk=1",
        "coordinates": {
            "latitude": 28.6504886,
            "longitude": 77.2303621
        }
    },
    {
        "name": "Sawda",
        "main_category": null,
        "address": "Sawda, Delhi, 110081",
        "detailed_address": {
            "ward": "Sawda",
            "street": null,
            "city": "Delhi",
            "postal_code": null,
            "state": "Delhi",
            "country_code": "IN"
        },
        "images": [
            {
                "about": "All",
                "link": "https://lh5.googleusercontent.com/p/AF1QipNnMJF9qcBaLOegSecd7-B1_e3txoEchdfz4EM2=w224-h398-k-no"
            }
        ],
        "link": "https://www.google.com/maps/place/Sawda/data=!4m7!3m6!1s0x390d08c144a73f19:0x4f3882c26b97eb91!8m2!3d28.7000799!4d76.9934825!16s%2Fg%2F1tdzv2ym!19sChIJGT-nRMEIDTkRkeuXa8KCOE8?authuser=0&hl=en&rclk=1",
        "coordinates": {
            "latitude": 28.7000799,
            "longitude": 76.9934825
        }
    },
    {
        "name": "Savda",
        "main_category": null,
        "address": "Savda, Maharashtra",
        "detailed_address": {
            "ward": null,
            "street": null,
            "city": "Savda",
            "postal_code": null,
            "state": "Maharashtra",
            "country_code": "IN"
        },
        "images": [
            {
                "about": "All",
                "link": "https://lh5.googleusercontent.com/p/AF1QipM4lmb214duSQD_fZs0JeDJG3c4PXFMmGMGXb6k=w529-h298-k-no"
            }
        ],
        "link": "https://www.google.com/maps/place/Savda/data=!4m7!3m6!1s0x3bd9ae1a712abd51:0x71541f0391f5d7bc!8m2!3d21.1506344!4d75.8859349!16zL20vMGY2N2Q3!19sChIJUb0qcRqu2TsRvNf1kQMfVHE?authuser=0&hl=en&rclk=1",
        "coordinates": {
            "latitude": 21.150634399999998,
            "longitude": 75.8859349
        }
    },
    {
        "name": "Sawada",
        "main_category": null,
        "address": "Sawada, Upkar Vihar Colony, Sawda, Delhi, 110081",
        "detailed_address": {
            "ward": "Sawada, Upkar Vihar Colony, Sawda",
            "street": null,
            "city": "Delhi",
            "postal_code": null,
            "state": "Delhi",
            "country_code": "IN"
        },
        "images": [],
        "link": "https://www.google.com/maps/place/Sawada/data=!4m7!3m6!1s0x390d08c15bff2733:0x32f95da4eafbae9c!8m2!3d28.7103119!4d76.9823077!16s%2Fg%2F11gz9z13s!19sChIJMyf_W8EIDTkRnK776qRd-TI?authuser=0&hl=en&rclk=1",
        "coordinates": {
            "latitude": 28.710311899999997,
            "longitude": 76.98230769999999
        }
    },
    {
        "name": "SHREE RENUKA MATA LADIES CORNER",
        "main_category": "Cosmetics store",
        "address": "SHOP NO 07, SHREE RENUKA MATA LADIES CORNER, Shani Mandir Road, opp. BOHRA MASJID, Bhoiwada, Savda, Maharashtra 425502",
        "detailed_address": {
            "ward": "Bhoiwada",
            "street": "SHOP NO 07, Shani Mandir Road, opp. BOHRA MASJID",
            "city": "Savda",
            "postal_code": "425502",
            "state": "Maharashtra",
            "country_code": "IN"
        },
        "images": [],
        "link": "https://www.google.com/maps/place/SHREE+RENUKA+MATA+LADIES+CORNER/data=!4m7!3m6!1s0x3bd9af6c9d8aee59:0x3e182a43e09020b2!8m2!3d21.1491405!4d75.8912444!16s%2Fg%2F11l72r2dxn!19sChIJWe6KnWyv2TsRsiCQ4EMqGD4?authuser=0&hl=en&rclk=1",
        "coordinates": {
            "latitude": 21.149140499999998,
            "longitude": 75.89124439999999
        }
    }
]