[
    {
        "name": "Noorani Masjid Risangaon",
        "main_category": "Mosque",
        "address": "WX4Q+FJH Noorani Masjid Risangaon, Risangaon, Maharashtra 431708",
        "detailed_address": {
            "ward": null,
            "street": "WX4Q+FJH",
            "city": "Risangaon",
            "postal_code": "431708",
            "state": "Maharashtra",
            "country_code": "IN"
        },
        "images": [],
        "link": "https://www.google.com/maps/place/Noorani+Masjid+Risangaon/data=!4m7!3m6!1s0x3bcfc56357510c1d:0x699dbd67d29dcf60!8m2!3d18.9061854!4d76.9891212!16s%2Fg%2F11r91lh72q!19sChIJHQxRV2PFzzsRYM-d0me9nWk?authuser=0&hl=en&rclk=1",
        "coordinates": {
            "latitude": 18.9061854,
            "longitude": 76.9891212
        }
    },
    {
        "name": "Jama masjid Dawangaon",
        "main_category": "Mosque",
        "address": "83M4+QQH Jama masjid Dawangaon, Dawangaon, Maharashtra 413517",
        "detailed_address": {
            "ward": null,
            "street": "83M4+QQH",
            "city": "Dawangaon",
            "postal_code": null,
            "state": "Maharashtra",
            "country_code": "IN"
        },
        "images": [
            {
                "about": "All",
                "link": "https://streetviewpixels-pa.googleapis.com/v1/thumbnail?panoid=-6H2wrPxX5egndnlbgXwVQ&cb_client=maps_sv.tactile.gps&w=224&h=298&yaw=5.860556&pitch=0&thumbfov=100"
            },
            {
                "about": "Street View & 360deg",
                "link": "https://streetviewpixels-pa.googleapis.com/v1/thumbnail?panoid=-6H2wrPxX5egndnlbgXwVQ&cb_client=maps_sv.tactile.gps&w=224&h=298&yaw=5.860556&pitch=0&thumbfov=100"
            }
        ],
        "link": "https://www.google.com/maps/place/Jama+masjid+Dawangaon/data=!4m7!3m6!1s0x3bcf071a0eb7a787:0xf869f2e4afeb5601!8m2!3d18.334431!4d77.0569796!16s%2Fg%2F11vd890ynz!19sChIJh6e3DhoHzzsRAVbrr-Tyafg?authuser=0&hl=en&rclk=1",
        "coordinates": {
            "latitude": 18.334431,
            "longitude": 77.05697959999999
        }
    },
    {
        "name": "Arangaon Masjid",
        "main_category": "Museum",
        "address": "2PF8+8J8 Arangaon Masjid, Arangaon, Maharashtra 414006",
        "detailed_address": {
            "ward": null,
            "street": "2PF8+8J8",
            "city": "Arangaon",
            "postal_code": "414006",
            "state": "Maharashtra",
            "country_code": "IN"
        },
        "images": [
            {
                "about": "All",
                "link": "https://streetviewpixels-pa.googleapis.com/v1/thumbnail?panoid=D11ecVvht-dIaUVUHiRJPA&cb_client=maps_sv.tactile.gps&w=224&h=298&yaw=52.36929&pitch=0&thumbfov=100"
            },
            {
                "about": "Street View & 360deg",
                "link": "https://streetviewpixels-pa.googleapis.com/v1/thumbnail?panoid=D11ecVvht-dIaUVUHiRJPA&cb_client=maps_sv.tactile.gps&w=224&h=298&yaw=52.36929&pitch=0&thumbfov=100"
            }
        ],
        "link": "https://www.google.com/maps/place/Arangaon+Masjid/data=!4m7!3m6!1s0x3bdcb1a730032db3:0xc27a2ac8a8680fc4!8m2!3d19.0232983!4d74.7165705!16s%2Fg%2F11jn2lqt06!19sChIJsy0DMKex3DsRxA9oqMgqesI?authuser=0&hl=en&rclk=1",
        "coordinates": {
            "latitude": 19.0232983,
            "longitude": 74.7165705
        }
    }
]