[
    {
        "name": "Jama Masjid, Tohana",
        "main_category": "Mosque",
        "address": "PW64+P89 Jama Masjid, Tohana, Unnamed Road, Patel Nagar, Tohana, Haryana 125120",
        "detailed_address": {
            "ward": "Patel Nagar",
            "street": "PW64+P89, Unnamed Road",
            "city": "Tohana",
            "postal_code": "125120",
            "state": "Haryana",
            "country_code": "IN"
        },
        "images": [
            {
                "about": "All",
                "link": "https://lh5.googleusercontent.com/p/AF1QipM5in4lScONF8MCUdAT-L_UnSGc5lkBu0IO57P1=w529-h298-k-no"
            },
            {
                "about": "Dome",
                "link": "https://lh5.googleusercontent.com/p/AF1QipMPSfmL07vekizjc1lxK5j-ezYR2rcbP0r-ixtT=w397-h298-k-no"
            }
        ],
        "link": "https://www.google.com/maps/place/Jama+Masjid,+Tohana/data=!4m7!3m6!1s0x3911977b5dc5110d:0xcd98d04bb476e8ca!8m2!3d29.7117957!4d75.905857!16s%2Fg%2F11f53fjbx7!19sChIJDRHFXXuXETkRyuh2tEvQmM0?authuser=0&hl=en&rclk=1",
        "coordinates": {
            "latitude": 29.7117957,
            "longitude": 75.905857
        }
    },
    {
        "name": "Nurani Masjid.",
        "main_category": "Mosque",
        "address": "Nurani Masjid., Adarsh Nagar, Fatehabad MDR, 101, Ratia-Tohana Rd, Adarsh Nagar, Tohana, Haryana 125120",
        "detailed_address": {
            "ward": "Adarsh Nagar",
            "street": "Adarsh Nagar, Fatehabad MDR, 101, Ratia-Tohana Rd",
            "city": "Tohana",
            "postal_code": "125120",
            "state": "Haryana",
            "country_code": "IN"
        },
        "images": [
            {
                "about": "All",
                "link": "https://streetviewpixels-pa.googleapis.com/v1/thumbnail?panoid=rxVmf7K0Ie1qwyJEPFhWMA&cb_client=maps_sv.tactile.gps&w=224&h=298&yaw=165.36098&pitch=0&thumbfov=100"
            },
            {
                "about": "Street View & 360deg",
                "link": "https://streetviewpixels-pa.googleapis.com/v1/thumbnail?panoid=rxVmf7K0Ie1qwyJEPFhWMA&cb_client=maps_sv.tactile.gps&w=224&h=298&yaw=165.36098&pitch=0&thumbfov=100"
            }
        ],
        "link": "https://www.google.com/maps/place/Nurani+Masjid./data=!4m7!3m6!1s0x391199586ce04cd5:0x48585984d71e99af!8m2!3d29.7097277!4d75.8960082!16s%2Fg%2F11fn03hgr6!19sChIJ1UzgbFiZETkRr5ke14RZWEg?authuser=0&hl=en&rclk=1",
        "coordinates": {
            "latitude": 29.7097277,
            "longitude": 75.8960082
        }
    },
    {
        "name": "msjid e abuubkr",
        "main_category": "Mosque",
        "address": "MVXV+F9C msjid e abuubkr, Dr SK Ranga Galli, Akta Nagar, Tohana, Haryana 125120",
        "detailed_address": {
            "ward": "Akta Nagar",
            "street": "MVXV+F9C, Dr SK Ranga Galli",
            "city": "Tohana",
            "postal_code": "125120",
            "state": "Haryana",
            "country_code": "IN"
        },
        "images": [],
        "link": "https://www.google.com/maps/place/%E0%A4%AE%E0%A4%B8%E0%A5%8D%E0%A4%9C%E0%A4%BF%E0%A4%A6+%E0%A4%8F+%E0%A4%85%E0%A4%AC%E0%A5%82%E0%A4%AC%E0%A4%95%E0%A4%B0/data=!4m7!3m6!1s0x391199bb86776001:0x98e2299382859a2a!8m2!3d29.6986793!4d75.8933827!16s%2Fg%2F11rlg9m6nw!19sChIJAWB3hruZETkRKpqFgpMp4pg?authuser=0&hl=en&rclk=1",
        "coordinates": {
            "latitude": 29.6986793,
            "longitude": 75.8933827
        }
    },
    {
        "name": "masjid e abubaker",
        "main_category": "Mosque",
        "address": "MVXV+G8G masjid e abubaker, Dr SK Ranga Galli, Akta Nagar, Tohana, Haryana 125120",
        "detailed_address": {
            "ward": "Akta Nagar",
            "street": "MVXV+G8G, Dr SK Ranga Galli",
            "city": "Tohana",
            "postal_code": "125120",
            "state": "Haryana",
            "country_code": "IN"
        },
        "images": [],
        "link": "https://www.google.com/maps/place/masjid+e+abubaker/data=!4m7!3m6!1s0x3911991750133fb9:0x3e6a151efb1e2d71!8m2!3d29.6988203!4d75.8933406!16s%2Fg%2F11skx9gwdy!19sChIJuT8TUBeZETkRcS0e-x4Vaj4?authuser=0&hl=en&rclk=1",
        "coordinates": {
            "latitude": 29.698820299999998,
            "longitude": 75.8933406
        }
    }
]