[
    {
        "name": "Masjid Pitaura",
        "main_category": "Mosque",
        "address": "G8RR+5G4 Masjid Pitaura, Pitoura, Kaimganj, Uttar Pradesh 209502",
        "detailed_address": {
            "ward": null,
            "street": "G8RR+5G4",
            "city": "Pitoura, Kaimganj",
            "postal_code": "209502",
            "state": "Uttar Pradesh",
            "country_code": "IN"
        },
        "images": [
            {
                "about": "All",
                "link": "https://lh5.googleusercontent.com/p/AF1QipOYcIPrvDK91Q4CmyoesknsqP1RhXQpJ2U1EzdO=w224-h298-k-no"
            },
            {
                "about": "Videos",
                "link": "https://lh5.googleusercontent.com/p/AF1QipM87gqJjCrmsHaBNIgUMNLf0zli4UNnWj-cNnAu=w224-h398-k-no"
            }
        ],
        "link": "https://www.google.com/maps/place/Masjid+Pitaura/data=!4m7!3m6!1s0x39757fa22cca3f2f:0x49ad5cf82ede4842!8m2!3d27.5403981!4d79.3413284!16s%2Fg%2F11ddzqg15m!19sChIJLz_KLKJ_dTkRQkjeLvhcrUk?authuser=0&hl=en&rclk=1",
        "coordinates": {
            "latitude": 27.540398099999997,
            "longitude": 79.3413284
        }
    },
    {
        "name": "Jama Masjid kayamganj",
        "main_category": "Mosque",
        "address": "H82R+VH9 Jama Masjid kayamganj, MDR 110W, Kaimganj, Uttar Pradesh 209502",
        "detailed_address": {
            "ward": null,
            "street": "H82R+VH9, MDR 110W",
            "city": "Kaimganj",
            "postal_code": "209502",
            "state": "Uttar Pradesh",
            "country_code": "IN"
        },
        "images": [
            {
                "about": "All",
                "link": "https://streetviewpixels-pa.googleapis.com/v1/thumbnail?panoid=Odf0yWXI4siPxueEy4jQ-A&cb_client=maps_sv.tactile.gps&w=224&h=298&yaw=56.750065&pitch=0&thumbfov=100"
            },
            {
                "about": "Street View & 360deg",
                "link": "https://streetviewpixels-pa.googleapis.com/v1/thumbnail?panoid=Odf0yWXI4siPxueEy4jQ-A&cb_client=maps_sv.tactile.gps&w=224&h=298&yaw=56.750065&pitch=0&thumbfov=100"
            }
        ],
        "link": "https://www.google.com/maps/place/Jama+Masjid+kayamganj/data=!4m7!3m6!1s0x39757faed7a4da2f:0xba752f16d50b2959!8m2!3d27.552171!4d79.3414935!16s%2Fg%2F11xbtjttv!19sChIJL9qk165_dTkRWSkL1RYvdbo?authuser=0&hl=en&rclk=1",
        "coordinates": {
            "latitude": 27.552170999999998,
            "longitude": 79.3414935
        }
    },
    {
        "name": "Jama Masjid Lalbagh",
        "main_category": "Mosque",
        "address": "H84X+2CR Jama Masjid Lalbagh, Gird Kaim Ganj, Uttar Pradesh 209502",
        "detailed_address": {
            "ward": null,
            "street": "H84X+2CR",
            "city": "Gird Kaim Ganj",
            "postal_code": "209502",
            "state": "Uttar Pradesh",
            "country_code": "IN"
        },
        "images": [
            {
                "about": "All",
                "link": "https://lh5.googleusercontent.com/p/AF1QipPl9c492XgsaRy1HrDVczQVR09WdWNQXJm5Vfez=w224-h335-k-no"
            },
            {
                "about": "Dome",
                "link": "https://lh5.googleusercontent.com/p/AF1QipO1Jj1XUIVuQzDvYqYNt5RfncF8j9H80AzevP5m=w298-h298-k-no"
            },
            {
                "about": "Videos",
                "link": "https://lh5.googleusercontent.com/p/AF1QipOee8hiVyYZnDXM-PB_9JqL5MMyiprFa5fE3keE=w224-h398-k-no"
            }
        ],
        "link": "https://www.google.com/maps/place/Jama+Masjid+Lalbagh/data=!4m7!3m6!1s0x39757fb18f289ab9:0xb744f91ebe76c426!8m2!3d27.5551041!4d79.3485151!16s%2Fg%2F11f121xd2j!19sChIJuZooj7F_dTkRJsR2vh75RLc?authuser=0&hl=en&rclk=1",
        "coordinates": {
            "latitude": 27.555104099999998,
            "longitude": 79.3485151
        }
    },
    {
        "name": "Subhan Pur Wali Mazjid",
        "main_category": "Mosque",
        "address": "G8VP+745 Subhan Pur Wali Mazjid, Subhan Pur, Uttar Pradesh 209502",
        "detailed_address": {
            "ward": null,
            "street": "G8VP+745",
            "city": "Subhan Pur",
            "postal_code": "209502",
            "state": "Uttar Pradesh",
            "country_code": "IN"
        },
        "images": [
            {
                "about": "All",
                "link": "https://lh5.googleusercontent.com/p/AF1QipMpMvpJ3DGXC_gagUu2xOSImoOw6Lwyx-y9_lZg=w541-h298-k-no"
            },
            {
                "about": "Videos",
                "link": "https://lh5.googleusercontent.com/p/AF1QipPXmKbNE5648ex0ZtQKhpShfIhEd_kk6ugoeIrq=w529-h298-k-no"
            }
        ],
        "link": "https://www.google.com/maps/place/Subhan+Pur+Wali+Mazjid/data=!4m7!3m6!1s0x39757fa75674d65d:0x5bacbf02dab084c9!8m2!3d27.5431497!4d79.3353577!16s%2Fg%2F11fzf37jr0!19sChIJXdZ0Vqd_dTkRyYSw2gK_rFs?authuser=0&hl=en&rclk=1",
        "coordinates": {
            "latitude": 27.543149699999997,
            "longitude": 79.3353577
        }
    },
    {
        "name": "Dabbashah miyan masjid",
        "main_category": "Mosque",
        "address": "G8VV+VWV Dabbashah miyan masjid, Kuberpur, Uttar Pradesh 209502",
        "detailed_address": {
            "ward": null,
            "street": "G8VV+VWV",
            "city": "Kuberpur",
            "postal_code": "209502",
            "state": "Uttar Pradesh",
            "country_code": "IN"
        },
        "images": [
            {
                "about": "All",
                "link": "https://lh5.googleusercontent.com/p/AF1QipNXItGLv7QT8t7Rfd7zEnteNxTrG_RMfJ1NZR7P=w224-h298-k-no"
            },
            {
                "about": "Dome",
                "link": "https://lh5.googleusercontent.com/p/AF1QipO493IsvcqLRCe25Qjz7w6zqewYb6IqwfyLCKGb=w224-h298-k-no"
            }
        ],
        "link": "https://www.google.com/maps/place/Dabbashah+miyan+masjid/data=!4m7!3m6!1s0x39757fc41c67afab:0xd95eb20d267fcb5b!8m2!3d27.5447412!4d79.3447852!16s%2Fg%2F11sprjs0cm!19sChIJq69nHMR_dTkRW8t_Jg2yXtk?authuser=0&hl=en&rclk=1",
        "coordinates": {
            "latitude": 27.544741199999997,
            "longitude": 79.34478519999999
        }
    },
    {
        "name": "Badi Masjid Jatwara",
        "main_category": "Mosque",
        "address": "H82J+VX4 Badi Masjid Jatwara, Jatwara Rd, Kaimganj, Uttar Pradesh 209502",
        "detailed_address": {
            "ward": null,
            "street": "H82J+VX4, Jatwara Rd",
            "city": "Kaimganj",
            "postal_code": "209502",
            "state": "Uttar Pradesh",
            "country_code": "IN"
        },
        "images": [
            {
                "about": "All",
                "link": "https://streetviewpixels-pa.googleapis.com/v1/thumbnail?panoid=5ayLCXi7vWjcWyP8k4xlRQ&cb_client=maps_sv.tactile.gps&w=224&h=298&yaw=139.98088&pitch=0&thumbfov=100"
            },
            {
                "about": "Street View & 360deg",
                "link": "https://streetviewpixels-pa.googleapis.com/v1/thumbnail?panoid=5ayLCXi7vWjcWyP8k4xlRQ&cb_client=maps_sv.tactile.gps&w=224&h=298&yaw=139.98088&pitch=0&thumbfov=100"
            }
        ],
        "link": "https://www.google.com/maps/place/Badi+Masjid+Jatwara/data=!4m7!3m6!1s0x39757f06e2a27da1:0xfc8ab2a533a84ed6!8m2!3d27.5521335!4d79.3324407!16s%2Fg%2F11g6xqpbbs!19sChIJoX2i4gZ_dTkR1k6oM6Wyivw?authuser=0&hl=en&rclk=1",
        "coordinates": {
            "latitude": 27.5521335,
            "longitude": 79.33244069999999
        }
    },
    {
        "name": "Masjid hidayat damdama",
        "main_category": "Mosque",
        "address": "G9X2+256 Masjid hidayat damdama, Farrukhabad Road, Kaimganj, Uttar Pradesh 209502",
        "detailed_address": {
            "ward": null,
            "street": "G9X2+256, Farrukhabad Road",
            "city": "Kaimganj",
            "postal_code": "209502",
            "state": "Uttar Pradesh",
            "country_code": "IN"
        },
        "images": [
            {
                "about": "All",
                "link": "https://lh5.googleusercontent.com/p/AF1QipMr-VRJsfzf-Z0nQC7EhbugSM0OEQo5uWtdr7Be=w397-h298-k-no"
            },
            {
                "about": "Videos",
                "link": "https://lh5.googleusercontent.com/p/AF1QipOhTCXyZNrDDwiLiBVCmzgBUlWArLrZTpRhWFyV=w224-h398-k-no"
            }
        ],
        "link": "https://www.google.com/maps/place/Masjid+hidayat+damdama/data=!4m7!3m6!1s0x39757f7dc0dac8bb:0x129a74786ec0df84!8m2!3d27.5475256!4d79.350387!16s%2Fg%2F11h77zn_j4!19sChIJu8jawH1_dTkRhN_Abnh0mhI?authuser=0&hl=en&rclk=1",
        "coordinates": {
            "latitude": 27.5475256,
            "longitude": 79.350387
        }
    },
    {
        "name": "Jama Masjid Katra Rahmat Khan",
        "main_category": "Mosque",
        "address": "H955+485 Jama Masjid Katra Rahmat Khan, Katra Rahmat Khan Rd, Kaimganj, Maursidabad, Uttar Pradesh 209502",
        "detailed_address": {
            "ward": null,
            "street": "H955+485, Katra Rahmat Khan Rd",
            "city": "Kaimganj, Maursidabad",
            "postal_code": "209502",
            "state": "Uttar Pradesh",
            "country_code": "IN"
        },
        "images": [
            {
                "about": "All",
                "link": "https://lh5.googleusercontent.com/p/AF1QipPVHVZw2Egyxzo7BUrd7WnA8O3MtP3-Ypw_pjDW=w397-h298-k-no"
            }
        ],
        "link": "https://www.google.com/maps/place/Jama+Masjid+Katra+Rahmat+Khan/data=!4m7!3m6!1s0x39757fca731e08c3:0x1a927a3d1a5b994!8m2!3d27.557762!4d79.358345!16s%2Fg%2F11g8h0n5d3!19sChIJwwgec8p_dTkRlLml0aMnqQE?authuser=0&hl=en&rclk=1",
        "coordinates": {
            "latitude": 27.557762,
            "longitude": 79.358345
        }
    },
    {
        "name": "Masjid Mohammad (KhinniWali Masjid)",
        "main_category": "Mosque",
        "address": "H82X+89M Masjid Mohammad (KhinniWali Masjid), Gird Kaim Ganj, Uttar Pradesh 209502",
        "detailed_address": {
            "ward": null,
            "street": "H82X+89M",
            "city": "Gird Kaim Ganj",
            "postal_code": "209502",
            "state": "Uttar Pradesh",
            "country_code": "IN"
        },
        "images": [
            {
                "about": "All",
                "link": "https://lh5.googleusercontent.com/p/AF1QipMQiCbysNeV6-YEve2N0SLUNfi-XSAX2zgXtGWJ=w398-h298-k-no"
            },
            {
                "about": "Dome",
                "link": "https://lh5.googleusercontent.com/p/AF1QipOxVCiYZ2kndiiLPdd-xvR3jheD4BWDcvJLSCWk=w224-h298-k-no"
            }
        ],
        "link": "https://www.google.com/maps/place/Masjid+Mohammad+%28KhinniWali+Masjid%29/data=!4m7!3m6!1s0x39757fb069164195:0xef143102711a2726!8m2!3d27.5508393!4d79.3484317!16s%2Fg%2F11g6ms6nj4!19sChIJlUEWabB_dTkRJicacQIxFO8?authuser=0&hl=en&rclk=1",
        "coordinates": {
            "latitude": 27.5508393,
            "longitude": 79.34843169999999
        }
    },
    {
        "name": "Charhao Wali Masjid",
        "main_category": "Mosque",
        "address": "G8RQ+G34 Charhao Wali Masjid, Subhan Pur, Uttar Pradesh 209502",
        "detailed_address": {
            "ward": null,
            "street": "G8RQ+G34",
            "city": "Subhan Pur",
            "postal_code": "209502",
            "state": "Uttar Pradesh",
            "country_code": "IN"
        },
        "images": [],
        "link": "https://www.google.com/maps/place/Charhao+Wali+Masjid/data=!4m7!3m6!1s0x39757fa0e6af0fc1:0xeb51ff63a20143f0!8m2!3d27.541252!4d79.3376992!16s%2Fg%2F11gfh7gv0m!19sChIJwQ-v5qB_dTkR8EMBomP_Ues?authuser=0&hl=en&rclk=1",
        "coordinates": {
            "latitude": 27.541252,
            "longitude": 79.3376992
        }
    },
    {
        "name": "Chilanka Wali Masjid",
        "main_category": "Mosque",
        "address": "G8XQ+GXC Chilanka Wali Masjid, Kaimganj, Uttar Pradesh 209502",
        "detailed_address": {
            "ward": null,
            "street": "G8XQ+GXC",
            "city": "Kaimganj",
            "postal_code": "209502",
            "state": "Uttar Pradesh",
            "country_code": "IN"
        },
        "images": [],
        "link": "https://www.google.com/maps/place/Chilanka+Wali+Masjid/data=!4m7!3m6!1s0x39757fa61c49125f:0x249663841d7f04c5!8m2!3d27.5488009!4d79.3398978!16s%2Fg%2F11fzf9tggm!19sChIJXxJJHKZ_dTkRxQR_HYRjliQ?authuser=0&hl=en&rclk=1",
        "coordinates": {
            "latitude": 27.5488009,
            "longitude": 79.3398978
        }
    },
    {
        "name": "Mosque Khalakhel",
        "main_category": "Mosque",
        "address": "G9X2+R4Q Mosque Khalakhel, Katra Rahmat Khan, Kaimganj, Uttar Pradesh 209502",
        "detailed_address": {
            "ward": null,
            "street": "G9X2+R4Q",
            "city": "Katra Rahmat Khan, Kaimganj",
            "postal_code": "209502",
            "state": "Uttar Pradesh",
            "country_code": "IN"
        },
        "images": [
            {
                "about": "All",
                "link": "https://lh5.googleusercontent.com/p/AF1QipPbRyfHT-l-C_XP9zF70yO4FkUYNpRQg0LaEdiO=w224-h298-k-no"
            },
            {
                "about": "Street View & 360deg",
                "link": "https://streetviewpixels-pa.googleapis.com/v1/thumbnail?panoid=IgiqwI1EDFrG5yUXMDcJNg&cb_client=maps_sv.tactile.gps&w=224&h=298&yaw=306.9532&pitch=0&thumbfov=100"
            },
            {
                "about": "Videos",
                "link": "https://lh5.googleusercontent.com/p/AF1QipPlFle3A6WVkc-9jAY7ccwI-ggtP4EavTQ9TR74=w224-h398-k-no"
            }
        ],
        "link": "https://www.google.com/maps/place/Mosque+Khalakhel/data=!4m7!3m6!1s0x39757fba768d1ded:0xc5dd4c7fc42448c!8m2!3d27.5495867!4d79.3503471!16s%2Fg%2F11f105_1gt!19sChIJ7R2Ndrp_dTkRjERC_MfUXQw?authuser=0&hl=en&rclk=1",
        "coordinates": {
            "latitude": 27.5495867,
            "longitude": 79.3503471
        }
    },
    {
        "name": "Masjid",
        "main_category": "Mosque",
        "address": "G8VV+2PQ Masjid, Pitoura, Kaimganj, Uttar Pradesh 209502",
        "detailed_address": {
            "ward": null,
            "street": "G8VV+2PQ",
            "city": "Pitoura, Kaimganj",
            "postal_code": "209502",
            "state": "Uttar Pradesh",
            "country_code": "IN"
        },
        "images": [
            {
                "about": "All",
                "link": "https://lh5.googleusercontent.com/p/AF1QipO8tFFJSnjqOONQPTar2sJpdUCkqrtAe-Sduibb=w224-h398-k-no"
            },
            {
                "about": "Videos",
                "link": "https://lh5.googleusercontent.com/p/AF1QipMGmKapMVH43xVajayfmnlwkxj1CSSDAYhOTRWn=w224-h398-k-no"
            }
        ],
        "link": "https://www.google.com/maps/place/Masjid/data=!4m7!3m6!1s0x39757fa371b826bd:0x6a7f652f77442b13!8m2!3d27.5425971!4d79.3443653!16s%2Fg%2F11f15kllwl!19sChIJvSa4caN_dTkREytEdy9lf2o?authuser=0&hl=en&rclk=1",
        "coordinates": {
            "latitude": 27.5425971,
            "longitude": 79.34436529999999
        }
    },
    {
        "name": "Masjid Subhaan Ali Khan",
        "main_category": "Mosque",
        "address": "Masjid Subhaan Ali Khan, Kuberpur, near Primary School, Kaimganj, Uttar Pradesh 209502",
        "detailed_address": {
            "ward": null,
            "street": "Kuberpur, near Primary School",
            "city": "Kaimganj, Kuberpur",
            "postal_code": "209502",
            "state": "Uttar Pradesh",
            "country_code": "IN"
        },
        "images": [
            {
                "about": "All",
                "link": "https://lh5.googleusercontent.com/p/AF1QipNuCTaA-0l9CRuCgmKMgz4_JYWFLk_aSOQcknqj=w528-h298-k-no"
            },
            {
                "about": "By owner",
                "link": "https://lh5.googleusercontent.com/p/AF1QipNuCTaA-0l9CRuCgmKMgz4_JYWFLk_aSOQcknqj=w528-h298-k-no"
            }
        ],
        "link": "https://www.google.com/maps/place/Masjid+Subhaan+Ali+Khan/data=!4m7!3m6!1s0x39757fbba4707415:0x11d12409c990d470!8m2!3d27.5435248!4d79.347182!16s%2Fg%2F11hrlgjsl_!19sChIJFXRwpLt_dTkRcNSQyQkk0RE?authuser=0&hl=en&rclk=1",
        "coordinates": {
            "latitude": 27.5435248,
            "longitude": 79.34718199999999
        }
    },
    {
        "name": "Eidgah",
        "main_category": "Mosque",
        "address": "H85W+X59 Eidgah, Hamirpur Khas, Uttar Pradesh 209502",
        "detailed_address": {
            "ward": null,
            "street": "H85W+X59",
            "city": "Hamirpur Khas",
            "postal_code": "209502",
            "state": "Uttar Pradesh",
            "country_code": "IN"
        },
        "images": [
            {
                "about": "All",
                "link": "https://streetviewpixels-pa.googleapis.com/v1/thumbnail?panoid=1C352i4dxgxbqb9v_uh6OQ&cb_client=maps_sv.tactile.gps&w=224&h=298&yaw=170.70073&pitch=0&thumbfov=100"
            },
            {
                "about": "Street View & 360deg",
                "link": "https://streetviewpixels-pa.googleapis.com/v1/thumbnail?panoid=1C352i4dxgxbqb9v_uh6OQ&cb_client=maps_sv.tactile.gps&w=224&h=298&yaw=170.70073&pitch=0&thumbfov=100"
            }
        ],
        "link": "https://www.google.com/maps/place/Eidgah/data=!4m7!3m6!1s0x39757fad41541a2f:0x82474945503c6b07!8m2!3d27.5599183!4d79.3454816!16s%2Fg%2F11fzf4g28l!19sChIJLxpUQa1_dTkRB2s8UEVJR4I?authuser=0&hl=en&rclk=1",
        "coordinates": {
            "latitude": 27.5599183,
            "longitude": 79.3454816
        }
    },
    {
        "name": "Kalakhel Masjid",
        "main_category": "Mosque",
        "address": "H922+6H7 Kalakhel Masjid, Kayamganj - Shamshabad Rd, Kaimganj, Uttar Pradesh 209502",
        "detailed_address": {
            "ward": null,
            "street": "H922+6H7, Kayamganj - Shamshabad Rd",
            "city": "Kaimganj",
            "postal_code": "209502",
            "state": "Uttar Pradesh",
            "country_code": "IN"
        },
        "images": [
            {
                "about": "All",
                "link": "https://lh5.googleusercontent.com/p/AF1QipOPU8RpfvxAigoZKkEWQirwBLeM_k9gIzBiQtpD=w397-h298-k-no"
            },
            {
                "about": "Street View & 360deg",
                "link": "https://streetviewpixels-pa.googleapis.com/v1/thumbnail?panoid=Y1LZQ5KUwMlAXu4kXOqQ2w&cb_client=maps_sv.tactile.gps&w=224&h=298&yaw=284.0852&pitch=0&thumbfov=100"
            }
        ],
        "link": "https://www.google.com/maps/place/Kalakhel+Masjid/data=!4m7!3m6!1s0x39757fb0a543b971:0xc80ba688f2ac76d2!8m2!3d27.5505346!4d79.3514247!16s%2Fg%2F11dfj9_nkk!19sChIJcblDpbB_dTkR0nas8oimC8g?authuser=0&hl=en&rclk=1",
        "coordinates": {
            "latitude": 27.5505346,
            "longitude": 79.3514247
        }
    },
    {
        "name": "Kuberpur Wali Masjid",
        "main_category": "Mosque",
        "address": "G8VV+VWV Kuberpur Wali Masjid, Kuberpur, Uttar Pradesh 209502",
        "detailed_address": {
            "ward": null,
            "street": "G8VV+VWV",
            "city": "Kuberpur",
            "postal_code": "209502",
            "state": "Uttar Pradesh",
            "country_code": "IN"
        },
        "images": [],
        "link": "https://www.google.com/maps/place/Kuberpur+Wali+Masjid/data=!4m7!3m6!1s0x39757fa4940dadd9:0x50773819ec371aca!8m2!3d27.5447437!4d79.3447868!16s%2Fg%2F11fz9x_9p9!19sChIJ2a0NlKR_dTkRyho37Bk4d1A?authuser=0&hl=en&rclk=1",
        "coordinates": {
            "latitude": 27.544743699999998,
            "longitude": 79.3447868
        }
    },
    {
        "name": "Station Mosque",
        "main_category": "Mosque",
        "address": "G8RH+F55 Station Mosque, Railway Station Rd, Kaimganj, Uttar Pradesh 209502",
        "detailed_address": {
            "ward": null,
            "street": "G8RH+F55, Railway Station Rd",
            "city": "Kaimganj",
            "postal_code": "209502",
            "state": "Uttar Pradesh",
            "country_code": "IN"
        },
        "images": [
            {
                "about": "All",
                "link": "https://lh5.googleusercontent.com/p/AF1QipOz2ONQYvySjFbZlbLXBr__g7xVe_3jjRryw69g=w631-h298-k-no"
            }
        ],
        "link": "https://www.google.com/maps/place/Station+Mosque/data=!4m7!3m6!1s0x39757f2c6e8c7da9:0xf299efd6ba4f1411!8m2!3d27.5411492!4d79.3279845!16s%2Fg%2F11h3qcdhy4!19sChIJqX2Mbix_dTkRERRPutbvmfI?authuser=0&hl=en&rclk=1",
        "coordinates": {
            "latitude": 27.5411492,
            "longitude": 79.3279845
        }
    },
    {
        "name": "Gadi Wali Masjid",
        "main_category": "Mosque",
        "address": "G8XV+RV5 Gadi Wali Masjid, Gird Kaim Ganj, Uttar Pradesh 209502",
        "detailed_address": {
            "ward": null,
            "street": "G8XV+RV5",
            "city": "Gird Kaim Ganj",
            "postal_code": "209502",
            "state": "Uttar Pradesh",
            "country_code": "IN"
        },
        "images": [],
        "link": "https://www.google.com/maps/place/Gadi+Wali+Masjid/data=!4m7!3m6!1s0x39757faf89779f4b:0x62d99f5f9ecf7128!8m2!3d27.5495201!4d79.3447316!16s%2Fg%2F11gbx947rk!19sChIJS593ia9_dTkRKHHPnl-f2WI?authuser=0&hl=en&rclk=1",
        "coordinates": {
            "latitude": 27.5495201,
            "longitude": 79.3447316
        }
    },
    {
        "name": "Dare Wali Masjid",
        "main_category": "Mosque",
        "address": "H922+5P9 Dare Wali Masjid, kalakhek, Kaimganj, Uttar Pradesh 209502",
        "detailed_address": {
            "ward": null,
            "street": "H922+5P9",
            "city": "kalakhek, Kaimganj",
            "postal_code": "209502",
            "state": "Uttar Pradesh",
            "country_code": "IN"
        },
        "images": [
            {
                "about": "All",
                "link": "https://lh5.googleusercontent.com/p/AF1QipMpLak-4CEy_VIHJF1fm1qmHHCLVdvS-lKV6KtA=w397-h298-k-no"
            },
            {
                "about": "Street View & 360deg",
                "link": "https://streetviewpixels-pa.googleapis.com/v1/thumbnail?panoid=Ufw5l6nGp-vSfG7G22K0EA&cb_client=maps_sv.tactile.gps&w=224&h=298&yaw=70.71855&pitch=0&thumbfov=100"
            }
        ],
        "link": "https://www.google.com/maps/place/Dare+Wali+Masjid/data=!4m7!3m6!1s0x39757fb0ac261397:0xc0a24081b1a82353!8m2!3d27.5504121!4d79.3518542!16s%2Fg%2F11f106mdc1!19sChIJlxMmrLB_dTkRUyOosYFAosA?authuser=0&hl=en&rclk=1",
        "coordinates": {
            "latitude": 27.5504121,
            "longitude": 79.35185419999999
        }
    },
    {
        "name": "Masjid kaim khan",
        "main_category": "Mosque",
        "address": "H82Q+4F3 Masjid kaim khan, Kaimganj, Uttar Pradesh 209502",
        "detailed_address": {
            "ward": null,
            "street": "H82Q+4F3",
            "city": "Kaimganj",
            "postal_code": "209502",
            "state": "Uttar Pradesh",
            "country_code": "IN"
        },
        "images": [
            {
                "about": "All",
                "link": "https://lh5.googleusercontent.com/p/AF1QipO7tHGG2j-BkHKsJp0He-PkjVIevXVuJvi-_l_t=w397-h298-k-no"
            }
        ],
        "link": "https://www.google.com/maps/place/Masjid+kaim+khan/data=!4m7!3m6!1s0x39757fa88d220ff7:0xd1e7d511841c8ad1!8m2!3d27.5502623!4d79.3386594!16s%2Fg%2F11fzf8fpnb!19sChIJ9w8ijah_dTkR0YochBHV59E?authuser=0&hl=en&rclk=1",
        "coordinates": {
            "latitude": 27.5502623,
            "longitude": 79.3386594
        }
    },
    {
        "name": "Masjid MADEENA",
        "main_category": "Mosque",
        "address": "H84P+7Q9 Masjid MADEENA, Nunhai St, Kaimganj, Uttar Pradesh 209502",
        "detailed_address": {
            "ward": null,
            "street": "H84P+7Q9, Nunhai St",
            "city": "Kaimganj",
            "postal_code": "209502",
            "state": "Uttar Pradesh",
            "country_code": "IN"
        },
        "images": [
            {
                "about": "All",
                "link": "https://lh5.googleusercontent.com/p/AF1QipNNmwvceQrU6McLS99qYzVuPTK666WCEoynVVeg=w224-h398-k-no"
            }
        ],
        "link": "https://www.google.com/maps/place/Masjid+MADEENA/data=!4m7!3m6!1s0x39757faa3c1d0f77:0x16011a132898369e!8m2!3d27.555655!4d79.3369888!16s%2Fg%2F11hcf0npwn!19sChIJdw8dPKp_dTkRnjaYKBMaARY?authuser=0&hl=en&rclk=1",
        "coordinates": {
            "latitude": 27.555654999999998,
            "longitude": 79.3369888
        }
    },
    {
        "name": "masjid kalakhel",
        "main_category": "Mosque",
        "address": "H82X+QRH masjid kalakhel, Gird Kaim Ganj, Uttar Pradesh 209502",
        "detailed_address": {
            "ward": null,
            "street": "H82X+QRH",
            "city": "Gird Kaim Ganj",
            "postal_code": "209502",
            "state": "Uttar Pradesh",
            "country_code": "IN"
        },
        "images": [
            {
                "about": "All",
                "link": "https://streetviewpixels-pa.googleapis.com/v1/thumbnail?panoid=M1EQQRIq91otVsnKquxDxg&cb_client=maps_sv.tactile.gps&w=224&h=298&yaw=346.80325&pitch=0&thumbfov=100"
            },
            {
                "about": "Street View & 360deg",
                "link": "https://streetviewpixels-pa.googleapis.com/v1/thumbnail?panoid=M1EQQRIq91otVsnKquxDxg&cb_client=maps_sv.tactile.gps&w=224&h=298&yaw=346.80325&pitch=0&thumbfov=100"
            },
            {
                "about": "Videos",
                "link": "https://lh5.googleusercontent.com/p/AF1QipOEWjenqDGic-ox__vA9dkigs3N2QSpyajCR0CW=w238-h298-k-no"
            }
        ],
        "link": "https://www.google.com/maps/place/masjid+kalakhel/data=!4m7!3m6!1s0x39757fb0f742d65b:0x39fc6035d0aba78!8m2!3d27.5519444!4d79.3496032!16s%2Fg%2F11fylycbvv!19sChIJW9ZC97B_dTkReLoKXQPGnwM?authuser=0&hl=en&rclk=1",
        "coordinates": {
            "latitude": 27.5519444,
            "longitude": 79.34960319999999
        }
    },
    {
        "name": "Nandu Kha Wali Masjid",
        "main_category": "Mosque",
        "address": "G8XW+53W Nandu Kha Wali Masjid, Gird Kaim Ganj, Uttar Pradesh 209502",
        "detailed_address": {
            "ward": null,
            "street": "G8XW+53W",
            "city": "Gird Kaim Ganj",
            "postal_code": "209502",
            "state": "Uttar Pradesh",
            "country_code": "IN"
        },
        "images": [],
        "link": "https://www.google.com/maps/place/Nandu+Kha+Wali+Masjid/data=!4m7!3m6!1s0x39757fa54006070d:0xb5b75a559c883449!8m2!3d27.5479767!4d79.3451896!16s%2Fg%2F11f1585hfn!19sChIJDQcGQKV_dTkRSTSInFVat7U?authuser=0&hl=en&rclk=1",
        "coordinates": {
            "latitude": 27.5479767,
            "longitude": 79.3451896
        }
    },
    {
        "name": "Lalbagh khajuro wali masjid",
        "main_category": "Mosque",
        "address": "H84W+QPJ Lalbagh khajuro wali masjid, Kaimganj, Uttar Pradesh 209502",
        "detailed_address": {
            "ward": null,
            "street": "H84W+QPJ",
            "city": "Kaimganj",
            "postal_code": "209502",
            "state": "Uttar Pradesh",
            "country_code": "IN"
        },
        "images": [],
        "link": "https://www.google.com/maps/place/Lalbagh+khajuro+wali+masjid/data=!4m7!3m6!1s0x39757f8cf1a652b5:0x150c47b79e6b7e42!8m2!3d27.5569694!4d79.3467573!16s%2Fg%2F11smmbtnww!19sChIJtVKm8Yx_dTkRQn5rnrdHDBU?authuser=0&hl=en&rclk=1",
        "coordinates": {
            "latitude": 27.5569694,
            "longitude": 79.3467573
        }
    },
    {
        "name": "Masjid Abubakar",
        "main_category": "Mosque",
        "address": "G8RV+P3G Masjid Abubakar, Pitoura, Kaimganj, Uttar Pradesh 209502",
        "detailed_address": {
            "ward": null,
            "street": "G8RV+P3G",
            "city": "Pitoura, Kaimganj",
            "postal_code": "209502",
            "state": "Uttar Pradesh",
            "country_code": "IN"
        },
        "images": [
            {
                "about": "All",
                "link": "https://lh5.googleusercontent.com/p/AF1QipPAMkOhW5HNzwfltr6xLL4g8vfXf2orswr8bjco=w397-h298-k-no"
            }
        ],
        "link": "https://www.google.com/maps/place/Masjid+Abubakar/data=!4m7!3m6!1s0x39757f7b066650f3:0x49db1c64aed38ea9!8m2!3d27.5418053!4d79.3426884!16s%2Fg%2F11g3gwfy9v!19sChIJ81BmBnt_dTkRqY7TrmQc20k?authuser=0&hl=en&rclk=1",
        "coordinates": {
            "latitude": 27.5418053,
            "longitude": 79.3426884
        }
    },
    {
        "name": "Chand Masjid",
        "main_category": "Mosque",
        "address": "H83H+847 Chand Masjid, Chilouli, Kaimganj, Uttar Pradesh 209502",
        "detailed_address": {
            "ward": null,
            "street": "H83H+847",
            "city": "Chilouli, Kaimganj",
            "postal_code": "209502",
            "state": "Uttar Pradesh",
            "country_code": "IN"
        },
        "images": [
            {
                "about": "All",
                "link": "https://lh5.googleusercontent.com/p/AF1QipO7WpegkQDq0BOCFTiGyyezgV4_04BzSRrs1Ksf=w397-h298-k-no"
            }
        ],
        "link": "https://www.google.com/maps/place/Chand+Masjid/data=!4m7!3m6!1s0x39757f0471a48eaf:0xa87b012933219afa!8m2!3d27.5532806!4d79.327782!16s%2Fg%2F11ddx5015d!19sChIJr46kcQR_dTkR-pohMykBe6g?authuser=0&hl=en&rclk=1",
        "coordinates": {
            "latitude": 27.553280599999997,
            "longitude": 79.327782
        }
    },
    {
        "name": "Qadeemi Masjid",
        "main_category": "Mosque",
        "address": "G8VR+7X5 Qadeemi Masjid, Pitoura, Kaimganj, Uttar Pradesh 209502",
        "detailed_address": {
            "ward": null,
            "street": "G8VR+7X5",
            "city": "Pitoura, Kaimganj",
            "postal_code": "209502",
            "state": "Uttar Pradesh",
            "country_code": "IN"
        },
        "images": [],
        "link": "https://www.google.com/maps/place/Qadeemi+Masjid/data=!4m7!3m6!1s0x39757f55fb4579cd:0x1236697b6c6704d9!8m2!3d27.5431276!4d79.3424742!16s%2Fg%2F11h3nzq3zj!19sChIJzXlF-1V_dTkR2QRnbHtpNhI?authuser=0&hl=en&rclk=1",
        "coordinates": {
            "latitude": 27.5431276,
            "longitude": 79.3424742
        }
    },
    {
        "name": "Masjid",
        "main_category": "Mosque",
        "address": "H84P+34H Masjid, Kaimganj, Uttar Pradesh 209502",
        "detailed_address": {
            "ward": null,
            "street": "H84P+34H",
            "city": "Kaimganj",
            "postal_code": "209502",
            "state": "Uttar Pradesh",
            "country_code": "IN"
        },
        "images": [
            {
                "about": "All",
                "link": "https://streetviewpixels-pa.googleapis.com/v1/thumbnail?panoid=nKnLkcJ3L3khey_UloLJ5Q&cb_client=maps_sv.tactile.gps&w=224&h=298&yaw=249.23477&pitch=0&thumbfov=100"
            },
            {
                "about": "Street View & 360deg",
                "link": "https://streetviewpixels-pa.googleapis.com/v1/thumbnail?panoid=nKnLkcJ3L3khey_UloLJ5Q&cb_client=maps_sv.tactile.gps&w=224&h=298&yaw=249.23477&pitch=0&thumbfov=100"
            }
        ],
        "link": "https://www.google.com/maps/place/Masjid/data=!4m7!3m6!1s0x39757faa08096987:0x6a67d5c317a9d4a8!8m2!3d27.555186!4d79.3353519!16s%2Fg%2F11f15m13t7!19sChIJh2kJCKp_dTkRqNSpF8PVZ2o?authuser=0&hl=en&rclk=1",
        "coordinates": {
            "latitude": 27.555186,
            "longitude": 79.33535189999999
        }
    },
    {
        "name": "Masjid Hidayat Chhipatti Chilanka",
        "main_category": "Mosque",
        "address": "Masjid Hidayat Chhipatti Chilanka, Gangwar Enclave, Patwan Gali, Kaimganj, Uttar Pradesh 209502",
        "detailed_address": {
            "ward": null,
            "street": "Gangwar Enclave, Patwan Gali",
            "city": "Kaimganj",
            "postal_code": "209502",
            "state": "Uttar Pradesh",
            "country_code": "IN"
        },
        "images": [],
        "link": "https://www.google.com/maps/place/Masjid+Hidayat+Chhipatti+Chilanka/data=!4m7!3m6!1s0x39757ff5169c4a6b:0x488199c0a2a06f39!8m2!3d27.5493317!4d79.3430513!16s%2Fg%2F11n95tvj35!19sChIJa0qcFvV_dTkROW-gosCZgUg?authuser=0&hl=en&rclk=1",
        "coordinates": {
            "latitude": 27.5493317,
            "longitude": 79.3430513
        }
    },
    {
        "name": "Nuree Masjid",
        "main_category": "Mosque",
        "address": "H84P+47X Nuree Masjid, Kaimganj, Uttar Pradesh 209502",
        "detailed_address": {
            "ward": null,
            "street": "H84P+47X",
            "city": "Kaimganj",
            "postal_code": null,
            "state": "Uttar Pradesh",
            "country_code": "IN"
        },
        "images": [
            {
                "about": "All",
                "link": "https://streetviewpixels-pa.googleapis.com/v1/thumbnail?panoid=C4PML-mSCVLhDcsTg4Wptw&cb_client=maps_sv.tactile.gps&w=224&h=298&yaw=275.8003&pitch=0&thumbfov=100"
            },
            {
                "about": "Street View & 360deg",
                "link": "https://streetviewpixels-pa.googleapis.com/v1/thumbnail?panoid=C4PML-mSCVLhDcsTg4Wptw&cb_client=maps_sv.tactile.gps&w=224&h=298&yaw=275.8003&pitch=0&thumbfov=100"
            }
        ],
        "link": "https://www.google.com/maps/place/Nuree+Masjid/data=!4m7!3m6!1s0x39757f24d6e7ca0f:0xd839d8b9d7b32a41!8m2!3d27.555355!4d79.3357346!16s%2Fg%2F11p_1b3s_4!19sChIJD8rn1iR_dTkRQSqz17nYOdg?authuser=0&hl=en&rclk=1",
        "coordinates": {
            "latitude": 27.555355,
            "longitude": 79.3357346
        }
    },
    {
        "name": "Choti Masjid",
        "main_category": "Mosque",
        "address": "H82R+X99 Choti Masjid, Kaimganj, Uttar Pradesh 209502",
        "detailed_address": {
            "ward": null,
            "street": "H82R+X99",
            "city": "Kaimganj",
            "postal_code": "209502",
            "state": "Uttar Pradesh",
            "country_code": "IN"
        },
        "images": [
            {
                "about": "All",
                "link": "https://streetviewpixels-pa.googleapis.com/v1/thumbnail?panoid=Zck6xg_U1gdIuDZw1_Bd6g&cb_client=maps_sv.tactile.gps&w=224&h=298&yaw=122.55182&pitch=0&thumbfov=100"
            },
            {
                "about": "Street View & 360deg",
                "link": "https://streetviewpixels-pa.googleapis.com/v1/thumbnail?panoid=Zck6xg_U1gdIuDZw1_Bd6g&cb_client=maps_sv.tactile.gps&w=224&h=298&yaw=122.55182&pitch=0&thumbfov=100"
            }
        ],
        "link": "https://www.google.com/maps/place/Choti+Masjid/data=!4m7!3m6!1s0x39757faed3638901:0x8961709ca1091df!8m2!3d27.5524007!4d79.3409824!16s%2Fg%2F11fzf3j551!19sChIJAYlj065_dTkR35EQygkXlgg?authuser=0&hl=en&rclk=1",
        "coordinates": {
            "latitude": 27.5524007,
            "longitude": 79.3409824
        }
    },
    {
        "name": "Masjid",
        "main_category": "Mosque",
        "address": "G8XV+P66 Masjid, Kaimganj, Uttar Pradesh 209502",
        "detailed_address": {
            "ward": null,
            "street": "G8XV+P66",
            "city": "Kaimganj",
            "postal_code": "209502",
            "state": "Uttar Pradesh",
            "country_code": "IN"
        },
        "images": [
            {
                "about": "All",
                "link": "https://lh5.googleusercontent.com/p/AF1QipO_ZV2HVef6vTomio38WoisIjWf-Sdf8EJRJ9iN=w224-h298-k-no"
            }
        ],
        "link": "https://www.google.com/maps/place/Masjid/data=!4m7!3m6!1s0x39757faf7d4c1533:0x1b46981651af5b98!8m2!3d27.5492992!4d79.343007!16s%2Fg%2F11f15kg5q2!19sChIJMxVMfa9_dTkRmFuvURaYRhs?authuser=0&hl=en&rclk=1",
        "coordinates": {
            "latitude": 27.5492992,
            "longitude": 79.343007
        }
    },
    {
        "name": "yayapur masjid",
        "main_category": "Mosque",
        "address": "G8VF+FF6 yayapur masjid, Kaimganj, Uttar Pradesh 209502",
        "detailed_address": {
            "ward": null,
            "street": "G8VF+FF6",
            "city": "Kaimganj",
            "postal_code": "209502",
            "state": "Uttar Pradesh",
            "country_code": "IN"
        },
        "images": [],
        "link": "https://www.google.com/maps/place/yayapur+masjid/data=!4m7!3m6!1s0x39757fe3810787c1:0x196deddadbbd9c9a!8m2!3d27.5436654!4d79.323629!16s%2Fg%2F11pb6x3jwd!19sChIJwYcHgeN_dTkRmpy929rtbRk?authuser=0&hl=en&rclk=1",
        "coordinates": {
            "latitude": 27.5436654,
            "longitude": 79.323629
        }
    },
    {
        "name": "Masjid Kuberpur",
        "main_category": "Mosque",
        "address": "G9Q2+V8C Masjid Kuberpur, Kuberpur, Uttar Pradesh 209502",
        "detailed_address": {
            "ward": null,
            "street": "G9Q2+V8C",
            "city": "Kuberpur",
            "postal_code": "209502",
            "state": "Uttar Pradesh",
            "country_code": "IN"
        },
        "images": [],
        "link": "https://www.google.com/maps/place/Masjid+Kuberpur/data=!4m7!3m6!1s0x39757f6000f0b6cd:0xc76c33a7a2c5f463!8m2!3d27.5396857!4d79.35078!16s%2Fg%2F11qn5lcrp3!19sChIJzbbwAGB_dTkRY_TFoqczbMc?authuser=0&hl=en&rclk=1",
        "coordinates": {
            "latitude": 27.5396857,
            "longitude": 79.35078
        }
    },
    {
        "name": "Takiye wali masjid",
        "main_category": "Mosque",
        "address": "H956+64J Takiye wali masjid, Unnamed Road, Kaimganj, Katra Rahmat Khan, Uttar Pradesh 209502",
        "detailed_address": {
            "ward": null,
            "street": "H956+64J, Unnamed Road",
            "city": "Kaimganj, Katra Rahmat Khan",
            "postal_code": "209502",
            "state": "Uttar Pradesh",
            "country_code": "IN"
        },
        "images": [],
        "link": "https://www.google.com/maps/place/Takiye+wali+masjid/data=!4m7!3m6!1s0x39757f1e046127dd:0xe2b14ba5b5547493!8m2!3d27.5580928!4d79.3602684!16s%2Fg%2F11mc555l21!19sChIJ3SdhBB5_dTkRk3RUtaVLseI?authuser=0&hl=en&rclk=1",
        "coordinates": {
            "latitude": 27.558092799999997,
            "longitude": 79.3602684
        }
    }
]