[
    {
        "name": "Badi Masjid Khagaria",
        "main_category": "Mosque",
        "address": "GF3C+J22 Badi Masjid Khagaria, Thana Rd, Gandhi Nagar, Kalibari, Khagaria, Bihar 851204",
        "detailed_address": {
            "ward": "Gandhi Nagar, Kalibari",
            "street": "GF3C+J22, Thana Rd",
            "city": "Khagaria",
            "postal_code": "851204",
            "state": "Bihar",
            "country_code": "IN"
        },
        "images": [],
        "link": "https://www.google.com/maps/place/Badi+Masjid+Khagaria/data=!4m7!3m6!1s0x39f1e46810debc2f:0x54f0a855d1be0097!8m2!3d25.504018!4d86.4700161!16s%2Fg%2F11g9nm4qsn!19sChIJL7zeEGjk8TkRlwC-0VWo8FQ?authuser=0&hl=en&rclk=1",
        "coordinates": {
            "latitude": 25.504018,
            "longitude": 86.4700161
        }
    },
    {
        "name": "Raza Jama Masjid, Bachhauta",
        "main_category": "Mosque",
        "address": "GFC4+HG8 Raza Jama Masjid, Bachhauta, Alauli - Khagaria Rd, Bachhouta, Bihar 851204",
        "detailed_address": {
            "ward": null,
            "street": "GFC4+HG8, Alauli - Khagaria Rd",
            "city": "Bachhouta",
            "postal_code": "851204",
            "state": "Bihar",
            "country_code": "IN"
        },
        "images": [],
        "link": "https://www.google.com/maps/place/Raza+Jama+Masjid,+Bachhauta/data=!4m7!3m6!1s0x39f1e48119567acf:0x450a8f62dd4555fd!8m2!3d25.5214237!4d86.4563231!16s%2Fg%2F11bx65fxp5!19sChIJz3pWGYHk8TkR_VVF3WKPCkU?authuser=0&hl=en&rclk=1",
        "coordinates": {
            "latitude": 25.5214237,
            "longitude": 86.45632309999999
        }
    },
    {
        "name": "Khalifa Masjid, Nala Road",
        "main_category": "Mosque",
        "address": "GF4G+722 Khalifa Masjid, Nala Road, Jay Prakash Nagar, Khagaria, Bihar 851204",
        "detailed_address": {
            "ward": "Jay Prakash Nagar",
            "street": "GF4G+722",
            "city": "Khagaria",
            "postal_code": "851204",
            "state": "Bihar",
            "country_code": "IN"
        },
        "images": [
            {
                "about": "All",
                "link": "https://lh5.googleusercontent.com/p/AF1QipOu0tyKKb5336dWpvTba_jdjGZbPQzzXpyOU7gB=w224-h497-k-no"
            },
            {
                "about": "Dome",
                "link": "https://lh5.googleusercontent.com/p/AF1QipMkOpJOS3p_q4DsxvFbEJeoNVdG-q16XsKVEFtv=w224-h497-k-no"
            },
            {
                "about": "Videos",
                "link": "https://lh5.googleusercontent.com/p/AF1QipNJa2jxvl9J4ozHHm8qW--8igAS82u0Dd2V7GKz=w224-h398-k-no"
            }
        ],
        "link": "https://www.google.com/maps/place/Khalifa+Masjid,+Nala+Road/data=!4m7!3m6!1s0x39f1e46bce0f386b:0x436fc8f692b9d1bb!8m2!3d25.5056451!4d86.4750084!16s%2Fg%2F11g9q68dn2!19sChIJazgPzmvk8TkRu9G5kvbIb0M?authuser=0&hl=en&rclk=1",
        "coordinates": {
            "latitude": 25.5056451,
            "longitude": 86.4750084
        }
    },
    {
        "name": "Qadim Jama Masjid",
        "main_category": "Mosque",
        "address": "GF39+23W Qadim Jama Masjid, Kalibari, Khagaria, Bihar 851204",
        "detailed_address": {
            "ward": "Kalibari",
            "street": "GF39+23W",
            "city": "Khagaria",
            "postal_code": "851204",
            "state": "Bihar",
            "country_code": "IN"
        },
        "images": [
            {
                "about": "All",
                "link": "https://lh5.googleusercontent.com/p/AF1QipM9XY96m9ZpJG9Ngrl4CxA-taHAUanxFF8Heu76=w397-h298-k-no"
            },
            {
                "about": "Videos",
                "link": "https://lh5.googleusercontent.com/p/AF1QipNW2QSQEBR5pKiPvXTUAM8tlG40w3Tz9gEfHTDd=w224-h398-k-no"
            }
        ],
        "link": "https://www.google.com/maps/place/Qadim+Jama+Masjid/data=!4m7!3m6!1s0x39f1e51134b0c3f1:0x46773907930b0523!8m2!3d25.5026125!4d86.4676893!16s%2Fg%2F11ghv4k8vg!19sChIJ8cOwNBHl8TkRIwULkwc5d0Y?authuser=0&hl=en&rclk=1",
        "coordinates": {
            "latitude": 25.502612499999998,
            "longitude": 86.46768929999999
        }
    },
    {
        "name": "Rahmani Masjid",
        "main_category": "Mosque",
        "address": "Rahmani Masjid, Babua Ganj ward no 4, Bihar 851204",
        "detailed_address": {
            "ward": "Dantola, Kalibari",
            "street": "Babua Ganj ward no 4",
            "city": "Khagaria",
            "postal_code": "851204",
            "state": "Bihar",
            "country_code": "IN"
        },
        "images": [
            {
                "about": "All",
                "link": "https://lh5.googleusercontent.com/p/AF1QipM-b5HMjcrJeBUDngfLzOdPat-0OaE6pZYrCRIX=w397-h298-k-no"
            }
        ],
        "link": "https://www.google.com/maps/place/Rahmani+Masjid/data=!4m7!3m6!1s0x39f1e4674d4e08df:0xb86fb9387764f2ca!8m2!3d25.5027617!4d86.4642059!16s%2Fg%2F11hcfn0h8t!19sChIJ3whOTWfk8TkRyvJkdzi5b7g?authuser=0&hl=en&rclk=1",
        "coordinates": {
            "latitude": 25.502761699999997,
            "longitude": 86.4642059
        }
    },
    {
        "name": "Mosque",
        "main_category": "Mosque",
        "address": "GF39+JX2 Mosque, Main Rd, Sagarmal Chowk, Kalibari, Khagaria, Bihar 851204",
        "detailed_address": {
            "ward": "Sagarmal Chowk, Kalibari",
            "street": "GF39+JX2, Main Rd",
            "city": "Khagaria",
            "postal_code": "851204",
            "state": "Bihar",
            "country_code": "IN"
        },
        "images": [],
        "link": "https://www.google.com/maps/place/Mosque/data=!4m7!3m6!1s0x39f1e468719d58ff:0x2e72772a699bc27e!8m2!3d25.5040091!4d86.4699004!16s%2Fg%2F11f104ffyk!19sChIJ_1idcWjk8TkRfsKbaSp3ci4?authuser=0&hl=en&rclk=1",
        "coordinates": {
            "latitude": 25.504009099999998,
            "longitude": 86.4699004
        }
    }
]