[
    {
        "name": "Jama Masjid sohagpur",
        "main_category": "Mosque",
        "address": "8982+8XQ Jama Masjid sohagpur, Gadhi Road Sohagpur, NH 78, Beside Akashwani, Shahdol, Madhya Pradesh 484001",
        "detailed_address": {
            "ward": "Beside Akashwani",
            "street": "8982+8XQ, Gadhi Road Sohagpur, NH 78",
            "city": "Shahdol",
            "postal_code": "484001",
            "state": "Madhya Pradesh",
            "country_code": "IN"
        },
        "images": [
            {
                "about": "All",
                "link": "https://lh5.googleusercontent.com/p/AF1QipP8z2cAsJzsRvJauKHKmT_qe2ZbhQjfSnYu00Xa=w224-h398-k-no"
            },
            {
                "about": "Dome",
                "link": "https://lh5.googleusercontent.com/p/AF1QipN7_WKgccvHYEBFkGPvDEtYFtXmTDc-9-9DAxPd=w224-h298-k-no"
            },
            {
                "about": "Videos",
                "link": "https://lh5.googleusercontent.com/p/AF1QipP7D68WI_Uq4T-4E0-lcKRDkSfgad5IShCrZIyW=w224-h398-k-no"
            },
            {
                "about": "Street View & 360deg",
                "link": "https://streetviewpixels-pa.googleapis.com/v1/thumbnail?panoid=k84tXyNK7UonqJ06VhNemA&cb_client=maps_sv.tactile.gps&w=224&h=298&yaw=256.52765&pitch=0&thumbfov=100"
            }
        ],
        "link": "https://www.google.com/maps/place/Jama+Masjid+sohagpur/data=!4m7!3m6!1s0x3986fab9f4afdd4b:0x4ee7305b695e7fe!8m2!3d23.3156211!4d81.3522617!16s%2Fg%2F11cltwghdw!19sChIJS92v9Ln6hjkR_ueVtgVz7gQ?authuser=0&hl=en&rclk=1",
        "coordinates": {
            "latitude": 23.315621099999998,
            "longitude": 81.3522617
        }
    },
    {
        "name": "Baitul Ajeej Masjid",
        "main_category": "Mosque",
        "address": "887X+693 Baitul Ajeej Masjid, Pandav Nagar, Shahdol, Madhya Pradesh 484001",
        "detailed_address": {
            "ward": "Pandav Nagar",
            "street": "887X+693",
            "city": "Shahdol",
            "postal_code": "484001",
            "state": "Madhya Pradesh",
            "country_code": "IN"
        },
        "images": [
            {
                "about": "All",
                "link": "https://lh5.googleusercontent.com/p/AF1QipMvjVPCeItDCSTKUzUkCeSeGw9kyMfSOg8SNODq=w397-h298-k-no"
            }
        ],
        "link": "https://www.google.com/maps/place/Baitul+Ajeej+Masjid/data=!4m7!3m6!1s0x3986fab701177187:0x2dbdccc8830e1b59!8m2!3d23.3130147!4d81.3484366!16s%2Fg%2F11f2l4s6g9!19sChIJh3EXAbf6hjkRWRsOg8jMvS0?authuser=0&hl=en&rclk=1",
        "coordinates": {
            "latitude": 23.3130147,
            "longitude": 81.3484366
        }
    },
    {
        "name": "Noorani Masjid (Sunnat Jamat)",
        "main_category": "Mosque",
        "address": "79V9+6G6 Noorani Masjid (Sunnat Jamat), Gortara, Shahdol, Madhya Pradesh 484001",
        "detailed_address": {
            "ward": "Gortara",
            "street": "79V9+6G6",
            "city": "Shahdol",
            "postal_code": "484001",
            "state": "Madhya Pradesh",
            "country_code": "IN"
        },
        "images": [
            {
                "about": "All",
                "link": "https://lh5.googleusercontent.com/p/AF1QipNd-jf9py-X-1RqxZmE_Fea4wjUI2L8WzWEQJCw=w224-h298-k-no"
            }
        ],
        "link": "https://www.google.com/maps/place/Noorani+Masjid+%28Sunnat+Jamat%29/data=!4m7!3m6!1s0x3986fae3f4e6cf0b:0xd7ceae436f635f84!8m2!3d23.2930437!4d81.3687689!16s%2Fg%2F11dz3sh53n!19sChIJC8_m9OP6hjkRhF9jb0Ouztc?authuser=0&hl=en&rclk=1",
        "coordinates": {
            "latitude": 23.2930437,
            "longitude": 81.36876889999999
        }
    },
    {
        "name": "Jama Masjid Shahdol",
        "main_category": "Mosque",
        "address": "79R5+WMX Jama Masjid Shahdol, Unnamed Road, Railway Colony, Shahdol, Madhya Pradesh 484001",
        "detailed_address": {
            "ward": "Railway Colony",
            "street": "79R5+WMX, Unnamed Road",
            "city": "Shahdol",
            "postal_code": "484001",
            "state": "Madhya Pradesh",
            "country_code": "IN"
        },
        "images": [
            {
                "about": "All",
                "link": "https://lh5.googleusercontent.com/p/AF1QipPhQM_GbvkFfX1D_FYuX-PtCDXuBGJ5iBfTyugH=w224-h484-k-no"
            },
            {
                "about": "Street View & 360deg",
                "link": "https://streetviewpixels-pa.googleapis.com/v1/thumbnail?panoid=hlEdu6jVJnqcGhLPGoXPPw&cb_client=maps_sv.tactile.gps&w=224&h=298&yaw=27.199364&pitch=0&thumbfov=100"
            }
        ],
        "link": "https://www.google.com/maps/place/Jama+Masjid+Shahdol/data=!4m7!3m6!1s0x3986fba533d679f7:0xa9d156332ce0777e!8m2!3d23.2923541!4d81.3592214!16s%2Fg%2F11gjj30b7v!19sChIJ93nWM6X7hjkRfnfgLDNW0ak?authuser=0&hl=en&rclk=1",
        "coordinates": {
            "latitude": 23.292354099999997,
            "longitude": 81.3592214
        }
    },
    {
        "name": "Noori Masjid Ahley Sunnat Wa Jamat",
        "main_category": "Mosque",
        "address": "Noori Masjid Ahley Sunnat Wa Jamat, Purani Basti, MP SH 9, Bicharpur, Shahdol, Madhya Pradesh 484001",
        "detailed_address": {
            "ward": "Bicharpur",
            "street": "Purani Basti, MP SH 9",
            "city": "Shahdol",
            "postal_code": "484001",
            "state": "Madhya Pradesh",
            "country_code": "IN"
        },
        "images": [
            {
                "about": "All",
                "link": "https://lh5.googleusercontent.com/p/AF1QipPx931y_iZJtbT9ZZNTscZUhiiELd_WF3elwHRN=w397-h298-k-no"
            },
            {
                "about": "Latest",
                "link": "https://lh5.googleusercontent.com/p/AF1QipNHS3XuroVaBS35ib4GiOsoWfvI6bCi1PpIk1R9=w224-h398-k-no"
            },
            {
                "about": "Dome",
                "link": "https://lh5.googleusercontent.com/p/AF1QipPS4EKL6ZunR_m28TNxNmR_Yh8fcpkxOLF2kz1d=w224-h398-k-no"
            },
            {
                "about": "Street View & 360deg",
                "link": "https://streetviewpixels-pa.googleapis.com/v1/thumbnail?panoid=CPlxZPa7qXAs-2kW1J714Q&cb_client=maps_sv.tactile.gps&w=224&h=298&yaw=192.48221&pitch=0&thumbfov=100"
            }
        ],
        "link": "https://www.google.com/maps/place/Noori+Masjid+Ahley+Sunnat+Wa+Jamat/data=!4m7!3m6!1s0x3986fadfa02c83d5:0xc6672bf882548bfb!8m2!3d23.288306!4d81.3593532!16s%2Fg%2F11f3frcz97!19sChIJ1YMsoN_6hjkR-4tUgvgrZ8Y?authuser=0&hl=en&rclk=1",
        "coordinates": {
            "latitude": 23.288306,
            "longitude": 81.3593532
        }
    },
    {
        "name": "Masjid Madarsa Talimul Quran Shahdol",
        "main_category": "Mosque",
        "address": "Masjid Madarsa Talimul Quran Shahdol, Sindhi Bazaar Rd, Railway Colony, Shahdol, Madhya Pradesh 484001",
        "detailed_address": {
            "ward": "Railway Colony",
            "street": "Sindhi Bazaar Rd",
            "city": "Shahdol",
            "postal_code": "484001",
            "state": "Madhya Pradesh",
            "country_code": "IN"
        },
        "images": [
            {
                "about": "All",
                "link": "https://lh5.googleusercontent.com/p/AF1QipNqUtJWepi9nD9GIYz7N1doQFzi2ITq7QnUYVEF=w224-h298-k-no"
            },
            {
                "about": "Street View & 360deg",
                "link": "https://streetviewpixels-pa.googleapis.com/v1/thumbnail?panoid=_wIMQRc6BLLl8zFzovNAdw&cb_client=maps_sv.tactile.gps&w=224&h=298&yaw=311.8061&pitch=0&thumbfov=100"
            },
            {
                "about": "Videos",
                "link": "https://lh5.googleusercontent.com/p/AF1QipPCweq27044StVEP2H8L9caNkYWitikbmffoGgN=w224-h398-k-no"
            }
        ],
        "link": "https://www.google.com/maps/place/Masjid+Madarsa+Talimul+Quran+Shahdol/data=!4m7!3m6!1s0x3986fade636ca479:0x73a650ca0f2c8bcb!8m2!3d23.2927007!4d81.3597446!16s%2Fg%2F11c1rfn8p7!19sChIJeaRsY976hjkRy4ssD8pQpnM?authuser=0&hl=en&rclk=1",
        "coordinates": {
            "latitude": 23.292700699999997,
            "longitude": 81.3597446
        }
    },
    {
        "name": "Masjid E Umar Bin Khattab",
        "main_category": "Mosque",
        "address": "79Q4+MMG Masjid E Umar Bin Khattab, Purani Basti, Bicharpur, Shahdol, Madhya Pradesh 484001",
        "detailed_address": {
            "ward": "Purani Basti, Bicharpur",
            "street": "79Q4+MMG",
            "city": "Shahdol",
            "postal_code": "484001",
            "state": "Madhya Pradesh",
            "country_code": "IN"
        },
        "images": [
            {
                "about": "All",
                "link": "https://lh5.googleusercontent.com/p/AF1QipOc1SlvUBpI8afjZmaoQUxWNncMCSZg2YYSn2WU=w224-h298-k-no"
            }
        ],
        "link": "https://www.google.com/maps/place/Masjid+E+Umar+Bin+Khattab/data=!4m7!3m6!1s0x3986fadf2c101579:0x1e6b67165ff25f22!8m2!3d23.2891945!4d81.3566969!16s%2Fg%2F11hcv77zdl!19sChIJeRUQLN_6hjkRIl_yXxZnax4?authuser=0&hl=en&rclk=1",
        "coordinates": {
            "latitude": 23.2891945,
            "longitude": 81.3566969
        }
    },
    {
        "name": "Railway Colony Noori Masjid",
        "main_category": "Mosque",
        "address": "79R4+HPX Railway Colony Noori Masjid, Purani Basti, MP SH 9, Bicharpur, Shahdol, Madhya Pradesh 484001",
        "detailed_address": {
            "ward": "Bicharpur",
            "street": "79R4+HPX, Purani Basti, MP SH 9",
            "city": "Shahdol",
            "postal_code": "484001",
            "state": "Madhya Pradesh",
            "country_code": "IN"
        },
        "images": [
            {
                "about": "All",
                "link": "https://streetviewpixels-pa.googleapis.com/v1/thumbnail?panoid=heNYlB9_sy4stHDMOMCIYA&cb_client=maps_sv.tactile.gps&w=224&h=298&yaw=193.78925&pitch=0&thumbfov=100"
            },
            {
                "about": "Street View & 360deg",
                "link": "https://streetviewpixels-pa.googleapis.com/v1/thumbnail?panoid=heNYlB9_sy4stHDMOMCIYA&cb_client=maps_sv.tactile.gps&w=224&h=298&yaw=193.78925&pitch=0&thumbfov=100"
            }
        ],
        "link": "https://www.google.com/maps/place/Railway+Colony+Noori+Masjid/data=!4m7!3m6!1s0x3986fadccdda0a25:0x8e9802e2d69213b9!8m2!3d23.2981811!4d81.3583277!16s%2Fg%2F11bzv44_ry!19sChIJJQrazdz6hjkRuROS1uICmI4?authuser=0&hl=en&rclk=1",
        "coordinates": {
            "latitude": 23.298181099999997,
            "longitude": 81.35832769999999
        }
    },
    {
        "name": "Iqra masjid",
        "main_category": "Mosque",
        "address": "79V3+VWG Iqra masjid, Itwari Mohalla, Shahdol, Madhya Pradesh 484001",
        "detailed_address": {
            "ward": "Itwari Mohalla",
            "street": "79V3+VWG",
            "city": "Shahdol",
            "postal_code": "484001",
            "state": "Madhya Pradesh",
            "country_code": "IN"
        },
        "images": [
            {
                "about": "All",
                "link": "https://lh5.googleusercontent.com/p/AF1QipPyovLfc7PivBCyBv4UMoREi0wovXVym4mTS0lc=w660-h298-k-no"
            },
            {
                "about": "Videos",
                "link": "https://lh5.googleusercontent.com/p/AF1QipMJA3QiBZ-M1F0gSLXRmE4s_IRGzmxHjcdSwBGX=w224-h398-k-no"
            }
        ],
        "link": "https://www.google.com/maps/place/Iqra+masjid/data=!4m7!3m6!1s0x3986fbfae9d2597f:0x7b1bd0462daeb67e!8m2!3d23.2946905!4d81.3548427!16s%2Fg%2F11h6dh4_9z!19sChIJf1nS6fr7hjkRfrauLUbQG3s?authuser=0&hl=en&rclk=1",
        "coordinates": {
            "latitude": 23.294690499999998,
            "longitude": 81.35484269999999
        }
    },
    {
        "name": "Jama Masjid Ghaus-e-Aazam",
        "main_category": "Mosque",
        "address": "8983+RGV Jama Masjid Ghaus-e-Aazam, Beside Akashwani, Shahdol, Madhya Pradesh 484001",
        "detailed_address": {
            "ward": "Beside Akashwani",
            "street": "8983+RGV",
            "city": "Shahdol",
            "postal_code": "484001",
            "state": "Madhya Pradesh",
            "country_code": "IN"
        },
        "images": [
            {
                "about": "All",
                "link": "https://lh5.googleusercontent.com/p/AF1QipNOPqggPyxoXH32yH_IaNE3UrXd5QCG4dnLkuE9=w397-h298-k-no"
            },
            {
                "about": "Dome",
                "link": "https://lh5.googleusercontent.com/p/AF1QipPqFrFUww9Y8fSFw8zL4SrIQhdwWAaMnkJb_m8J=w298-h298-k-no"
            }
        ],
        "link": "https://www.google.com/maps/place/Jama+Masjid+Ghaus-e-Aazam/data=!4m7!3m6!1s0x3986fabbcc9f1929:0x7c56e0f4e7232ca2!8m2!3d23.3171193!4d81.3537866!16s%2Fg%2F1v7tjs6w!19sChIJKRmfzLv6hjkRoiwj5_TgVnw?authuser=0&hl=en&rclk=1",
        "coordinates": {
            "latitude": 23.317119299999998,
            "longitude": 81.35378659999999
        }
    },
    {
        "name": "Choti Masjid",
        "main_category": "Mosque",
        "address": "8982+89W Choti Masjid, Purani Basti, Sohagpur, Shahdol, Madhya Pradesh 484001",
        "detailed_address": {
            "ward": "Purani Basti, Sohagpur",
            "street": "8982+89W",
            "city": "Shahdol",
            "postal_code": "484001",
            "state": "Madhya Pradesh",
            "country_code": "IN"
        },
        "images": [
            {
                "about": "All",
                "link": "https://streetviewpixels-pa.googleapis.com/v1/thumbnail?panoid=Ri-vCov7CMy9rK7esp5I-Q&cb_client=maps_sv.tactile.gps&w=224&h=298&yaw=329.12912&pitch=0&thumbfov=100"
            },
            {
                "about": "Street View & 360deg",
                "link": "https://streetviewpixels-pa.googleapis.com/v1/thumbnail?panoid=Ri-vCov7CMy9rK7esp5I-Q&cb_client=maps_sv.tactile.gps&w=224&h=298&yaw=329.12912&pitch=0&thumbfov=100"
            },
            {
                "about": "Videos",
                "link": "https://lh5.googleusercontent.com/p/AF1QipNWEelo08Y18XEdzZkT87IDG833G-Frf-MxxlQR=w529-h298-k-no"
            }
        ],
        "link": "https://www.google.com/maps/place/Choti+Masjid/data=!4m7!3m6!1s0x3986fb3bc5d6f971:0x264419d1f288b809!8m2!3d23.3158511!4d81.3509608!16s%2Fg%2F11h_y7dk0d!19sChIJcfnWxTv7hjkRCbiI8tEZRCY?authuser=0&hl=en&rclk=1",
        "coordinates": {
            "latitude": 23.3158511,
            "longitude": 81.3509608
        }
    },
    {
        "name": "Jama Masjid Sindhi Bazar Shahdol M.P.",
        "main_category": "Mosque",
        "address": "79V5+5QQ Jama Masjid Sindhi Bazar Shahdol M.P., Railway Colony, Shahdol, Madhya Pradesh 484001",
        "detailed_address": {
            "ward": "Railway Colony",
            "street": "79V5+5QQ",
            "city": "Shahdol",
            "postal_code": "484001",
            "state": "Madhya Pradesh",
            "country_code": "IN"
        },
        "images": [
            {
                "about": "All",
                "link": "https://streetviewpixels-pa.googleapis.com/v1/thumbnail?panoid=57zo_Zq_Pdgud50wSXQUHA&cb_client=maps_sv.tactile.gps&w=224&h=298&yaw=333.36853&pitch=0&thumbfov=100"
            },
            {
                "about": "Street View & 360deg",
                "link": "https://streetviewpixels-pa.googleapis.com/v1/thumbnail?panoid=57zo_Zq_Pdgud50wSXQUHA&cb_client=maps_sv.tactile.gps&w=224&h=298&yaw=333.36853&pitch=0&thumbfov=100"
            }
        ],
        "link": "https://www.google.com/maps/place/Jama+Masjid+Sindhi+Bazar+Shahdol+M.P./data=!4m7!3m6!1s0x3986fbfadb6318ad:0xec163c72058964da!8m2!3d23.2929503!4d81.3594829!16s%2Fg%2F11gjp6ljn5!19sChIJrRhj2_r7hjkR2mSJBXI8Fuw?authuser=0&hl=en&rclk=1",
        "coordinates": {
            "latitude": 23.292950299999998,
            "longitude": 81.3594829
        }
    },
    {
        "name": "noori masjid Ahle sunnat wal jamat",
        "main_category": "Place of worship",
        "address": "888X+FM7 noori masjid Ahle sunnat wal jamat, Purani Basti, Beside Akashwani, Shahdol, Madhya Pradesh 484001",
        "detailed_address": {
            "ward": "Purani Basti, Beside Akashwani",
            "street": "888X+FM7",
            "city": "Shahdol",
            "postal_code": "484001",
            "state": "Madhya Pradesh",
            "country_code": "IN"
        },
        "images": [
            {
                "about": "All",
                "link": "https://lh5.googleusercontent.com/p/AF1QipMkNA6uuMjM9qn6HnsHMHq-GLDy_KhMde6_WLWD=w232-h298-k-no"
            }
        ],
        "link": "https://www.google.com/maps/place/noori+masjid+Ahle+sunnat+wal+jamat/data=!4m7!3m6!1s0x3986fab0cc000001:0x83dababd8eca844f!8m2!3d23.3161614!4d81.3491782!16s%2Fg%2F11g65fbdyj!19sChIJAQAAzLD6hjkRT4TKjr262oM?authuser=0&hl=en&rclk=1",
        "coordinates": {
            "latitude": 23.3161614,
            "longitude": 81.3491782
        }
    },
    {
        "name": "HUSSAINI IMAM BADA",
        "main_category": "Mosque",
        "address": "8963+68F HUSSAINI IMAM BADA, Bhatnagar, Shahdol, Madhya Pradesh 484001",
        "detailed_address": {
            "ward": "Bhatnagar",
            "street": "8963+68F",
            "city": "Shahdol",
            "postal_code": "484001",
            "state": "Madhya Pradesh",
            "country_code": "IN"
        },
        "images": [
            {
                "about": "All",
                "link": "https://streetviewpixels-pa.googleapis.com/v1/thumbnail?panoid=7snIFROYBaZJLV-qJWVjzg&cb_client=maps_sv.tactile.gps&w=224&h=298&yaw=140.18794&pitch=0&thumbfov=100"
            },
            {
                "about": "Street View & 360deg",
                "link": "https://streetviewpixels-pa.googleapis.com/v1/thumbnail?panoid=7snIFROYBaZJLV-qJWVjzg&cb_client=maps_sv.tactile.gps&w=224&h=298&yaw=140.18794&pitch=0&thumbfov=100"
            }
        ],
        "link": "https://www.google.com/maps/place/HUSSAINI+IMAM+BADA/data=!4m7!3m6!1s0x3986fbe0d905f669:0xc6c22b7ba63f8bf3!8m2!3d23.3105638!4d81.353291!16s%2Fg%2F11hnv1l8ln!19sChIJafYF2eD7hjkR84s_pnsrwsY?authuser=0&hl=en&rclk=1",
        "coordinates": {
            "latitude": 23.3105638,
            "longitude": 81.353291
        }
    },
    {
        "name": "eidgaah and Cemetery",
        "main_category": "Mosque",
        "address": "79V7+X8P eidgaah and Cemetery, Railway Colony, Shahdol, Madhya Pradesh 484001",
        "detailed_address": {
            "ward": "Railway Colony",
            "street": "79V7+X8P",
            "city": "Shahdol",
            "postal_code": "484001",
            "state": "Madhya Pradesh",
            "country_code": "IN"
        },
        "images": [],
        "link": "https://www.google.com/maps/place/eidgaah+and+Cemetery/data=!4m7!3m6!1s0x3986fae76d2ad423:0x7d673b3d98fa7f6e!8m2!3d23.2949711!4d81.3633137!16s%2Fg%2F11dyltlsfb!19sChIJI9Qqbef6hjkRbn_6mD07Z30?authuser=0&hl=en&rclk=1",
        "coordinates": {
            "latitude": 23.294971099999998,
            "longitude": 81.36331369999999
        }
    },
    {
        "name": "Saify markaz",
        "main_category": "Mosque",
        "address": "79R5+R45 Saify markaz, Itwari Mohalla, Shahdol, Madhya Pradesh 484001",
        "detailed_address": {
            "ward": "Itwari Mohalla",
            "street": "79R5+R45",
            "city": "Shahdol",
            "postal_code": "484001",
            "state": "Madhya Pradesh",
            "country_code": "IN"
        },
        "images": [],
        "link": "https://www.google.com/maps/place/Saify+markaz/data=!4m7!3m6!1s0x3986fba7be1fd575:0xf921257c7c5e4aba!8m2!3d23.2920039!4d81.3578505!16s%2Fg%2F11h7dx40yr!19sChIJddUfvqf7hjkRukpefHwlIfk?authuser=0&hl=en&rclk=1",
        "coordinates": {
            "latitude": 23.292003899999997,
            "longitude": 81.3578505
        }
    },
    {
        "name": "Darul ulum Ashrafiya masjid",
        "main_category": "Mosque",
        "address": "79V4+9CR Darul ulum Ashrafiya masjid, Unnamed Road, Itwari Mohalla, Shahdol, Madhya Pradesh 484001",
        "detailed_address": {
            "ward": "Itwari Mohalla",
            "street": "79V4+9CR, Unnamed Road",
            "city": "Shahdol",
            "postal_code": "484001",
            "state": "Madhya Pradesh",
            "country_code": "IN"
        },
        "images": [
            {
                "about": "All",
                "link": "https://lh5.googleusercontent.com/p/AF1QipM2ce_-2bzOnzgscnCrFOFrKp62fd6iB9fCd4YO=w224-h484-k-no"
            },
            {
                "about": "Videos",
                "link": "https://lh5.googleusercontent.com/p/AF1QipNGLmTx_hTcUKyKuFX_TZa8tHO7lUEPYJqRsUGd=w541-h298-k-no"
            }
        ],
        "link": "https://www.google.com/maps/place/Darul+ulum+Ashrafiya+masjid/data=!4m7!3m6!1s0x3986fbeafbfb40d3:0xc91130da4dc5e56e!8m2!3d23.293487!4d81.3560038!16s%2Fg%2F11r8zl8n61!19sChIJ00D7--r7hjkRbuXFTdowEck?authuser=0&hl=en&rclk=1",
        "coordinates": {
            "latitude": 23.293487,
            "longitude": 81.3560038
        }
    },
    {
        "name": "Masjid Rehmania Madarsa",
        "main_category": "Religious destination",
        "address": "8993+4X5 Masjid Rehmania Madarsa, Beside Akashwani, Shahdol, Madhya Pradesh 484001",
        "detailed_address": {
            "ward": "Beside Akashwani",
            "street": "8993+4X5",
            "city": "Shahdol",
            "postal_code": "484001",
            "state": "Madhya Pradesh",
            "country_code": "IN"
        },
        "images": [
            {
                "about": "All",
                "link": "https://lh5.googleusercontent.com/p/AF1QipPw008g-nPRhCSvN6JS8-A1t5OcBlfyQSimY8VD=w224-h398-k-no"
            }
        ],
        "link": "https://www.google.com/maps/place/Masjid+Rehmania+Madarsa/data=!4m7!3m6!1s0x3986fb18143bdbcb:0x8ca3ebc2363a2795!8m2!3d23.3177465!4d81.3550546!16s%2Fg%2F11ssp2gb1y!19sChIJy9s7FBj7hjkRlSc6NsLro4w?authuser=0&hl=en&rclk=1",
        "coordinates": {
            "latitude": 23.3177465,
            "longitude": 81.3550546
        }
    }
]