[
    {
        "name": "Falah Juma Masjid Complex",
        "main_category": "Mosque",
        "address": "J33M+MQ7 Falah Juma Masjid Complex, Mandayapuram, Kalpetta, Kerala 673121",
        "detailed_address": {
            "ward": "Mandayapuram",
            "street": "J33M+MQ7",
            "city": "Kalpetta",
            "postal_code": "673121",
            "state": "Kerala",
            "country_code": "IN"
        },
        "images": [
            {
                "about": "All",
                "link": "https://lh5.googleusercontent.com/p/AF1QipMjYPtuMui17hsH0FCw7sNv2tTWLPDmraeJQ_np=w647-h298-k-no"
            }
        ],
        "link": "https://www.google.com/maps/place/Falah+Juma+Masjid+Complex/data=!4m7!3m6!1s0x3ba6732d414262c5:0xa637ef3772ef4081!8m2!3d11.6041636!4d76.0844258!16s%2Fg%2F11gbl3y_2_!19sChIJxWJCQS1zpjsRgUDvcjfvN6Y?authuser=0&hl=en&rclk=1",
        "coordinates": {
            "latitude": 11.6041636,
            "longitude": 76.08442579999999
        }
    },
    {
        "name": "Kalpetta Juma Masjid (Valiya Palli)",
        "main_category": "Mosque",
        "address": "J36M+J2C Kalpetta Juma Masjid (Valiya Palli), Subhash Nagar, Kalpetta, Kerala 673121",
        "detailed_address": {
            "ward": "Subhash Nagar",
            "street": "J36M+J2C",
            "city": "Kalpetta",
            "postal_code": "673121",
            "state": "Kerala",
            "country_code": "IN"
        },
        "images": [
            {
                "about": "All",
                "link": "https://lh5.googleusercontent.com/p/AF1QipMy-hgsKJWSTSx-9PXekE9JYTiVG5a7ault63_y=w225-h298-k-no"
            },
            {
                "about": "Dome",
                "link": "https://lh5.googleusercontent.com/p/AF1QipOfrrkjbZqyYsQtRpIYTpWjT2wbNC0WuCFvehHA=w224-h298-k-no"
            },
            {
                "about": "Videos",
                "link": "https://lh5.googleusercontent.com/p/AF1QipN1ShGzd2HYBGCMeFJ5_elBG7lUykfLB1YcZgMR=w224-h298-k-no"
            },
            {
                "about": "Street View & 360deg",
                "link": "https://lh5.googleusercontent.com/p/AF1QipNw2-ocf_9FwhFW4UYp5Va8Blhhn4o96it6DA2F=w224-h298-k-no-pi-0-ya19.000002-ro-0-fo100"
            }
        ],
        "link": "https://www.google.com/maps/place/Kalpetta+Juma+Masjid+%28Valiya+Palli%29/data=!4m7!3m6!1s0x3ba67333801e54a3:0xc2e4cb1bd59d28f4!8m2!3d11.6115688!4d76.0825115!16s%2Fg%2F11xkm4038!19sChIJo1QegDNzpjsR9Cid1RvL5MI?authuser=0&hl=en&rclk=1",
        "coordinates": {
            "latitude": 11.611568799999999,
            "longitude": 76.0825115
        }
    },
    {
        "name": "Falah Grand Masjid (dr lflH lslmy@)",
        "main_category": "Mosque",
        "address": "Falah Grand Masjid (dr lflH lslmy@), Darul Falah Al Islamiyya, NH 766, Falaq, Madiyur, Kalpetta, Kerala 673122",
        "detailed_address": {
            "ward": "Falaq, Madiyur",
            "street": "Darul Falah Al Islamiyya, NH 766",
            "city": "Kalpetta",
            "postal_code": "673122",
            "state": "Kerala",
            "country_code": "IN"
        },
        "images": [
            {
                "about": "All",
                "link": "https://lh5.googleusercontent.com/p/AF1QipONQAn3JqT2q01FtiE97mjkmi4cl1M1_D_wntO-=w224-h298-k-no"
            },
            {
                "about": "Dome",
                "link": "https://lh5.googleusercontent.com/p/AF1QipOjLNafaSb71CMfsjwFmPdb91-0EvJ-2bad60sw=w224-h347-k-no"
            },
            {
                "about": "Street View & 360deg",
                "link": "https://streetviewpixels-pa.googleapis.com/v1/thumbnail?panoid=2UYSE8NvpLztfbtanZM5iQ&cb_client=maps_sv.tactile.gps&w=224&h=298&yaw=171.17288&pitch=0&thumbfov=100"
            }
        ],
        "link": "https://www.google.com/maps/place/Falah+Grand+Masjid+%28%D8%AF%D8%A7%D8%B1+%D8%A7%D9%84%D9%81%D9%84%D8%A7%D8%AD+%D8%A7%D9%84%D8%A5%D8%B3%D9%84%D8%A7%D9%85%D9%8A%D8%A9%29%E2%80%AD/data=!4m7!3m6!1s0x3ba672d88adb124d:0xa0496a3311f69f04!8m2!3d11.5920567!4d76.0710006!16s%2Fg%2F11c5qs6425!19sChIJTRLbithypjsRBJ_2ETNqSaA?authuser=0&hl=en&rclk=1",
        "coordinates": {
            "latitude": 11.592056699999999,
            "longitude": 76.07100059999999
        }
    },
    {
        "name": "Ayisha Juma Masjid",
        "main_category": "Mosque",
        "address": "J35M+G78 Ayisha Juma Masjid, Subhash Nagar, Kalpetta, Kerala 673121",
        "detailed_address": {
            "ward": "Subhash Nagar",
            "street": "J35M+G78",
            "city": "Kalpetta",
            "postal_code": "673121",
            "state": "Kerala",
            "country_code": "IN"
        },
        "images": [
            {
                "about": "All",
                "link": "https://lh5.googleusercontent.com/p/AF1QipN0I40k9LzSdHz-gSwCDFyUzBUAcy6Al-PoYQB7=w397-h298-k-no"
            },
            {
                "about": "Dome",
                "link": "https://lh5.googleusercontent.com/p/AF1QipPBeJS2ssnOYY8sT6qsXA1Hou_hPl0X-j_p-dYE=w397-h298-k-no"
            },
            {
                "about": "Street View & 360deg",
                "link": "https://streetviewpixels-pa.googleapis.com/v1/thumbnail?panoid=p_FeunnDcOlle7ZUVF9tVw&cb_client=maps_sv.tactile.gps&w=224&h=298&yaw=293.59863&pitch=0&thumbfov=100"
            }
        ],
        "link": "https://www.google.com/maps/place/Ayisha+Juma+Masjid/data=!4m7!3m6!1s0x3ba673330f09a25d:0x7c791cbbbaf7aad4!8m2!3d11.6087853!4d76.0832107!16s%2Fg%2F11c5qs36j1!19sChIJXaIJDzNzpjsR1Kr3ursceXw?authuser=0&hl=en&rclk=1",
        "coordinates": {
            "latitude": 11.6087853,
            "longitude": 76.0832107
        }
    },
    {
        "name": "Salafi Masjid Kalpetta",
        "main_category": "Mosque",
        "address": "J35J+MMV Salafi Masjid Kalpetta, Thurkey - Kaithakolly Rd, Subhash Nagar, Kalpetta, Kerala 673121",
        "detailed_address": {
            "ward": "Subhash Nagar",
            "street": "J35J+MMV, Thurkey - Kaithakolly Rd",
            "city": "Kalpetta",
            "postal_code": "673121",
            "state": "Kerala",
            "country_code": "IN"
        },
        "images": [
            {
                "about": "All",
                "link": "https://lh5.googleusercontent.com/p/AF1QipM7yT0djrF40LCnyqFrof512tL-XzSdRg_h9KVU=w397-h298-k-no"
            },
            {
                "about": "Street View & 360deg",
                "link": "https://streetviewpixels-pa.googleapis.com/v1/thumbnail?panoid=hi_QgoEJ3afPHTL4t2-Lvg&cb_client=maps_sv.tactile.gps&w=224&h=298&yaw=194.58366&pitch=0&thumbfov=100"
            }
        ],
        "link": "https://www.google.com/maps/place/Salafi+Masjid+Kalpetta/data=!4m7!3m6!1s0x3ba67333bdee6b53:0x3a8f64fe54dcc7ee!8m2!3d11.6092407!4d76.0816768!16s%2Fg%2F11c5sm5mfp!19sChIJU2vuvTNzpjsR7sfcVP5kjzo?authuser=0&hl=en&rclk=1",
        "coordinates": {
            "latitude": 11.609240699999999,
            "longitude": 76.0816768
        }
    },
    {
        "name": "Emily Juma Masjid",
        "main_category": "Mosque",
        "address": "J3FJ+P9P Emily Juma Masjid, Emily, Wayanad, Kalpetta, Kerala 673122",
        "detailed_address": {
            "ward": "Emily, Wayanad",
            "street": "J3FJ+P9P",
            "city": "Kalpetta",
            "postal_code": "673122",
            "state": "Kerala",
            "country_code": "IN"
        },
        "images": [
            {
                "about": "All",
                "link": "https://lh5.googleusercontent.com/p/AF1QipO7UMystmCtGvBeVmxOWZsZq26JDNZ2XTF8_eAs=w529-h298-k-no"
            }
        ],
        "link": "https://www.google.com/maps/place/Emily+Juma+Masjid/data=!4m7!3m6!1s0x3ba6734a3376224b:0xe760ab8378e27acf!8m2!3d11.6243372!4d76.0809405!16s%2Fg%2F11f__kh9lt!19sChIJSyJ2M0pzpjsRz3rieIOrYOc?authuser=0&hl=en&rclk=1",
        "coordinates": {
            "latitude": 11.6243372,
            "longitude": 76.0809405
        }
    },
    {
        "name": "Maidani Masjid Kalpetta",
        "main_category": "Mosque",
        "address": "J38J+F6F Maidani Masjid Kalpetta, Munderi Road, Subhash Nagar, Kalpetta, Kerala 673121",
        "detailed_address": {
            "ward": "Subhash Nagar",
            "street": "J38J+F6F, Munderi Road",
            "city": "Kalpetta",
            "postal_code": "673121",
            "state": "Kerala",
            "country_code": "IN"
        },
        "images": [
            {
                "about": "All",
                "link": "https://lh5.googleusercontent.com/p/AF1QipOr3l2QvhIAMNpDfXr1oPg2vgKKddsnWi2crzf9=w397-h298-k-no"
            }
        ],
        "link": "https://www.google.com/maps/place/Maidani+Masjid+Kalpetta/data=!4m7!3m6!1s0x3ba6734a0800fced:0x1c5c5f853d6bd6b!8m2!3d11.6161879!4d76.0805359!16s%2Fg%2F11g7z0p35x!19sChIJ7fwACEpzpjsRa73WU_jFxQE?authuser=0&hl=en&rclk=1",
        "coordinates": {
            "latitude": 11.6161879,
            "longitude": 76.0805359
        }
    },
    {
        "name": "Juma Masjid North Kalpetta",
        "main_category": "Mosque",
        "address": "J3CP+PG4 Juma Masjid North Kalpetta, NH 766, near Chandragiri Auditorium, Civil Station, Madathumpadi, Kalpetta, Kerala 673122",
        "detailed_address": {
            "ward": "Civil Station, Madathumpadi",
            "street": "J3CP+PG4, NH 766, near Chandragiri Auditorium",
            "city": "Kalpetta",
            "postal_code": "673122",
            "state": "Kerala",
            "country_code": "IN"
        },
        "images": [
            {
                "about": "All",
                "link": "https://lh5.googleusercontent.com/p/AF1QipOOLf0ebgqaMTf9fYXjuFL-sSd_lFjAmuSIDWDj=w264-h298-k-no"
            }
        ],
        "link": "https://www.google.com/maps/place/Juma+Masjid+North+Kalpetta/data=!4m7!3m6!1s0x3ba60cb4a89f9989:0xaf27d0323fe7ccbe!8m2!3d11.6217544!4d76.086317!16s%2Fg%2F11y7w36mb!19sChIJiZmfqLQMpjsRvsznPzLQJ68?authuser=0&hl=en&rclk=1",
        "coordinates": {
            "latitude": 11.621754399999999,
            "longitude": 76.086317
        }
    },
    {
        "name": "Juma Masjid Vellaramkunnu",
        "main_category": "Mosque",
        "address": "H3P9+5JH Juma Masjid Vellaramkunnu, Silver Hills, Madiyur, Kalpetta, Kerala 673123",
        "detailed_address": {
            "ward": "Silver Hills, Madiyur",
            "street": "H3P9+5JH",
            "city": "Kalpetta",
            "postal_code": "673123",
            "state": "Kerala",
            "country_code": "IN"
        },
        "images": [
            {
                "about": "All",
                "link": "https://lh5.googleusercontent.com/p/AF1QipPMe5Vnpm2tJYt4h3C2QPo1UmIaMYfHrtO3km9S=w224-h398-k-no"
            },
            {
                "about": "Street View & 360deg",
                "link": "https://streetviewpixels-pa.googleapis.com/v1/thumbnail?panoid=sih-ccPnauU19OVzVeppPw&cb_client=maps_sv.tactile.gps&w=224&h=298&yaw=94.47092&pitch=0&thumbfov=100"
            },
            {
                "about": "Videos",
                "link": "https://lh5.googleusercontent.com/p/AF1QipPMe5Vnpm2tJYt4h3C2QPo1UmIaMYfHrtO3km9S=w224-h398-k-no"
            }
        ],
        "link": "https://www.google.com/maps/place/Juma+Masjid+Vellaramkunnu/data=!4m7!3m6!1s0x3ba672db9b8256e1:0xb9fd05787eb9499d!8m2!3d11.5854416!4d76.0691106!16s%2Fg%2F11hczr4npn!19sChIJ4VaCm9typjsRnUm5fngF_bk?authuser=0&hl=en&rclk=1",
        "coordinates": {
            "latitude": 11.5854416,
            "longitude": 76.0691106
        }
    },
    {
        "name": "Juma Masjid Munderi",
        "main_category": "Mosque",
        "address": "J3FC+4M6 Juma Masjid Munderi, Marappalam Road, Munderi, Kalpetta, Kerala 673121",
        "detailed_address": {
            "ward": "Munderi",
            "street": "J3FC+4M6, Marappalam Road",
            "city": "Kalpetta",
            "postal_code": "673121",
            "state": "Kerala",
            "country_code": "IN"
        },
        "images": [
            {
                "about": "All",
                "link": "https://lh5.googleusercontent.com/p/AF1QipMl4DZoEa7ePgTUGYO4KhF4_XsyiZyFeMAt701R=w397-h298-k-no"
            },
            {
                "about": "Videos",
                "link": "https://lh5.googleusercontent.com/p/AF1QipPZDWyasGFRca0INz_5umCQT3bcD2stz0gKoPrc=w529-h298-k-no"
            }
        ],
        "link": "https://www.google.com/maps/place/Juma+Masjid+Munderi/data=!4m7!3m6!1s0x3ba67345b7a8a649:0xcc44ad34a4600f87!8m2!3d11.6227787!4d76.071653!16s%2Fg%2F11f2xp1dfg!19sChIJSaaot0VzpjsRhw9gpDStRMw?authuser=0&hl=en&rclk=1",
        "coordinates": {
            "latitude": 11.6227787,
            "longitude": 76.071653
        }
    },
    {
        "name": "UPA Kadar Faizi Memorial Masjid",
        "main_category": "Mosque",
        "address": "J3GQ+V26 UPA Kadar Faizi Memorial Masjid, Civil Station, Madathumpadi, Kalpetta, Kerala 673122",
        "detailed_address": {
            "ward": "Civil Station, Madathumpadi",
            "street": "J3GQ+V26",
            "city": "Kalpetta",
            "postal_code": "673122",
            "state": "Kerala",
            "country_code": "IN"
        },
        "images": [
            {
                "about": "All",
                "link": "https://lh5.googleusercontent.com/p/AF1QipNhwmR1qjkfsQqNJtnGpj8TvVdQSoaTlrFQ38I-=w224-h486-k-no"
            }
        ],
        "link": "https://www.google.com/maps/place/UPA+Kadar+Faizi+Memorial+Masjid/data=!4m7!3m6!1s0x3ba60cb29bba2057:0x32b2b37c92d2d284!8m2!3d11.6271522!4d76.0875274!16s%2Fg%2F11gbl3xtww!19sChIJVyC6m7IMpjsRhNLSknyzsjI?authuser=0&hl=en&rclk=1",
        "coordinates": {
            "latitude": 11.6271522,
            "longitude": 76.0875274
        }
    },
    {
        "name": "Islamic Juma Masjid",
        "main_category": "Mosque",
        "address": "J34M+GM8 Islamic Juma Masjid, near New bus stant, Mandayapuram, Kalpetta, Kerala 673121",
        "detailed_address": {
            "ward": "Mandayapuram",
            "street": "J34M+GM8, near New bus stant",
            "city": "Kalpetta",
            "postal_code": null,
            "state": "Kerala",
            "country_code": "IN"
        },
        "images": [
            {
                "about": "All",
                "link": "https://lh5.googleusercontent.com/p/AF1QipMiUCH6Vbwkdx4az-cC8gJq0BqY_Rpv9-eyvzNo=w529-h298-k-no"
            }
        ],
        "link": "https://www.google.com/maps/place/Islamic+Juma+Masjid/data=!4m7!3m6!1s0x3ba6735a5113f2d9:0x3bce527c1c89743f!8m2!3d11.6062987!4d76.0842145!16s%2Fg%2F11grqk7z15!19sChIJ2fITUVpzpjsRP3SJHHxSzjs?authuser=0&hl=en&rclk=1",
        "coordinates": {
            "latitude": 11.6062987,
            "longitude": 76.0842145
        }
    },
    {
        "name": "Masjid mubarack",
        "main_category": "Mosque",
        "address": "J34M+MGX Masjid mubarack, Mandayapuram, Kalpetta, Kerala 673121",
        "detailed_address": {
            "ward": "Mandayapuram",
            "street": "J34M+MGX",
            "city": "Kalpetta",
            "postal_code": "673121",
            "state": "Kerala",
            "country_code": "IN"
        },
        "images": [
            {
                "about": "All",
                "link": "https://lh5.googleusercontent.com/p/AF1QipPqcL0EAK13YShLJPIkFH_Ut4lgY-alo-urqi59=w224-h398-k-no"
            },
            {
                "about": "Street View & 360deg",
                "link": "https://streetviewpixels-pa.googleapis.com/v1/thumbnail?panoid=j-I-Gphe81TlzPrGw8c3Fw&cb_client=maps_sv.tactile.gps&w=224&h=298&yaw=53.006084&pitch=0&thumbfov=100"
            }
        ],
        "link": "https://www.google.com/maps/place/Masjid+mubarack/data=!4m7!3m6!1s0x3ba67332eb6dc707:0xda9792fa10ce2cee!8m2!3d11.606749!4d76.0838599!16s%2Fg%2F11g9gvhvhr!19sChIJB8dt6zJzpjsR7izOEPqSl9o?authuser=0&hl=en&rclk=1",
        "coordinates": {
            "latitude": 11.606748999999999,
            "longitude": 76.0838599
        }
    },
    {
        "name": "Juma Masjid",
        "main_category": "Mosque",
        "address": "H3FH+H2R Juma Masjid, Chundale, Perumthatta, Kalpetta, Kerala 673123",
        "detailed_address": {
            "ward": "Odathode, Perumthatta",
            "street": "H3FH+H2R, Chundale",
            "city": "Kalpetta",
            "postal_code": "673123",
            "state": "Kerala",
            "country_code": "IN"
        },
        "images": [
            {
                "about": "All",
                "link": "https://lh5.googleusercontent.com/p/AF1QipPCC8PLGwi2vUlupE3CFdIgpQEPz2GIfl2IlrFN=w397-h298-k-no"
            },
            {
                "about": "Street View & 360deg",
                "link": "https://streetviewpixels-pa.googleapis.com/v1/thumbnail?panoid=BQpT75uSZ1391RmphU-gaA&cb_client=maps_sv.tactile.gps&w=224&h=298&yaw=209.38843&pitch=0&thumbfov=100"
            }
        ],
        "link": "https://www.google.com/maps/place/Juma+Masjid/data=!4m7!3m6!1s0x3ba672c9af30a09b:0x71dfc42f233a1a06!8m2!3d11.5739983!4d76.0775073!16s%2Fg%2F11f1hgcyj8!19sChIJm6Awr8lypjsRBho6Iy_E33E?authuser=0&hl=en&rclk=1",
        "coordinates": {
            "latitude": 11.5739983,
            "longitude": 76.0775073
        }
    },
    {
        "name": "Thabliku Masjid",
        "main_category": "Mosque",
        "address": "J38M+RJ2 Thabliku Masjid, Kairali Nagar, Kalpetta, Kerala 673122",
        "detailed_address": {
            "ward": "Kairali Nagar",
            "street": "J38M+RJ2",
            "city": "Kalpetta",
            "postal_code": "673122",
            "state": "Kerala",
            "country_code": "IN"
        },
        "images": [
            {
                "about": "All",
                "link": "https://lh5.googleusercontent.com/p/AF1QipOsMlJD6e8oEzkCZMa_cqRsJ_WMKNjvWQMnKJRQ=w236-h298-k-no"
            }
        ],
        "link": "https://www.google.com/maps/place/Thabliku+Masjid/data=!4m7!3m6!1s0x3ba6734a98128e6d:0x1c20fa0d366875ce!8m2!3d11.617016!4d76.0840182!16s%2Fg%2F1hm6bhk9w!19sChIJbY4SmEpzpjsRznVoNg36IBw?authuser=0&hl=en&rclk=1",
        "coordinates": {
            "latitude": 11.617016,
            "longitude": 76.0840182
        }
    },
    {
        "name": "Bilal Masjid Kalpetta",
        "main_category": "Mosque",
        "address": "J39M+2VR Bilal Masjid Kalpetta, Gudalai, Kairali Nagar, Kalpetta, Kerala 673122",
        "detailed_address": {
            "ward": "Gudalai, Kairali Nagar",
            "street": "J39M+2VR",
            "city": "Kalpetta",
            "postal_code": null,
            "state": "Kerala",
            "country_code": "IN"
        },
        "images": [
            {
                "about": "All",
                "link": "https://lh5.googleusercontent.com/p/AF1QipNTPrMvHc6IZo4TjEHnmnTRRxUgxCoihbruVjSK=w224-h510-k-no"
            }
        ],
        "link": "https://www.google.com/maps/place/Bilal+Masjid+Kalpetta/data=!4m7!3m6!1s0x3ba6736c103187d3:0x58643ea0b9038377!8m2!3d11.6176079!4d76.0846539!16s%2Fg%2F11rr7nxr63!19sChIJ04cxEGxzpjsRd4MDuaA-ZFg?authuser=0&hl=en&rclk=1",
        "coordinates": {
            "latitude": 11.6176079,
            "longitude": 76.08465389999999
        }
    },
    {
        "name": "Noor Masjid",
        "main_category": "Mosque",
        "address": "6, Noor Masjid, SH54, Subhash Nagar, Kalpetta, Kerala 673121",
        "detailed_address": {
            "ward": "Subhash Nagar",
            "street": "6, SH54",
            "city": "Kalpetta",
            "postal_code": "673121",
            "state": "Kerala",
            "country_code": "IN"
        },
        "images": [
            {
                "about": "All",
                "link": "https://lh5.googleusercontent.com/p/AF1QipN93LXb6Li8xk2CDJt18BHWgi6wD2KzY5dE6snn=w224-h398-k-no"
            },
            {
                "about": "Street View & 360deg",
                "link": "https://streetviewpixels-pa.googleapis.com/v1/thumbnail?panoid=r5Ow6Cvi-UtdyjpRpM2Ctw&cb_client=maps_sv.tactile.gps&w=224&h=298&yaw=283.4249&pitch=0&thumbfov=100"
            }
        ],
        "link": "https://www.google.com/maps/place/Noor+Masjid/data=!4m7!3m6!1s0x3ba673f33cbbbb31:0x791555f720237f22!8m2!3d11.6139686!4d76.0783166!16s%2Fg%2F11rmkknhgn!19sChIJMbu7PPNzpjsRIn8jIPdVFXk?authuser=0&hl=en&rclk=1",
        "coordinates": {
            "latitude": 11.6139686,
            "longitude": 76.0783166
        }
    },
    {
        "name": "Salafi masjid kalpetta",
        "main_category": "Place of worship",
        "address": "J38M+58F Salafi masjid kalpetta, Mandayapuram, Kalpetta, Kerala 673122",
        "detailed_address": {
            "ward": "Mandayapuram",
            "street": "J38M+58F",
            "city": "Kalpetta",
            "postal_code": "673122",
            "state": "Kerala",
            "country_code": "IN"
        },
        "images": [],
        "link": "https://www.google.com/maps/place/Salafi+masjid+kalpetta/data=!4m7!3m6!1s0x3ba673a4c95cb335:0x4ebedf4caab096c2!8m2!3d11.61545!4d76.0832907!16s%2Fg%2F11j1m0hz86!19sChIJNbNcyaRzpjsRwpawqkzfvk4?authuser=0&hl=en&rclk=1",
        "coordinates": {
            "latitude": 11.61545,
            "longitude": 76.08329069999999
        }
    },
    {
        "name": "Edaguni Juma Masjid",
        "main_category": "Mosque",
        "address": "J376+RQ8 Edaguni Juma Masjid, T S Nagar, Kalpetta, Kerala 673122",
        "detailed_address": {
            "ward": "T S Nagar",
            "street": "J376+RQ8",
            "city": "Kalpetta",
            "postal_code": "673122",
            "state": "Kerala",
            "country_code": "IN"
        },
        "images": [
            {
                "about": "All",
                "link": "https://lh5.googleusercontent.com/p/AF1QipOjPM5x1AluSXeQ01Bd1m6VpcVCef5e-E5tXGDD=w224-h298-k-no"
            },
            {
                "about": "Street View & 360deg",
                "link": "https://streetviewpixels-pa.googleapis.com/v1/thumbnail?panoid=QoKlF3Kt6CE55qKCAIZxzw&cb_client=maps_sv.tactile.gps&w=224&h=298&yaw=297.7696&pitch=0&thumbfov=100"
            },
            {
                "about": "Videos",
                "link": "https://lh5.googleusercontent.com/p/AF1QipPMGsl56sA-yeazp-WjzRYzI-4BoE7QXfJ02iVw=w224-h398-k-no"
            }
        ],
        "link": "https://www.google.com/maps/place/Edaguni+Juma+Masjid/data=!4m7!3m6!1s0x3ba673ded3cc4b57:0xe4e25ece04b31d9f!8m2!3d11.6146172!4d76.0621667!16s%2Fg%2F11kq29kl0m!19sChIJV0vM095zpjsRnx2zBM5e4uQ?authuser=0&hl=en&rclk=1",
        "coordinates": {
            "latitude": 11.6146172,
            "longitude": 76.06216669999999
        }
    },
    {
        "name": "Nedungode Masjid",
        "main_category": "Mosque",
        "address": "J3GG+QHR Nedungode Masjid, Stadium Nagar, Kalpetta, Kerala 673122",
        "detailed_address": {
            "ward": "Stadium Nagar",
            "street": "J3GG+QHR",
            "city": "Kalpetta",
            "postal_code": "673122",
            "state": "Kerala",
            "country_code": "IN"
        },
        "images": [
            {
                "about": "All",
                "link": "https://lh5.googleusercontent.com/p/AF1QipN41j6LX4wA3Usp3bEqhbb0ogUaxAERRqBS6L8X=w396-h298-k-no"
            }
        ],
        "link": "https://www.google.com/maps/place/Nedungode+Masjid/data=!4m7!3m6!1s0x3ba6736f82a6cfbd:0x70856ee81e63d9f4!8m2!3d11.6269931!4d76.0763948!16s%2Fg%2F11r_ys95n7!19sChIJvc-mgm9zpjsR9NljHuhuhXA?authuser=0&hl=en&rclk=1",
        "coordinates": {
            "latitude": 11.6269931,
            "longitude": 76.0763948
        }
    }
]