[
    {
        "name": "Idgah Masjid",
        "main_category": "Mosque",
        "address": "2WWG+Q8M Idgah Masjid, SH22, near of post office, Agarwal Colony, Mahwa, Rajasthan 321608",
        "detailed_address": {
            "ward": "Agarwal Colony",
            "street": "2WWG+Q8M, SH22, near of post office",
            "city": "Mahwa",
            "postal_code": "321608",
            "state": "Rajasthan",
            "country_code": "IN"
        },
        "images": [
            {
                "about": "All",
                "link": "https://lh5.googleusercontent.com/p/AF1QipMWMYQJZgmSh31DkAnGWxPuBrIcfZuRiPLoZu4=w298-h298-k-no"
            },
            {
                "about": "Videos",
                "link": "https://lh5.googleusercontent.com/p/AF1QipOTL_CgBliAkce3r2OvuETTTi12JusmXp4B4OKP=w299-h298-k-no"
            }
        ],
        "link": "https://www.google.com/maps/place/Idgah+Masjid/data=!4m7!3m6!1s0x3972440e9dfdd5ef:0x1b612b5fb9aa8f59!8m2!3d27.0469555!4d76.9257837!16s%2Fg%2F11d_2g_nl1!19sChIJ79X9nQ5EcjkRWY-quV8rYRs?authuser=0&hl=en&rclk=1",
        "coordinates": {
            "latitude": 27.0469555,
            "longitude": 76.9257837
        }
    },
    {
        "name": "Jama masjid",
        "main_category": "Mosque",
        "address": "259G+HG4 Jama masjid, Weir, Rajasthan 321408",
        "detailed_address": {
            "ward": null,
            "street": "259G+HG4",
            "city": "Weir",
            "postal_code": "321408",
            "state": "Rajasthan",
            "country_code": "IN"
        },
        "images": [
            {
                "about": "All",
                "link": "https://lh5.googleusercontent.com/p/AF1QipNvNJ_yaUVHLUdfvGnVnkGgoLzsIlwAfLjk4-lA=w224-h398-k-no"
            },
            {
                "about": "Dome",
                "link": "https://lh5.googleusercontent.com/p/AF1QipNvNJ_yaUVHLUdfvGnVnkGgoLzsIlwAfLjk4-lA=w224-h398-k-no"
            }
        ],
        "link": "https://www.google.com/maps/place/Jama+masjid/data=!4m7!3m6!1s0x39724b3ca7d3969f:0x9e11462a7d704b87!8m2!3d27.0188884!4d77.1763399!16s%2Fg%2F11c603h1_x!19sChIJn5bTpzxLcjkRh0twfSpGEZ4?authuser=0&hl=en&rclk=1",
        "coordinates": {
            "latitude": 27.018888399999998,
            "longitude": 77.1763399
        }
    },
    {
        "name": "Masjid",
        "main_category": "Mosque",
        "address": "2WWM+P9X Masjid, Mahwa, Rajasthan 321608",
        "detailed_address": {
            "ward": null,
            "street": "2WWM+P9X",
            "city": "Mahwa",
            "postal_code": "321608",
            "state": "Rajasthan",
            "country_code": "IN"
        },
        "images": [
            {
                "about": "All",
                "link": "https://lh5.googleusercontent.com/p/AF1QipMiCSXrsjMkHGhBqIzeOUhohFS9d68rE5A4byCW=w224-h298-k-no"
            }
        ],
        "link": "https://www.google.com/maps/place/Masjid/data=!4m7!3m6!1s0x3972450ba86ad691:0xe1a72d4c645bed28!8m2!3d27.0468623!4d76.9334802!16s%2Fg%2F11h4fj9h_9!19sChIJkdZqqAtFcjkRKO1bZEwtp-E?authuser=0&hl=en&rclk=1",
        "coordinates": {
            "latitude": 27.046862299999997,
            "longitude": 76.93348019999999
        }
    },
    {
        "name": "msjid",
        "main_category": "Mosque",
        "address": "3X4C+92F msjid, Unnamed Road, Rout, Rajasthan 321612",
        "detailed_address": {
            "ward": null,
            "street": "3X4C+92F, Unnamed Road",
            "city": "Rout",
            "postal_code": "321612",
            "state": "Rajasthan",
            "country_code": "IN"
        },
        "images": [
            {
                "about": "All",
                "link": "https://streetviewpixels-pa.googleapis.com/v1/thumbnail?panoid=bn3lpsOmnECvImHn3epy6w&cb_client=maps_sv.tactile.gps&w=224&h=298&yaw=213.01555&pitch=0&thumbfov=100"
            },
            {
                "about": "Street View & 360deg",
                "link": "https://streetviewpixels-pa.googleapis.com/v1/thumbnail?panoid=bn3lpsOmnECvImHn3epy6w&cb_client=maps_sv.tactile.gps&w=224&h=298&yaw=213.01555&pitch=0&thumbfov=100"
            }
        ],
        "link": "https://www.google.com/maps/place/%E0%A4%AE%E0%A4%B8%E0%A5%8D%E0%A4%9C%E0%A4%BF%E0%A4%A6/data=!4m7!3m6!1s0x397245d9d6cd898d:0x456c17f90c93852f!8m2!3d27.0559497!4d76.9700371!16s%2Fg%2F11rw_hhv1n!19sChIJjYnN1tlFcjkRL4WTDPkXbEU?authuser=0&hl=en&rclk=1",
        "coordinates": {
            "latitude": 27.0559497,
            "longitude": 76.9700371
        }
    },
    {
        "name": "NAYAWAS MASJID WEIR",
        "main_category": "Mosque",
        "address": "2578+73W NAYAWAS MASJID WEIR, Weir, Rajasthan 321408",
        "detailed_address": {
            "ward": null,
            "street": "2578+73W",
            "city": "Weir",
            "postal_code": "321408",
            "state": "Rajasthan",
            "country_code": "IN"
        },
        "images": [
            {
                "about": "All",
                "link": "https://lh5.googleusercontent.com/p/AF1QipMUWeHC5_OTPEosYGszY5NdHHhdOHWiCbmdTylY=w224-h497-k-no"
            },
            {
                "about": "Dome",
                "link": "https://lh5.googleusercontent.com/p/AF1QipObu6Bg06g0dtik3KQmj0huy546vUCuMiBwnlSj=w662-h298-k-no"
            },
            {
                "about": "Videos",
                "link": "https://lh5.googleusercontent.com/p/AF1QipNFVUZ6ua8gYKch4k2lDl47dqo9EWhXgzJfp0Lr=w224-h398-k-no"
            }
        ],
        "link": "https://www.google.com/maps/place/NAYAWAS+MASJID+WEIR/data=!4m7!3m6!1s0x39724b53fb63f211:0xbdf6b0286eedf09!8m2!3d27.0120253!4d77.1657316!16s%2Fg%2F11vbg21k4f!19sChIJEfJj-1NLcjkRCd_uhgJr3ws?authuser=0&hl=en&rclk=1",
        "coordinates": {
            "latitude": 27.012025299999998,
            "longitude": 77.1657316
        }
    },
    {
        "name": "Masjid",
        "main_category": "Mosque",
        "address": "3W3H+3HH Masjid, Mahwa, Ramgarh, Rajasthan 321608",
        "detailed_address": {
            "ward": null,
            "street": "3W3H+3HH",
            "city": "Mahwa, Ramgarh",
            "postal_code": "321608",
            "state": "Rajasthan",
            "country_code": "IN"
        },
        "images": [],
        "link": "https://www.google.com/maps/place/Masjid/data=!4m7!3m6!1s0x3972451947c907ed:0xc9da504494961abe!8m2!3d27.0523226!4d76.9287118!16s%2Fg%2F11rky0q98p!19sChIJ7QfJRxlFcjkRvhqWlERQ2sk?authuser=0&hl=en&rclk=1",
        "coordinates": {
            "latitude": 27.0523226,
            "longitude": 76.9287118
        }
    },
    {
        "name": "Mewat masjid",
        "main_category": "Mosque",
        "address": "4426+84F Mewat masjid, Jahanpur, Rajasthan 321407",
        "detailed_address": {
            "ward": null,
            "street": "4426+84F",
            "city": "Jahanpur",
            "postal_code": "321407",
            "state": "Rajasthan",
            "country_code": "IN"
        },
        "images": [
            {
                "about": "All",
                "link": "https://lh5.googleusercontent.com/p/AF1QipN_AJjX3V8-wK0yLhmHf_-eHQTe1rx38DHQAUuq=w224-h398-k-no"
            }
        ],
        "link": "https://www.google.com/maps/place/Mewat+masjid/data=!4m7!3m6!1s0x39724d4850f2f83b:0xf8d242fd88d0862f!8m2!3d27.1008232!4d77.1103011!16s%2Fg%2F11sgkyn_qg!19sChIJO_jyUEhNcjkRL4bQiP1C0vg?authuser=0&hl=en&rclk=1",
        "coordinates": {
            "latitude": 27.100823199999997,
            "longitude": 77.1103011
        }
    },
    {
        "name": "kuraishiyaan msjid",
        "main_category": "Mosque",
        "address": "2WXH+MVC kuraishiyaan msjid, Mahwa, Rajasthan 321608",
        "detailed_address": {
            "ward": null,
            "street": "2WXH+MVC",
            "city": "Mahwa",
            "postal_code": "321608",
            "state": "Rajasthan",
            "country_code": "IN"
        },
        "images": [
            {
                "about": "All",
                "link": "https://streetviewpixels-pa.googleapis.com/v1/thumbnail?panoid=VN8KdZJty6k0u9Gj5Ou5JA&cb_client=maps_sv.tactile.gps&w=224&h=298&yaw=132.4847&pitch=0&thumbfov=100"
            },
            {
                "about": "Street View & 360deg",
                "link": "https://streetviewpixels-pa.googleapis.com/v1/thumbnail?panoid=VN8KdZJty6k0u9Gj5Ou5JA&cb_client=maps_sv.tactile.gps&w=224&h=298&yaw=132.4847&pitch=0&thumbfov=100"
            }
        ],
        "link": "https://www.google.com/maps/place/%E0%A4%95%E0%A5%81%E0%A4%B0%E0%A5%88%E0%A4%B6%E0%A4%BF%E0%A4%AF%E0%A4%BE%E0%A4%A8+%E0%A4%AE%E0%A4%B8%E0%A5%8D%E0%A4%9C%E0%A4%BF%E0%A4%A6/data=!4m7!3m6!1s0x397245c618d3ea77:0xf4a26203d427d86d!8m2!3d27.049199!4d76.9296388!16s%2Fg%2F11lx8mpb26!19sChIJd-rTGMZFcjkRbdgn1ANiovQ?authuser=0&hl=en&rclk=1",
        "coordinates": {
            "latitude": 27.049198999999998,
            "longitude": 76.92963879999999
        }
    },
    {
        "name": "Madina masjid jhalatala",
        "main_category": "Mosque",
        "address": "4425+9X3 Madina masjid jhalatala, Jhalatala, Jahanpur, Rajasthan 321407",
        "detailed_address": {
            "ward": null,
            "street": "4425+9X3",
            "city": "Jhalatala, Jahanpur",
            "postal_code": "321407",
            "state": "Rajasthan",
            "country_code": "IN"
        },
        "images": [
            {
                "about": "All",
                "link": "https://lh5.googleusercontent.com/p/AF1QipPfseIi1KG1p21qZog9cWgfhVy0yrbe7uZ4ZRqf=w662-h298-k-no"
            },
            {
                "about": "Videos",
                "link": "https://lh5.googleusercontent.com/p/AF1QipMY3GRbwdsvOMFfK-S1VzGFemr6KNuQKmdbh87L=w529-h298-k-no"
            }
        ],
        "link": "https://www.google.com/maps/place/Madina+masjid+jhalatala/data=!4m7!3m6!1s0x39724d29c8691e79:0x6a323ab471c49f7c!8m2!3d27.1008879!4d77.1099226!16s%2Fg%2F11v3kd6tcv!19sChIJeR5pyClNcjkRfJ_EcbQ6Mmo?authuser=0&hl=en&rclk=1",
        "coordinates": {
            "latitude": 27.1008879,
            "longitude": 77.10992259999999
        }
    },
    {
        "name": "Jama masjid purani thesi panchayat samiti mahwa",
        "main_category": "Mosque",
        "address": "Jama masjid purani thesi panchayat samiti mahwa, Purani Thesil Rd, Mahwa, Rajasthan 321608",
        "detailed_address": {
            "ward": null,
            "street": "Purani Thesil Rd",
            "city": "Mahwa",
            "postal_code": "321608",
            "state": "Rajasthan",
            "country_code": "IN"
        },
        "images": [
            {
                "about": "All",
                "link": "https://lh5.googleusercontent.com/p/AF1QipNkF6if9z5MG_vCyBr-AN7Bu5wBQ451JdBc-_dF=w224-h502-k-no"
            },
            {
                "about": "By owner",
                "link": "https://lh5.googleusercontent.com/p/AF1QipNkF6if9z5MG_vCyBr-AN7Bu5wBQ451JdBc-_dF=w224-h502-k-no"
            }
        ],
        "link": "https://www.google.com/maps/place/Jama+masjid+purani+thesi+panchayat+samiti+mahwa/data=!4m7!3m6!1s0x397245037ca0fdf5:0x889da576e3985237!8m2!3d27.0451988!4d76.9314894!16s%2Fg%2F11txhs2vnd!19sChIJ9f2gfANFcjkRN1KY43alnYg?authuser=0&hl=en&rclk=1",
        "coordinates": {
            "latitude": 27.045198799999998,
            "longitude": 76.93148939999999
        }
    },
    {
        "name": "Masjid usmania",
        "main_category": "Mosque",
        "address": "2WXF+QV2 Masjid usmania, Ramgarh, Rajasthan 321608",
        "detailed_address": {
            "ward": null,
            "street": "2WXF+QV2",
            "city": "Ramgarh",
            "postal_code": "321608",
            "state": "Rajasthan",
            "country_code": "IN"
        },
        "images": [
            {
                "about": "All",
                "link": "https://streetviewpixels-pa.googleapis.com/v1/thumbnail?panoid=35Ts814-sU6vwxxbAjUp7Q&cb_client=maps_sv.tactile.gps&w=224&h=298&yaw=223.81357&pitch=0&thumbfov=100"
            },
            {
                "about": "Street View & 360deg",
                "link": "https://streetviewpixels-pa.googleapis.com/v1/thumbnail?panoid=35Ts814-sU6vwxxbAjUp7Q&cb_client=maps_sv.tactile.gps&w=224&h=298&yaw=223.81357&pitch=0&thumbfov=100"
            }
        ],
        "link": "https://www.google.com/maps/place/Masjid+usmania/data=!4m7!3m6!1s0x39724569c44bda71:0x7984a694cc41ccd8!8m2!3d27.0493857!4d76.9246538!16s%2Fg%2F11r9nqdw_h!19sChIJcdpLxGlFcjkR2MxBzJSmhHk?authuser=0&hl=en&rclk=1",
        "coordinates": {
            "latitude": 27.0493857,
            "longitude": 76.9246538
        }
    },
    {
        "name": "ddaak vaale baabaa kii drgaah",
        "main_category": "Mosque",
        "address": "ddaak vaale baabaa kii drgaah, jain electric, SH22, near of post office, Agarwal Colony, Mahwa, Rajasthan 321608",
        "detailed_address": {
            "ward": "Agarwal Colony",
            "street": "jain electric, SH22, near of post office",
            "city": "Mahwa",
            "postal_code": "321608",
            "state": "Rajasthan",
            "country_code": "IN"
        },
        "images": [
            {
                "about": "All",
                "link": "https://streetviewpixels-pa.googleapis.com/v1/thumbnail?panoid=GhpO7EiIaKSZdbnBCk-zVQ&cb_client=maps_sv.tactile.gps&w=224&h=298&yaw=299.5909&pitch=0&thumbfov=100"
            },
            {
                "about": "Street View & 360deg",
                "link": "https://streetviewpixels-pa.googleapis.com/v1/thumbnail?panoid=GhpO7EiIaKSZdbnBCk-zVQ&cb_client=maps_sv.tactile.gps&w=224&h=298&yaw=299.5909&pitch=0&thumbfov=100"
            }
        ],
        "link": "https://www.google.com/maps/place/%E0%A4%A1%E0%A4%BE%E0%A4%95+%E0%A4%B5%E0%A4%BE%E0%A4%B2%E0%A5%87+%E0%A4%AC%E0%A4%BE%E0%A4%AC%E0%A4%BE+%E0%A4%95%E0%A5%80+%E0%A4%A6%E0%A4%B0%E0%A4%97%E0%A4%BE%E0%A4%B9/data=!4m7!3m6!1s0x397245d9d70ffeef:0x3094c40730ea3db8!8m2!3d27.0484121!4d76.9274453!16s%2Fg%2F11hvh06mfv!19sChIJ7_4P19lFcjkRuD3qMAfElDA?authuser=0&hl=en&rclk=1",
        "coordinates": {
            "latitude": 27.0484121,
            "longitude": 76.9274453
        }
    },
    {
        "name": "Madina masjid Randhirgarh",
        "main_category": "Mosque",
        "address": "2275+X5 Madina masjid Randhirgarh, Randheergarh, Rajasthan 321409",
        "detailed_address": {
            "ward": null,
            "street": "2275+X5",
            "city": "Randheergarh",
            "postal_code": "321409",
            "state": "Rajasthan",
            "country_code": "IN"
        },
        "images": [],
        "link": "https://www.google.com/maps/place/Madina+masjid+Randhirgarh/data=!4m7!3m6!1s0x3972477f35ab58f7:0x5d2a00c8014e3a16!8m2!3d27.01496!4d77.0079533!16s%2Fg%2F11pzm8wt5c!19sChIJ91irNX9HcjkRFjpOAcgAKl0?authuser=0&hl=en&rclk=1",
        "coordinates": {
            "latitude": 27.01496,
            "longitude": 77.0079533
        }
    },
    {
        "name": "aqsa masjid jahanpur",
        "main_category": "Mosque",
        "address": "aqsa masjid jahanpur, Jahanpur, Rajasthan 321407",
        "detailed_address": {
            "ward": null,
            "street": null,
            "city": "Jahanpur",
            "postal_code": "321407",
            "state": "Rajasthan",
            "country_code": "IN"
        },
        "images": [
            {
                "about": "All",
                "link": "https://lh5.googleusercontent.com/p/AF1QipO4FzNmzZboy5qohFhzn3XoevwTBFAfmjYbYKHW=w297-h298-k-no"
            }
        ],
        "link": "https://www.google.com/maps/place/aqsa+masjid+jahanpur/data=!4m7!3m6!1s0x39724d1ecef69735:0xa1ff34a3cf9f3b81!8m2!3d27.1102607!4d77.1082444!16s%2Fg%2F11svmk7pb9!19sChIJNZf2zh5NcjkRgTufz6M0_6E?authuser=0&hl=en&rclk=1",
        "coordinates": {
            "latitude": 27.110260699999998,
            "longitude": 77.10824439999999
        }
    }
]