[
    {
        "name": "Markaj Masjid Ratangarh By MD",
        "main_category": "Mosque",
        "address": "3JH7+MRJ Markaj Masjid Ratangarh By MD, Ratangarh, Rajasthan 331022",
        "detailed_address": {
            "ward": null,
            "street": "3JH7+MRJ",
            "city": "Ratangarh",
            "postal_code": "331022",
            "state": "Rajasthan",
            "country_code": "IN"
        },
        "images": [
            {
                "about": "All",
                "link": "https://lh5.googleusercontent.com/p/AF1QipNFpahJ8osG7hYSnvZz2CNydPQXq_x5TQ4G_KzT=w224-h497-k-no"
            },
            {
                "about": "Latest",
                "link": "https://lh5.googleusercontent.com/p/AF1QipMCgMYgo8A4WJ0cBYhE0fqkCHzQ5pee4s3M1onH=w224-h398-k-no"
            }
        ],
        "link": "https://www.google.com/maps/place/Markaj+Masjid+Ratangarh+By+MD/data=!4m7!3m6!1s0x3914bf4a5af4b02b:0x375c7d5e20f01003!8m2!3d28.0792079!4d74.6145011!16s%2Fg%2F11gdh5jhqz!19sChIJK7D0Wkq_FDkRAxDwIF59XDc?authuser=0&hl=en&rclk=1",
        "coordinates": {
            "latitude": 28.0792079,
            "longitude": 74.6145011
        }
    },
    {
        "name": "MADINA MASJID",
        "main_category": "Mosque",
        "address": "MADINA MASJID, Mohalla Bisatiyan, Near Old Eye Hospital Ward NO 32Ratangarh, Rajasthan 331022",
        "detailed_address": {
            "ward": null,
            "street": "Mohalla Bisatiyan, Near Old Eye Hospital Ward NO 32Ratangarh",
            "city": "Ratangarh",
            "postal_code": "331022",
            "state": "Rajasthan",
            "country_code": "IN"
        },
        "images": [
            {
                "about": "All",
                "link": "https://lh5.googleusercontent.com/p/AF1QipNOFG-bodaThubjP_MhLyUqlgTWPyiNBNA2sZNH=w397-h298-k-no"
            }
        ],
        "link": "https://www.google.com/maps/place/MADINA+MASJID/data=!4m7!3m6!1s0x3914bf36fa2200f3:0xfde140e42640bedc!8m2!3d28.0843593!4d74.6199372!16s%2Fg%2F11f0wg827f!19sChIJ8wAi-ja_FDkR3L5AJuRA4f0?authuser=0&hl=en&rclk=1",
        "coordinates": {
            "latitude": 28.0843593,
            "longitude": 74.6199372
        }
    },
    {
        "name": "MASJID HUDA",
        "main_category": "Mosque",
        "address": "3JJC+F84 MASJID HUDA, MOHALLA, Teliyan Road, Ratangarh, Rajasthan 331001",
        "detailed_address": {
            "ward": null,
            "street": "3JJC+F84, MOHALLA, Teliyan Road",
            "city": "Ratangarh",
            "postal_code": "331001",
            "state": "Rajasthan",
            "country_code": "IN"
        },
        "images": [
            {
                "about": "All",
                "link": "https://lh5.googleusercontent.com/p/AF1QipMCyE98wWgiL9Qo4-N-6p3TUHkCmb19ZpRjzmIV=w224-h298-k-no"
            },
            {
                "about": "Dome",
                "link": "https://lh5.googleusercontent.com/p/AF1QipMc5hqJnRcewUnQ9t8sJwJIFvLC7m5iFhNbA5uR=w224-h298-k-no"
            },
            {
                "about": "Videos",
                "link": "https://lh5.googleusercontent.com/p/AF1QipNbx5BuwDrBLuoaLp94Ed0kx4x583AS91_I9tE2=w224-h398-k-no"
            }
        ],
        "link": "https://www.google.com/maps/place/MASJID+HUDA/data=!4m7!3m6!1s0x3914bf343c2b5783:0x93de6132d6710b27!8m2!3d28.0811339!4d74.6208273!16s%2Fg%2F11cp7rxjqb!19sChIJg1crPDS_FDkRJwtx1jJh3pM?authuser=0&hl=en&rclk=1",
        "coordinates": {
            "latitude": 28.081133899999998,
            "longitude": 74.6208273
        }
    },
    {
        "name": "Hakimi Masjid",
        "main_category": "Mosque",
        "address": "R474+68C Hakimi Masjid, Ratangarh, Madhya Pradesh 458226",
        "detailed_address": {
            "ward": null,
            "street": "R474+68C",
            "city": "Ratangarh",
            "postal_code": "458226",
            "state": "Madhya Pradesh",
            "country_code": "IN"
        },
        "images": [
            {
                "about": "All",
                "link": "https://lh5.googleusercontent.com/p/AF1QipM8c-rllH4CT7tr6Scg3IKEpTYUJY1Ck2wRqyEH=w397-h298-k-no"
            },
            {
                "about": "Videos",
                "link": "https://lh5.googleusercontent.com/p/AF1QipNJGPO3SFT1q2DCR3mhMuWPU9xKxk1sEHJFz9O5=w529-h298-k-no"
            }
        ],
        "link": "https://www.google.com/maps/place/Hakimi+Masjid/data=!4m7!3m6!1s0x3965fbd56e4c9f67:0xab4925bfdf0ed3f1!8m2!3d24.8130693!4d75.1057587!16s%2Fg%2F11bzr9rtyc!19sChIJZ59MbtX7ZTkR8dMO378lSas?authuser=0&hl=en&rclk=1",
        "coordinates": {
            "latitude": 24.8130693,
            "longitude": 75.1057587
        }
    },
    {
        "name": "AQSA MASJID",
        "main_category": "Mosque",
        "address": "6X94+6R3 AQSA MASJID, Ratanngar, Ratangarh, Rajasthan 331021",
        "detailed_address": {
            "ward": null,
            "street": "6X94+6R3, Ratanngar",
            "city": "Ratangarh, Ratannagar",
            "postal_code": "331021",
            "state": "Rajasthan",
            "country_code": "IN"
        },
        "images": [
            {
                "about": "All",
                "link": "https://lh5.googleusercontent.com/p/AF1QipOqKq9FNdAq9epdnxSGrWS6OcTaqbueCMbmSFsv=w529-h298-k-no"
            }
        ],
        "link": "https://www.google.com/maps/place/AQSA+MASJID/data=!4m7!3m6!1s0x39149fe54e82415f:0xf9625e1393db6390!8m2!3d28.218019!4d74.9570369!16s%2Fg%2F11dxntjjwd!19sChIJX0GCTuWfFDkRkGPbkxNeYvk?authuser=0&hl=en&rclk=1",
        "coordinates": {
            "latitude": 28.218018999999998,
            "longitude": 74.95703689999999
        }
    },
    {
        "name": "EIDGAH MASJID",
        "main_category": "Mosque",
        "address": "3JJ7+6J4 EIDGAH MASJID, Ratangarh, Rajasthan 331022",
        "detailed_address": {
            "ward": null,
            "street": "3JJ7+6J4",
            "city": "Ratangarh",
            "postal_code": "331022",
            "state": "Rajasthan",
            "country_code": "IN"
        },
        "images": [
            {
                "about": "All",
                "link": "https://lh5.googleusercontent.com/p/AF1QipMqP77qUWgp2WTu70mM_Ih3OlIPChQ_cICPiTs1=w224-h398-k-no"
            }
        ],
        "link": "https://www.google.com/maps/place/EIDGAH+MASJID/data=!4m7!3m6!1s0x3914bf4a310e04c7:0xb0e65c2666f7756e!8m2!3d28.0805246!4d74.6140791!16s%2Fg%2F11g6mvhlrq!19sChIJxwQOMUq_FDkRbnX3ZiZc5rA?authuser=0&hl=en&rclk=1",
        "coordinates": {
            "latitude": 28.0805246,
            "longitude": 74.6140791
        }
    },
    {
        "name": "Aqsa Masjid",
        "main_category": "Mosque",
        "address": "3JJ7+7CM Aqsa Masjid, Ratangarh, Rajasthan 331022",
        "detailed_address": {
            "ward": null,
            "street": "3JJ7+7CM",
            "city": "Ratangarh",
            "postal_code": "331022",
            "state": "Rajasthan",
            "country_code": "IN"
        },
        "images": [
            {
                "about": "All",
                "link": "https://lh5.googleusercontent.com/p/AF1QipNUK8t9jFXP8Un4pkKlYLkt_7AQmpTS0M7dQ_nI=w530-h298-k-no"
            }
        ],
        "link": "https://www.google.com/maps/place/Aqsa+Masjid/data=!4m7!3m6!1s0x3914bf4bd29ced95:0xd53fe5eca19b9373!8m2!3d28.0807032!4d74.613562!16s%2Fg%2F11fj47wpxt!19sChIJle2c0ku_FDkRc5OboezlP9U?authuser=0&hl=en&rclk=1",
        "coordinates": {
            "latitude": 28.0807032,
            "longitude": 74.613562
        }
    },
    {
        "name": "Makki Masjid",
        "main_category": "Mosque",
        "address": "3JGM+VQ8 Makki Masjid, Ward no.18, Ratangarh, Rajasthan 331022",
        "detailed_address": {
            "ward": "Ward no.18",
            "street": "3JGM+VQ8",
            "city": "Ratangarh",
            "postal_code": "331022",
            "state": "Rajasthan",
            "country_code": "IN"
        },
        "images": [],
        "link": "https://www.google.com/maps/place/Makki+Masjid/data=!4m7!3m6!1s0x3914b9ab64c6e247:0x64c3dd9449838e39!8m2!3d28.0771724!4d74.6344477!16s%2Fg%2F11gh6thp4l!19sChIJR-LGZKu5FDkROY6DSZTdw2Q?authuser=0&hl=en&rclk=1",
        "coordinates": {
            "latitude": 28.0771724,
            "longitude": 74.6344477
        }
    },
    {
        "name": "Jamma masjid,Ratangarh",
        "main_category": "Mosque",
        "address": "3JHF+325 Jamma masjid,Ratangarh, Ratangarh, Rajasthan 331022",
        "detailed_address": {
            "ward": null,
            "street": "3JHF+325",
            "city": "Ratangarh",
            "postal_code": "331022",
            "state": "Rajasthan",
            "country_code": "IN"
        },
        "images": [],
        "link": "https://www.google.com/maps/place/Jamma+masjid,Ratangarh/data=!4m7!3m6!1s0x3914bf3358f0d959:0xd8ebe82b7251de24!8m2!3d28.0776442!4d74.6226027!16s%2Fg%2F11c607mxgc!19sChIJWdnwWDO_FDkRJN5Rcivo69g?authuser=0&hl=en&rclk=1",
        "coordinates": {
            "latitude": 28.077644199999998,
            "longitude": 74.6226027
        }
    },
    {
        "name": "USMANIYA MASJID",
        "main_category": "Mosque",
        "address": "3JH5+VJF USMANIYA MASJID, Ratangarh, Rajasthan 331022",
        "detailed_address": {
            "ward": null,
            "street": "3JH5+VJF",
            "city": "Ratangarh",
            "postal_code": "331022",
            "state": "Rajasthan",
            "country_code": "IN"
        },
        "images": [],
        "link": "https://www.google.com/maps/place/USMANIYA+MASJID/data=!4m7!3m6!1s0x3914bf4c3ee6180f:0x18151464e9790714!8m2!3d28.0796777!4d74.6090414!16s%2Fg%2F11c6r2_yhf!19sChIJDxjmPky_FDkRFAd56WQUFRg?authuser=0&hl=en&rclk=1",
        "coordinates": {
            "latitude": 28.079677699999998,
            "longitude": 74.6090414
        }
    },
    {
        "name": "Masjid Mohammadi",
        "main_category": "Mosque",
        "address": "3JJ9+QWV Masjid Mohammadi, Ratangarh, Rajasthan 331022",
        "detailed_address": {
            "ward": null,
            "street": "3JJ9+QWV",
            "city": "Ratangarh",
            "postal_code": "331022",
            "state": "Rajasthan",
            "country_code": "IN"
        },
        "images": [
            {
                "about": "All",
                "link": "https://lh5.googleusercontent.com/p/AF1QipPTYIjTKU-YZd57xqiWpsRCvnrYjTdGb_PUoHR6=w224-h477-k-no"
            },
            {
                "about": "Videos",
                "link": "https://lh5.googleusercontent.com/p/AF1QipPzbDyr1bU59KbcaDa_RfYimeWq5hJHwf6u6wQp=w529-h298-k-no"
            }
        ],
        "link": "https://www.google.com/maps/place/Masjid+Mohammadi/data=!4m7!3m6!1s0x3914bfd8b3f1d4f9:0xf612c62e608fa978!8m2!3d28.0819912!4d74.619787!16s%2Fg%2F11ghs9bgln!19sChIJ-dTxs9i_FDkReKmPYC7GEvY?authuser=0&hl=en&rclk=1",
        "coordinates": {
            "latitude": 28.081991199999997,
            "longitude": 74.619787
        }
    },
    {
        "name": "Ezzy Masjid",
        "main_category": "Place of worship",
        "address": "R464+V9C Ezzy Masjid, Ratangarh, Madhya Pradesh 458226",
        "detailed_address": {
            "ward": null,
            "street": "R464+V9C",
            "city": "Ratangarh",
            "postal_code": "458226",
            "state": "Madhya Pradesh",
            "country_code": "IN"
        },
        "images": [
            {
                "about": "All",
                "link": "https://lh5.googleusercontent.com/p/AF1QipOMwRZdqJCQv0oQ_VC9v6dIB1Sa_sfXFD23drA_=w397-h298-k-no"
            }
        ],
        "link": "https://www.google.com/maps/place/Ezzy+Masjid/data=!4m7!3m6!1s0x3965fbd513d9eacb:0xbedac1b80b631dc9!8m2!3d24.8121992!4d75.1058774!16s%2Fg%2F11c2pcb7ll!19sChIJy-rZE9X7ZTkRyR1jC7jB2r4?authuser=0&hl=en&rclk=1",
        "coordinates": {
            "latitude": 24.8121992,
            "longitude": 75.1058774
        }
    },
    {
        "name": "Jamali Masjid",
        "main_category": "Mosque",
        "address": "R474+FGP Jamali Masjid, Ratangarh, Madhya Pradesh 458226",
        "detailed_address": {
            "ward": null,
            "street": "R474+FGP",
            "city": "Ratangarh",
            "postal_code": "458226",
            "state": "Madhya Pradesh",
            "country_code": "IN"
        },
        "images": [
            {
                "about": "All",
                "link": "https://lh5.googleusercontent.com/p/AF1QipPdW-8KLmGJHk-PflB_ar9wnHbJC_N7aDDyWkCQ=w397-h298-k-no"
            },
            {
                "about": "Videos",
                "link": "https://lh5.googleusercontent.com/p/AF1QipM05_U4Bs2ol0uVh9K_qcrBKjg45qOrDqCoXBeW=w529-h298-k-no"
            }
        ],
        "link": "https://www.google.com/maps/place/Jamali+Masjid/data=!4m7!3m6!1s0x3965fbd5674a0593:0xd8625533c93c4a71!8m2!3d24.8137171!4d75.106329!16s%2Fg%2F11cp7ctlfq!19sChIJkwVKZ9X7ZTkRcUo8yTNVYtg?authuser=0&hl=en&rclk=1",
        "coordinates": {
            "latitude": 24.813717099999998,
            "longitude": 75.106329
        }
    },
    {
        "name": "HAZARAT UMAR BIN KHATTAB MASJID",
        "main_category": "Mosque",
        "address": "3JM6+2J5 HAZARAT UMAR BIN KHATTAB MASJID, Ratangarh, Rajasthan 331022",
        "detailed_address": {
            "ward": null,
            "street": "3JM6+2J5",
            "city": "Ratangarh",
            "postal_code": "331022",
            "state": "Rajasthan",
            "country_code": "IN"
        },
        "images": [
            {
                "about": "All",
                "link": "https://lh5.googleusercontent.com/p/AF1QipPckCxzsecGDNsEOy54XH12TS_66Co4LepwTZGd=w397-h298-k-no"
            }
        ],
        "link": "https://www.google.com/maps/place/HAZARAT+UMAR+BIN+KHATTAB+MASJID/data=!4m7!3m6!1s0x3914bf58b2b57609:0x2b2d890f21b2b9a0!8m2!3d28.0825064!4d74.6115993!16s%2Fg%2F11h55n6hsg!19sChIJCXa1sli_FDkRoLmyIQ-JLSs?authuser=0&hl=en&rclk=1",
        "coordinates": {
            "latitude": 28.0825064,
            "longitude": 74.6115993
        }
    },
    {
        "name": "New Masjid",
        "main_category": "Mosque",
        "address": "3J9H+2FC New Masjid, Railway Colony, Ratangarh, Rajasthan 331022",
        "detailed_address": {
            "ward": "Railway Colony",
            "street": "3J9H+2FC",
            "city": "Ratangarh",
            "postal_code": null,
            "state": "Rajasthan",
            "country_code": "IN"
        },
        "images": [
            {
                "about": "All",
                "link": "https://lh5.googleusercontent.com/p/AF1QipNyTT9qQ-6nVQ-SyXVpBA2Y2hukvE0Lnmtyxy3x=w224-h398-k-no"
            },
            {
                "about": "Dome",
                "link": "https://lh5.googleusercontent.com/p/AF1QipN0MYr5bKTUPB2bOKFr1rktvg-1FHrtf_0SdEA8=w300-h298-k-no"
            }
        ],
        "link": "https://www.google.com/maps/place/New+Masjid/data=!4m7!3m6!1s0x3914b919046fa9ef:0x536030f5cf99e337!8m2!3d28.0675625!4d74.628638!16s%2Fg%2F11hdxntdp_!19sChIJ76lvBBm5FDkRN-OZz_UwYFM?authuser=0&hl=en&rclk=1",
        "coordinates": {
            "latitude": 28.067562499999998,
            "longitude": 74.628638
        }
    },
    {
        "name": "Eid gah kabristan",
        "main_category": "Mosque",
        "address": "3JJ5+2C7 Eid gah kabristan, Ratangarh, Rajasthan 331022",
        "detailed_address": {
            "ward": null,
            "street": "3JJ5+2C7",
            "city": "Ratangarh",
            "postal_code": "331022",
            "state": "Rajasthan",
            "country_code": "IN"
        },
        "images": [],
        "link": "https://www.google.com/maps/place/Eid+gah+kabristan/data=!4m7!3m6!1s0x3914bfff0b3c04f7:0x8e75527248ea7fe0!8m2!3d28.0800406!4d74.6085432!16s%2Fg%2F11fjmmgdrh!19sChIJ9wQ8C_-_FDkR4H_qSHJSdY4?authuser=0&hl=en&rclk=1",
        "coordinates": {
            "latitude": 28.0800406,
            "longitude": 74.6085432
        }
    },
    {
        "name": "Sunhari masjid sunhrii msjid",
        "main_category": "Mosque",
        "address": "Sunhari masjid sunhrii msjid, Unnamed Road, Ratangarh, Azamgarhurf Ratangarh, Uttar Pradesh 246734",
        "detailed_address": {
            "ward": null,
            "street": "Unnamed Road",
            "city": "Ratangarh, Azamgarhurf Ratangarh",
            "postal_code": "246734",
            "state": "Uttar Pradesh",
            "country_code": "IN"
        },
        "images": [
            {
                "about": "All",
                "link": "https://lh5.googleusercontent.com/p/AF1QipNKnwtYB4Ri3oTfj7hQIypbah2Fpd_vs25SsET0=w224-h497-k-no"
            },
            {
                "about": "By owner",
                "link": "https://lh5.googleusercontent.com/p/AF1QipMKGfsX5oGp-nRyRgt1Vjb-8JvEBcro-wDEMPjj=w224-h497-k-no"
            }
        ],
        "link": "https://www.google.com/maps/place/Sunhari+masjid+%E0%A4%B8%E0%A5%81%E0%A4%A8%E0%A4%B9%E0%A4%B0%E0%A5%80+%E0%A4%AE%E0%A4%B8%E0%A5%8D%E0%A4%9C%E0%A4%BF%E0%A4%A6/data=!4m7!3m6!1s0x390bbd150268ecd1:0xe74f8c8de54f2781!8m2!3d29.1015075!4d78.3645156!16s%2Fg%2F11r10b07_c!19sChIJ0exoAhW9CzkRgSdP5Y2MT-c?authuser=0&hl=en&rclk=1",
        "coordinates": {
            "latitude": 29.1015075,
            "longitude": 78.36451559999999
        }
    },
    {
        "name": "MASJID CHEJARAN",
        "main_category": "Mosque",
        "address": "3JG8+VCW MASJID CHEJARAN, Athuna Bazaar Road, Ratangarh, Rajasthan 331022",
        "detailed_address": {
            "ward": null,
            "street": "3JG8+VCW, Athuna Bazaar Road",
            "city": "Ratangarh",
            "postal_code": "331022",
            "state": "Rajasthan",
            "country_code": "IN"
        },
        "images": [
            {
                "about": "All",
                "link": "https://streetviewpixels-pa.googleapis.com/v1/thumbnail?panoid=HO5_D7EneqCEnStPggAKtQ&cb_client=maps_sv.tactile.gps&w=224&h=298&yaw=320.72897&pitch=0&thumbfov=100"
            },
            {
                "about": "Street View & 360deg",
                "link": "https://streetviewpixels-pa.googleapis.com/v1/thumbnail?panoid=HO5_D7EneqCEnStPggAKtQ&cb_client=maps_sv.tactile.gps&w=224&h=298&yaw=320.72897&pitch=0&thumbfov=100"
            }
        ],
        "link": "https://www.google.com/maps/place/MASJID+CHEJARAN/data=!4m7!3m6!1s0x3914bf399a4d15c3:0xedc60264b8395f66!8m2!3d28.0772271!4d74.6160737!16s%2Fg%2F11g0lcnd0b!19sChIJwxVNmjm_FDkRZl85uGQCxu0?authuser=0&hl=en&rclk=1",
        "coordinates": {
            "latitude": 28.077227099999998,
            "longitude": 74.6160737
        }
    },
    {
        "name": "Fatima masjid",
        "main_category": "Mosque",
        "address": "3JF3+F2H Fatima masjid, Ratangarh, Rajasthan 331022",
        "detailed_address": {
            "ward": null,
            "street": "3JF3+F2H",
            "city": "Ratangarh",
            "postal_code": "331022",
            "state": "Rajasthan",
            "country_code": "IN"
        },
        "images": [
            {
                "about": "All",
                "link": "https://lh5.googleusercontent.com/p/AF1QipNfzZvc2QnPeLMW8ioEZFe6L7VjVkYUafV_Z_wL=w628-h298-k-no"
            }
        ],
        "link": "https://www.google.com/maps/place/Fatima+masjid/data=!4m7!3m6!1s0x3914b9600c0d8a61:0x2afa2419c53faf5e!8m2!3d28.0736976!4d74.6026139!16s%2Fg%2F11tnf570s1!19sChIJYYoNDGC5FDkRXq8_xRkk-io?authuser=0&hl=en&rclk=1",
        "coordinates": {
            "latitude": 28.0736976,
            "longitude": 74.6026139
        }
    },
    {
        "name": "Takiya e sunnat e rasul wali masjid",
        "main_category": "Mosque",
        "address": "3JGQ+F62 Takiya e sunnat e rasul wali masjid, Ratangarh, Rajasthan 331022",
        "detailed_address": {
            "ward": null,
            "street": "3JGQ+F62",
            "city": "Ratangarh",
            "postal_code": "331022",
            "state": "Rajasthan",
            "country_code": "IN"
        },
        "images": [
            {
                "about": "All",
                "link": "https://lh5.googleusercontent.com/p/AF1QipMJN_F21dIwkUFB_Mhfwxi8qU7DPVO-pxgUq2Qx=w639-h298-k-no"
            },
            {
                "about": "Videos",
                "link": "https://lh5.googleusercontent.com/p/AF1QipP1QYpRhqK1ULFoYNSuK5s9Gol38s69ue-P6mFM=w529-h298-k-no"
            }
        ],
        "link": "https://www.google.com/maps/place/Takiya+e+sunnat+e+rasul+wali+masjid/data=!4m7!3m6!1s0x3914b992a0336a2f:0xc5d6b0c55ba724e0!8m2!3d28.0761356!4d74.6380008!16s%2Fg%2F11sxwzw9mq!19sChIJL2ozoJK5FDkR4CSnW8Ww1sU?authuser=0&hl=en&rclk=1",
        "coordinates": {
            "latitude": 28.076135599999997,
            "longitude": 74.6380008
        }
    },
    {
        "name": "Muslim Masjid",
        "main_category": "Mosque",
        "address": "R474+87M Muslim Masjid, Ratangarh, Madhya Pradesh 458226",
        "detailed_address": {
            "ward": null,
            "street": "R474+87M",
            "city": "Ratangarh",
            "postal_code": "458226",
            "state": "Madhya Pradesh",
            "country_code": "IN"
        },
        "images": [
            {
                "about": "All",
                "link": "https://lh5.googleusercontent.com/p/AF1QipOJBEQjjuDul8F8_Vgq4V6g0mgzhRtGuFaFoLm7=w529-h298-k-no"
            }
        ],
        "link": "https://www.google.com/maps/place/Muslim+Masjid/data=!4m7!3m6!1s0x3965fb93c859971b:0x35a11ee2d98fcf28!8m2!3d24.8133392!4d75.1056792!16s%2Fg%2F11kp_jmp06!19sChIJG5dZyJP7ZTkRKM-P2eIeoTU?authuser=0&hl=en&rclk=1",
        "coordinates": {
            "latitude": 24.813339199999998,
            "longitude": 75.1056792
        }
    },
    {
        "name": "Masjid",
        "main_category": "Mosque",
        "address": "4927+MRX Masjid, Ratangarh, Azamgarhurf Ratangarh, Uttar Pradesh 246734",
        "detailed_address": {
            "ward": null,
            "street": "4927+MRX",
            "city": "Ratangarh, Azamgarhurf Ratangarh",
            "postal_code": "246734",
            "state": "Uttar Pradesh",
            "country_code": "IN"
        },
        "images": [],
        "link": "https://www.google.com/maps/place/Masjid/data=!4m7!3m6!1s0x390bbd88f61f26d1:0x8dedff248bd1ae3e!8m2!3d29.1017308!4d78.3646205!16s%2Fg%2F11l5bqhdy9!19sChIJ0SYf9oi9CzkRPq7RiyT_7Y0?authuser=0&hl=en&rclk=1",
        "coordinates": {
            "latitude": 29.1017308,
            "longitude": 78.3646205
        }
    },
    {
        "name": "New masjid",
        "main_category": "Mosque",
        "address": "3J9F+HVR New masjid, Railway colony, Ratangarh, Rajasthan 331022",
        "detailed_address": {
            "ward": "Railway colony",
            "street": "3J9F+HVR",
            "city": "Ratangarh",
            "postal_code": null,
            "state": "Rajasthan",
            "country_code": "IN"
        },
        "images": [],
        "link": "https://www.google.com/maps/place/New+masjid/data=!4m7!3m6!1s0x3914b967d47f3799:0x9857f72072235e06!8m2!3d28.0689999!4d74.6246394!16s%2Fg%2F11hdxnvtbz!19sChIJmTd_1Ge5FDkRBl4jciD3V5g?authuser=0&hl=en&rclk=1",
        "coordinates": {
            "latitude": 28.068999899999998,
            "longitude": 74.62463939999999
        }
    },
    {
        "name": "Masjid ratangarh msjid rtngddh'",
        "main_category": "Mosque",
        "address": "2GVM+34W Masjid ratangarh msjid rtngddh', Ratangarh, Madhya Pradesh 464228",
        "detailed_address": {
            "ward": null,
            "street": "2GVM+34W",
            "city": "Ratangarh",
            "postal_code": null,
            "state": "Madhya Pradesh",
            "country_code": "IN"
        },
        "images": [],
        "link": "https://www.google.com/maps/place/Masjid+ratangarh+%E0%A4%AE%E0%A4%B8%E0%A4%9C%E0%A4%BF%E0%A4%A6+%E0%A4%B0%E0%A4%A4%E0%A4%A8%E0%A4%97%E0%A4%A2%E0%A4%BC/data=!4m7!3m6!1s0x397bbf1c6ff110c7:0x38051518429d5d90!8m2!3d24.0427413!4d77.532821!16s%2Fg%2F11m0rbqbts!19sChIJxxDxbxy_ezkRkF2dQhgVBTg?authuser=0&hl=en&rclk=1",
        "coordinates": {
            "latitude": 24.0427413,
            "longitude": 77.532821
        }
    },
    {
        "name": "Masjid-e-toheed",
        "main_category": "Mosque",
        "address": "3JGP+RHG Masjid-e-toheed, Ratangarh, Rajasthan 331022",
        "detailed_address": {
            "ward": null,
            "street": "3JGP+RHG",
            "city": "Ratangarh",
            "postal_code": "331022",
            "state": "Rajasthan",
            "country_code": "IN"
        },
        "images": [],
        "link": "https://www.google.com/maps/place/Masjid-e-toheed/data=!4m7!3m6!1s0x3914b92e3396d20f:0x16a5fa323fdc17ab!8m2!3d28.0770715!4d74.6364573!16s%2Fg%2F11sgvy77c5!19sChIJD9KWMy65FDkRqxfcPzL6pRY?authuser=0&hl=en&rclk=1",
        "coordinates": {
            "latitude": 28.0770715,
            "longitude": 74.6364573
        }
    },
    {
        "name": "Masjid Ratangarh",
        "main_category": "University",
        "address": "XMF4+9Q6 Masjid Ratangarh, Panager Barouda, Pipariya Khurd, Madhya Pradesh 487661",
        "detailed_address": {
            "ward": "Panager Barouda",
            "street": "XMF4+9Q6",
            "city": "Pipariya Khurd",
            "postal_code": null,
            "state": "Madhya Pradesh",
            "country_code": "IN"
        },
        "images": [],
        "link": "https://www.google.com/maps/place/Masjid+Ratangarh/data=!4m7!3m6!1s0x397f01b5b66cf46f:0x3ae47fc34b286d4f!8m2!3d22.9734229!4d78.6568942!16s%2Fg%2F11sycflbxn!19sChIJb_RstrUBfzkRT20oS8N_5Do?authuser=0&hl=en&rclk=1",
        "coordinates": {
            "latitude": 22.9734229,
            "longitude": 78.6568942
        }
    },
    {
        "name": "Aasiya Masjid",
        "main_category": "Mosque",
        "address": "3JC7+8GV Aasiya Masjid, Ratangarh, Rajasthan 331022",
        "detailed_address": {
            "ward": null,
            "street": "3JC7+8GV",
            "city": "Ratangarh",
            "postal_code": "331022",
            "state": "Rajasthan",
            "country_code": "IN"
        },
        "images": [],
        "link": "https://www.google.com/maps/place/Aasiya+Masjid/data=!4m7!3m6!1s0x3914b97b3a7b82a5:0xc8dfd0cd4d1abc99!8m2!3d28.0712975!4d74.6143002!16s%2Fg%2F11t_gwrj0y!19sChIJpYJ7Onu5FDkRmbwaTc3Q38g?authuser=0&hl=en&rclk=1",
        "coordinates": {
            "latitude": 28.0712975,
            "longitude": 74.6143002
        }
    },
    {
        "name": "aasiya masjid",
        "main_category": "Mosque",
        "address": "3JC9+HQH aasiya masjid, Ratangarh, Rajasthan 331022",
        "detailed_address": {
            "ward": null,
            "street": "3JC9+HQH",
            "city": "Ratangarh",
            "postal_code": "331022",
            "state": "Rajasthan",
            "country_code": "IN"
        },
        "images": [
            {
                "about": "All",
                "link": "https://streetviewpixels-pa.googleapis.com/v1/thumbnail?panoid=2cBCZXHKR8D4A1juXPdpAw&cb_client=maps_sv.tactile.gps&w=224&h=298&yaw=244.94867&pitch=0&thumbfov=100"
            },
            {
                "about": "Street View & 360deg",
                "link": "https://streetviewpixels-pa.googleapis.com/v1/thumbnail?panoid=2cBCZXHKR8D4A1juXPdpAw&cb_client=maps_sv.tactile.gps&w=224&h=298&yaw=244.94867&pitch=0&thumbfov=100"
            }
        ],
        "link": "https://www.google.com/maps/place/aasiya+masjid/data=!4m7!3m6!1s0x3914b92a5ff4c267:0xa110c0f297c3c0c2!8m2!3d28.0714475!4d74.6194717!16s%2Fg%2F11tx6h8z0x!19sChIJZ8L0Xyq5FDkRwsDDl_LAEKE?authuser=0&hl=en&rclk=1",
        "coordinates": {
            "latitude": 28.071447499999998,
            "longitude": 74.61947169999999
        }
    }
]