[
    {
        "name": "Markazi Masjid",
        "main_category": "Mosque",
        "address": "VQ9Q+3P7 Markazi Masjid, Hauda Talab, Kakori, Uttar Pradesh 226101",
        "detailed_address": {
            "ward": null,
            "street": "VQ9Q+3P7, Hauda Talab",
            "city": "Kakori",
            "postal_code": "226101",
            "state": "Uttar Pradesh",
            "country_code": "IN"
        },
        "images": [
            {
                "about": "All",
                "link": "https://lh5.googleusercontent.com/p/AF1QipPHM_7sOpGWT2KPyr6SAV08s71DiDEcqgVwQ5iN=w224-h298-k-no"
            },
            {
                "about": "Street View & 360deg",
                "link": "https://streetviewpixels-pa.googleapis.com/v1/thumbnail?panoid=uw5w1yBcP3S1r3PRtxjSqw&cb_client=maps_sv.tactile.gps&w=224&h=298&yaw=44.228676&pitch=0&thumbfov=100"
            },
            {
                "about": "Videos",
                "link": "https://lh5.googleusercontent.com/p/AF1QipOVsMmPiy2iDU9-B7r3dEN7gWC0N9qrRiSoOWLn=w224-h398-k-no"
            }
        ],
        "link": "https://www.google.com/maps/place/Markazi+Masjid/data=!4m7!3m6!1s0x399c001f399bfca9:0xb2e20ae3dd078784!8m2!3d26.8676743!4d80.7893019!16s%2Fg%2F11gbxg3335!19sChIJqfybOR8AnDkRhIcH3eMK4rI?authuser=0&hl=en&rclk=1",
        "coordinates": {
            "latitude": 26.867674299999997,
            "longitude": 80.7893019
        }
    },
    {
        "name": "Jama Masjid",
        "main_category": "Mosque",
        "address": "VQ8P+323 Jama Masjid, Kakori, Uttar Pradesh 226101",
        "detailed_address": {
            "ward": null,
            "street": "VQ8P+323",
            "city": "Kakori",
            "postal_code": "226101",
            "state": "Uttar Pradesh",
            "country_code": "IN"
        },
        "images": [
            {
                "about": "All",
                "link": "https://streetviewpixels-pa.googleapis.com/v1/thumbnail?panoid=xyMNVMP9QvTnz5_3kBOApQ&cb_client=maps_sv.tactile.gps&w=224&h=298&yaw=345.60117&pitch=0&thumbfov=100"
            },
            {
                "about": "Street View & 360deg",
                "link": "https://streetviewpixels-pa.googleapis.com/v1/thumbnail?panoid=xyMNVMP9QvTnz5_3kBOApQ&cb_client=maps_sv.tactile.gps&w=224&h=298&yaw=345.60117&pitch=0&thumbfov=100"
            }
        ],
        "link": "https://www.google.com/maps/place/Jama+Masjid/data=!4m7!3m6!1s0x399c0023caeed055:0x1e62292f15a418d7!8m2!3d26.865135!4d80.7850607!16s%2Fg%2F11d_8gv_5d!19sChIJVdDuyiMAnDkR1xikFS8pYh4?authuser=0&hl=en&rclk=1",
        "coordinates": {
            "latitude": 26.865135,
            "longitude": 80.7850607
        }
    },
    {
        "name": "Jama masjid",
        "main_category": "Mosque",
        "address": "VQ9V+697 Jama masjid, Saidpur- Paliya Rd, Kakori, Uttar Pradesh 226101",
        "detailed_address": {
            "ward": null,
            "street": "VQ9V+697, Saidpur- Paliya Rd",
            "city": "Kakori",
            "postal_code": "226101",
            "state": "Uttar Pradesh",
            "country_code": "IN"
        },
        "images": [
            {
                "about": "All",
                "link": "https://lh5.googleusercontent.com/p/AF1QipNY18xtM8UhqL_CcL-d0PN4a5GzSJry91RWVq-d=w224-h398-k-no"
            },
            {
                "about": "Street View & 360deg",
                "link": "https://streetviewpixels-pa.googleapis.com/v1/thumbnail?panoid=-iM4b9z_COAFzkR-43lPpA&cb_client=maps_sv.tactile.gps&w=224&h=298&yaw=221.59111&pitch=0&thumbfov=100"
            }
        ],
        "link": "https://www.google.com/maps/place/Jama+masjid/data=!4m7!3m6!1s0x399c001ea74d8a81:0x72c9d0dc71796d41!8m2!3d26.8680405!4d80.7934165!16s%2Fg%2F11f4p90_37!19sChIJgYpNpx4AnDkRQW15cdzQyXI?authuser=0&hl=en&rclk=1",
        "coordinates": {
            "latitude": 26.8680405,
            "longitude": 80.79341649999999
        }
    },
    {
        "name": "Qazi grhi masjid",
        "main_category": "Mosque",
        "address": "VQ9R+FQX Qazi grhi masjid, Qazi garhi, Kakori, Uttar Pradesh 226101",
        "detailed_address": {
            "ward": "Qazi garhi",
            "street": "VQ9R+FQX",
            "city": "Kakori",
            "postal_code": "226101",
            "state": "Uttar Pradesh",
            "country_code": "IN"
        },
        "images": [
            {
                "about": "All",
                "link": "https://streetviewpixels-pa.googleapis.com/v1/thumbnail?panoid=xQTP1NMXTJ4DVGSpeRAiOw&cb_client=maps_sv.tactile.gps&w=224&h=298&yaw=19.907415&pitch=0&thumbfov=100"
            },
            {
                "about": "Street View & 360deg",
                "link": "https://streetviewpixels-pa.googleapis.com/v1/thumbnail?panoid=xQTP1NMXTJ4DVGSpeRAiOw&cb_client=maps_sv.tactile.gps&w=224&h=298&yaw=19.907415&pitch=0&thumbfov=100"
            }
        ],
        "link": "https://www.google.com/maps/place/Qazi+grhi+masjid/data=!4m7!3m6!1s0x399c0142313166db:0x9557eb0bf2f76798!8m2!3d26.8687294!4d80.7919808!16s%2Fg%2F11t__y4ntw!19sChIJ22YxMUIBnDkRmGf38gvrV5U?authuser=0&hl=en&rclk=1",
        "coordinates": {
            "latitude": 26.8687294,
            "longitude": 80.79198079999999
        }
    },
    {
        "name": "Masjid Umar ibn khattab Kakori",
        "main_category": "Mosque",
        "address": "VQJX+3R9 Masjid Umar ibn khattab Kakori, Unnamed Road, Durga Ganj, Uttar Pradesh 226101",
        "detailed_address": {
            "ward": null,
            "street": "VQJX+3R9, Unnamed Road",
            "city": "Durga Ganj",
            "postal_code": "226101",
            "state": "Uttar Pradesh",
            "country_code": "IN"
        },
        "images": [
            {
                "about": "All",
                "link": "https://streetviewpixels-pa.googleapis.com/v1/thumbnail?panoid=KRWRQd2DE-Obo1VLbbXrGw&cb_client=maps_sv.tactile.gps&w=224&h=298&yaw=355.5132&pitch=0&thumbfov=100"
            },
            {
                "about": "Street View & 360deg",
                "link": "https://streetviewpixels-pa.googleapis.com/v1/thumbnail?panoid=KRWRQd2DE-Obo1VLbbXrGw&cb_client=maps_sv.tactile.gps&w=224&h=298&yaw=355.5132&pitch=0&thumbfov=100"
            }
        ],
        "link": "https://www.google.com/maps/place/Masjid+Umar+ibn+khattab+Kakori/data=!4m7!3m6!1s0x399eab95743e34a1:0xa39279a36924727e!8m2!3d26.8801581!4d80.7996044!16s%2Fg%2F11hy9tq1_w!19sChIJoTQ-dJWrnjkRfnIkaaN5kqM?authuser=0&hl=en&rclk=1",
        "coordinates": {
            "latitude": 26.8801581,
            "longitude": 80.79960439999999
        }
    },
    {
        "name": "Neem tale wali masjid",
        "main_category": "Mosque",
        "address": "VQ8R+VQ7 Neem tale wali masjid, Kakori, Uttar Pradesh 226101",
        "detailed_address": {
            "ward": null,
            "street": "VQ8R+VQ7",
            "city": "Kakori",
            "postal_code": "226101",
            "state": "Uttar Pradesh",
            "country_code": "IN"
        },
        "images": [],
        "link": "https://www.google.com/maps/place/Neem+tale+wali+masjid/data=!4m7!3m6!1s0x399c0115ddeb4d51:0x4ea52e5598852293!8m2!3d26.8671748!4d80.7919148!16s%2Fg%2F11stqxmw90!19sChIJUU3r3RUBnDkRkyKFmFUupU4?authuser=0&hl=en&rclk=1",
        "coordinates": {
            "latitude": 26.867174799999997,
            "longitude": 80.7919148
        }
    }
]