[
    {
        "name": "Masjid Umar",
        "main_category": "Mosque",
        "address": "Masjid Umar, H Block, Abul Fazal Enclave, Jamia Nagar, Okhla, New Delhi, Delhi 110025",
        "detailed_address": {
            "ward": "Abul Fazal Enclave, Jamia Nagar, Okhla",
            "street": "H Block",
            "city": "New Delhi",
            "postal_code": "110025",
            "state": "Delhi",
            "country_code": "IN"
        },
        "images": [
            {
                "about": "All",
                "link": "https://lh5.googleusercontent.com/p/AF1QipM254GA_J5ub1RRtq7Js_oYA1wY16H_wTn1Tumj=w224-h298-k-no"
            }
        ],
        "link": "https://www.google.com/maps/place/Masjid+Umar/data=!4m7!3m6!1s0x390ce40e52efde7f:0x5e0487c814d4c357!8m2!3d28.5535005!4d77.2956955!16s%2Fg%2F11b6snzn79!19sChIJf97vUg7kDDkRV8PUFMiHBF4?authuser=0&hl=en&rclk=1",
        "coordinates": {
            "latitude": 28.5535005,
            "longitude": 77.2956955
        }
    },
    {
        "name": "Masjid Umar ibn Khattab Ahle Hadees",
        "main_category": "Mosque",
        "address": "G8X3+2R4 Masjid Umar ibn Khattab Ahle Hadees, Kalindi Kunj Rd, Shaheen Bagh, Jamia Nagar, Okhla, New Delhi, Delhi 110025",
        "detailed_address": {
            "ward": "Shaheen Bagh, Jamia Nagar, Okhla",
            "street": "G8X3+2R4, Kalindi Kunj Rd",
            "city": "New Delhi",
            "postal_code": "110025",
            "state": "Delhi",
            "country_code": "IN"
        },
        "images": [
            {
                "about": "All",
                "link": "https://lh5.googleusercontent.com/p/AF1QipOKJ1m2C5atERug5miPcItt8WgrKWUbdmdMWom_=w224-h316-k-no"
            },
            {
                "about": "Dome",
                "link": "https://lh5.googleusercontent.com/p/AF1QipOw28flCSoXOeXRGK0_7dL8ifv_TNOJKd8GLQ8z=w398-h298-k-no"
            },
            {
                "about": "Street View & 360deg",
                "link": "https://lh5.googleusercontent.com/p/AF1QipOhScJyBWYoABKwB6tpqO9oLEEnNh1pYhthg99k=w224-h298-k-no-pi-20-ya316-ro-0-fo100"
            }
        ],
        "link": "https://www.google.com/maps/place/Masjid+Umar+ibn+Khattab+Ahle+Hadees/data=!4m7!3m6!1s0x390ce4196e33e035:0x7187e898e383e521!8m2!3d28.5475049!4d77.3045864!16s%2Fg%2F11ddwvd6j7!19sChIJNeAzbhnkDDkRIeWD45joh3E?authuser=0&hl=en&rclk=1",
        "coordinates": {
            "latitude": 28.5475049,
            "longitude": 77.30458639999999
        }
    },
    {
        "name": "Noori Masjid",
        "main_category": "Mosque",
        "address": "HQ5W+P43 Noori Masjid, Amarpur Kashi, Uttar Pradesh 244411",
        "detailed_address": {
            "ward": null,
            "street": "HQ5W+P43",
            "city": "Amarpur Kashi",
            "postal_code": "244411",
            "state": "Uttar Pradesh",
            "country_code": "IN"
        },
        "images": [
            {
                "about": "All",
                "link": "https://streetviewpixels-pa.googleapis.com/v1/thumbnail?panoid=8NfzajZ5XKgyD1xE0zeH3g&cb_client=maps_sv.tactile.gps&w=224&h=298&yaw=93.298615&pitch=0&thumbfov=100"
            },
            {
                "about": "Street View & 360deg",
                "link": "https://streetviewpixels-pa.googleapis.com/v1/thumbnail?panoid=8NfzajZ5XKgyD1xE0zeH3g&cb_client=maps_sv.tactile.gps&w=224&h=298&yaw=93.298615&pitch=0&thumbfov=100"
            }
        ],
        "link": "https://www.google.com/maps/place/Noori+Masjid/data=!4m7!3m6!1s0x390add75a0896f8d:0x5dfb6ae71e539550!8m2!3d28.5592655!4d78.7952971!16s%2Fg%2F11hcdscjlg!19sChIJjW-JoHXdCjkRUJVTHudq-10?authuser=0&hl=en&rclk=1",
        "coordinates": {
            "latitude": 28.5592655,
            "longitude": 78.7952971
        }
    },
    {
        "name": "Masjid Jannatul firdos Amarpur",
        "main_category": "Mosque",
        "address": "9HJ4+XRR Masjid Jannatul firdos Amarpur, Amarpur, Uttar Pradesh 203201",
        "detailed_address": {
            "ward": null,
            "street": "9HJ4+XRR",
            "city": "Amarpur",
            "postal_code": "203201",
            "state": "Uttar Pradesh",
            "country_code": "IN"
        },
        "images": [],
        "link": "https://www.google.com/maps/place/Masjid+Jannatul+firdos+Amarpur/data=!4m7!3m6!1s0x390cc19e9c415c47:0x90058f6934125076!8m2!3d28.3824772!4d77.5570088!16s%2Fg%2F11l5vffjfx!19sChIJR1xBnJ7BDDkRdlASNGmPBZA?authuser=0&hl=en&rclk=1",
        "coordinates": {
            "latitude": 28.3824772,
            "longitude": 77.55700879999999
        }
    },
    {
        "name": "Masjid E Makka",
        "main_category": "Mosque",
        "address": "6GHX+7X2 Masjid E Makka, Amarpur Palka, Uttar Pradesh 203209",
        "detailed_address": {
            "ward": null,
            "street": "6GHX+7X2",
            "city": "Amarpur Palka",
            "postal_code": "203209",
            "state": "Uttar Pradesh",
            "country_code": "IN"
        },
        "images": [
            {
                "about": "All",
                "link": "https://streetviewpixels-pa.googleapis.com/v1/thumbnail?panoid=T1IdlNaTINYhzOJlo9K62w&cb_client=maps_sv.tactile.gps&w=224&h=298&yaw=82.24307&pitch=0&thumbfov=100"
            },
            {
                "about": "Street View & 360deg",
                "link": "https://streetviewpixels-pa.googleapis.com/v1/thumbnail?panoid=T1IdlNaTINYhzOJlo9K62w&cb_client=maps_sv.tactile.gps&w=224&h=298&yaw=82.24307&pitch=0&thumbfov=100"
            }
        ],
        "link": "https://www.google.com/maps/place/Masjid+E+Makka/data=!4m7!3m6!1s0x390cc9cd9ba419ed:0x8a15e580fff85f8f!8m2!3d28.2279336!4d77.5497242!16s%2Fg%2F11l5spzj1h!19sChIJ7Rmkm83JDDkRj1_4_4DlFYo?authuser=0&hl=en&rclk=1",
        "coordinates": {
            "latitude": 28.2279336,
            "longitude": 77.5497242
        }
    },
    {
        "name": "Masjid",
        "main_category": "Mosque",
        "address": "JQG7+3X9 Masjid, Tanda Amarpur, Uttar Pradesh 244415",
        "detailed_address": {
            "ward": null,
            "street": "JQG7+3X9",
            "city": "Tanda Amarpur",
            "postal_code": "244415",
            "state": "Uttar Pradesh",
            "country_code": "IN"
        },
        "images": [
            {
                "about": "All",
                "link": "https://streetviewpixels-pa.googleapis.com/v1/thumbnail?panoid=_KEVDqvEXcfUWyTrjkBQxg&cb_client=maps_sv.tactile.gps&w=224&h=298&yaw=309.9285&pitch=0&thumbfov=100"
            },
            {
                "about": "Street View & 360deg",
                "link": "https://streetviewpixels-pa.googleapis.com/v1/thumbnail?panoid=_KEVDqvEXcfUWyTrjkBQxg&cb_client=maps_sv.tactile.gps&w=224&h=298&yaw=309.9285&pitch=0&thumbfov=100"
            }
        ],
        "link": "https://www.google.com/maps/place/Masjid/data=!4m7!3m6!1s0x390ae75f0d5ec537:0xd084ea026f12e253!8m2!3d28.6251525!4d78.7649964!16s%2Fg%2F11pb1zfry6!19sChIJN8VeDV_nCjkRU-ISbwLqhNA?authuser=0&hl=en&rclk=1",
        "coordinates": {
            "latitude": 28.6251525,
            "longitude": 78.7649964
        }
    },
    {
        "name": "Masjid Amarpur Kondala",
        "main_category": "Mosque",
        "address": "V22G+XF5 Masjid Amarpur Kondala, Unnamed Road, Amarpur Kondala, Uttar Pradesh 202002",
        "detailed_address": {
            "ward": null,
            "street": "V22G+XF5, Unnamed Road",
            "city": "Amarpur Kondala",
            "postal_code": "202002",
            "state": "Uttar Pradesh",
            "country_code": "IN"
        },
        "images": [
            {
                "about": "All",
                "link": "https://streetviewpixels-pa.googleapis.com/v1/thumbnail?panoid=STUsPxa6QtnMKD-eb4WVag&cb_client=maps_sv.tactile.gps&w=224&h=298&yaw=157.82217&pitch=0&thumbfov=100"
            },
            {
                "about": "Street View & 360deg",
                "link": "https://streetviewpixels-pa.googleapis.com/v1/thumbnail?panoid=STUsPxa6QtnMKD-eb4WVag&cb_client=maps_sv.tactile.gps&w=224&h=298&yaw=157.82217&pitch=0&thumbfov=100"
            }
        ],
        "link": "https://www.google.com/maps/place/Masjid+Amarpur+Kondala/data=!4m7!3m6!1s0x3974a3bee5567def:0xd07e70a325a62798!8m2!3d27.8523806!4d78.0262291!16s%2Fg%2F11flbdpkt5!19sChIJ731W5b6jdDkRmCemJaNwftA?authuser=0&hl=en&rclk=1",
        "coordinates": {
            "latitude": 27.8523806,
            "longitude": 78.0262291
        }
    }
]