[
    {
        "name": "Madina Masjid",
        "main_category": "Mosque",
        "address": "7F2R+VCX Madina Masjid, Pansar Rd, Aayojan Nagar Society, Kalol, Gujarat 382721",
        "detailed_address": {
            "ward": "Aayojan Nagar Society",
            "street": "7F2R+VCX, Pansar Rd",
            "city": "Kalol",
            "postal_code": "382721",
            "state": "Gujarat",
            "country_code": "IN"
        },
        "images": [
            {
                "about": "All",
                "link": "https://lh5.googleusercontent.com/p/AF1QipP25aO_TU7yPa64ZuTER7BjPdtynB0iACez3kUw=w529-h298-k-no"
            },
            {
                "about": "Street View & 360deg",
                "link": "https://lh5.googleusercontent.com/p/AF1QipM-V1Er8_EOQfgPhcKb-PEzj9WEnn3p5FUR9Qn-=w224-h298-k-no-pi-10-ya155.00002-ro0-fo100"
            }
        ],
        "link": "https://www.google.com/maps/place/Madina+Masjid/data=!4m7!3m6!1s0x395c25c380ebd9e7:0xe09df1bc037ff457!8m2!3d23.2522316!4d72.4910948!16s%2Fg%2F11b6sd5028!19sChIJ59nrgMMlXDkRV_R_A7zxneA?authuser=0&hl=en&rclk=1",
        "coordinates": {
            "latitude": 23.2522316,
            "longitude": 72.4910948
        }
    },
    {
        "name": "S T Masjid",
        "main_category": "Mosque",
        "address": "S T Masjid, Station Road, At-, near Bus Stand, Kalol, Gujarat 382721",
        "detailed_address": {
            "ward": "Navjivan Bazaar, Memon Market",
            "street": "Station Road, At-, near Bus Stand",
            "city": "Kalol",
            "postal_code": "382721",
            "state": "Gujarat",
            "country_code": "IN"
        },
        "images": [
            {
                "about": "All",
                "link": "https://lh5.googleusercontent.com/p/AF1QipP_FpoqyF74C3IiS9BTZmh5l9kFKqrkPSxG87Tc=w397-h298-k-no"
            },
            {
                "about": "Street View & 360deg",
                "link": "https://streetviewpixels-pa.googleapis.com/v1/thumbnail?panoid=aeyvUqsEhffa1bp0LWfYkQ&cb_client=maps_sv.tactile.gps&w=224&h=298&yaw=124.94682&pitch=0&thumbfov=100"
            },
            {
                "about": "Videos",
                "link": "https://lh5.googleusercontent.com/p/AF1QipPO9KmKR3x7MIQCjXT1VwmWkxJQk9U7s6ECkU8=w224-h407-k-no"
            }
        ],
        "link": "https://www.google.com/maps/place/S+T+Masjid/data=!4m7!3m6!1s0x395c25e6b335c22b:0x427d81569a40eadb!8m2!3d23.2446054!4d72.5017247!16s%2Fg%2F11bwyynhd6!19sChIJK8I1s-YlXDkR2-pAmlaBfUI?authuser=0&hl=en&rclk=1",
        "coordinates": {
            "latitude": 23.244605399999998,
            "longitude": 72.5017247
        }
    },
    {
        "name": "Jumma Masjid kalol",
        "main_category": "Mosque",
        "address": "Jumma Masjid kalol, Near, jumma masjid, ujalvasMatva Kuva Rd, Kalol, Gujarat 382721",
        "detailed_address": {
            "ward": "Ghanchiwad",
            "street": "Near, jumma masjid, ujalvasMatva Kuva Rd",
            "city": "Kalol",
            "postal_code": "382721",
            "state": "Gujarat",
            "country_code": "IN"
        },
        "images": [
            {
                "about": "All",
                "link": "https://lh5.googleusercontent.com/p/AF1QipMBfIIxFW0Qt1w5_-MK8INJB-72EKO9xjqw0_DP=w397-h298-k-no"
            },
            {
                "about": "Dome",
                "link": "https://lh5.googleusercontent.com/p/AF1QipNm1DStOrIgto5CSCpDN8AfSj1rhArTDrxe-tuW=w529-h298-k-no"
            },
            {
                "about": "Videos",
                "link": "https://lh5.googleusercontent.com/p/AF1QipNYfyDbgjKRRcwgZBUO72i8uVdw0mIe65p4oNc6=w224-h407-k-no"
            }
        ],
        "link": "https://www.google.com/maps/place/Jumma+Masjid+kalol/data=!4m7!3m6!1s0x395c25fb4cb4ab45:0xb3090044236be26!8m2!3d23.2484574!4d72.4931359!16s%2Fg%2F11bx94yr0g!19sChIJRau0TPslXDkRJr42QgSQMAs?authuser=0&hl=en&rclk=1",
        "coordinates": {
            "latitude": 23.2484574,
            "longitude": 72.4931359
        }
    },
    {
        "name": "Masjid E AhmedRaza",
        "main_category": "Mosque",
        "address": "7F2R+54G Masjid E AhmedRaza, Gulistan Park Society, Kalol, Gujarat 382721",
        "detailed_address": {
            "ward": "Gulistan Park Society",
            "street": "7F2R+54G",
            "city": "Kalol",
            "postal_code": "382721",
            "state": "Gujarat",
            "country_code": "IN"
        },
        "images": [
            {
                "about": "All",
                "link": "https://lh5.googleusercontent.com/p/AF1QipNc4OgKvHWUkWZv5d29Z5bkDloI9cx1x3pbxE4T=w224-h497-k-no"
            },
            {
                "about": "Dome",
                "link": "https://lh5.googleusercontent.com/p/AF1QipNc4OgKvHWUkWZv5d29Z5bkDloI9cx1x3pbxE4T=w224-h497-k-no"
            }
        ],
        "link": "https://www.google.com/maps/place/Masjid+E+AhmedRaza/data=!4m7!3m6!1s0x395c25c498213b21:0x2a8f107ca98b8c30!8m2!3d23.250444!4d72.490333!16s%2Fg%2F11dyxl3528!19sChIJITshmMQlXDkRMIyLqXwQjyo?authuser=0&hl=en&rclk=1",
        "coordinates": {
            "latitude": 23.250443999999998,
            "longitude": 72.49033299999999
        }
    },
    {
        "name": "Ghanchiwad Masjid",
        "main_category": "Mosque",
        "address": "Ghanchiwad Masjid, Neat Tower Chowk, Ghanchiwad, Kalol, Gujarat 382721",
        "detailed_address": {
            "ward": "Ghanchiwad",
            "street": "Neat Tower Chowk",
            "city": "Kalol",
            "postal_code": "382721",
            "state": "Gujarat",
            "country_code": "IN"
        },
        "images": [
            {
                "about": "All",
                "link": "https://lh5.googleusercontent.com/p/AF1QipPFd1BXizsB0IANXFt0C2EQuc5odzOOy3eihFmR=w224-h482-k-no"
            },
            {
                "about": "Dome",
                "link": "https://lh5.googleusercontent.com/p/AF1QipPFd1BXizsB0IANXFt0C2EQuc5odzOOy3eihFmR=w224-h482-k-no"
            }
        ],
        "link": "https://www.google.com/maps/place/Ghanchiwad+Masjid/data=!4m7!3m6!1s0x395c25dd8f92f6f9:0xd0c668b8412da68f!8m2!3d23.2460595!4d72.4961826!16s%2Fg%2F11bwyxs64r!19sChIJ-faSj90lXDkRj6YtQbhoxtA?authuser=0&hl=en&rclk=1",
        "coordinates": {
            "latitude": 23.246059499999998,
            "longitude": 72.4961826
        }
    },
    {
        "name": "Faiza ne Jamal - e - Mustafa Masjid",
        "main_category": "Mosque",
        "address": "7F3V+73F Faiza ne Jamal - e - Mustafa Masjid, Pansar Rd, Kalyanpura, Kalol, Gujarat 382721",
        "detailed_address": {
            "ward": "Kalyanpura",
            "street": "7F3V+73F, Pansar Rd",
            "city": "Kalol",
            "postal_code": "382721",
            "state": "Gujarat",
            "country_code": "IN"
        },
        "images": [
            {
                "about": "All",
                "link": "https://lh5.googleusercontent.com/p/AF1QipNUqi7LKZSIFMeQFR2maycjefnjWhCf2M_yfcRK=w224-h298-k-no"
            },
            {
                "about": "Videos",
                "link": "https://lh5.googleusercontent.com/p/AF1QipO1v36Mkq9NrW-3UT357VyaTVDq-fHBRQqR5H5q=w224-h398-k-no"
            }
        ],
        "link": "https://www.google.com/maps/place/Faiza+ne+Jamal+-+e+-+Mustafa+Masjid/data=!4m7!3m6!1s0x395c25c3bc0a5e41:0xdc7692c72cf52848!8m2!3d23.25319!4d72.492678!16s%2Fg%2F11g8w8qw3s!19sChIJQV4KvMMlXDkRSCj1LMeSdtw?authuser=0&hl=en&rclk=1",
        "coordinates": {
            "latitude": 23.25319,
            "longitude": 72.492678
        }
    },
    {
        "name": "Shahi Jama Masjid",
        "main_category": "Mosque",
        "address": "6FXV+96J Shahi Jama Masjid, Ujalvas, Matva Kuva Rd, Kalol, Gujarat 382721",
        "detailed_address": {
            "ward": "Ghanchiwad",
            "street": "6FXV+96J, Ujalvas, Matva Kuva Rd",
            "city": "Kalol",
            "postal_code": "382721",
            "state": "Gujarat",
            "country_code": "IN"
        },
        "images": [
            {
                "about": "All",
                "link": "https://lh5.googleusercontent.com/p/AF1QipO7mZ2OqlEhjYzc0g4FhNNRK4I5YAEB-sz11t-6=w596-h298-k-no"
            },
            {
                "about": "Dome",
                "link": "https://lh5.googleusercontent.com/p/AF1QipPudBMcOTtJ-ca8oJbEK05T9Rc4ES3C2_uhoLPn=w224-h448-k-no"
            },
            {
                "about": "Videos",
                "link": "https://lh5.googleusercontent.com/p/AF1QipPCF9-nsCRFty3gtXf32xgemeiu6I19T9LVnRye=w529-h298-k-no"
            },
            {
                "about": "Street View & 360deg",
                "link": "https://lh5.googleusercontent.com/p/AF1QipPqJru9dBuRk528qIv3LhCj-sIX5U3ec5fIkaz7=w224-h298-k-no-pi-10-ya90.99999-ro-0-fo100"
            }
        ],
        "link": "https://www.google.com/maps/place/Shahi+Jama+Masjid/data=!4m7!3m6!1s0x395c25dd8f8ec937:0xa08f48afe5bcdc0c!8m2!3d23.2484657!4d72.4930199!16s%2Fg%2F11ydz1g2k!19sChIJN8mOj90lXDkRDNy85a9Ij6A?authuser=0&hl=en&rclk=1",
        "coordinates": {
            "latitude": 23.2484657,
            "longitude": 72.4930199
        }
    },
    {
        "name": "Aisha Masjid",
        "main_category": "Mosque",
        "address": "6FXR+J24 Aisha Masjid, Anand Park Society, Kalol, Gujarat 382721",
        "detailed_address": {
            "ward": "Anand Park Society",
            "street": "6FXR+J24",
            "city": "Kalol",
            "postal_code": "382721",
            "state": "Gujarat",
            "country_code": "IN"
        },
        "images": [
            {
                "about": "All",
                "link": "https://lh5.googleusercontent.com/p/AF1QipNmxU-mVC_rjJbPnVJtdNINlTJGlCoC8eQZblom=w529-h298-k-no"
            }
        ],
        "link": "https://www.google.com/maps/place/Aisha+Masjid/data=!4m7!3m6!1s0x395c25c4b2b45817:0xb36ab1d869151a57!8m2!3d23.2490239!4d72.4900853!16s%2Fg%2F11bx55y78t!19sChIJF1i0ssQlXDkRVxoVadixarM?authuser=0&hl=en&rclk=1",
        "coordinates": {
            "latitude": 23.249023899999997,
            "longitude": 72.49008529999999
        }
    },
    {
        "name": "Mohammadi Masjid",
        "main_category": "Mosque",
        "address": "7F2W+84J Mohammadi Masjid, Near Overbridge, Matva Kuva Rd, At, Kalol, Gujarat 382721",
        "detailed_address": {
            "ward": "At",
            "street": "7F2W+84J, Near Overbridge, Matva Kuva Rd",
            "city": "Kalol",
            "postal_code": "382721",
            "state": "Gujarat",
            "country_code": "IN"
        },
        "images": [
            {
                "about": "All",
                "link": "https://lh5.googleusercontent.com/p/AF1QipPLLJK91MXAgZgDQKkYCqEVU0I3l5rnUKNzdSTl=w398-h298-k-no"
            }
        ],
        "link": "https://www.google.com/maps/place/Mohammadi+Masjid/data=!4m7!3m6!1s0x395c25c2c08e8fef:0x4bf7d0275114045!8m2!3d23.250834!4d72.4952736!16s%2Fg%2F11b6sndnxc!19sChIJ74-OwMIlXDkRRUARdQJ9vwQ?authuser=0&hl=en&rclk=1",
        "coordinates": {
            "latitude": 23.250833999999998,
            "longitude": 72.49527359999999
        }
    },
    {
        "name": "Masjid E Bilal",
        "main_category": "Mosque",
        "address": "7F3V+2C5 Masjid E Bilal, Taif Nagar, Pansar Rd, Kalyanpura, Kalol, Gujarat 382721",
        "detailed_address": {
            "ward": "Kalyanpura",
            "street": "7F3V+2C5, Taif Nagar, Pansar Rd",
            "city": "Kalol",
            "postal_code": "382721",
            "state": "Gujarat",
            "country_code": "IN"
        },
        "images": [
            {
                "about": "All",
                "link": "https://lh5.googleusercontent.com/p/AF1QipODVY_JcfMYCBJPpjS-IPAkqS_dQ2VDFQIvBJ-A=w631-h298-k-no"
            },
            {
                "about": "Street View & 360deg",
                "link": "https://lh5.googleusercontent.com/p/AF1QipOVzw6kzjxj_yp0SKFLlCqL1Xg8DWe4_ECx99bk=w224-h298-k-no-pi-10-ya118.000015-ro-0-fo100"
            },
            {
                "about": "Videos",
                "link": "https://lh5.googleusercontent.com/p/AF1QipP6Y0goDtBpIfh-eA1NSpmDBuSi16zTTf8JcpdK=w224-h398-k-no"
            }
        ],
        "link": "https://www.google.com/maps/place/Masjid+E+Bilal/data=!4m7!3m6!1s0x395c25c3abb197bb:0x961b3a224cf71a9e!8m2!3d23.2525027!4d72.4936214!16s%2Fg%2F11c3w07pg3!19sChIJu5exq8MlXDkRnhr3TCI6G5Y?authuser=0&hl=en&rclk=1",
        "coordinates": {
            "latitude": 23.252502699999997,
            "longitude": 72.4936214
        }
    },
    {
        "name": "Gebanshah baba masjid kalol",
        "main_category": "Mosque",
        "address": "6FXW+GPV Gebanshah baba masjid kalol, Talav Rd, Ghanchiwad, Kalol, Gujarat 382721",
        "detailed_address": {
            "ward": "Ghanchiwad",
            "street": "6FXW+GPV, Talav Rd",
            "city": "Kalol",
            "postal_code": "382721",
            "state": "Gujarat",
            "country_code": "IN"
        },
        "images": [
            {
                "about": "All",
                "link": "https://lh5.googleusercontent.com/p/AF1QipPKd_mTZl2lYLBL__J6xi_mScwmXFDIi-pntTqx=w397-h298-k-no"
            },
            {
                "about": "Street View & 360deg",
                "link": "https://streetviewpixels-pa.googleapis.com/v1/thumbnail?panoid=jVlHfT_I5y1UtAnmZhNeyg&cb_client=maps_sv.tactile.gps&w=224&h=298&yaw=232.05058&pitch=0&thumbfov=100"
            }
        ],
        "link": "https://www.google.com/maps/place/Gebanshah+baba+masjid+kalol/data=!4m7!3m6!1s0x395c252afc97dfc5:0x270a9ac9895b1220!8m2!3d23.2488599!4d72.496785!16s%2Fg%2F11fktz3q__!19sChIJxd-X_ColXDkRIBJbicmaCic?authuser=0&hl=en&rclk=1",
        "coordinates": {
            "latitude": 23.2488599,
            "longitude": 72.496785
        }
    },
    {
        "name": "Masjid-e-ahlebait",
        "main_category": "Mosque",
        "address": "Masjid-e-ahlebait, Al Fatima Park Society Zubeda Manzil, Aayojan Nagar Society, Kalol, Gujarat 382721",
        "detailed_address": {
            "ward": "Aayojan Nagar Society",
            "street": "Al Fatima Park Society Zubeda Manzil",
            "city": "Kalol",
            "postal_code": "382721",
            "state": "Gujarat",
            "country_code": "IN"
        },
        "images": [
            {
                "about": "All",
                "link": "https://lh5.googleusercontent.com/p/AF1QipP_6--9u1IZ_fm5nhYf4q7COm2vBxVbmwZV_SRa=w397-h298-k-no"
            }
        ],
        "link": "https://www.google.com/maps/place/Masjid-e-ahlebait/data=!4m7!3m6!1s0x395c255abd49df6b:0x7d77c0c8d2d03028!8m2!3d23.2555827!4d72.4845374!16s%2Fg%2F11j7dcf___!19sChIJa99JvVolXDkRKDDQ0sjAd30?authuser=0&hl=en&rclk=1",
        "coordinates": {
            "latitude": 23.255582699999998,
            "longitude": 72.4845374
        }
    },
    {
        "name": "Masjid",
        "main_category": "Mosque",
        "address": "7F4Q+3J3 Masjid, Aayojan Nagar Society, Kalol, Gujarat 382721",
        "detailed_address": {
            "ward": "Aayojan Nagar Society",
            "street": "7F4Q+3J3",
            "city": "Kalol",
            "postal_code": "382721",
            "state": "Gujarat",
            "country_code": "IN"
        },
        "images": [],
        "link": "https://www.google.com/maps/place/Masjid/data=!4m7!3m6!1s0x395c2591007d4143:0xe27225072694b58!8m2!3d23.2551424!4d72.4890401!16s%2Fg%2F11j0hwn149!19sChIJQ0F9AJElXDkRWEtpclAiJw4?authuser=0&hl=en&rclk=1",
        "coordinates": {
            "latitude": 23.2551424,
            "longitude": 72.4890401
        }
    },
    {
        "name": "Masjid E Ishaq",
        "main_category": "Mosque",
        "address": "6FXV+QVJ Masjid E Ishaq, Matva Kuva Chock, Mota Kasba, Kalol, Gujarat 382721",
        "detailed_address": {
            "ward": "Mota Kasba",
            "street": "6FXV+QVJ, Matva Kuva Chock",
            "city": "Kalol",
            "postal_code": "382721",
            "state": "Gujarat",
            "country_code": "IN"
        },
        "images": [
            {
                "about": "All",
                "link": "https://lh5.googleusercontent.com/p/AF1QipNkC6cQoaISe_HZfrA1uvxFa6Q4DodEO1V7Gtlv=w224-h298-k-no"
            }
        ],
        "link": "https://www.google.com/maps/place/Masjid+E+Ishaq/data=!4m7!3m6!1s0x395c2526a35c01f5:0xd64426851c514ef0!8m2!3d23.2494736!4d72.494638!16s%2Fg%2F11px3gp1wm!19sChIJ9QFcoyYlXDkR8E5RHIUmRNY?authuser=0&hl=en&rclk=1",
        "coordinates": {
            "latitude": 23.249473599999998,
            "longitude": 72.494638
        }
    },
    {
        "name": "saudagar dargah sharif",
        "main_category": "Mosque",
        "address": "7F3Q+H72 saudagar dargah sharif, Aayojan Nagar Society, Kalol, Gujarat 382721",
        "detailed_address": {
            "ward": "Aayojan Nagar Society",
            "street": "7F3Q+H72",
            "city": "Kalol",
            "postal_code": "382721",
            "state": "Gujarat",
            "country_code": "IN"
        },
        "images": [
            {
                "about": "All",
                "link": "https://lh5.googleusercontent.com/p/AF1QipMQkz3hu4csTMKrxd24ZHsHJREvqKvJ5DQIMZYN=w224-h298-k-no"
            },
            {
                "about": "Dome",
                "link": "https://lh5.googleusercontent.com/p/AF1QipMdP6NdY-U6_Z8B0-fo_S5hvOqOMCcEnup0hD92=w224-h298-k-no"
            }
        ],
        "link": "https://www.google.com/maps/place/saudagar+dargah+sharif/data=!4m7!3m6!1s0x395c25ac9bbe976f:0x6bab06a90c49bb48!8m2!3d23.2538771!4d72.4881456!16s%2Fg%2F11j8pdkbyb!19sChIJb5e-m6wlXDkRSLtJDKkGq2s?authuser=0&hl=en&rclk=1",
        "coordinates": {
            "latitude": 23.2538771,
            "longitude": 72.4881456
        }
    }
]