[
    {
        "name": "Tengnamari Jame Masjid",
        "main_category": "Mosque",
        "address": "8MH7+4WH Tengnamari Jame Masjid, Abhayapuri, Batabari, Assam 783384",
        "detailed_address": {
            "ward": null,
            "street": "8MH7+4WH",
            "city": "Abhayapuri, Batabari",
            "postal_code": "783384",
            "state": "Assam",
            "country_code": "IN"
        },
        "images": [
            {
                "about": "All",
                "link": "https://lh5.googleusercontent.com/p/AF1QipOjcuQ6YgM9GRhZ3z7M8mBSW6weznAJGyaOGHYw=w397-h298-k-no"
            }
        ],
        "link": "https://www.google.com/maps/place/Tengnamari+Jame+Masjid/data=!4m7!3m6!1s0x3759abf6e7eeb19f:0xcb06456c61dd9a08!8m2!3d26.3278031!4d90.6648485!16s%2Fg%2F1tf00vbz!19sChIJn7Hu5_arWTcRCJrdYWxFBss?authuser=0&hl=en&rclk=1",
        "coordinates": {
            "latitude": 26.3278031,
            "longitude": 90.66484849999999
        }
    },
    {
        "name": "Kalbari Jama Masjid",
        "main_category": "Mosque",
        "address": "8M75+XW4 Kalbari Jama Masjid, Kalbari, Batabari, Assam 783384",
        "detailed_address": {
            "ward": null,
            "street": "8M75+XW4",
            "city": "Kalbari, Batabari",
            "postal_code": "783384",
            "state": "Assam",
            "country_code": "IN"
        },
        "images": [
            {
                "about": "All",
                "link": "https://lh5.googleusercontent.com/p/AF1QipP2t6KWAD3iNYNuniRLja5kBTE1XeoLqwY9jb0B=w224-h485-k-no"
            },
            {
                "about": "Videos",
                "link": "https://lh5.googleusercontent.com/p/AF1QipMQ9uj7gbYjyM7xtWJcXBcZUicikhSojoVtLOPK=w224-h398-k-no"
            }
        ],
        "link": "https://www.google.com/maps/place/Kalbari+Jama+Masjid/data=!4m7!3m6!1s0x3759ac0ce3e3c2eb:0x78b9b5adf594c1ce!8m2!3d26.314881!4d90.6598284!16s%2Fg%2F11gdh0f4yp!19sChIJ68Lj4wysWTcRzsGU9a21uXg?authuser=0&hl=en&rclk=1",
        "coordinates": {
            "latitude": 26.314881,
            "longitude": 90.6598284
        }
    },
    {
        "name": "Nayapara Jama Masjid",
        "main_category": "Mosque",
        "address": "8MJ8+2WQ Nayapara Jama Masjid, Nayapara, Abhayapuri, Assam 783384",
        "detailed_address": {
            "ward": "Nayapara",
            "street": "8MJ8+2WQ",
            "city": "Abhayapuri",
            "postal_code": "783384",
            "state": "Assam",
            "country_code": "IN"
        },
        "images": [],
        "link": "https://www.google.com/maps/place/Nayapara+Jama+Masjid/data=!4m7!3m6!1s0x3759abf0a59d5fb1:0x324096f634edd3ff!8m2!3d26.330092!4d90.6673735!16s%2Fg%2F11hbl795my!19sChIJsV-dpfCrWTcR_9PtNPaWQDI?authuser=0&hl=en&rclk=1",
        "coordinates": {
            "latitude": 26.330092,
            "longitude": 90.6673735
        }
    },
    {
        "name": "ROWMARI JAME MASJID",
        "main_category": "Mosque",
        "address": "8MHC+CPJ ROWMARI JAME MASJID, Roumari, Abhayapuri, Assam 783384",
        "detailed_address": {
            "ward": "Roumari",
            "street": "8MHC+CPJ",
            "city": "Abhayapuri",
            "postal_code": "783384",
            "state": "Assam",
            "country_code": "IN"
        },
        "images": [
            {
                "about": "All",
                "link": "https://lh5.googleusercontent.com/p/AF1QipMKNHHiftvBFgRE4k9sEqgLEYbpeNogRnXgO6NA=w397-h298-k-no"
            },
            {
                "about": "Videos",
                "link": "https://lh5.googleusercontent.com/p/AF1QipNqUZ3ANy2vck-OTWrb1zIVg9GlH5Ds0eyo2SWU=w529-h298-k-no"
            }
        ],
        "link": "https://www.google.com/maps/place/ROWMARI+JAME+MASJID/data=!4m7!3m6!1s0x3759ab4781f4ffd7:0xbc93061873b5bbcf!8m2!3d26.3285918!4d90.6717641!16s%2Fg%2F11ffv3xmg3!19sChIJ1__0gUerWTcRz7u1cxgGk7w?authuser=0&hl=en&rclk=1",
        "coordinates": {
            "latitude": 26.328591799999998,
            "longitude": 90.67176409999999
        }
    },
    {
        "name": "Piradhara Market Masjid",
        "main_category": "Mosque",
        "address": "8M5V+35F Piradhara Market Masjid, Naysatra, Assam 783384",
        "detailed_address": {
            "ward": null,
            "street": "8M5V+35F",
            "city": "Naysatra",
            "postal_code": "783384",
            "state": "Assam",
            "country_code": "IN"
        },
        "images": [
            {
                "about": "All",
                "link": "https://lh5.googleusercontent.com/p/AF1QipO_nY0T39771PB1kmKzRRQ7hMrfwpcWxEXq1zDK=w529-h298-k-no"
            }
        ],
        "link": "https://www.google.com/maps/place/Piradhara+Market+Masjid/data=!4m7!3m6!1s0x3759aeb8e683a0f5:0x317eb58e0847d42e!8m2!3d26.3076851!4d90.6929064!16s%2Fg%2F11dfjbwmpm!19sChIJ9aCD5riuWTcRLtRHCI61fjE?authuser=0&hl=en&rclk=1",
        "coordinates": {
            "latitude": 26.3076851,
            "longitude": 90.6929064
        }
    },
    {
        "name": "Piknapara Masjid, Piknapara",
        "main_category": "Mosque",
        "address": "8MHQ+6V4 Piknapara Masjid, Piknapara, Piknapara, Assam 783384",
        "detailed_address": {
            "ward": null,
            "street": "8MHQ+6V4",
            "city": "Piknapara",
            "postal_code": "783384",
            "state": "Assam",
            "country_code": "IN"
        },
        "images": [
            {
                "about": "All",
                "link": "https://lh5.googleusercontent.com/p/AF1QipNeCnPzxb7rjFL3522LDKxI5Ld3YG1UqL3E-ncC=w662-h298-k-no"
            },
            {
                "about": "Street View & 360deg",
                "link": "https://streetviewpixels-pa.googleapis.com/v1/thumbnail?panoid=gTjo_61zwkS-5rcKdCaBqw&cb_client=maps_sv.tactile.gps&w=224&h=298&yaw=217.34193&pitch=0&thumbfov=100"
            }
        ],
        "link": "https://www.google.com/maps/place/Piknapara+Masjid,+Piknapara/data=!4m7!3m6!1s0x3759a94c3743f79d:0x3f3b15ce2002dc9c!8m2!3d26.3280207!4d90.6897066!16s%2Fg%2F11dy1mp8k7!19sChIJnfdDN0ypWTcRnNwCIM4VOz8?authuser=0&hl=en&rclk=1",
        "coordinates": {
            "latitude": 26.3280207,
            "longitude": 90.6897066
        }
    },
    {
        "name": "Tapattari I Masjid",
        "main_category": "Mosque",
        "address": "8M9R+W5M Tapattari I Masjid, Tapatari, Assam 783384",
        "detailed_address": {
            "ward": null,
            "street": "8M9R+W5M",
            "city": "Tapatari",
            "postal_code": "783384",
            "state": "Assam",
            "country_code": "IN"
        },
        "images": [
            {
                "about": "All",
                "link": "https://lh5.googleusercontent.com/p/AF1QipPp9eTeqoQRB3uiivV2AUUsxjkDUvbsGY3uT2qq=w224-h398-k-no"
            }
        ],
        "link": "https://www.google.com/maps/place/Tapattari+I+Masjid/data=!4m7!3m6!1s0x3759aeb398ecc1ed:0xb94348c750c4ce6f!8m2!3d26.3198472!4d90.6904314!16s%2Fg%2F11g9mh6n3b!19sChIJ7cHsmLOuWTcRb87EUMdIQ7k?authuser=0&hl=en&rclk=1",
        "coordinates": {
            "latitude": 26.319847199999998,
            "longitude": 90.6904314
        }
    },
    {
        "name": "Parerchar Pt lll Masjid",
        "main_category": "Mosque",
        "address": "8PG6+8MR Parerchar Pt lll Masjid, Dumuri Pt III, Assam 783384",
        "detailed_address": {
            "ward": null,
            "street": "8PG6+8MR",
            "city": "Dumuri Pt III",
            "postal_code": "783384",
            "state": "Assam",
            "country_code": "IN"
        },
        "images": [
            {
                "about": "All",
                "link": "https://lh5.googleusercontent.com/p/AF1QipNEC_9gPC8MmHbgnffxWyYcewssAsZ8hEh8hqe3=w224-h298-k-no"
            }
        ],
        "link": "https://www.google.com/maps/place/Parerchar+Pt+lll+Masjid/data=!4m7!3m6!1s0x3759a92b749e1d3d:0xf0f6346aa213273d!8m2!3d26.3258645!4d90.7116449!16s%2Fg%2F11f08bbzbx!19sChIJPR2edCupWTcRPScTomo09vA?authuser=0&hl=en&rclk=1",
        "coordinates": {
            "latitude": 26.325864499999998,
            "longitude": 90.7116449
        }
    },
    {
        "name": "Behulapara Masjid",
        "main_category": "Mosque",
        "address": "8M8W+JCQ Behulapara Masjid, Tapatari, Assam 783384",
        "detailed_address": {
            "ward": null,
            "street": "8M8W+JCQ",
            "city": "Tapatari",
            "postal_code": "783384",
            "state": "Assam",
            "country_code": "IN"
        },
        "images": [
            {
                "about": "All",
                "link": "https://lh5.googleusercontent.com/p/AF1QipPEFmUbTGc38Tlm8b2QjJlIHisp4D1R5c8r5yb4=w529-h298-k-no"
            },
            {
                "about": "Videos",
                "link": "https://lh5.googleusercontent.com/p/AF1QipN3Cn4FM014aGBZxtflECtF4Eh5rjimp21BkmKa=w224-h398-k-no"
            }
        ],
        "link": "https://www.google.com/maps/place/Behulapara+Masjid/data=!4m7!3m6!1s0x3759aeb61ccff5e1:0x8e7a04c7d32f785a!8m2!3d26.3165755!4d90.6960964!16s%2Fg%2F11c38f2jtq!19sChIJ4fXPHLauWTcRWngv08cEeo4?authuser=0&hl=en&rclk=1",
        "coordinates": {
            "latitude": 26.3165755,
            "longitude": 90.6960964
        }
    },
    {
        "name": "Tapattary Masjid",
        "main_category": "Mosque",
        "address": "8MCP+QJV Tapattary Masjid, Newpiradhara, Assam 783384",
        "detailed_address": {
            "ward": null,
            "street": "8MCP+QJV",
            "city": "Newpiradhara",
            "postal_code": "783384",
            "state": "Assam",
            "country_code": "IN"
        },
        "images": [
            {
                "about": "All",
                "link": "https://lh5.googleusercontent.com/p/AF1QipOByGIf-tyOWs11S4fMU2VLVhQ5U5OzcRq6YTk3=w645-h298-k-no"
            }
        ],
        "link": "https://www.google.com/maps/place/Tapattary+Masjid/data=!4m7!3m6!1s0x3759aead683d2b2b:0x4f46d852152d060!8m2!3d26.3219889!4d90.6865355!16s%2Fg%2F11dftblnf0!19sChIJKys9aK2uWTcRYNBSIYVt9AQ?authuser=0&hl=en&rclk=1",
        "coordinates": {
            "latitude": 26.321988899999997,
            "longitude": 90.68653549999999
        }
    },
    {
        "name": "Lalmati Masjid",
        "main_category": "Mosque",
        "address": "7MX3+7VX Lalmati Masjid, Unnamed Road, Abhayapuri Bazar, Abhayapuri, Lalmati Grazing, Assam 783384",
        "detailed_address": {
            "ward": "Abhayapuri Bazar",
            "street": "7MX3+7VX, Unnamed Road",
            "city": "Abhayapuri, Lalmati Grazing",
            "postal_code": "783384",
            "state": "Assam",
            "country_code": "IN"
        },
        "images": [
            {
                "about": "All",
                "link": "https://lh5.googleusercontent.com/p/AF1QipPCg5IPxurD7QZKQWTxaRe0v14H-MfkuJDimOHr=w397-h298-k-no"
            }
        ],
        "link": "https://www.google.com/maps/place/Lalmati+Masjid/data=!4m7!3m6!1s0x3759ac41c07c7eb5:0x7b9eedda87f03d4f!8m2!3d26.2982493!4d90.6547333!16s%2Fg%2F11gfmhjctt!19sChIJtX58wEGsWTcRTz3wh9rtnns?authuser=0&hl=en&rclk=1",
        "coordinates": {
            "latitude": 26.2982493,
            "longitude": 90.65473329999999
        }
    },
    {
        "name": "Dumuria Masjid, Dumuria",
        "main_category": "Mosque",
        "address": "8MHW+M6X Dumuria Masjid, Dumuria, Piknapara, Assam 783384",
        "detailed_address": {
            "ward": null,
            "street": "8MHW+M6X",
            "city": "Piknapara",
            "postal_code": "783384",
            "state": "Assam",
            "country_code": "IN"
        },
        "images": [
            {
                "about": "All",
                "link": "https://lh5.googleusercontent.com/p/AF1QipOtdGtguRq_sAjwYri_eJZWBrGm0EWdNmnE3X9Z=w529-h298-k-no"
            }
        ],
        "link": "https://www.google.com/maps/place/Dumuria+Masjid,+Dumuria/data=!4m7!3m6!1s0x3759a94a1d896201:0x6ec0a067108ca3b0!8m2!3d26.3292454!4d90.6956113!16s%2Fg%2F11g731x2vk!19sChIJAWKJHUqpWTcRsKOMEGegwG4?authuser=0&hl=en&rclk=1",
        "coordinates": {
            "latitude": 26.329245399999998,
            "longitude": 90.6956113
        }
    },
    {
        "name": "Borigaon Masjid",
        "main_category": "Mosque",
        "address": "8MPQ+X9X Borigaon Masjid, Barigaon, Assam 783384",
        "detailed_address": {
            "ward": null,
            "street": "8MPQ+X9X",
            "city": "Barigaon",
            "postal_code": "783384",
            "state": "Assam",
            "country_code": "IN"
        },
        "images": [
            {
                "about": "All",
                "link": "https://lh5.googleusercontent.com/p/AF1QipPdTguJBgXFh4n0gsIbOilv3XB9z6KNeYKpzMS4=w529-h298-k-no"
            },
            {
                "about": "Videos",
                "link": "https://lh5.googleusercontent.com/p/AF1QipMQTZoATp0xEJN2QWB4esfq4kRtn6Rw2Ma9ZBAh=w529-h298-k-no"
            }
        ],
        "link": "https://www.google.com/maps/place/Borigaon+Masjid/data=!4m7!3m6!1s0x3759a935cf2f387d:0x9f0291c7d9b1efa6!8m2!3d26.3374931!4d90.6884877!16s%2Fg%2F11ght20mw_!19sChIJfTgvzzWpWTcRpu-x2ceRAp8?authuser=0&hl=en&rclk=1",
        "coordinates": {
            "latitude": 26.3374931,
            "longitude": 90.6884877
        }
    },
    {
        "name": "Masjid, Bowalimari",
        "main_category": "Mosque",
        "address": "8MCG+FMR Masjid, Bowalimari, Bowalimari, Kalbari, Assam 783384",
        "detailed_address": {
            "ward": null,
            "street": "8MCG+FMR",
            "city": "Bowalimari, Kalbari",
            "postal_code": "783384",
            "state": "Assam",
            "country_code": "IN"
        },
        "images": [
            {
                "about": "All",
                "link": "https://lh5.googleusercontent.com/p/AF1QipMh9XTWohh3G1HVwLCZgYYvauq4s70Bc2zmldbk=w529-h298-k-no"
            }
        ],
        "link": "https://www.google.com/maps/place/Masjid,+Bowalimari/data=!4m7!3m6!1s0x3759ac003abfa2a9:0xd01e07a2f169ff0c!8m2!3d26.3212314!4d90.6766308!16s%2Fg%2F11dft22w1_!19sChIJqaK_OgCsWTcRDP9p8aIHHtA?authuser=0&hl=en&rclk=1",
        "coordinates": {
            "latitude": 26.3212314,
            "longitude": 90.6766308
        }
    },
    {
        "name": "Tapattary Masjid, Tapattary",
        "main_category": "Mosque",
        "address": "8MFM+JP6 Tapattary Masjid, Tapattary, Newpiradhara, Assam 783384",
        "detailed_address": {
            "ward": null,
            "street": "8MFM+JP6",
            "city": "Newpiradhara",
            "postal_code": "783384",
            "state": "Assam",
            "country_code": "IN"
        },
        "images": [
            {
                "about": "All",
                "link": "https://lh5.googleusercontent.com/p/AF1QipOnnhgUX5IYqzJnIT_Dh4mrm3SWGb1SVzWviG6A=w224-h298-k-no"
            },
            {
                "about": "Videos",
                "link": "https://lh5.googleusercontent.com/p/AF1QipN339lY762rgxemwBkBFhUubJ9wihxhOOGFaQdF=w529-h298-k-no"
            }
        ],
        "link": "https://www.google.com/maps/place/Tapattary+Masjid,+Tapattary/data=!4m7!3m6!1s0x3759a9532883cdcd:0xb7d74939a7e98940!8m2!3d26.324044!4d90.6842663!16s%2Fg%2F11dftbl4k3!19sChIJzc2DKFOpWTcRQInppzlJ17c?authuser=0&hl=en&rclk=1",
        "coordinates": {
            "latitude": 26.324043999999997,
            "longitude": 90.68426629999999
        }
    },
    {
        "name": "South Tilapara Masjid.",
        "main_category": "Mosque",
        "address": "8PV4+V77 South Tilapara Masjid., Abhayapuri - Pahartoli Rd, Tilapara, Assam 783384",
        "detailed_address": {
            "ward": null,
            "street": "8PV4+V77, Abhayapuri - Pahartoli Rd",
            "city": "Tilapara",
            "postal_code": "783384",
            "state": "Assam",
            "country_code": "IN"
        },
        "images": [
            {
                "about": "All",
                "link": "https://lh5.googleusercontent.com/p/AF1QipM5juKulpvcmzWgdvgHwkWr1KznGpBs6sV37QCg=w529-h298-k-no"
            },
            {
                "about": "Videos",
                "link": "https://lh5.googleusercontent.com/p/AF1QipMm7kuEA3cvipNKvdaEFKpAymaeNB-FImpYoaxg=w224-h398-k-no"
            }
        ],
        "link": "https://www.google.com/maps/place/South+Tilapara+Masjid./data=!4m7!3m6!1s0x3759a93d331fc013:0x9e516a5561449dbd!8m2!3d26.3446512!4d90.7056832!16s%2Fg%2F11c66l1d99!19sChIJE8AfMz2pWTcRvZ1EYVVqUZ4?authuser=0&hl=en&rclk=1",
        "coordinates": {
            "latitude": 26.344651199999998,
            "longitude": 90.7056832
        }
    },
    {
        "name": "Masjid",
        "main_category": "Mosque",
        "address": "8P83+466 Masjid, Behulapara, Assam 783384",
        "detailed_address": {
            "ward": null,
            "street": "8P83+466",
            "city": "Behulapara",
            "postal_code": "783384",
            "state": "Assam",
            "country_code": "IN"
        },
        "images": [
            {
                "about": "All",
                "link": "https://lh5.googleusercontent.com/p/AF1QipM2D_X8cF9iKLkVD3R9EWAyZQjgi-B81Xf8avR-=w298-h298-k-no"
            }
        ],
        "link": "https://www.google.com/maps/place/Masjid/data=!4m7!3m6!1s0x3759aecef0e2326d:0x3d7c207e95b12987!8m2!3d26.3152858!4d90.7030134!16s%2Fg%2F11g8b67kd5!19sChIJbTLi8M6uWTcRhymxlX4gfD0?authuser=0&hl=en&rclk=1",
        "coordinates": {
            "latitude": 26.315285799999998,
            "longitude": 90.70301339999999
        }
    },
    {
        "name": "Bhadaipara Masjid",
        "main_category": "Mosque",
        "address": "Bhadaipara Masjid, Bhadaipara, Behulapara, Assam 783384",
        "detailed_address": {
            "ward": null,
            "street": null,
            "city": "Bhadaipara, Behulapara",
            "postal_code": "783384",
            "state": "Assam",
            "country_code": "IN"
        },
        "images": [
            {
                "about": "All",
                "link": "https://lh5.googleusercontent.com/p/AF1QipNRMeHWOa8bUAvJWj2N2yBdkItjkEMrrCWC2ZBc=w224-h398-k-no"
            },
            {
                "about": "By owner",
                "link": "https://lh5.googleusercontent.com/p/AF1QipOMTeMhFfeSzYG2q77XVVEfiaJem4feHdlPecVm=w298-h298-k-no"
            },
            {
                "about": "Videos",
                "link": "https://lh5.googleusercontent.com/p/AF1QipNRMeHWOa8bUAvJWj2N2yBdkItjkEMrrCWC2ZBc=w224-h398-k-no"
            }
        ],
        "link": "https://www.google.com/maps/place/Bhadaipara+Masjid/data=!4m7!3m6!1s0x3759af1ea9094017:0x5e696d5cd03f850e!8m2!3d26.3132331!4d90.7078513!16s%2Fg%2F11f8l2xz66!19sChIJF0AJqR6vWTcRDoU_0FxtaV4?authuser=0&hl=en&rclk=1",
        "coordinates": {
            "latitude": 26.313233099999998,
            "longitude": 90.7078513
        }
    },
    {
        "name": "Noldoba Kalbari Jame Masjid",
        "main_category": "Mosque",
        "address": "8M66+6MG Noldoba Kalbari Jame Masjid, Unnamed Road, Daramari, Assam 783384",
        "detailed_address": {
            "ward": null,
            "street": "8M66+6MG, Unnamed Road",
            "city": "Daramari",
            "postal_code": "783384",
            "state": "Assam",
            "country_code": "IN"
        },
        "images": [],
        "link": "https://www.google.com/maps/place/Noldoba+Kalbari+Jame+Masjid/data=!4m7!3m6!1s0x3759ad138fdbf391:0x7837ee96b1ee5098!8m2!3d26.3105517!4d90.661697!16s%2Fg%2F11ppghfl90!19sChIJkfPbjxOtWTcRmFDusZbuN3g?authuser=0&hl=en&rclk=1",
        "coordinates": {
            "latitude": 26.310551699999998,
            "longitude": 90.66169699999999
        }
    },
    {
        "name": "Lalmati Eid-gah Sarig",
        "main_category": "Mosque",
        "address": "8M24+47P Lalmati Eid-gah Sarig, Lalmati Grazing, Assam 783382",
        "detailed_address": {
            "ward": null,
            "street": "8M24+47P",
            "city": "Lalmati Grazing",
            "postal_code": "783382",
            "state": "Assam",
            "country_code": "IN"
        },
        "images": [],
        "link": "https://www.google.com/maps/place/Lalmati+Eid-gah+Sarig/data=!4m7!3m6!1s0x3759ad8222b465d9:0xd6a7868327a1f28!8m2!3d26.3003405!4d90.6556891!16s%2Fg%2F11qq0bz671!19sChIJ2WW0IoKtWTcRKB96Mmh4ag0?authuser=0&hl=en&rclk=1",
        "coordinates": {
            "latitude": 26.300340499999997,
            "longitude": 90.65568909999999
        }
    },
    {
        "name": "Abhayapuri Namghar (Satra)",
        "main_category": "Place of worship",
        "address": "8MP5+WPQ Abhayapuri Namghar (Satra), Sahitya Sabha Rd, Bidyaparya, Abhayapuri, Assam 783384",
        "detailed_address": {
            "ward": "Bidyaparya",
            "street": "8MP5+WPQ, Sahitya Sabha Rd",
            "city": "Abhayapuri",
            "postal_code": "783384",
            "state": "Assam",
            "country_code": "IN"
        },
        "images": [
            {
                "about": "All",
                "link": "https://lh5.googleusercontent.com/p/AF1QipPFuoBK7HQOe9oQGSkfXJLzyIEiYN20wKbz6ID-=w397-h298-k-no"
            }
        ],
        "link": "https://www.google.com/maps/place/Abhayapuri+Namghar+%28Satra%29/data=!4m7!3m6!1s0x3759abf4f7072219:0xcdd6ae2a00d3669!8m2!3d26.3365087!4d90.659925!16s%2Fg%2F11rzdh9fw0!19sChIJGSIH9_SrWTcRaTYNoOJq3Qw?authuser=0&hl=en&rclk=1",
        "coordinates": {
            "latitude": 26.3365087,
            "longitude": 90.659925
        }
    },
    {
        "name": "New Piradhara Masjid",
        "main_category": "Mosque",
        "address": "8MCH+3QH New Piradhara Masjid, Newpiradhara, Kalbari, Assam 783384",
        "detailed_address": {
            "ward": null,
            "street": "8MCH+3QH",
            "city": "Newpiradhara, Kalbari",
            "postal_code": "783384",
            "state": "Assam",
            "country_code": "IN"
        },
        "images": [
            {
                "about": "All",
                "link": "https://lh5.googleusercontent.com/p/AF1QipMDMhnHH0DLmICDDzvCB3JsYra6NUeqJ32B78Gy=w527-h298-k-no"
            },
            {
                "about": "Latest",
                "link": "https://lh5.googleusercontent.com/p/AF1QipMzLPEx9bG4RbSsEoF-T-Z5pmxKA8CI9w1p-qdP=w298-h298-k-no"
            },
            {
                "about": "By owner",
                "link": "https://lh5.googleusercontent.com/p/AF1QipO6gyiJAHnUAF1ZsbGfjoVX69ZGLdm6VMxfV2Nn=w527-h298-k-no"
            }
        ],
        "link": "https://www.google.com/maps/place/New+Piradhara+Masjid/data=!4m7!3m6!1s0x3759af147406ae1d:0xe506d79682191b6!8m2!3d26.320816!4d90.6797853!16s%2Fg%2F11smqvfqff!19sChIJHa4GdBSvWTcRtpEhaHltUA4?authuser=0&hl=en&rclk=1",
        "coordinates": {
            "latitude": 26.320815999999997,
            "longitude": 90.67978529999999
        }
    },
    {
        "name": "Rowmari eid gah",
        "main_category": "Mosque",
        "address": "8MG9+RRX Rowmari eid gah, Roumari, Abhayapuri, Assam 783384",
        "detailed_address": {
            "ward": "Roumari",
            "street": "8MG9+RRX",
            "city": "Abhayapuri",
            "postal_code": null,
            "state": "Assam",
            "country_code": "IN"
        },
        "images": [
            {
                "about": "All",
                "link": "https://lh5.googleusercontent.com/p/AF1QipOn5GAqt_eQlibULMBDXflcnwWOqqAIKCHy39zu=w397-h298-k-no"
            },
            {
                "about": "Videos",
                "link": "https://lh5.googleusercontent.com/p/AF1QipOOAYiWUNHHUiyhrSTLbKimqg39gCYPLJVW8yfj=w529-h298-k-no"
            }
        ],
        "link": "https://www.google.com/maps/place/Rowmari+eid+gah/data=!4m7!3m6!1s0x3759abfbfdd8317d:0x2e9e43c2fcb13!8m2!3d26.3271237!4d90.6696133!16s%2Fg%2F11sym_nd9v!19sChIJfTHY_furWTcRE8svPOTpAgA?authuser=0&hl=en&rclk=1",
        "coordinates": {
            "latitude": 26.327123699999998,
            "longitude": 90.6696133
        }
    },
    {
        "name": "Bidyapara Maszid",
        "main_category": "Mosque",
        "address": "8MP6+XP5 Bidyapara Maszid, Bidyaparya, Abhayapuri, Assam 783384",
        "detailed_address": {
            "ward": "Bidyaparya",
            "street": "8MP6+XP5",
            "city": "Abhayapuri",
            "postal_code": "783384",
            "state": "Assam",
            "country_code": "IN"
        },
        "images": [],
        "link": "https://www.google.com/maps/place/Bidyapara+Maszid/data=!4m7!3m6!1s0x3759abedb8100001:0x9b33287336957eb5!8m2!3d26.3373993!4d90.6618524!16s%2Fg%2F11txmzdbfy!19sChIJAQAQuO2rWTcRtX6VNnMoM5s?authuser=0&hl=en&rclk=1",
        "coordinates": {
            "latitude": 26.337399299999998,
            "longitude": 90.6618524
        }
    },
    {
        "name": "Tapattary west masjid,Tapattary",
        "main_category": "Mosque",
        "address": "8MCM+J6M Tapattary west masjid,Tapattary, Tapatari, Newpiradhara, Assam 783384",
        "detailed_address": {
            "ward": null,
            "street": "8MCM+J6M",
            "city": "Tapatari, Newpiradhara",
            "postal_code": "783384",
            "state": "Assam",
            "country_code": "IN"
        },
        "images": [
            {
                "about": "All",
                "link": "https://lh5.googleusercontent.com/p/AF1QipOQV4eQ89zx3hy1pZ-EC3g6v_6cwDnKbDFyT8qi=w598-h298-k-no"
            }
        ],
        "link": "https://www.google.com/maps/place/Tapattary+west+masjid,Tapattary/data=!4m7!3m6!1s0x3759af841144d8a1:0xf4f3804882f7f1ec!8m2!3d26.3215977!4d90.6830614!16s%2Fg%2F11s4_ycr0j!19sChIJodhEEYSvWTcR7PH3gkiA8_Q?authuser=0&hl=en&rclk=1",
        "coordinates": {
            "latitude": 26.321597699999998,
            "longitude": 90.6830614
        }
    }
]