[
    {
        "name": "nuurii-msjid husaingNj aaphtaab aalm",
        "main_category": "Mosque",
        "address": "GPX5+F9G nuurii-msjid husaingNj aaphtaab aalm, Sitapur, Uttar Pradesh 261001",
        "detailed_address": {
            "ward": null,
            "street": "GPX5+F9G",
            "city": "Sitapur",
            "postal_code": "261001",
            "state": "Uttar Pradesh",
            "country_code": "IN"
        },
        "images": [],
        "link": "https://www.google.com/maps/place/%E2%98%AA%E0%A4%A8%E0%A5%82%E0%A4%B0%E0%A5%80-%E0%A4%AE%E0%A4%B8%E0%A5%8D%E0%A4%9C%E0%A4%BF%E0%A4%A6+%E0%A4%B9%E0%A5%81%E0%A4%B8%E0%A5%88%E0%A4%A8%E0%A4%97%E0%A4%82%E0%A4%9C+%E0%A4%86%E0%A4%AB%E0%A4%A4%E0%A4%BE%E0%A4%AC+%E0%A4%86%E0%A4%B2%E0%A4%AE%F0%9F%95%8B/data=!4m7!3m6!1s0x399ed741e2587415:0xe87c1a157805f1b8!8m2!3d27.5486852!4d80.7084487!16s%2Fg%2F11gj72h1kl!19sChIJFXRY4kHXnjkRuPEFeBUafOg?authuser=0&hl=en&rclk=1",
        "coordinates": {
            "latitude": 27.548685199999998,
            "longitude": 80.70844869999999
        }
    },
    {
        "name": "MASJID chhauni kadim (Mosque) sitapur",
        "main_category": "Mosque",
        "address": "HM7R+HHR MASJID chhauni kadim (Mosque) sitapur, Sitapur - Lakhimpur Rd, Swaroop nagar, Sitapur, Salempur Ali Raza, Uttar Pradesh 261001",
        "detailed_address": {
            "ward": "Swaroop nagar",
            "street": "HM7R+HHR, Sitapur - Lakhimpur Rd",
            "city": "Sitapur, Salempur Ali Raza",
            "postal_code": "261001",
            "state": "Uttar Pradesh",
            "country_code": "IN"
        },
        "images": [
            {
                "about": "All",
                "link": "https://lh5.googleusercontent.com/p/AF1QipOwekGXWscRClhfpSwHbkVxy9TRkFcPbJvB75mM=w397-h298-k-no"
            },
            {
                "about": "By owner",
                "link": "https://lh5.googleusercontent.com/p/AF1QipMG6etYYO2QZlKlKPJwEOUR4fsW8BpwUrcRMTkN=w224-h298-k-no"
            }
        ],
        "link": "https://www.google.com/maps/place/MASJID+chhauni+kadim+%28Mosque%29+sitapur/data=!4m7!3m6!1s0x399ed74802a29ca5:0xb0b450b091c13f23!8m2!3d27.5638259!4d80.6913648!16s%2Fg%2F11t728d4_t!19sChIJpZyiAkjXnjkRIz_BkbBQtLA?authuser=0&hl=en&rclk=1",
        "coordinates": {
            "latitude": 27.563825899999998,
            "longitude": 80.6913648
        }
    },
    {
        "name": "Prem Nagar Masjid",
        "main_category": "Mosque",
        "address": "HM8G+FG9 Prem Nagar Masjid, Prem Nagar, Sitapur, Uttar Pradesh 261001",
        "detailed_address": {
            "ward": "Prem Nagar",
            "street": "HM8G+FG9",
            "city": "Sitapur",
            "postal_code": "261001",
            "state": "Uttar Pradesh",
            "country_code": "IN"
        },
        "images": [
            {
                "about": "All",
                "link": "https://lh5.googleusercontent.com/p/AF1QipOSvOqkhI4u_3BvuSXurdMLJfud92iIQbh65CqM=w662-h298-k-no"
            },
            {
                "about": "Street View & 360deg",
                "link": "https://streetviewpixels-pa.googleapis.com/v1/thumbnail?panoid=BnPwBMYGZ2dl8JpjYyWYhA&cb_client=maps_sv.tactile.gps&w=224&h=298&yaw=171.7262&pitch=0&thumbfov=100"
            }
        ],
        "link": "https://www.google.com/maps/place/Prem+Nagar+Masjid/data=!4m7!3m6!1s0x399ed7aac5f262e9:0x2c7ca8d45c8bbee1!8m2!3d27.5661591!4d80.6763451!16s%2Fg%2F11hbfjth2m!19sChIJ6WLyxarXnjkR4b6LXNSofCw?authuser=0&hl=en&rclk=1",
        "coordinates": {
            "latitude": 27.5661591,
            "longitude": 80.67634509999999
        }
    },
    {
        "name": "Jama Masjid Shaikh Sarain",
        "main_category": "Mosque",
        "address": "HMHG+JXF Jama Masjid Shaikh Sarain, Sitapur Rd, Sheikh Sarain, Pakka Bagh, Sitapur, Uttar Pradesh 261001",
        "detailed_address": {
            "ward": "Sheikh Sarain, Pakka Bagh",
            "street": "HMHG+JXF, Sitapur Rd",
            "city": "Sitapur",
            "postal_code": "261001",
            "state": "Uttar Pradesh",
            "country_code": "IN"
        },
        "images": [
            {
                "about": "All",
                "link": "https://lh5.googleusercontent.com/p/AF1QipN-5pYkvQwc5g-dEpASbUX9e96Yjgo-g5vO5zrt=w397-h298-k-no"
            },
            {
                "about": "Dome",
                "link": "https://lh5.googleusercontent.com/p/AF1QipOsd-R7OAdr4jndhaqrAwzTW4quVMWvJx9zmC6U=w529-h298-k-no"
            }
        ],
        "link": "https://www.google.com/maps/place/Jama+Masjid+Shaikh+Sarain/data=!4m7!3m6!1s0x399ed64cd42dd499:0xe7168db315f5b21c!8m2!3d27.5790606!4d80.6774098!16s%2Fg%2F12cp9zl4k!19sChIJmdQt1EzWnjkRHLL1FbONFuc?authuser=0&hl=en&rclk=1",
        "coordinates": {
            "latitude": 27.5790606,
            "longitude": 80.67740979999999
        }
    },
    {
        "name": "Azad Nagar Masjid",
        "main_category": "Mosque",
        "address": "Azad Nagar Masjid, Azad Nagar Near diyabatti, Sitapur, Uttar Pradesh 261001",
        "detailed_address": {
            "ward": "Qaziyara",
            "street": "Azad Nagar Near diyabatti",
            "city": "Sitapur",
            "postal_code": "261001",
            "state": "Uttar Pradesh",
            "country_code": "IN"
        },
        "images": [
            {
                "about": "All",
                "link": "https://lh5.googleusercontent.com/p/AF1QipO6pKkMlhanQEUQlWbp2PK8Nf8PDKVZUTTJWCTf=w397-h298-k-no"
            },
            {
                "about": "Videos",
                "link": "https://lh5.googleusercontent.com/p/AF1QipNjQ6XY3LN3V_EbjSSNK2w-WWoAKP_5I_ZhCF8z=w224-h395-k-no"
            }
        ],
        "link": "https://www.google.com/maps/place/Azad+Nagar+Masjid/data=!4m7!3m6!1s0x399ed7b3a443fc73:0xaed88326b7b41928!8m2!3d27.579612!4d80.673849!16s%2Fg%2F124t0fjs4!19sChIJc_xDpLPXnjkRKBm0tyaD2K4?authuser=0&hl=en&rclk=1",
        "coordinates": {
            "latitude": 27.579611999999997,
            "longitude": 80.67384899999999
        }
    },
    {
        "name": "Shia Mosque",
        "main_category": "Mosque",
        "address": "HMHG+863 Shia Mosque, Qaziyara, Sitapur, Uttar Pradesh 261001",
        "detailed_address": {
            "ward": "Qaziyara",
            "street": "HMHG+863",
            "city": "Sitapur",
            "postal_code": "261001",
            "state": "Uttar Pradesh",
            "country_code": "IN"
        },
        "images": [
            {
                "about": "All",
                "link": "https://lh5.googleusercontent.com/p/AF1QipM0nmwbWFRuZAz-tQszD2ZVZ89JPEG3U9Sk65vG=w397-h298-k-no"
            },
            {
                "about": "Dome",
                "link": "https://lh5.googleusercontent.com/p/AF1QipMk5Z_QHcRFRek6v7ZdrjiJPin5XgzqfOTv1E-p=w224-h298-k-no"
            }
        ],
        "link": "https://www.google.com/maps/place/Shia+Mosque/data=!4m7!3m6!1s0x399ed7b2fb01cac7:0x3f85d1fdecbe5d33!8m2!3d27.5782716!4d80.6755551!16s%2Fg%2F11g_3l2r1!19sChIJx8oB-7LXnjkRM12-7P3RhT8?authuser=0&hl=en&rclk=1",
        "coordinates": {
            "latitude": 27.578271599999997,
            "longitude": 80.6755551
        }
    },
    {
        "name": "Tableeghi Markaz",
        "main_category": "Mosque",
        "address": "Tableeghi Markaz, Qaziyara, Sitapur, Uttar Pradesh 261001",
        "detailed_address": {
            "ward": "Qaziyara",
            "street": null,
            "city": "Sitapur",
            "postal_code": "261001",
            "state": "Uttar Pradesh",
            "country_code": "IN"
        },
        "images": [
            {
                "about": "All",
                "link": "https://lh5.googleusercontent.com/p/AF1QipM5Cff2kd21_nxKryx_3YEWP62dTfDuKsCNjkiP=w646-h298-k-no"
            }
        ],
        "link": "https://www.google.com/maps/place/Tableeghi+Markaz/data=!4m7!3m6!1s0x399ed7b26267883d:0x8282c95ca3ce796c!8m2!3d27.5766966!4d80.6742188!16s%2Fg%2F11fy9mslq7!19sChIJPYhnYrLXnjkRbHnOo1zJgoI?authuser=0&hl=en&rclk=1",
        "coordinates": {
            "latitude": 27.5766966,
            "longitude": 80.67421879999999
        }
    },
    {
        "name": "Murad Ali Mosque",
        "main_category": "Mosque",
        "address": "Murad Ali Mosque, 372, Kaziyara Rd Civil Lines, Prem Nagar, Kaziyara Rd, Civil Lines, Prem Nagar, Sitapur, Uttar Pradesh 261001",
        "detailed_address": {
            "ward": "Civil Lines, Prem Nagar",
            "street": "372, Kaziyara Rd Civil Lines, Prem Nagar, Kaziyara Rd",
            "city": "Sitapur",
            "postal_code": "261001",
            "state": "Uttar Pradesh",
            "country_code": "IN"
        },
        "images": [
            {
                "about": "All",
                "link": "https://lh5.googleusercontent.com/p/AF1QipNHGwOajI_N9n7joL_Pl-3Kw7iKfUNB3iwBoV1L=w529-h298-k-no"
            },
            {
                "about": "Street View & 360deg",
                "link": "https://streetviewpixels-pa.googleapis.com/v1/thumbnail?panoid=bm_1kYmfIbtpAvUEJnRs6g&cb_client=maps_sv.tactile.gps&w=224&h=298&yaw=115.84795&pitch=0&thumbfov=100"
            },
            {
                "about": "Videos",
                "link": "https://lh5.googleusercontent.com/p/AF1QipPZKTvRjGvY22Qtr_qxD6wPdFNn4GX-RHTVKmnE=w224-h398-k-no"
            }
        ],
        "link": "https://www.google.com/maps/place/Murad+Ali+Mosque/data=!4m7!3m6!1s0x399ed64c6f77da89:0xcf2861025d0fc9a0!8m2!3d27.5811313!4d80.6806549!16s%2Fg%2F11c6ltr0bz!19sChIJidp3b0zWnjkRoMkPXQJhKM8?authuser=0&hl=en&rclk=1",
        "coordinates": {
            "latitude": 27.5811313,
            "longitude": 80.6806549
        }
    },
    {
        "name": "Masjid E Hanfia",
        "main_category": "Mosque",
        "address": "HMM8+VMW Masjid E Hanfia, Moglapur, Munshigunj, Sitapur, Mansoorpur, Uttar Pradesh 261001",
        "detailed_address": {
            "ward": "Moglapur, Munshigunj",
            "street": "HMM8+VMW",
            "city": "Sitapur, Mansoorpur",
            "postal_code": "261001",
            "state": "Uttar Pradesh",
            "country_code": "IN"
        },
        "images": [
            {
                "about": "All",
                "link": "https://lh5.googleusercontent.com/p/AF1QipMhppc-rqPOBVl1tiPMuC6dx3rrVgmGh09jeT-2=w298-h298-k-no"
            },
            {
                "about": "Videos",
                "link": "https://lh5.googleusercontent.com/p/AF1QipNSmQRQEJwjrAsPbQavPaiFAbnDaAr6CcBSg2Me=w307-h298-k-no"
            }
        ],
        "link": "https://www.google.com/maps/place/Masjid+E+Hanfia/data=!4m7!3m6!1s0x399ed7b7901c8a51:0x3f326dd268d6cf72!8m2!3d27.5847493!4d80.6666947!16s%2Fg%2F11cscb_w54!19sChIJUYockLfXnjkRcs_WaNJtMj8?authuser=0&hl=en&rclk=1",
        "coordinates": {
            "latitude": 27.5847493,
            "longitude": 80.6666947
        }
    },
    {
        "name": "Masjid Bijoura",
        "main_category": "Mosque",
        "address": "HM58+23G Masjid Bijoura, Sitapur, Uttar Pradesh 261001",
        "detailed_address": {
            "ward": null,
            "street": "HM58+23G",
            "city": "Sitapur",
            "postal_code": "261001",
            "state": "Uttar Pradesh",
            "country_code": "IN"
        },
        "images": [
            {
                "about": "All",
                "link": "https://lh5.googleusercontent.com/p/AF1QipNyu6jrsGwXSbcMZQRVuuapRgvussCe3qkvgEZG=w295-h298-k-no"
            },
            {
                "about": "Dome",
                "link": "https://lh5.googleusercontent.com/p/AF1QipNyu6jrsGwXSbcMZQRVuuapRgvussCe3qkvgEZG=w295-h298-k-no"
            }
        ],
        "link": "https://www.google.com/maps/place/Masjid+Bijoura/data=!4m7!3m6!1s0x399ed70f4d12eb0b:0x1df6e0a1a6e9322f!8m2!3d27.5575657!4d80.6651977!16s%2Fg%2F11hbnkfd1n!19sChIJC-sSTQ_XnjkRLzLppqHg9h0?authuser=0&hl=en&rclk=1",
        "coordinates": {
            "latitude": 27.557565699999998,
            "longitude": 80.6651977
        }
    },
    {
        "name": "Ghausiya Masjid",
        "main_category": "Mosque",
        "address": "Ghausiya Masjid, Qaziyara, Sitapur, Uttar Pradesh 261001",
        "detailed_address": {
            "ward": "Qaziyara",
            "street": null,
            "city": "Sitapur",
            "postal_code": "261001",
            "state": "Uttar Pradesh",
            "country_code": "IN"
        },
        "images": [
            {
                "about": "All",
                "link": "https://lh5.googleusercontent.com/p/AF1QipMGOpkd84FKfaOgs29k5QEJXg5FxtGBQl2pNkbr=w224-h467-k-no"
            },
            {
                "about": "Street View & 360deg",
                "link": "https://streetviewpixels-pa.googleapis.com/v1/thumbnail?panoid=wrt-j1aH2qRxfkcPz9Erew&cb_client=maps_sv.tactile.gps&w=224&h=298&yaw=190.29747&pitch=0&thumbfov=100"
            },
            {
                "about": "Videos",
                "link": "https://lh5.googleusercontent.com/p/AF1QipMGOpkd84FKfaOgs29k5QEJXg5FxtGBQl2pNkbr=w224-h467-k-no"
            }
        ],
        "link": "https://www.google.com/maps/place/Ghausiya+Masjid/data=!4m7!3m6!1s0x399ed7b26fb50159:0xd93852bf6ca2e326!8m2!3d27.576573!4d80.673422!16s%2Fg%2F11dxl9gp2k!19sChIJWQG1b7LXnjkRJuOibL9SONk?authuser=0&hl=en&rclk=1",
        "coordinates": {
            "latitude": 27.576573,
            "longitude": 80.673422
        }
    },
    {
        "name": "tkiyaa msjid phttn sNraay",
        "main_category": "Mosque",
        "address": "HMHC+9V6 tkiyaa msjid phttn sNraay, Munshigunj, Sitapur, Uttar Pradesh 261001",
        "detailed_address": {
            "ward": "Munshigunj",
            "street": "HMHC+9V6",
            "city": "Sitapur",
            "postal_code": "261001",
            "state": "Uttar Pradesh",
            "country_code": "IN"
        },
        "images": [
            {
                "about": "All",
                "link": "https://lh5.googleusercontent.com/p/AF1QipMZWO1OIKqRv0zNOxoa1uHDCMBSw1EB8pLrdXp7=w529-h298-k-no"
            },
            {
                "about": "Dome",
                "link": "https://lh5.googleusercontent.com/p/AF1QipMZWO1OIKqRv0zNOxoa1uHDCMBSw1EB8pLrdXp7=w529-h298-k-no"
            },
            {
                "about": "Videos",
                "link": "https://lh5.googleusercontent.com/p/AF1QipPm6zxwi2x8sC_UCsU2Q3_tXzOhEu8aYfmG1qqM=w238-h298-k-no"
            },
            {
                "about": "Street View & 360deg",
                "link": "https://streetviewpixels-pa.googleapis.com/v1/thumbnail?panoid=RdSsehIaUkB85TFiJhF6yg&cb_client=maps_sv.tactile.gps&w=224&h=298&yaw=125.978745&pitch=0&thumbfov=100"
            }
        ],
        "link": "https://www.google.com/maps/place/%E0%A4%A4%E0%A4%95%E0%A4%BF%E0%A4%AF%E0%A4%BE+%E0%A4%AE%E0%A4%B8%E0%A5%8D%E0%A4%9C%E0%A4%BF%E0%A4%A6+%E0%A4%AB%E0%A4%A4%E0%A5%8D%E0%A4%A4%E0%A4%A8+%E0%A4%B8%E0%A4%82%E0%A4%B0%E0%A4%BE%E0%A4%AF/data=!4m7!3m6!1s0x399ed7b22d3df005:0x2167929463a7c0f!8m2!3d27.5784117!4d80.6721331!16s%2Fg%2F11f0_fq5wx!19sChIJBfA9LbLXnjkRD3w6Ril5FgI?authuser=0&hl=en&rclk=1",
        "coordinates": {
            "latitude": 27.5784117,
            "longitude": 80.6721331
        }
    },
    {
        "name": "Masjid Pakka Bagh",
        "main_category": "Mosque",
        "address": "HMJH+FGR Masjid Pakka Bagh, Pakka Bagh, Sitapur, Uttar Pradesh 261001",
        "detailed_address": {
            "ward": "Pakka Bagh",
            "street": "HMJH+FGR",
            "city": "Sitapur",
            "postal_code": "261001",
            "state": "Uttar Pradesh",
            "country_code": "IN"
        },
        "images": [],
        "link": "https://www.google.com/maps/place/Masjid+Pakka+Bagh/data=!4m7!3m6!1s0x399ed64c99a6bb61:0xe27ec3b8e7ecb642!8m2!3d27.5812484!4d80.6787543!16s%2Fg%2F11g02crglm!19sChIJYbummUzWnjkRQrbs57jDfuI?authuser=0&hl=en&rclk=1",
        "coordinates": {
            "latitude": 27.5812484,
            "longitude": 80.6787543
        }
    },
    {
        "name": "Islam Bagh Mosque",
        "main_category": "Mosque",
        "address": "HMJJ+V9X Islam Bagh Mosque, Pakka Bagh, Sitapur, Uttar Pradesh 261001",
        "detailed_address": {
            "ward": "Pakka Bagh",
            "street": "HMJJ+V9X",
            "city": "Sitapur",
            "postal_code": "261001",
            "state": "Uttar Pradesh",
            "country_code": "IN"
        },
        "images": [],
        "link": "https://www.google.com/maps/place/Islam+Bagh+Mosque/data=!4m7!3m6!1s0x399ed64b8959b4ff:0xff745428352ba112!8m2!3d27.5822462!4d80.6809732!16s%2Fg%2F11g6h_cttd!19sChIJ_7RZiUvWnjkREqErNShUdP8?authuser=0&hl=en&rclk=1",
        "coordinates": {
            "latitude": 27.5822462,
            "longitude": 80.6809732
        }
    },
    {
        "name": "Madina Mosque",
        "main_category": "Mosque",
        "address": "HMGC+MGH Madina Mosque, Unnamed Road, Munshigunj, Sitapur, Uttar Pradesh 261001",
        "detailed_address": {
            "ward": "Munshigunj",
            "street": "HMGC+MGH, Unnamed Road",
            "city": "Sitapur",
            "postal_code": "261001",
            "state": "Uttar Pradesh",
            "country_code": "IN"
        },
        "images": [
            {
                "about": "All",
                "link": "https://lh5.googleusercontent.com/p/AF1QipO13JxPBtm0wbrWv9zciU_P4OA9wk8cao6C4H1h=w529-h298-k-no"
            },
            {
                "about": "Videos",
                "link": "https://lh5.googleusercontent.com/p/AF1QipMLbGZ0XFdZBKOT-z-RapyrsJoZakgheyo6m90u=w224-h398-k-no"
            }
        ],
        "link": "https://www.google.com/maps/place/Madina+Mosque/data=!4m7!3m6!1s0x399ed7b1f42d82f5:0xce4538771abe4861!8m2!3d27.5766907!4d80.6713471!16s%2Fg%2F11g025wlsz!19sChIJ9YIt9LHXnjkRYUi-Gnc4Rc4?authuser=0&hl=en&rclk=1",
        "coordinates": {
            "latitude": 27.5766907,
            "longitude": 80.67134709999999
        }
    },
    {
        "name": "Ahmadi Mosque",
        "main_category": "Mosque",
        "address": "HMMF+JWQ Ahmadi Mosque, Mirdahi tola Near FCI godam Republic of, Sitapur",
        "detailed_address": {
            "ward": "Qaziyara",
            "street": "HMMF+JWQ, Mirdahi tola Near FCI godam Republic of",
            "city": "Sitapur",
            "postal_code": null,
            "state": "Uttar Pradesh",
            "country_code": "IN"
        },
        "images": [],
        "link": "https://www.google.com/maps/place/Ahmadi+Mosque/data=!4m7!3m6!1s0x399ed7b4fb715cf5:0x4656c55543aaea1b!8m2!3d27.5840868!4d80.6748514!16s%2Fg%2F11cknc81bv!19sChIJ9Vxx-7TXnjkRG-qqQ1XFVkY?authuser=0&hl=en&rclk=1",
        "coordinates": {
            "latitude": 27.584086799999998,
            "longitude": 80.6748514
        }
    },
    {
        "name": "Mosque Ilasiya",
        "main_category": "Mosque",
        "address": "HM92+36M Mosque Ilasiya, Lachimanpur, Sitapur, Uttar Pradesh 261001",
        "detailed_address": {
            "ward": "Lachimanpur",
            "street": "HM92+36M",
            "city": "Sitapur",
            "postal_code": "261001",
            "state": "Uttar Pradesh",
            "country_code": "IN"
        },
        "images": [],
        "link": "https://www.google.com/maps/place/Mosque+Ilasiya/data=!4m7!3m6!1s0x399ed7f82426284b:0xea417028d7fcfe2f!8m2!3d27.5677221!4d80.6505342!16s%2Fg%2F11ghyhm61c!19sChIJSygmJPjXnjkRL_781yhwQeo?authuser=0&hl=en&rclk=1",
        "coordinates": {
            "latitude": 27.567722099999997,
            "longitude": 80.6505342
        }
    },
    {
        "name": "JAMA MASJID BAITURRAB",
        "main_category": "Mosque",
        "address": "HMPG+QVX JAMA MASJID BAITURRAB, AHMADNAGAR, BHAGWANPUR, Uttar Pradesh 261001",
        "detailed_address": {
            "ward": null,
            "street": "HMPG+QVX, AHMADNAGAR, BHAGWANPUR",
            "city": "Peetpur, Sitapur",
            "postal_code": "261001",
            "state": "Uttar Pradesh",
            "country_code": "IN"
        },
        "images": [
            {
                "about": "All",
                "link": "https://lh5.googleusercontent.com/p/AF1QipMPz8kSyGkMUDuRWVfYWAztIblcs8yeLhdPnnci=w662-h298-k-no"
            }
        ],
        "link": "https://www.google.com/maps/place/JAMA+MASJID+BAITURRAB/data=!4m7!3m6!1s0x399ed64aad73f1c9:0xaf11b4cd2e88f8!8m2!3d27.5869944!4d80.677229!16s%2Fg%2F11dy_fncwc!19sChIJyfFzrUrWnjkR-IguzbQRrwA?authuser=0&hl=en&rclk=1",
        "coordinates": {
            "latitude": 27.5869944,
            "longitude": 80.677229
        }
    },
    {
        "name": "Jamia Arbia Mosque",
        "main_category": "Mosque",
        "address": "HMMH+CGQ Jamia Arbia Mosque, near City railway station, Qaziyara, Sitapur, Uttar Pradesh 261001",
        "detailed_address": {
            "ward": "Qaziyara",
            "street": "HMMH+CGQ, near City railway station",
            "city": "Sitapur",
            "postal_code": "261001",
            "state": "Uttar Pradesh",
            "country_code": "IN"
        },
        "images": [
            {
                "about": "All",
                "link": "https://lh5.googleusercontent.com/p/AF1QipMzrerVmdGb21GQz5YZBZdCqfybwNIXHZD6n7Sb=w397-h298-k-no"
            },
            {
                "about": "Street View & 360deg",
                "link": "https://streetviewpixels-pa.googleapis.com/v1/thumbnail?panoid=5SotzwMbXMW1bq8A0ao5lA&cb_client=maps_sv.tactile.gps&w=224&h=298&yaw=283.25864&pitch=0&thumbfov=100"
            }
        ],
        "link": "https://www.google.com/maps/place/Jamia+Arbia+Mosque/data=!4m7!3m6!1s0x399ed64b13eb5fab:0x4316a7c9ff09b1b0!8m2!3d27.5835993!4d80.6788655!16s%2Fg%2F11g691sh6v!19sChIJq1_rE0vWnjkRsLEJ_8mnFkM?authuser=0&hl=en&rclk=1",
        "coordinates": {
            "latitude": 27.5835993,
            "longitude": 80.6788655
        }
    },
    {
        "name": "Hamza Masjid",
        "main_category": "Mosque",
        "address": "HMMH+G4P Hamza Masjid, Mirdahi Tola, Sitapur, Uttar Pradesh 261001",
        "detailed_address": {
            "ward": "Qaziyara",
            "street": "HMMH+G4P, Mirdahi Tola",
            "city": "Sitapur",
            "postal_code": "261001",
            "state": "Uttar Pradesh",
            "country_code": "IN"
        },
        "images": [
            {
                "about": "All",
                "link": "https://lh5.googleusercontent.com/p/AF1QipOjzS1RPA-5qDrRbbN5j8ufmDatVPQ96FJHE_g3=w529-h298-k-no"
            },
            {
                "about": "Videos",
                "link": "https://lh5.googleusercontent.com/p/AF1QipNzzA88qcJDCu0oMHraYFMfy-yeabnbIB-9Fy36=w224-h398-k-no"
            }
        ],
        "link": "https://www.google.com/maps/place/Hamza+Masjid/data=!4m7!3m6!1s0x399ed64b3b2a4f67:0xf802d143da0c278!8m2!3d27.5838327!4d80.6778335!16s%2Fg%2F11g9k5wnzr!19sChIJZ08qO0vWnjkReMKgPRQtgA8?authuser=0&hl=en&rclk=1",
        "coordinates": {
            "latitude": 27.5838327,
            "longitude": 80.67783349999999
        }
    },
    {
        "name": "gaajii mszid lcchnpur",
        "main_category": "Mosque",
        "address": "HM74+R4C gaajii mszid lcchnpur, Ahata Kaptan, Sitapur, Uttar Pradesh 261001",
        "detailed_address": {
            "ward": null,
            "street": "HM74+R4C",
            "city": "Ahata Kaptan, Sitapur",
            "postal_code": "261001",
            "state": "Uttar Pradesh",
            "country_code": "IN"
        },
        "images": [
            {
                "about": "All",
                "link": "https://lh5.googleusercontent.com/p/AF1QipPkE5PPDjTqKXe7QVJb-zslcEH8_zYXITZENEwX=w639-h298-k-no"
            },
            {
                "about": "Latest",
                "link": "https://lh5.googleusercontent.com/p/AF1QipNmr1loL_Wm7nxg3iATmUKuqtnbjZiiChzcY00=w224-h398-k-no"
            },
            {
                "about": "Videos",
                "link": "https://lh5.googleusercontent.com/p/AF1QipNmr1loL_Wm7nxg3iATmUKuqtnbjZiiChzcY00=w224-h398-k-no"
            },
            {
                "about": "Street View & 360deg",
                "link": "https://streetviewpixels-pa.googleapis.com/v1/thumbnail?panoid=fzQ0ZLo5ep6nt4zgBkiG1w&cb_client=maps_sv.tactile.gps&w=224&h=298&yaw=139.75987&pitch=0&thumbfov=100"
            }
        ],
        "link": "https://www.google.com/maps/place/%E0%A4%97%E0%A4%BE%E0%A4%9C%E0%A5%80+%E0%A4%AE%E0%A4%B8%E0%A5%8D%E0%A5%9B%E0%A4%BF%E0%A4%A6+%E0%A4%B2%E0%A4%9A%E0%A5%8D%E0%A4%9B%E0%A4%A8%E0%A4%AA%E0%A5%81%E0%A4%B0/data=!4m7!3m6!1s0x399ed77ae5596a8b:0xd157eecf4e6347f9!8m2!3d27.5645625!4d80.6552664!16s%2Fg%2F11gl1q18m6!19sChIJi2pZ5XrXnjkR-UdjTs_uV9E?authuser=0&hl=en&rclk=1",
        "coordinates": {
            "latitude": 27.564562499999997,
            "longitude": 80.6552664
        }
    },
    {
        "name": "Jama masjid Dawateislami",
        "main_category": "Mosque",
        "address": "HMCJ+WP5 Jama masjid Dawateislami, Qaziyara Rd, Alam Nagar, Sitapur, Uttar Pradesh 261001",
        "detailed_address": {
            "ward": "Alam Nagar",
            "street": "HMCJ+WP5, Qaziyara Rd",
            "city": "Sitapur",
            "postal_code": "261001",
            "state": "Uttar Pradesh",
            "country_code": "IN"
        },
        "images": [
            {
                "about": "All",
                "link": "https://lh5.googleusercontent.com/p/AF1QipPSqfGyVUJoB6VKttovMQ0FK3yRxMiadBQxGv4i=w224-h472-k-no"
            },
            {
                "about": "Dome",
                "link": "https://lh5.googleusercontent.com/p/AF1QipOyjenHLSD4PhgPsh7BOh_9lCDVamKt9P87ossY=w224-h398-k-no"
            },
            {
                "about": "Videos",
                "link": "https://lh5.googleusercontent.com/p/AF1QipPpxLNZAUmT-NfrbCdHHdf1XbK5tZs1ZHuqg0-g=w224-h398-k-no"
            },
            {
                "about": "Street View & 360deg",
                "link": "https://streetviewpixels-pa.googleapis.com/v1/thumbnail?panoid=5RXdACOvbqZ6VRYIgmgqcQ&cb_client=maps_sv.tactile.gps&w=224&h=298&yaw=216.52725&pitch=0&thumbfov=100"
            }
        ],
        "link": "https://www.google.com/maps/place/Jama+masjid+Dawateislami/data=!4m7!3m6!1s0x399ed7e9d8f53e37:0xed5cf52b30f5380!8m2!3d27.5722583!4d80.6818549!16s%2Fg%2F11k0zmghyq!19sChIJNz712OnXnjkRgFMPs1LP1Q4?authuser=0&hl=en&rclk=1",
        "coordinates": {
            "latitude": 27.572258299999998,
            "longitude": 80.68185489999999
        }
    },
    {
        "name": "Masjid",
        "main_category": "Mosque",
        "address": "GPX6+QPG Masjid, Sitapur, Uttar Pradesh 261001",
        "detailed_address": {
            "ward": null,
            "street": "GPX6+QPG",
            "city": "Sitapur",
            "postal_code": "261001",
            "state": "Uttar Pradesh",
            "country_code": "IN"
        },
        "images": [
            {
                "about": "All",
                "link": "https://lh5.googleusercontent.com/p/AF1QipPscMa_TAnY4tVCug1PFmaQEGmuLJsjKR2jXp7h=w529-h298-k-no"
            },
            {
                "about": "Dome",
                "link": "https://lh5.googleusercontent.com/p/AF1QipP4GhOPYBZCaaQZrz-Twl27oYA6QjtxqMGN44cY=w224-h398-k-no"
            },
            {
                "about": "Street View & 360deg",
                "link": "https://streetviewpixels-pa.googleapis.com/v1/thumbnail?panoid=Zg6ZdYFP1dweX8wifYkXyQ&cb_client=maps_sv.tactile.gps&w=224&h=298&yaw=161.5218&pitch=0&thumbfov=100"
            }
        ],
        "link": "https://www.google.com/maps/place/Masjid/data=!4m7!3m6!1s0x399ed69a1f5158cb:0x81461a5af4b45557!8m2!3d27.5494454!4d80.711825!16s%2Fg%2F11fy_fkzjf!19sChIJy1hRH5rWnjkRV1W09FoaRoE?authuser=0&hl=en&rclk=1",
        "coordinates": {
            "latitude": 27.5494454,
            "longitude": 80.71182499999999
        }
    },
    {
        "name": "HAKIM JI KI MASJID hkiim jii kii msjid",
        "main_category": "Mosque",
        "address": "HAKIM JI KI MASJID hkiim jii kii msjid, Shekh sarin, Hakeem ji ki Masjid, OLD, Pakka Bagh, Sitapur, Uttar Pradesh 261001",
        "detailed_address": {
            "ward": "Pakka Bagh",
            "street": "Shekh sarin, Hakeem ji ki Masjid, OLD",
            "city": "Sitapur",
            "postal_code": "261001",
            "state": "Uttar Pradesh",
            "country_code": "IN"
        },
        "images": [
            {
                "about": "All",
                "link": "https://streetviewpixels-pa.googleapis.com/v1/thumbnail?panoid=DBbBG0d3ScXx16aUY25YOw&cb_client=maps_sv.tactile.gps&w=224&h=298&yaw=102.30721&pitch=0&thumbfov=100"
            },
            {
                "about": "Street View & 360deg",
                "link": "https://streetviewpixels-pa.googleapis.com/v1/thumbnail?panoid=DBbBG0d3ScXx16aUY25YOw&cb_client=maps_sv.tactile.gps&w=224&h=298&yaw=102.30721&pitch=0&thumbfov=100"
            }
        ],
        "link": "https://www.google.com/maps/place/HAKIM+JI+KI+MASJID+%E0%A4%B9%E0%A4%95%E0%A5%80%E0%A4%AE+%E0%A4%9C%E0%A5%80+%E0%A4%95%E0%A5%80+%E0%A4%AE%E0%A4%B8%E0%A5%8D%E0%A4%9C%E0%A4%BF%E0%A4%A6/data=!4m7!3m6!1s0x399ed7f7e792e01d:0x2f4a17c8942bd1ff!8m2!3d27.5801332!4d80.6779021!16s%2Fg%2F11qqr0jq_7!19sChIJHeCS5_fXnjkR_9ErlMgXSi8?authuser=0&hl=en&rclk=1",
        "coordinates": {
            "latitude": 27.5801332,
            "longitude": 80.6779021
        }
    },
    {
        "name": "Gausia Mosque",
        "main_category": "Mosque",
        "address": "HM5W+JCG Gausia Mosque, Avas Vikas Colony, Sitapur, Uttar Pradesh 261001",
        "detailed_address": {
            "ward": "Avas Vikas Colony",
            "street": "HM5W+JCG",
            "city": "Sitapur",
            "postal_code": "261001",
            "state": "Uttar Pradesh",
            "country_code": "IN"
        },
        "images": [
            {
                "about": "All",
                "link": "https://lh5.googleusercontent.com/p/AF1QipOn23rk-xYzEjUHAbWvaagiDZCL1ztgbP2_niiK=w241-h298-k-no"
            },
            {
                "about": "Street View & 360deg",
                "link": "https://streetviewpixels-pa.googleapis.com/v1/thumbnail?panoid=CykhV_BEcdWIn0ytY73hGQ&cb_client=maps_sv.tactile.gps&w=224&h=298&yaw=255.17097&pitch=0&thumbfov=100"
            }
        ],
        "link": "https://www.google.com/maps/place/Gausia+Mosque/data=!4m7!3m6!1s0x399ed792db899407:0x3e8d8d58059b6fad!8m2!3d27.5590688!4d80.6960736!16s%2Fg%2F11hdjctl85!19sChIJB5SJ25LXnjkRrW-bBViNjT4?authuser=0&hl=en&rclk=1",
        "coordinates": {
            "latitude": 27.5590688,
            "longitude": 80.69607359999999
        }
    },
    {
        "name": "Masjid Bada Gaon",
        "main_category": "Mosque",
        "address": "JPVJ+3C2 Masjid Bada Gaon, Sitapur - Lakhimpur Rd, Badan Gaon, Uttar Pradesh 261125",
        "detailed_address": {
            "ward": null,
            "street": "JPVJ+3C2, Sitapur - Lakhimpur Rd",
            "city": "Badan Gaon",
            "postal_code": "261125",
            "state": "Uttar Pradesh",
            "country_code": "IN"
        },
        "images": [
            {
                "about": "All",
                "link": "https://lh5.googleusercontent.com/p/AF1QipNHkg1dAYteOBZI5osTr8Pm3BChCG8eNrdB39jh=w224-h398-k-no"
            },
            {
                "about": "Videos",
                "link": "https://lh5.googleusercontent.com/p/AF1QipMTHMhgNBeAgJEdSEnKMTEFumjrJx-jrd8IEKqH=w224-h398-k-no"
            }
        ],
        "link": "https://www.google.com/maps/place/Masjid+Bada+Gaon/data=!4m7!3m6!1s0x399f2b579a386ccd:0x2dd49e84166b8464!8m2!3d27.6426369!4d80.7310249!16s%2Fg%2F11fhw02yys!19sChIJzWw4mlcrnzkRZIRrFoSe1C0?authuser=0&hl=en&rclk=1",
        "coordinates": {
            "latitude": 27.6426369,
            "longitude": 80.7310249
        }
    },
    {
        "name": "Makki masjid Chaubey tola",
        "main_category": "Mosque",
        "address": "HMHG+Q23 Makki masjid Chaubey tola, Qaziyara, Sitapur, Uttar Pradesh 261001",
        "detailed_address": {
            "ward": "Qaziyara",
            "street": "HMHG+Q23",
            "city": "Sitapur",
            "postal_code": "261001",
            "state": "Uttar Pradesh",
            "country_code": "IN"
        },
        "images": [
            {
                "about": "All",
                "link": "https://streetviewpixels-pa.googleapis.com/v1/thumbnail?panoid=v22bW83JAlcMtx0sVoJLZA&cb_client=maps_sv.tactile.gps&w=224&h=298&yaw=296.45398&pitch=0&thumbfov=100"
            },
            {
                "about": "Street View & 360deg",
                "link": "https://streetviewpixels-pa.googleapis.com/v1/thumbnail?panoid=v22bW83JAlcMtx0sVoJLZA&cb_client=maps_sv.tactile.gps&w=224&h=298&yaw=296.45398&pitch=0&thumbfov=100"
            }
        ],
        "link": "https://www.google.com/maps/place/Makki+masjid+Chaubey+tola/data=!4m7!3m6!1s0x399ed76c41206cd3:0xd9c97c9ff4e93e90!8m2!3d27.5793942!4d80.6750514!16s%2Fg%2F11h_vvv3ft!19sChIJ02wgQWzXnjkRkD7p9J98ydk?authuser=0&hl=en&rclk=1",
        "coordinates": {
            "latitude": 27.5793942,
            "longitude": 80.6750514
        }
    },
    {
        "name": "Masjid Aaisha ilasiya grant",
        "main_category": "Mosque",
        "address": "HM92+2PC Masjid Aaisha ilasiya grant, Unnamed Road, Lachimanpur, Ahata Kaptan, Sitapur, Uttar Pradesh 261001",
        "detailed_address": {
            "ward": "Lachimanpur",
            "street": "HM92+2PC, Unnamed Road",
            "city": "Ahata Kaptan, Sitapur",
            "postal_code": "261001",
            "state": "Uttar Pradesh",
            "country_code": "IN"
        },
        "images": [
            {
                "about": "All",
                "link": "https://streetviewpixels-pa.googleapis.com/v1/thumbnail?panoid=zHjZHadwX8B3t4hK0twddw&cb_client=maps_sv.tactile.gps&w=224&h=298&yaw=272.59268&pitch=0&thumbfov=100"
            },
            {
                "about": "Street View & 360deg",
                "link": "https://streetviewpixels-pa.googleapis.com/v1/thumbnail?panoid=zHjZHadwX8B3t4hK0twddw&cb_client=maps_sv.tactile.gps&w=224&h=298&yaw=272.59268&pitch=0&thumbfov=100"
            }
        ],
        "link": "https://www.google.com/maps/place/Masjid+Aaisha+ilasiya+grant/data=!4m7!3m6!1s0x399ed71029694855:0x8d7a97320fee9ab0!8m2!3d27.5675543!4d80.6517699!16s%2Fg%2F11ghygg6fh!19sChIJVUhpKRDXnjkRsJruDzKXeo0?authuser=0&hl=en&rclk=1",
        "coordinates": {
            "latitude": 27.567554299999998,
            "longitude": 80.65176989999999
        }
    },
    {
        "name": "Palli Wali Masjid",
        "main_category": "Mosque",
        "address": "HMMG+JR6 Palli Wali Masjid, Mirdahi Tola, Sitapur, Uttar Pradesh 261001",
        "detailed_address": {
            "ward": "Qaziyara",
            "street": "HMMG+JR6, Mirdahi Tola",
            "city": "Sitapur",
            "postal_code": "261001",
            "state": "Uttar Pradesh",
            "country_code": "IN"
        },
        "images": [],
        "link": "https://www.google.com/maps/place/Palli+Wali+Masjid/data=!4m7!3m6!1s0x399ed7b4d2c86199:0x382cda35036d48a!8m2!3d27.5840446!4d80.6770299!16s%2Fg%2F11d_zfm60y!19sChIJmWHI0rTXnjkRitQ2UKPNggM?authuser=0&hl=en&rclk=1",
        "coordinates": {
            "latitude": 27.5840446,
            "longitude": 80.6770299
        }
    },
    {
        "name": "Lalkurti masjid",
        "main_category": "Mosque",
        "address": "Lalkurti masjid, Vanasiya, Sitapur, Uttar Pradesh 261001",
        "detailed_address": {
            "ward": "Vanasiya",
            "street": null,
            "city": "Sitapur",
            "postal_code": "261001",
            "state": "Uttar Pradesh",
            "country_code": "IN"
        },
        "images": [
            {
                "about": "All",
                "link": "https://lh5.googleusercontent.com/p/AF1QipOe3pXhfrK_68TbvpcGyf8nobL8gm9tFDueD9Hq=w224-h398-k-no"
            },
            {
                "about": "By owner",
                "link": "https://lh5.googleusercontent.com/p/AF1QipM2f_FJwkI925PsAC2rsi3B-DvmwBAXp5nFMJW9=w224-h398-k-no"
            }
        ],
        "link": "https://www.google.com/maps/place/Lalkurti+masjid/data=!4m7!3m6!1s0x399ed7c93f1bf1db:0x19e523e2125ab721!8m2!3d27.5429807!4d80.6785275!16s%2Fg%2F11fmwwmc_g!19sChIJ2_EbP8nXnjkRIbdaEuIj5Rk?authuser=0&hl=en&rclk=1",
        "coordinates": {
            "latitude": 27.542980699999998,
            "longitude": 80.6785275
        }
    },
    {
        "name": "Ahmadiyya house",
        "main_category": "Mosque",
        "address": "HP94+XCV Ahmadiyya house, SH 21, Naipalapur, Sitapur, Uttar Pradesh 261001",
        "detailed_address": {
            "ward": "Naipalapur",
            "street": "HP94+XCV, SH 21",
            "city": "Sitapur",
            "postal_code": "261001",
            "state": "Uttar Pradesh",
            "country_code": "IN"
        },
        "images": [
            {
                "about": "All",
                "link": "https://lh5.googleusercontent.com/p/AF1QipM29oOck2IbpypYmyZDMVX301vB58hD9sbdHu-C=w646-h298-k-no"
            },
            {
                "about": "Street View & 360deg",
                "link": "https://streetviewpixels-pa.googleapis.com/v1/thumbnail?panoid=bmUzNx33_l8MESidSVTf8g&cb_client=maps_sv.tactile.gps&w=224&h=298&yaw=70.15954&pitch=0&thumbfov=100"
            }
        ],
        "link": "https://www.google.com/maps/place/Ahmadiyya+house/data=!4m7!3m6!1s0x399ed715aaabdd93:0x5c99770962c9ce5a!8m2!3d27.5699964!4d80.7060492!16s%2Fg%2F11pbs2rz98!19sChIJk92rqhXXnjkRWs7JYgl3mVw?authuser=0&hl=en&rclk=1",
        "coordinates": {
            "latitude": 27.569996399999997,
            "longitude": 80.7060492
        }
    },
    {
        "name": "Baggar Wali Masjid",
        "main_category": "Mosque",
        "address": "CJ9P+9XG Baggar Wali Masjid, Baggar Macchrehta, Sitapur, Uttar Pradesh",
        "detailed_address": {
            "ward": null,
            "street": "CJ9P+9XG, Baggar Macchrehta",
            "city": "Sitapur, Matasiya Lakhnsepur",
            "postal_code": null,
            "state": "Uttar Pradesh",
            "country_code": "IN"
        },
        "images": [
            {
                "about": "All",
                "link": "https://lh5.googleusercontent.com/p/AF1QipNfRRL7AC1KptU6vIhG-Evc_Zncwi9hWXU3sNl1=w397-h298-k-no"
            },
            {
                "about": "Street View & 360deg",
                "link": "https://streetviewpixels-pa.googleapis.com/v1/thumbnail?panoid=vLVuoDh167dJKuXByoFe5Q&cb_client=maps_sv.tactile.gps&w=224&h=298&yaw=223.1508&pitch=0&thumbfov=100"
            }
        ],
        "link": "https://www.google.com/maps/place/Baggar+Wali+Masjid/data=!4m7!3m6!1s0x399ecffe8ff492d1:0x5e00a9aa2a0271b1!8m2!3d27.4184414!4d80.6374529!16s%2Fg%2F11gbwl34kn!19sChIJ0ZL0j_7PnjkRsXECKqqpAF4?authuser=0&hl=en&rclk=1",
        "coordinates": {
            "latitude": 27.4184414,
            "longitude": 80.6374529
        }
    },
    {
        "name": "JAMA MASJID, SADAR BAZAR, SITAPUR",
        "main_category": "Mosque",
        "address": "GMWV+WQ8 JAMA MASJID, SADAR BAZAR, SITAPUR, Sadar Bazaar, Sitapur, Uttar Pradesh 261001",
        "detailed_address": {
            "ward": "Sadar Bazaar",
            "street": "GMWV+WQ8",
            "city": "Sitapur",
            "postal_code": "261001",
            "state": "Uttar Pradesh",
            "country_code": "IN"
        },
        "images": [],
        "link": "https://www.google.com/maps/place/JAMA+MASJID,+SADAR+BAZAR,+SITAPUR/data=!4m7!3m6!1s0x399ed70c5fc2a339:0x1cf769b5f4b78b05!8m2!3d27.5472811!4d80.6944592!16s%2Fg%2F11h6yw587z!19sChIJOaPCXwzXnjkRBYu39LVp9xw?authuser=0&hl=en&rclk=1",
        "coordinates": {
            "latitude": 27.5472811,
            "longitude": 80.6944592
        }
    },
    {
        "name": "Karbala Masjid kot old sitapur",
        "main_category": "Mosque",
        "address": "HMM8+HG9 Karbala Masjid kot old sitapur, Mohalla kot old sitapur near, Pakka Pul, Mansoorpur, Uttar Pradesh",
        "detailed_address": {
            "ward": "Moglapur, Munshigunj",
            "street": "HMM8+HG9, Mohalla kot old sitapur near, Pakka Pul",
            "city": "Mansoorpur",
            "postal_code": null,
            "state": "Uttar Pradesh",
            "country_code": "IN"
        },
        "images": [
            {
                "about": "All",
                "link": "https://streetviewpixels-pa.googleapis.com/v1/thumbnail?panoid=6VAcNjEWDLa_lCQsR1FjSQ&cb_client=maps_sv.tactile.gps&w=224&h=298&yaw=168.63861&pitch=0&thumbfov=100"
            },
            {
                "about": "Street View & 360deg",
                "link": "https://streetviewpixels-pa.googleapis.com/v1/thumbnail?panoid=6VAcNjEWDLa_lCQsR1FjSQ&cb_client=maps_sv.tactile.gps&w=224&h=298&yaw=168.63861&pitch=0&thumbfov=100"
            }
        ],
        "link": "https://www.google.com/maps/place/Karbala+Masjid+kot+old+sitapur/data=!4m7!3m6!1s0x399ed74077a00075:0x2b905f27779aa538!8m2!3d27.5839037!4d80.666356!16s%2Fg%2F11h7cs0s5h!19sChIJdQCgd0DXnjkROKWadydfkCs?authuser=0&hl=en&rclk=1",
        "coordinates": {
            "latitude": 27.5839037,
            "longitude": 80.666356
        }
    },
    {
        "name": "khbwtr wly msjd kabootr wali masjid",
        "main_category": "Mosque",
        "address": "HMCH+JGX khbwtr wly msjd kabootr wali masjid, Alam Nagar, Sitapur, Uttar Pradesh 261001",
        "detailed_address": {
            "ward": "Alam Nagar",
            "street": "HMCH+JGX",
            "city": "Sitapur",
            "postal_code": "261001",
            "state": "Uttar Pradesh",
            "country_code": "IN"
        },
        "images": [
            {
                "about": "All",
                "link": "https://streetviewpixels-pa.googleapis.com/v1/thumbnail?panoid=jWtA_HiuJ8HwtJrXr1F_PQ&cb_client=maps_sv.tactile.gps&w=224&h=298&yaw=77.52852&pitch=0&thumbfov=100"
            },
            {
                "about": "Street View & 360deg",
                "link": "https://streetviewpixels-pa.googleapis.com/v1/thumbnail?panoid=jWtA_HiuJ8HwtJrXr1F_PQ&cb_client=maps_sv.tactile.gps&w=224&h=298&yaw=77.52852&pitch=0&thumbfov=100"
            }
        ],
        "link": "https://www.google.com/maps/place/%DA%A9%D8%A8%D9%88%D8%AA%D8%B1+%D9%88%D8%A7%D9%84%DB%8C+%D9%85%D8%B3%D8%AC%D8%AF+kabootr+wali+masjid%E2%80%AD/data=!4m7!3m6!1s0x399ed73a8b29822d:0xf53986230d9c8fcd!8m2!3d27.5716045!4d80.6788684!16s%2Fg%2F11lgyrlr49!19sChIJLYIpizrXnjkRzY-cDSOGOfU?authuser=0&hl=en&rclk=1",
        "coordinates": {
            "latitude": 27.5716045,
            "longitude": 80.6788684
        }
    },
    {
        "name": "msjd ply'y wudd",
        "main_category": "Mosque",
        "address": "GPX6+WG8 msjd ply'y wudd, G.T Road, Husainganj, Sitapur, Uttar Pradesh 261001",
        "detailed_address": {
            "ward": "Husainganj",
            "street": "GPX6+WG8, G.T Road",
            "city": "Sitapur",
            "postal_code": "261001",
            "state": "Uttar Pradesh",
            "country_code": "IN"
        },
        "images": [
            {
                "about": "All",
                "link": "https://lh5.googleusercontent.com/p/AF1QipMbxFH80w0hDu5bIpkezUNu7hC3dMpfkwF0K2Dr=w662-h298-k-no"
            },
            {
                "about": "Street View & 360deg",
                "link": "https://streetviewpixels-pa.googleapis.com/v1/thumbnail?panoid=slV7JCDY3BSkqe9GDBukKw&cb_client=maps_sv.tactile.gps&w=224&h=298&yaw=212.26271&pitch=0&thumbfov=100"
            }
        ],
        "link": "https://www.google.com/maps/place/%D9%85%D8%B3%D8%AC%D8%AF+%D9%BE%D9%84%D8%A7%D8%A6%DB%8C+%D9%88%D9%8F%DA%88%E2%80%AD/data=!4m7!3m6!1s0x399ed78853bb478b:0x31a8196a8ea211ec!8m2!3d27.5497889!4d80.7113422!16s%2Fg%2F11jzr94b7g!19sChIJi0e7U4jXnjkR7BGijmoZqDE?authuser=0&hl=en&rclk=1",
        "coordinates": {
            "latitude": 27.5497889,
            "longitude": 80.71134219999999
        }
    },
    {
        "name": "Shia Masjid Bangla",
        "main_category": "Mosque",
        "address": "HMJC+7G5 Shia Masjid Bangla, Munshigunj, Sitapur, Uttar Pradesh 261001",
        "detailed_address": {
            "ward": "Munshigunj",
            "street": "HMJC+7G5",
            "city": "Sitapur",
            "postal_code": "261001",
            "state": "Uttar Pradesh",
            "country_code": "IN"
        },
        "images": [
            {
                "about": "All",
                "link": "https://streetviewpixels-pa.googleapis.com/v1/thumbnail?panoid=KuY7uI94jiVfUOVSY0AnEg&cb_client=maps_sv.tactile.gps&w=224&h=298&yaw=84.61369&pitch=0&thumbfov=100"
            },
            {
                "about": "Street View & 360deg",
                "link": "https://streetviewpixels-pa.googleapis.com/v1/thumbnail?panoid=KuY7uI94jiVfUOVSY0AnEg&cb_client=maps_sv.tactile.gps&w=224&h=298&yaw=84.61369&pitch=0&thumbfov=100"
            }
        ],
        "link": "https://www.google.com/maps/place/Shia+Masjid+Bangla/data=!4m7!3m6!1s0x399ed7b15819940f:0x3f2dbffa2e1de7e4!8m2!3d27.5806487!4d80.6713719!16s%2Fg%2F11ggnbwx1b!19sChIJD5QZWLHXnjkR5OcdLvq_LT8?authuser=0&hl=en&rclk=1",
        "coordinates": {
            "latitude": 27.580648699999998,
            "longitude": 80.6713719
        }
    },
    {
        "name": "Masjid Ibrahimpur",
        "main_category": "Mosque",
        "address": "HMM2+3FV Masjid Ibrahimpur, Lucknow - Shahjahanpur Rd, behind KashiRam Colony Road, Ismailpur, Sitapur, Uttar Pradesh 261001",
        "detailed_address": {
            "ward": null,
            "street": "HMM2+3FV, Lucknow - Shahjahanpur Rd, behind KashiRam Colony Road",
            "city": "Ismailpur, Sitapur",
            "postal_code": "261001",
            "state": "Uttar Pradesh",
            "country_code": "IN"
        },
        "images": [
            {
                "about": "All",
                "link": "https://lh5.googleusercontent.com/p/AF1QipO4APbK-UqleBQjlgodJIU0c0ukgqhkShAcsGm8=w397-h298-k-no"
            }
        ],
        "link": "https://www.google.com/maps/place/Masjid+Ibrahimpur/data=!4m7!3m6!1s0x399ed7945927bb4b:0x474534133a4bccf8!8m2!3d27.5827261!4d80.6511729!16s%2Fg%2F11hbljs76p!19sChIJS7snWZTXnjkR-MxLOhM0RUc?authuser=0&hl=en&rclk=1",
        "coordinates": {
            "latitude": 27.5827261,
            "longitude": 80.65117289999999
        }
    },
    {
        "name": "Masjid Sitapur",
        "main_category": "Mosque",
        "address": "GQF3+4GX Masjid Sitapur, Sheikh Sarain, Raqab Ganj, Sheikh Sarain, Khairabad, Uttar Pradesh 261131",
        "detailed_address": {
            "ward": "Sheikh Sarain, Joshitola",
            "street": "GQF3+4GX, Sheikh Sarain, Raqab Ganj",
            "city": "Khairabad",
            "postal_code": "261131",
            "state": "Uttar Pradesh",
            "country_code": "IN"
        },
        "images": [
            {
                "about": "All",
                "link": "https://streetviewpixels-pa.googleapis.com/v1/thumbnail?panoid=eZsa5_FLV6zV4Bs62S-xzw&cb_client=maps_sv.tactile.gps&w=224&h=298&yaw=336.51678&pitch=0&thumbfov=100"
            },
            {
                "about": "Street View & 360deg",
                "link": "https://streetviewpixels-pa.googleapis.com/v1/thumbnail?panoid=eZsa5_FLV6zV4Bs62S-xzw&cb_client=maps_sv.tactile.gps&w=224&h=298&yaw=336.51678&pitch=0&thumbfov=100"
            }
        ],
        "link": "https://www.google.com/maps/place/Masjid+Sitapur/data=!4m7!3m6!1s0x399ed3881d74216d:0x3e8645f006bc78b8!8m2!3d27.5228535!4d80.7538475!16s%2Fg%2F11bx1hk2qg!19sChIJbSF0HYjTnjkRuHi8BvBFhj4?authuser=0&hl=en&rclk=1",
        "coordinates": {
            "latitude": 27.5228535,
            "longitude": 80.75384749999999
        }
    },
    {
        "name": "Hamid Ali masjid",
        "main_category": "Mosque",
        "address": "HMHJ+W2G Hamid Ali masjid, Pakka Bagh, Sitapur, Uttar Pradesh 261001",
        "detailed_address": {
            "ward": "Pakka Bagh",
            "street": "HMHJ+W2G",
            "city": "Sitapur",
            "postal_code": "261001",
            "state": "Uttar Pradesh",
            "country_code": "IN"
        },
        "images": [],
        "link": "https://www.google.com/maps/place/Hamid+Ali+masjid/data=!4m7!3m6!1s0x399ed71ff16d1d89:0x615d0469299756d2!8m2!3d27.5798149!4d80.6800926!16s%2Fg%2F11lkx35jzc!19sChIJiR1t8R_XnjkR0laXKWkEXWE?authuser=0&hl=en&rclk=1",
        "coordinates": {
            "latitude": 27.5798149,
            "longitude": 80.6800926
        }
    },
    {
        "name": "msjd",
        "main_category": "Mosque",
        "address": "HMCC+QCJ msjd, Nai Basti, Sitapur, Uttar Pradesh 261001",
        "detailed_address": {
            "ward": "Nai Basti",
            "street": "HMCC+QCJ",
            "city": "Sitapur",
            "postal_code": "261001",
            "state": "Uttar Pradesh",
            "country_code": "IN"
        },
        "images": [],
        "link": "https://www.google.com/maps/place/%D9%85%D8%B3%D8%AC%D8%AF%E2%80%AD/data=!4m7!3m6!1s0x399ed7af012e0057:0x92edb2655d0109b4!8m2!3d27.5719645!4d80.6710273!16s%2Fg%2F11qn8lc21g!19sChIJVwAuAa_XnjkRtAkBXWWy7ZI?authuser=0&hl=en&rclk=1",
        "coordinates": {
            "latitude": 27.5719645,
            "longitude": 80.67102729999999
        }
    },
    {
        "name": "Masjid Umar Farooq",
        "main_category": "Mosque",
        "address": "HMM2+3FM Masjid Umar Farooq, Ismailpur, Sitapur, Uttar Pradesh 261001",
        "detailed_address": {
            "ward": null,
            "street": "HMM2+3FM",
            "city": "Ismailpur, Sitapur",
            "postal_code": "261001",
            "state": "Uttar Pradesh",
            "country_code": "IN"
        },
        "images": [
            {
                "about": "All",
                "link": "https://lh5.googleusercontent.com/p/AF1QipM24TU7YL7uWzRXh6f4UDv9LajctCyoQDO4f3TI=w397-h298-k-no"
            }
        ],
        "link": "https://www.google.com/maps/place/Masjid+Umar+Farooq/data=!4m7!3m6!1s0x399ed794591f2563:0x194cbcf6382fdc99!8m2!3d27.5827166!4d80.6511729!16s%2Fg%2F11f3rd6zzz!19sChIJYyUfWZTXnjkRmdwvOPa8TBk?authuser=0&hl=en&rclk=1",
        "coordinates": {
            "latitude": 27.582716599999998,
            "longitude": 80.65117289999999
        }
    },
    {
        "name": "Moquie Masjid",
        "main_category": "Mosque",
        "address": "HP82+FQ3 Moquie Masjid, State Bank Colony, Sitapur, Uttar Pradesh 261001",
        "detailed_address": {
            "ward": "State Bank Colony",
            "street": "HP82+FQ3",
            "city": "Sitapur",
            "postal_code": "261001",
            "state": "Uttar Pradesh",
            "country_code": "IN"
        },
        "images": [],
        "link": "https://www.google.com/maps/place/Moquie+Masjid/data=!4m7!3m6!1s0x399ed75d7618adff:0x1ca2b5ecdb71a996!8m2!3d27.5661351!4d80.7019224!16s%2Fg%2F11h64bnwh9!19sChIJ_60Ydl3XnjkRlqlx2-y1ohw?authuser=0&hl=en&rclk=1",
        "coordinates": {
            "latitude": 27.5661351,
            "longitude": 80.7019224
        }
    },
    {
        "name": "WARSI MASJID",
        "main_category": "Mosque",
        "address": "HM8C+436 WARSI MASJID, Prem Nagar, Sitapur, Uttar Pradesh 261001",
        "detailed_address": {
            "ward": "Prem Nagar",
            "street": "HM8C+436",
            "city": "Sitapur",
            "postal_code": "261001",
            "state": "Uttar Pradesh",
            "country_code": "IN"
        },
        "images": [
            {
                "about": "All",
                "link": "https://streetviewpixels-pa.googleapis.com/v1/thumbnail?panoid=lLdoqWdELPDgjfBwkCMjyg&cb_client=maps_sv.tactile.gps&w=224&h=298&yaw=29.48599&pitch=0&thumbfov=100"
            },
            {
                "about": "Street View & 360deg",
                "link": "https://streetviewpixels-pa.googleapis.com/v1/thumbnail?panoid=lLdoqWdELPDgjfBwkCMjyg&cb_client=maps_sv.tactile.gps&w=224&h=298&yaw=29.48599&pitch=0&thumbfov=100"
            }
        ],
        "link": "https://www.google.com/maps/place/WARSI+MASJID/data=!4m7!3m6!1s0x399ed7a533ffd887:0x45336a2a482520b0!8m2!3d27.5652988!4d80.6701448!16s%2Fg%2F11vc8z8yrj!19sChIJh9j_M6XXnjkRsCAlSCpqM0U?authuser=0&hl=en&rclk=1",
        "coordinates": {
            "latitude": 27.565298799999997,
            "longitude": 80.6701448
        }
    },
    {
        "name": "SUNNI MASJID",
        "main_category": "Mosque",
        "address": "GM4R+JG9 SUNNI MASJID, VILL CHILVARA, Sitapur",
        "detailed_address": {
            "ward": null,
            "street": "GM4R+JG9, VILL CHILVARA",
            "city": "Sitapur, Llapur Shahpur",
            "postal_code": null,
            "state": "Uttar Pradesh",
            "country_code": "IN"
        },
        "images": [
            {
                "about": "All",
                "link": "https://lh5.googleusercontent.com/p/AF1QipMFTPxvA3CbJoJERoXv4dNgJZJ473Dwx_qc9gFK=w224-h501-k-no"
            }
        ],
        "link": "https://www.google.com/maps/place/SUNNI+MASJID/data=!4m7!3m6!1s0x399ed1da6ed3ad8d:0x76484ffa2b78c004!8m2!3d27.5065267!4d80.6913454!16s%2Fg%2F11t1s7xq8k!19sChIJja3TbtrRnjkRBMB4K_pPSHY?authuser=0&hl=en&rclk=1",
        "coordinates": {
            "latitude": 27.5065267,
            "longitude": 80.6913454
        }
    },
    {
        "name": "Balda Masjid",
        "main_category": "Mosque",
        "address": "HMCG+QC8 Balda Masjid, Nai Basti, Sitapur, Uttar Pradesh 261001",
        "detailed_address": {
            "ward": "Nai Basti",
            "street": "HMCG+QC8",
            "city": "Sitapur",
            "postal_code": "261001",
            "state": "Uttar Pradesh",
            "country_code": "IN"
        },
        "images": [
            {
                "about": "All",
                "link": "https://streetviewpixels-pa.googleapis.com/v1/thumbnail?panoid=b-kBK11nJwOf4wM96DqhTA&cb_client=maps_sv.tactile.gps&w=224&h=298&yaw=115.08011&pitch=0&thumbfov=100"
            },
            {
                "about": "Street View & 360deg",
                "link": "https://streetviewpixels-pa.googleapis.com/v1/thumbnail?panoid=b-kBK11nJwOf4wM96DqhTA&cb_client=maps_sv.tactile.gps&w=224&h=298&yaw=115.08011&pitch=0&thumbfov=100"
            }
        ],
        "link": "https://www.google.com/maps/place/Balda+Masjid/data=!4m7!3m6!1s0x399ed71361ce6a9f:0xb1abfba296bc2de7!8m2!3d27.5719212!4d80.6760714!16s%2Fg%2F11j53kt65r!19sChIJn2rOYRPXnjkR5y28lqL7q7E?authuser=0&hl=en&rclk=1",
        "coordinates": {
            "latitude": 27.5719212,
            "longitude": 80.6760714
        }
    },
    {
        "name": "Madina masjid",
        "main_category": "Mosque",
        "address": "HP95+M4M Madina masjid, Naipapur chauhrah bijwar, road, Naipalapur, Sitapur, Uttar Pradesh 261001",
        "detailed_address": {
            "ward": "Naipalapur",
            "street": "HP95+M4M, Naipapur chauhrah bijwar, road",
            "city": "Sitapur",
            "postal_code": "261001",
            "state": "Uttar Pradesh",
            "country_code": "IN"
        },
        "images": [],
        "link": "https://www.google.com/maps/place/Madina+masjid/data=!4m7!3m6!1s0x399ed727c89d7b3b:0xd1671d25448bee54!8m2!3d27.5692024!4d80.7078078!16s%2Fg%2F11ll4zbg29!19sChIJO3udyCfXnjkRVO6LRCUdZ9E?authuser=0&hl=en&rclk=1",
        "coordinates": {
            "latitude": 27.569202399999998,
            "longitude": 80.7078078
        }
    },
    {
        "name": "Choti Masjid",
        "main_category": "Mosque",
        "address": "HMHF+2RV Choti Masjid, Qaziyara, Adlishpur, Sitapur, Uttar Pradesh 262722",
        "detailed_address": {
            "ward": "Qaziyara",
            "street": "HMHF+2RV",
            "city": "Adlishpur, Sitapur",
            "postal_code": "262722",
            "state": "Uttar Pradesh",
            "country_code": "IN"
        },
        "images": [],
        "link": "https://www.google.com/maps/place/Choti+Masjid/data=!4m7!3m6!1s0x399ed7de170b3b55:0xb258812687a401c3!8m2!3d27.5776167!4d80.6745613!16s%2Fg%2F11plsbkvj3!19sChIJVTsLF97XnjkRwwGkhyaBWLI?authuser=0&hl=en&rclk=1",
        "coordinates": {
            "latitude": 27.5776167,
            "longitude": 80.6745613
        }
    },
    {
        "name": "Bangley wali Masjid",
        "main_category": "Mosque",
        "address": "HMHF+FGG Bangley wali Masjid, Qaziyara, Sitapur, Uttar Pradesh 261001",
        "detailed_address": {
            "ward": "Qaziyara",
            "street": "HMHF+FGG",
            "city": "Sitapur",
            "postal_code": "261001",
            "state": "Uttar Pradesh",
            "country_code": "IN"
        },
        "images": [
            {
                "about": "All",
                "link": "https://streetviewpixels-pa.googleapis.com/v1/thumbnail?panoid=8b2vcuS1O8QqXDSIQ2wPGA&cb_client=maps_sv.tactile.gps&w=224&h=298&yaw=230.32034&pitch=0&thumbfov=100"
            },
            {
                "about": "Street View & 360deg",
                "link": "https://streetviewpixels-pa.googleapis.com/v1/thumbnail?panoid=8b2vcuS1O8QqXDSIQ2wPGA&cb_client=maps_sv.tactile.gps&w=224&h=298&yaw=230.32034&pitch=0&thumbfov=100"
            }
        ],
        "link": "https://www.google.com/maps/place/Bangley+wali+Masjid/data=!4m7!3m6!1s0x399ed7b3acd00001:0xd65d84d0b9406803!8m2!3d27.5786774!4d80.6738285!16s%2Fg%2F11sscs8vy_!19sChIJAQDQrLPXnjkRA2hAudCEXdY?authuser=0&hl=en&rclk=1",
        "coordinates": {
            "latitude": 27.5786774,
            "longitude": 80.6738285
        }
    },
    {
        "name": "Masjid abu hurairah raziyallahu anhu ismaiel pur sitapur",
        "main_category": "Mosque",
        "address": "HMJ3+M54 Masjid abu hurairah raziyallahu anhu ismaiel pur sitapur, Smilepur, Ismailpur, Sitapur, Uttar Pradesh 261001",
        "detailed_address": {
            "ward": "Smilepur",
            "street": "HMJ3+M54",
            "city": "Ismailpur, Sitapur",
            "postal_code": null,
            "state": "Uttar Pradesh",
            "country_code": "IN"
        },
        "images": [],
        "link": "https://www.google.com/maps/place/Masjid+abu+hurairah+raziyallahu+anhu+ismaiel+pur+sitapur/data=!4m7!3m6!1s0x399ed7187152cd19:0x2775a218f9a25229!8m2!3d27.5816271!4d80.6529673!16s%2Fg%2F11s3348q8x!19sChIJGc1ScRjXnjkRKVKi-RiidSc?authuser=0&hl=en&rclk=1",
        "coordinates": {
            "latitude": 27.5816271,
            "longitude": 80.6529673
        }
    },
    {
        "name": "Sunni jama masjid sitapur",
        "main_category": "Mosque",
        "address": "HMFG+Q5W Sunni jama masjid sitapur, Pakka Bagh, Sitapur, Uttar Pradesh 261001",
        "detailed_address": {
            "ward": "Pakka Bagh",
            "street": "HMFG+Q5W",
            "city": "Sitapur",
            "postal_code": "261001",
            "state": "Uttar Pradesh",
            "country_code": "IN"
        },
        "images": [
            {
                "about": "All",
                "link": "https://streetviewpixels-pa.googleapis.com/v1/thumbnail?panoid=sUrNxtgD1TpbLF_W-IU-4A&cb_client=maps_sv.tactile.gps&w=224&h=298&yaw=38.42452&pitch=0&thumbfov=100"
            },
            {
                "about": "Street View & 360deg",
                "link": "https://streetviewpixels-pa.googleapis.com/v1/thumbnail?panoid=sUrNxtgD1TpbLF_W-IU-4A&cb_client=maps_sv.tactile.gps&w=224&h=298&yaw=38.42452&pitch=0&thumbfov=100"
            }
        ],
        "link": "https://www.google.com/maps/place/Sunni+jama+masjid+sitapur/data=!4m7!3m6!1s0x399ed71a6a4e0689:0x4f39998e37560176!8m2!3d27.5744869!4d80.6754485!16s%2Fg%2F11s058qsz5!19sChIJiQZOahrXnjkRdgFWN46ZOU8?authuser=0&hl=en&rclk=1",
        "coordinates": {
            "latitude": 27.5744869,
            "longitude": 80.6754485
        }
    }
]