[
    {
        "name": "Bada Imambada",
        "main_category": "Mosque",
        "address": "7FPG+599 Bada Imambada, Budhana, Uttar Pradesh 251309",
        "detailed_address": {
            "ward": null,
            "street": "7FPG+599",
            "city": "Budhana",
            "postal_code": "251309",
            "state": "Uttar Pradesh",
            "country_code": "IN"
        },
        "images": [
            {
                "about": "All",
                "link": "https://lh5.googleusercontent.com/p/AF1QipNXbWso8oy_p_Dk91uJr-UiAxFgvx1Rj8SETOoo=w433-h298-k-no"
            },
            {
                "about": "Dome",
                "link": "https://lh5.googleusercontent.com/p/AF1QipM4iG8q2kvrsMLxTkVtzb-D8AS1Z_BlcshP05NH=w224-h298-k-no"
            },
            {
                "about": "Videos",
                "link": "https://lh5.googleusercontent.com/p/AF1QipMgVDlTwEewJeegu9MibjvVDDY2Ei-c1BAfWYWJ=w224-h398-k-no"
            }
        ],
        "link": "https://www.google.com/maps/place/Bada+Imambada/data=!4m7!3m6!1s0x390c3eabd87ea483:0x28d32e550ffe4191!8m2!3d29.2854024!4d77.4759751!16s%2Fg%2F1pp2vdfnz!19sChIJg6R-2Ks-DDkRkUH-D1Uu0yg?authuser=0&hl=en&rclk=1",
        "coordinates": {
            "latitude": 29.2854024,
            "longitude": 77.4759751
        }
    },
    {
        "name": "msjd `thmnyh Masjid Usmania",
        "main_category": "Mosque",
        "address": "msjd `thmnyh Masjid Usmania, Masjid Usmania Wali Gali, Budhana, Budhana Bagar, Uttar Pradesh 251309",
        "detailed_address": {
            "ward": null,
            "street": "Masjid Usmania Wali Gali",
            "city": "Budhana, Budhana Bagar",
            "postal_code": "251309",
            "state": "Uttar Pradesh",
            "country_code": "IN"
        },
        "images": [
            {
                "about": "All",
                "link": "https://lh5.googleusercontent.com/p/AF1QipMQn2_5GpnY2EAWPm5Y8VKyyvIAoWc9DGjGoWPz=w224-h471-k-no"
            },
            {
                "about": "Dome",
                "link": "https://lh5.googleusercontent.com/p/AF1QipOcPbI356nfESGUe4-uDBHI-sRY9h5O0ZkV-vLj=w298-h298-k-no"
            },
            {
                "about": "By owner",
                "link": "https://lh5.googleusercontent.com/p/AF1QipNH3ZlS_46xi6aNlwscnfCFeuC5P1XBM8dF1h57=w224-h471-k-no"
            }
        ],
        "link": "https://www.google.com/maps/place/%D9%85%D8%B3%D8%AC%D8%AF+%D8%B9%D8%AB%D9%85%D8%A7%D9%86%DB%8C%DB%81+Masjid+Usmania%E2%80%AD/data=!4m7!3m6!1s0x390c3bcc926ae8cf:0x5f563867f86e408c!8m2!3d29.2904976!4d77.4652375!16s%2Fg%2F11nmpk94zp!19sChIJz-hqksw7DDkRjEBu-Gc4Vl8?authuser=0&hl=en&rclk=1",
        "coordinates": {
            "latitude": 29.2904976,
            "longitude": 77.4652375
        }
    },
    {
        "name": "mdynh msjd ny' tHSyl khy pychhy bddhnh",
        "main_category": "Mosque",
        "address": "mdynh msjd ny' tHSyl khy pychhy bddhnh, Gali Number 5, Budhana, Budhana Bagar, Uttar Pradesh 251309",
        "detailed_address": {
            "ward": null,
            "street": "Gali Number 5",
            "city": "Budhana, Budhana Bagar",
            "postal_code": "251309",
            "state": "Uttar Pradesh",
            "country_code": "IN"
        },
        "images": [
            {
                "about": "All",
                "link": "https://lh5.googleusercontent.com/p/AF1QipNBkQ0gWmFH0J7IPfnKPu4ceJoYR0MWHWxMv4MC=w224-h398-k-no"
            },
            {
                "about": "By owner",
                "link": "https://lh5.googleusercontent.com/p/AF1QipOieurtKA4ghQIafaVYQT-9ELIbz62JJ-04G9SC=w529-h298-k-no"
            },
            {
                "about": "Videos",
                "link": "https://lh5.googleusercontent.com/p/AF1QipOieurtKA4ghQIafaVYQT-9ELIbz62JJ-04G9SC=w529-h298-k-no"
            }
        ],
        "link": "https://www.google.com/maps/place/%D9%85%D8%AF%DB%8C%D9%86%DB%81+%D9%85%D8%B3%D8%AC%D8%AF+%D9%86%D8%A6+%D8%AA%D8%AD%D8%B5%DB%8C%D9%84+%DA%A9%DB%92+%D9%BE%DB%8C%DA%86%DA%BE%DB%92+%D8%A8%DA%88%DA%BE%D8%A7%D9%86%DB%81%E2%80%AD/data=!4m7!3m6!1s0x390c3bcd1449033b:0x7824a462b04268ed!8m2!3d29.2902606!4d77.4648995!16s%2Fg%2F11rb47rwmh!19sChIJOwNJFM07DDkR7WhCsGKkJHg?authuser=0&hl=en&rclk=1",
        "coordinates": {
            "latitude": 29.2902606,
            "longitude": 77.4648995
        }
    },
    {
        "name": "Azeem Dawakhana Budhana aziim dvaakhaanaa buddhaanaa",
        "main_category": "Hospital",
        "address": "Azeem Dawakhana Budhana aziim dvaakhaanaa buddhaanaa, Purani tehsil ke samne Qile wali masjid, Budhana, Uttar Pradesh 251309",
        "detailed_address": {
            "ward": null,
            "street": "Purani tehsil ke samne Qile wali masjid",
            "city": "Budhana",
            "postal_code": "251309",
            "state": "Uttar Pradesh",
            "country_code": "IN"
        },
        "images": [
            {
                "about": "All",
                "link": "https://lh5.googleusercontent.com/p/AF1QipOz2p8wzwvL2qe7Rd-3MPpSJfXPFzPnCW0ekZnF=w530-h298-k-no"
            },
            {
                "about": "By owner",
                "link": "https://lh5.googleusercontent.com/p/AF1QipMDHylNfrqm9lwG8JOFrvFbD1Xx2eOh1SkA1yAj=w298-h298-k-no"
            }
        ],
        "link": "https://www.google.com/maps/place/Azeem+Dawakhana+Budhana+%E0%A4%85%E0%A5%9B%E0%A5%80%E0%A4%AE+%E0%A4%A6%E0%A4%B5%E0%A4%BE%E0%A4%96%E0%A4%BE%E0%A4%A8%E0%A4%BE+%E0%A4%AC%E0%A5%81%E0%A4%A2%E0%A4%BE%E0%A4%A8%E0%A4%BE/data=!4m7!3m6!1s0x390c3fa2e1a790b3:0xc0ae31091653cf13!8m2!3d29.2869468!4d77.4773279!16s%2Fg%2F11g0l9f822!19sChIJs5Cn4aI_DDkRE89TFgkxrsA?authuser=0&hl=en&rclk=1",
        "coordinates": {
            "latitude": 29.2869468,
            "longitude": 77.47732789999999
        }
    },
    {
        "name": "Bilal Masjid New Tehsil Budhana bll msjd",
        "main_category": "Mosque",
        "address": "Bilal Masjid New Tehsil Budhana bll msjd, Gali Number 5, Budhana, Budhana Bagar, Uttar Pradesh 251309",
        "detailed_address": {
            "ward": null,
            "street": "Gali Number 5",
            "city": "Budhana, Budhana Bagar",
            "postal_code": "251309",
            "state": "Uttar Pradesh",
            "country_code": "IN"
        },
        "images": [
            {
                "about": "All",
                "link": "https://lh5.googleusercontent.com/p/AF1QipPa3q2tvQAmPkrc9BEZHE0YRvXWut0T33jTvpZP=w397-h298-k-no"
            },
            {
                "about": "Dome",
                "link": "https://lh5.googleusercontent.com/p/AF1QipPDg0z2FPtparxMccYa5Bus7_7nLb7BnrE3yVZL=w298-h298-k-no"
            },
            {
                "about": "Videos",
                "link": "https://lh5.googleusercontent.com/p/AF1QipNl752WUb_RirHJFDgaVKtvReAaBbxUmxEqDbg2=w298-h298-k-no"
            },
            {
                "about": "By owner",
                "link": "https://lh5.googleusercontent.com/p/AF1QipNl752WUb_RirHJFDgaVKtvReAaBbxUmxEqDbg2=w298-h298-k-no"
            }
        ],
        "link": "https://www.google.com/maps/place/Bilal+Masjid+New+Tehsil+Budhana+%D8%A8%D9%84%D8%A7%D9%84+%D9%85%D8%B3%D8%AC%D8%AF%E2%80%AD/data=!4m7!3m6!1s0x390c3b4a4b153077:0xe7fc04838adf634e!8m2!3d29.2904065!4d77.463423!16s%2Fg%2F11q1vcn6rh!19sChIJdzAVS0o7DDkRTmPfioME_Oc?authuser=0&hl=en&rclk=1",
        "coordinates": {
            "latitude": 29.2904065,
            "longitude": 77.46342299999999
        }
    },
    {
        "name": "Chand Masjid",
        "main_category": "Mosque",
        "address": "7FV9+2GJ Chand Masjid, Budhana, Budhana Bagar, Uttar Pradesh 251309",
        "detailed_address": {
            "ward": null,
            "street": "7FV9+2GJ",
            "city": "Budhana, Budhana Bagar",
            "postal_code": "251309",
            "state": "Uttar Pradesh",
            "country_code": "IN"
        },
        "images": [
            {
                "about": "All",
                "link": "https://lh5.googleusercontent.com/p/AF1QipOxAooqnIH_TQzKI4hTl95GJiKl1Seq6oEwgBJ9=w224-h480-k-no"
            },
            {
                "about": "Videos",
                "link": "https://lh5.googleusercontent.com/p/AF1QipPVme7t006wy9_9x4O0W6DIa4-LIFNqgrJuwy57=w224-h398-k-no"
            }
        ],
        "link": "https://www.google.com/maps/place/Chand+Masjid/data=!4m7!3m6!1s0x390c3bff152cbeef:0xd5656ad02e3252f!8m2!3d29.292582!4d77.4687698!16s%2Fg%2F11c1ly4zj4!19sChIJ774sFf87DDkRLyXjAq1WVg0?authuser=0&hl=en&rclk=1",
        "coordinates": {
            "latitude": 29.292582,
            "longitude": 77.46876979999999
        }
    },
    {
        "name": "Masjid Noorani",
        "main_category": "Mosque",
        "address": "7FJH+VFH Masjid Noorani, Budhana, Uttar Pradesh 251309",
        "detailed_address": {
            "ward": null,
            "street": "7FJH+VFH",
            "city": "Budhana",
            "postal_code": "251309",
            "state": "Uttar Pradesh",
            "country_code": "IN"
        },
        "images": [
            {
                "about": "All",
                "link": "https://lh5.googleusercontent.com/p/AF1QipMYL1fowdlatXUPchPXJt6ubMx86zkAwGl8ScZ8=w224-h298-k-no"
            },
            {
                "about": "Dome",
                "link": "https://lh5.googleusercontent.com/p/AF1QipPo_7zFt3KBrALWVWMFYuVDqVDKi0YRijyyBPph=w678-h298-k-no"
            },
            {
                "about": "Videos",
                "link": "https://lh5.googleusercontent.com/p/AF1QipO7s1sM1W0XkblH88DWn8zrwsz9w3_tMm0v3rf7=w224-h425-k-no"
            }
        ],
        "link": "https://www.google.com/maps/place/Masjid+Noorani/data=!4m7!3m6!1s0x390c3eaede2db68b:0x527003be121a0195!8m2!3d29.2821973!4d77.4787246!16s%2Fg%2F1hdz2_l_x!19sChIJi7Yt3q4-DDkRlQEaEr4DcFI?authuser=0&hl=en&rclk=1",
        "coordinates": {
            "latitude": 29.2821973,
            "longitude": 77.47872459999999
        }
    },
    {
        "name": "Jama Masjid Imli Wali",
        "main_category": "Mosque",
        "address": "7FQG+5H9 Jama Masjid Imli Wali, Budhana, Uttar Pradesh 251309",
        "detailed_address": {
            "ward": null,
            "street": "7FQG+5H9",
            "city": "Budhana",
            "postal_code": "251309",
            "state": "Uttar Pradesh",
            "country_code": "IN"
        },
        "images": [],
        "link": "https://www.google.com/maps/place/Jama+Masjid+Imli+Wali/data=!4m7!3m6!1s0x390c3ea9f2ffb73d:0x772405dc388e553c!8m2!3d29.2879008!4d77.4764778!16s%2Fg%2F1q4kmr3c_!19sChIJPbf_8qk-DDkRPFWOONwFJHc?authuser=0&hl=en&rclk=1",
        "coordinates": {
            "latitude": 29.2879008,
            "longitude": 77.4764778
        }
    },
    {
        "name": "Sitara Masjid",
        "main_category": "Mosque",
        "address": "7FVC+VM9 Sitara Masjid, Unnamed Rd,, Budhana, Uttar Pradesh 251309",
        "detailed_address": {
            "ward": null,
            "street": "7FVC+VM9, Unnamed Rd,",
            "city": "Budhana, Budhana Bagar",
            "postal_code": "251309",
            "state": "Uttar Pradesh",
            "country_code": "IN"
        },
        "images": [
            {
                "about": "All",
                "link": "https://lh5.googleusercontent.com/p/AF1QipPCXTYqBhyBin_O0yl7IVDfeDag4sQFFIcX03Rt=w529-h298-k-no"
            },
            {
                "about": "Videos",
                "link": "https://lh5.googleusercontent.com/p/AF1QipMZQnItQIfOwpdtIUHGxlOIHLfZ1eAtIVFHGj-8=w529-h298-k-no"
            }
        ],
        "link": "https://www.google.com/maps/place/Sitara+Masjid/data=!4m7!3m6!1s0x390c3c074a772a21:0xdafb02362b0c3a63!8m2!3d29.2946639!4d77.4717353!16s%2Fg%2F11cmff_tm2!19sChIJISp3Sgc8DDkRYzoMKzYC-9o?authuser=0&hl=en&rclk=1",
        "coordinates": {
            "latitude": 29.2946639,
            "longitude": 77.47173529999999
        }
    },
    {
        "name": "Jama Masjid Qaziwara",
        "main_category": "Mosque",
        "address": "7FQG+83H Jama Masjid Qaziwara, Budhana, Uttar Pradesh 251309",
        "detailed_address": {
            "ward": null,
            "street": "7FQG+83H",
            "city": "Budhana",
            "postal_code": "251309",
            "state": "Uttar Pradesh",
            "country_code": "IN"
        },
        "images": [
            {
                "about": "All",
                "link": "https://lh5.googleusercontent.com/p/AF1QipMTPL6DbG47EAinL-tRBoZAx-vQbcbXNfj3AG-t=w397-h298-k-no"
            },
            {
                "about": "Dome",
                "link": "https://lh5.googleusercontent.com/p/AF1QipPQ6aH98VK3gm2VRxtagcYkz9ZbdDuIXl7aOG9f=w397-h298-k-no"
            },
            {
                "about": "Videos",
                "link": "https://lh5.googleusercontent.com/p/AF1QipOCcZpjTX2qW9YwO2JVZdLEv1pZuTZsREy5Y9tR=w529-h298-k-no"
            }
        ],
        "link": "https://www.google.com/maps/place/Jama+Masjid+Qaziwara/data=!4m7!3m6!1s0x390c3eaa05412fc5:0x736dc7be87e92dcc!8m2!3d29.2883021!4d77.4752232!16s%2Fg%2F11bz0c79g_!19sChIJxS9BBao-DDkRzC3ph77HbXM?authuser=0&hl=en&rclk=1",
        "coordinates": {
            "latitude": 29.2883021,
            "longitude": 77.4752232
        }
    },
    {
        "name": "Keint Vali Masjid",
        "main_category": "Mosque",
        "address": "7FRF+P52 Keint Vali Masjid, Budhana, Budhana Bagar, Uttar Pradesh 251309",
        "detailed_address": {
            "ward": null,
            "street": "7FRF+P52",
            "city": "Budhana, Budhana Bagar",
            "postal_code": "251309",
            "state": "Uttar Pradesh",
            "country_code": "IN"
        },
        "images": [
            {
                "about": "All",
                "link": "https://lh5.googleusercontent.com/p/AF1QipMaqZL-koLTDmDdS4W_JbiysC8tZUbdKvzV-Mdm=w224-h298-k-no"
            },
            {
                "about": "Videos",
                "link": "https://lh5.googleusercontent.com/p/AF1QipMhxtMjslmq0-jK-NwX0wvBHb7qggFuepcWF8yH=w224-h398-k-no"
            }
        ],
        "link": "https://www.google.com/maps/place/Keint+Vali+Masjid/data=!4m7!3m6!1s0x390c3c00ff9f0533:0xe69d879038858d4a!8m2!3d29.291758!4d77.4729!16s%2Fg%2F11clyzjk5s!19sChIJMwWf_wA8DDkRSo2FOJCHneY?authuser=0&hl=en&rclk=1",
        "coordinates": {
            "latitude": 29.291757999999998,
            "longitude": 77.4729
        }
    },
    {
        "name": "Bus Stand Masjid",
        "main_category": "Mosque",
        "address": "8CC5+9GV Bus Stand Masjid, Loi sarai, Budhana, Uttar Pradesh",
        "detailed_address": {
            "ward": null,
            "street": "8CC5+9GV, Loi sarai",
            "city": "Budhana",
            "postal_code": null,
            "state": "Uttar Pradesh",
            "country_code": "IN"
        },
        "images": [
            {
                "about": "All",
                "link": "https://streetviewpixels-pa.googleapis.com/v1/thumbnail?panoid=0djqYhNbnsBKDPKzqvBO0g&cb_client=maps_sv.tactile.gps&w=224&h=298&yaw=232.75539&pitch=0&thumbfov=100"
            },
            {
                "about": "Street View & 360deg",
                "link": "https://streetviewpixels-pa.googleapis.com/v1/thumbnail?panoid=0djqYhNbnsBKDPKzqvBO0g&cb_client=maps_sv.tactile.gps&w=224&h=298&yaw=232.75539&pitch=0&thumbfov=100"
            },
            {
                "about": "Videos",
                "link": "https://lh5.googleusercontent.com/p/AF1QipPxBz3ykcsDlcubAallGhoYkRqiFlGdbGS2Gnn2=w224-h398-k-no"
            }
        ],
        "link": "https://www.google.com/maps/place/Bus+Stand+Masjid/data=!4m7!3m6!1s0x390c3b2ff2fa466b:0x5803652e72a888ce!8m2!3d29.3209843!4d77.4087909!16s%2Fg%2F11f9ylrdfb!19sChIJa0b68i87DDkRzoioci5lA1g?authuser=0&hl=en&rclk=1",
        "coordinates": {
            "latitude": 29.3209843,
            "longitude": 77.4087909
        }
    },
    {
        "name": "Madina masjid(chhoti masjid)",
        "main_category": "Mosque",
        "address": "7FR7+5VR Madina masjid(chhoti masjid), Budhana, Budhana Bagar, Uttar Pradesh 251309",
        "detailed_address": {
            "ward": null,
            "street": "7FR7+5VR",
            "city": "Budhana, Budhana Bagar",
            "postal_code": "251309",
            "state": "Uttar Pradesh",
            "country_code": "IN"
        },
        "images": [
            {
                "about": "All",
                "link": "https://lh5.googleusercontent.com/p/AF1QipPARiV2kKOZ-HdWxRV7j4tKTbwG8WejfAHA0IYq=w224-h497-k-no"
            }
        ],
        "link": "https://www.google.com/maps/place/Madina+masjid%28chhoti+masjid%29/data=!4m7!3m6!1s0x390c3b772d6f25c9:0x89da3cc3acc6d335!8m2!3d29.290481!4d77.4646522!16s%2Fg%2F11nfp7ypy1!19sChIJySVvLXc7DDkRNdPGrMM82ok?authuser=0&hl=en&rclk=1",
        "coordinates": {
            "latitude": 29.290481,
            "longitude": 77.4646522
        }
    },
    {
        "name": "Masjid-e-ibrahimi",
        "main_category": "Mosque",
        "address": "Masjid-e-ibrahimi, near, bus stand, Budhana, Uttar Pradesh",
        "detailed_address": {
            "ward": null,
            "street": "near, bus stand",
            "city": "Budhana, Budhana Bagar",
            "postal_code": null,
            "state": "Uttar Pradesh",
            "country_code": "IN"
        },
        "images": [
            {
                "about": "All",
                "link": "https://lh5.googleusercontent.com/p/AF1QipNx6RE9JtyNUWUhnT9H5RgkaXTmEtAOqkData6b=w529-h298-k-no"
            }
        ],
        "link": "https://www.google.com/maps/place/Masjid-e-ibrahimi/data=!4m7!3m6!1s0x390c3f2cb188e96f:0x394e1e666430177!8m2!3d29.2892065!4d77.4769978!16s%2Fg%2F11g3xhbtrx!19sChIJb-mIsSw_DDkRdwFDZubhlAM?authuser=0&hl=en&rclk=1",
        "coordinates": {
            "latitude": 29.2892065,
            "longitude": 77.47699779999999
        }
    },
    {
        "name": "Aziz Fatim School Masjid",
        "main_category": "Mosque",
        "address": "7FRG+XJG Aziz Fatim School Masjid, Budhana, Budhana Bagar, Uttar Pradesh 251309",
        "detailed_address": {
            "ward": null,
            "street": "7FRG+XJG",
            "city": "Budhana, Budhana Bagar",
            "postal_code": "251309",
            "state": "Uttar Pradesh",
            "country_code": "IN"
        },
        "images": [],
        "link": "https://www.google.com/maps/place/Aziz+Fatim+School+Masjid/data=!4m7!3m6!1s0x390c3c03d1dd1349:0x872a7f8b76101b83!8m2!3d29.2924361!4d77.4765873!16s%2Fg%2F11f3bw2qrl!19sChIJSRPd0QM8DDkRgxsQdot_Koc?authuser=0&hl=en&rclk=1",
        "coordinates": {
            "latitude": 29.2924361,
            "longitude": 77.47658729999999
        }
    },
    {
        "name": "MASJID-E-QUBA",
        "main_category": "Mosque",
        "address": "7FQG+FHW MASJID-E-QUBA, Budhana, Uttar Pradesh 251309",
        "detailed_address": {
            "ward": null,
            "street": "7FQG+FHW",
            "city": "Budhana",
            "postal_code": "251309",
            "state": "Uttar Pradesh",
            "country_code": "IN"
        },
        "images": [],
        "link": "https://www.google.com/maps/place/MASJID-E-QUBA/data=!4m7!3m6!1s0x390c3ea9fb84a6e5:0xde0770b2916df06e!8m2!3d29.2887374!4d77.4764449!16s%2Fg%2F11gblbxmzl!19sChIJ5aaE-6k-DDkRbvBtkbJwB94?authuser=0&hl=en&rclk=1",
        "coordinates": {
            "latitude": 29.2887374,
            "longitude": 77.47644489999999
        }
    },
    {
        "name": "Masjid-e-nabvi",
        "main_category": "Mosque",
        "address": "7FRJ+P92 Masjid-e-nabvi, Budhana, Budhana Bagar, Uttar Pradesh 251309",
        "detailed_address": {
            "ward": null,
            "street": "7FRJ+P92",
            "city": "Budhana, Budhana Bagar",
            "postal_code": "251309",
            "state": "Uttar Pradesh",
            "country_code": "IN"
        },
        "images": [
            {
                "about": "All",
                "link": "https://lh5.googleusercontent.com/p/AF1QipM1dkVDmmElS1H2xaiPNzRgUddHBAC8TpLrghV7=w529-h298-k-no"
            },
            {
                "about": "Videos",
                "link": "https://lh5.googleusercontent.com/p/AF1QipNGDlMe9n_zasD0vk5Qkj335q7Dr8aMiptuQQI4=w224-h398-k-no"
            }
        ],
        "link": "https://www.google.com/maps/place/Masjid-e-nabvi/data=!4m7!3m6!1s0x390c3d0d9891bb3b:0x26faa5338b25f91a!8m2!3d29.2917536!4d77.4809014!16s%2Fg%2F11h2hl569m!19sChIJO7uRmA09DDkRGvklizOl-iY?authuser=0&hl=en&rclk=1",
        "coordinates": {
            "latitude": 29.2917536,
            "longitude": 77.4809014
        }
    },
    {
        "name": "Makka masjid",
        "main_category": "Shrine",
        "address": "7FV8+6R4 Makka masjid, Budhana, Budhana Bagar, Uttar Pradesh 251309",
        "detailed_address": {
            "ward": null,
            "street": "7FV8+6R4",
            "city": "Budhana, Budhana Bagar",
            "postal_code": "251309",
            "state": "Uttar Pradesh",
            "country_code": "IN"
        },
        "images": [],
        "link": "https://www.google.com/maps/place/Makka+masjid/data=!4m7!3m6!1s0x390c3b99267708c5:0xbb61f397e7ce02dc!8m2!3d29.2930045!4d77.4670924!16s%2Fg%2F11fp37hggh!19sChIJxQh3Jpk7DDkR3ALO55fzYbs?authuser=0&hl=en&rclk=1",
        "coordinates": {
            "latitude": 29.2930045,
            "longitude": 77.4670924
        }
    },
    {
        "name": "Mandi Masjid",
        "main_category": "Mosque",
        "address": "7FPH+24C Mandi Masjid, Budhana, Uttar Pradesh 251309",
        "detailed_address": {
            "ward": null,
            "street": "7FPH+24C",
            "city": "Budhana",
            "postal_code": null,
            "state": "Uttar Pradesh",
            "country_code": "IN"
        },
        "images": [
            {
                "about": "All",
                "link": "https://lh5.googleusercontent.com/p/AF1QipNb0N0k_AMU2HXHbYFn2iZko_OkYNmnj30qTEmm=w224-h483-k-no"
            },
            {
                "about": "Videos",
                "link": "https://lh5.googleusercontent.com/p/AF1QipNugEC3zfwJZsoDzJ2fvcHJA4wAk2fLsx8kXxTt=w224-h395-k-no"
            }
        ],
        "link": "https://www.google.com/maps/place/Mandi+Masjid/data=!4m7!3m6!1s0x390c3f370e4d24eb:0xcbc94d26f2655ddc!8m2!3d29.2850737!4d77.4777696!16s%2Fg%2F11fd67dmp6!19sChIJ6yRNDjc_DDkR3F1l8iZNycs?authuser=0&hl=en&rclk=1",
        "coordinates": {
            "latitude": 29.285073699999998,
            "longitude": 77.4777696
        }
    },
    {
        "name": "Jamia masjid",
        "main_category": "Mosque",
        "address": "7F3H+HC4 Jamia masjid, Barkat Rd, Eatwa, Budhana Bagar, Uttar Pradesh 251309",
        "detailed_address": {
            "ward": null,
            "street": "7F3H+HC4, Barkat Rd",
            "city": "Eatwa, Budhana Bagar",
            "postal_code": "251309",
            "state": "Uttar Pradesh",
            "country_code": "IN"
        },
        "images": [
            {
                "about": "All",
                "link": "https://lh5.googleusercontent.com/p/AF1QipNZSWb3IS-VLYcHPRXTZJ4DGq8L0pvBv-pmvex-=w254-h298-k-no"
            },
            {
                "about": "Videos",
                "link": "https://lh5.googleusercontent.com/p/AF1QipPTvRebn04DKg4uOKNh21G2NfmtREd4DSVJLM7Z=w224-h398-k-no"
            }
        ],
        "link": "https://www.google.com/maps/place/Jamia+masjid/data=!4m7!3m6!1s0x390c3f65bd7271e7:0x359a6fff740d8268!8m2!3d29.2538927!4d77.478586!16s%2Fg%2F11ry241hbm!19sChIJ53FyvWU_DDkRaIINdP9vmjU?authuser=0&hl=en&rclk=1",
        "coordinates": {
            "latitude": 29.253892699999998,
            "longitude": 77.47858599999999
        }
    },
    {
        "name": "BHATTE WALI MASJID 786",
        "main_category": "Mosque",
        "address": "7FR9+H68 BHATTE WALI MASJID 786, Budhana, Budhana Bagar, Uttar Pradesh 251309",
        "detailed_address": {
            "ward": null,
            "street": "7FR9+H68",
            "city": "Budhana, Budhana Bagar",
            "postal_code": "251309",
            "state": "Uttar Pradesh",
            "country_code": "IN"
        },
        "images": [
            {
                "about": "All",
                "link": "https://lh5.googleusercontent.com/p/AF1QipMxUheUoDo152bEVKFGYA3oKWEtNhtgbYg1VFna=w224-h298-k-no"
            }
        ],
        "link": "https://www.google.com/maps/place/BHATTE+WALI+MASJID+786/data=!4m7!3m6!1s0x390c3b4f34520a73:0x34fb041b36038650!8m2!3d29.2914164!4d77.4680669!16s%2Fg%2F11jslp76hb!19sChIJcwpSNE87DDkRUIYDNhsE-zQ?authuser=0&hl=en&rclk=1",
        "coordinates": {
            "latitude": 29.2914164,
            "longitude": 77.4680669
        }
    },
    {
        "name": "Badi masjid",
        "main_category": "Mosque",
        "address": "Badi masjid, distt, Kabirpur, Budhana, Uttar Pradesh 251309",
        "detailed_address": {
            "ward": null,
            "street": "Badi masjid, distt",
            "city": "Kabirpur, Budhana",
            "postal_code": null,
            "state": "Uttar Pradesh",
            "country_code": "IN"
        },
        "images": [
            {
                "about": "All",
                "link": "https://lh5.googleusercontent.com/p/AF1QipPQ8keDKJTqwmp1nGJGK5G4M-ftunSuBozYmdeh=w629-h298-k-no"
            }
        ],
        "link": "https://www.google.com/maps/place/Badi+masjid/data=!4m7!3m6!1s0x390c3f998ca1a3db:0x29363bf2b402bfa!8m2!3d29.2805512!4d77.470459!16s%2Fg%2F11n0p96xx8!19sChIJ26OhjJk_DDkR-itAK79jkwI?authuser=0&hl=en&rclk=1",
        "coordinates": {
            "latitude": 29.280551199999998,
            "longitude": 77.47045899999999
        }
    },
    {
        "name": "Masjid Zubair Sai Wali",
        "main_category": "Mosque",
        "address": "7FQG+297 Masjid Zubair Sai Wali, Budhana, Uttar Pradesh 251309",
        "detailed_address": {
            "ward": null,
            "street": "7FQG+297",
            "city": "Budhana",
            "postal_code": "251309",
            "state": "Uttar Pradesh",
            "country_code": "IN"
        },
        "images": [],
        "link": "https://www.google.com/maps/place/Masjid+Zubair+Sai+Wali/data=!4m7!3m6!1s0x390c3f21a80cd843:0x6714bb851a03baf1!8m2!3d29.2875471!4d77.475907!16s%2Fg%2F11h0b5hqkx!19sChIJQ9gMqCE_DDkR8boDGoW7FGc?authuser=0&hl=en&rclk=1",
        "coordinates": {
            "latitude": 29.287547099999998,
            "longitude": 77.47590699999999
        }
    },
    {
        "name": "Kile Wali Masjid",
        "main_category": "Mosque",
        "address": "Kile Wali Masjid, Azeem Dawakhana Budhana aziim dvaakhaanaa buddhaanaa, Budhana, Uttar Pradesh 251309",
        "detailed_address": {
            "ward": null,
            "street": "Azeem Dawakhana Budhana aziim dvaakhaanaa buddhaanaa",
            "city": "Budhana",
            "postal_code": "251309",
            "state": "Uttar Pradesh",
            "country_code": "IN"
        },
        "images": [],
        "link": "https://www.google.com/maps/place/Kile+Wali+Masjid/data=!4m7!3m6!1s0x390c3f62d9ebcfe9:0xbc87d69e2b7c7e71!8m2!3d29.2869804!4d77.4773263!16s%2Fg%2F11q3dnsw6h!19sChIJ6c_r2WI_DDkRcX58K57Wh7w?authuser=0&hl=en&rclk=1",
        "coordinates": {
            "latitude": 29.286980399999997,
            "longitude": 77.4773263
        }
    },
    {
        "name": "Haaji ambaar masjid",
        "main_category": "Mosque",
        "address": "7FWC+V28 Haaji ambaar masjid, Budhana, Budhana Bagar, Uttar Pradesh 251309",
        "detailed_address": {
            "ward": null,
            "street": "7FWC+V28",
            "city": "Budhana, Budhana Bagar",
            "postal_code": "251309",
            "state": "Uttar Pradesh",
            "country_code": "IN"
        },
        "images": [],
        "link": "https://www.google.com/maps/place/Haaji+ambaar+masjid/data=!4m7!3m6!1s0x390c3ba6063d9395:0x7e8dc778c8d680c6!8m2!3d29.2971572!4d77.4700696!16s%2Fg%2F11rf8z50m6!19sChIJlZM9BqY7DDkRxoDWyHjHjX4?authuser=0&hl=en&rclk=1",
        "coordinates": {
            "latitude": 29.297157199999997,
            "longitude": 77.4700696
        }
    },
    {
        "name": "akshaa Masjid",
        "main_category": "Religious institution",
        "address": "7FVF+7G4 akshaa Masjid, Budhana, Budhana Bagar, Uttar Pradesh 251309",
        "detailed_address": {
            "ward": null,
            "street": "7FVF+7G4",
            "city": "Budhana, Budhana Bagar",
            "postal_code": "251309",
            "state": "Uttar Pradesh",
            "country_code": "IN"
        },
        "images": [],
        "link": "https://www.google.com/maps/place/%E0%A4%85%E0%A4%95%E0%A5%8D%E0%A4%B6%E0%A4%BE+Masjid/data=!4m7!3m6!1s0x390c3c0117f09205:0xb6ad02b75281a901!8m2!3d29.2931397!4d77.4738376!16s%2Fg%2F11csb18l28!19sChIJBZLwFwE8DDkRAamBUrcCrbY?authuser=0&hl=en&rclk=1",
        "coordinates": {
            "latitude": 29.293139699999998,
            "longitude": 77.4738376
        }
    },
    {
        "name": "Badi masjid",
        "main_category": "Mosque",
        "address": "6C35+CFC Badi masjid, Daha Baraut, road, Budhana, Uttar Pradesh",
        "detailed_address": {
            "ward": null,
            "street": "6C35+CFC, Daha Baraut, road",
            "city": "Budhana, Daha",
            "postal_code": null,
            "state": "Uttar Pradesh",
            "country_code": "IN"
        },
        "images": [],
        "link": "https://www.google.com/maps/place/Badi+masjid/data=!4m7!3m6!1s0x390c39e2838989dd:0xd72c9b5fa95b5f33!8m2!3d29.2035546!4d77.4086267!16s%2Fg%2F11s4m9ytvb!19sChIJ3YmJg-I5DDkRM19bqV-bLNc?authuser=0&hl=en&rclk=1",
        "coordinates": {
            "latitude": 29.2035546,
            "longitude": 77.4086267
        }
    },
    {
        "name": "Ujefa masjid",
        "main_category": "Mosque",
        "address": "7FP7+7HX Ujefa masjid, Budhana, Uttar Pradesh 251309",
        "detailed_address": {
            "ward": null,
            "street": "7FP7+7HX",
            "city": "Budhana",
            "postal_code": "251309",
            "state": "Uttar Pradesh",
            "country_code": "IN"
        },
        "images": [],
        "link": "https://www.google.com/maps/place/Ujefa+masjid/data=!4m7!3m6!1s0x390c390007a26f2b:0x17071d6dd9c023a4!8m2!3d29.2857371!4d77.4639897!16s%2Fg%2F11vm3lpbs0!19sChIJK2-iBwA5DDkRpCPA2W0dBxc?authuser=0&hl=en&rclk=1",
        "coordinates": {
            "latitude": 29.2857371,
            "longitude": 77.4639897
        }
    }
]