[
    {
        "name": "Mosque",
        "main_category": "Mosque",
        "address": "PWMW+QQ7 Mosque, Station Rd, Sadar Bazaar, Bhatapara, Chhattisgarh 493118",
        "detailed_address": {
            "ward": "Sadar Bazaar",
            "street": "PWMW+QQ7, Station Rd",
            "city": "Bhatapara",
            "postal_code": "493118",
            "state": "Chhattisgarh",
            "country_code": "IN"
        },
        "images": [
            {
                "about": "All",
                "link": "https://lh5.googleusercontent.com/p/AF1QipMfM-r28CCPGlSGEdmiUe0CGjaNxdUeWqjzlmVS=w224-h298-k-no"
            },
            {
                "about": "Street View & 360deg",
                "link": "https://streetviewpixels-pa.googleapis.com/v1/thumbnail?panoid=CL3mvUelhq9tLbtDVYxeNA&cb_client=maps_sv.tactile.gps&w=224&h=298&yaw=320.44147&pitch=0&thumbfov=100"
            }
        ],
        "link": "https://www.google.com/maps/place/Mosque/data=!4m7!3m6!1s0x3a28615dc68b7ef1:0xf2df7fd2cf6a2662!8m2!3d21.7344097!4d81.9469276!16s%2Fg%2F1tdh6wb8!19sChIJ8X6Lxl1hKDoRYiZqz9J_3_I?authuser=0&hl=en&rclk=1",
        "coordinates": {
            "latitude": 21.7344097,
            "longitude": 81.9469276
        }
    },
    {
        "name": "Madeena Masjid",
        "main_category": "Mosque",
        "address": "PWPX+Q9P Madeena Masjid, Sadar Bazaar, Bhatapara, Chhattisgarh 493118",
        "detailed_address": {
            "ward": "Sadar Bazaar",
            "street": "PWPX+Q9P",
            "city": "Bhatapara",
            "postal_code": "493118",
            "state": "Chhattisgarh",
            "country_code": "IN"
        },
        "images": [],
        "link": "https://www.google.com/maps/place/Madeena+Masjid/data=!4m7!3m6!1s0x3a28615ea26d050d:0xfd6a36fdbb76a216!8m2!3d21.7369666!4d81.9484608!16s%2Fg%2F11c6y_z5gy!19sChIJDQVtol5hKDoRFqJ2u_02av0?authuser=0&hl=en&rclk=1",
        "coordinates": {
            "latitude": 21.7369666,
            "longitude": 81.94846079999999
        }
    },
    {
        "name": "Markaz bhatapara",
        "main_category": "Mosque",
        "address": "PXR2+2Q9 Markaz bhatapara, Sadar Bazar Rd, Sadar Bazaar, Bhatapara, Chhattisgarh 493118",
        "detailed_address": {
            "ward": "Sadar Bazaar",
            "street": "PXR2+2Q9, Sadar Bazar Rd",
            "city": "Bhatapara",
            "postal_code": "493118",
            "state": "Chhattisgarh",
            "country_code": "IN"
        },
        "images": [],
        "link": "https://www.google.com/maps/place/Markaz+bhatapara/data=!4m7!3m6!1s0x3a28610428fa46a1:0xbc26a06bddd8d910!8m2!3d21.7400341!4d81.9519779!16s%2Fg%2F11lsz8k39h!19sChIJoUb6KARhKDoRENnY3WugJrw?authuser=0&hl=en&rclk=1",
        "coordinates": {
            "latitude": 21.7400341,
            "longitude": 81.9519779
        }
    },
    {
        "name": "Noorani Masjid",
        "main_category": "Mosque",
        "address": "PWMW+QRJ Noorani Masjid, Sadar Bazaar, Bhatapara, Chhattisgarh 493118",
        "detailed_address": {
            "ward": "Sadar Bazaar",
            "street": "PWMW+QRJ",
            "city": "Bhatapara",
            "postal_code": "493118",
            "state": "Chhattisgarh",
            "country_code": "IN"
        },
        "images": [
            {
                "about": "All",
                "link": "https://streetviewpixels-pa.googleapis.com/v1/thumbnail?panoid=cmWfVI123T2HFgHqCGW2eQ&cb_client=maps_sv.tactile.gps&w=224&h=298&yaw=102.286476&pitch=0&thumbfov=100"
            },
            {
                "about": "Street View & 360deg",
                "link": "https://streetviewpixels-pa.googleapis.com/v1/thumbnail?panoid=cmWfVI123T2HFgHqCGW2eQ&cb_client=maps_sv.tactile.gps&w=224&h=298&yaw=102.286476&pitch=0&thumbfov=100"
            }
        ],
        "link": "https://www.google.com/maps/place/Noorani+Masjid/data=!4m7!3m6!1s0x3a28615dc5cce253:0x9d75c6b90ac876c8!8m2!3d21.7344524!4d81.9470296!16s%2Fg%2F11f15gr4p9!19sChIJU-LMxV1hKDoRyHbICrnGdZ0?authuser=0&hl=en&rclk=1",
        "coordinates": {
            "latitude": 21.7344524,
            "longitude": 81.9470296
        }
    },
    {
        "name": "Masjid E. Toba",
        "main_category": "Mosque",
        "address": "PWPW+RWG Masjid E. Toba, Sadar Bazaar, Bhatapara, Chhattisgarh 493118",
        "detailed_address": {
            "ward": "Sadar Bazaar",
            "street": "PWPW+RWG",
            "city": "Bhatapara",
            "postal_code": "493118",
            "state": "Chhattisgarh",
            "country_code": "IN"
        },
        "images": [
            {
                "about": "All",
                "link": "https://streetviewpixels-pa.googleapis.com/v1/thumbnail?panoid=ZxNaGQOBNLsZH1N7Uw_r0w&cb_client=maps_sv.tactile.gps&w=224&h=298&yaw=264.15945&pitch=0&thumbfov=100"
            },
            {
                "about": "Street View & 360deg",
                "link": "https://streetviewpixels-pa.googleapis.com/v1/thumbnail?panoid=ZxNaGQOBNLsZH1N7Uw_r0w&cb_client=maps_sv.tactile.gps&w=224&h=298&yaw=264.15945&pitch=0&thumbfov=100"
            }
        ],
        "link": "https://www.google.com/maps/place/Masjid+E.+Toba/data=!4m7!3m6!1s0x3a2861a6bea94af5:0xae306ae93e73a445!8m2!3d21.7370514!4d81.9473284!16s%2Fg%2F11l2kdjt2w!19sChIJ9UqpvqZhKDoRRaRzPulqMK4?authuser=0&hl=en&rclk=1",
        "coordinates": {
            "latitude": 21.7370514,
            "longitude": 81.94732839999999
        }
    }
]