[
    {
        "name": "Maynaguri Jame Masjid msjd",
        "main_category": "Mosque",
        "address": "HR7C+QV8 Maynaguri Jame Masjid msjd, Dakshin - Madhabdanga - Maynaguri Rd, Puraton Bazar, Maynaguri, West Bengal 735224",
        "detailed_address": {
            "ward": "Puraton Bazar",
            "street": "HR7C+QV8, Dakshin - Madhabdanga - Maynaguri Rd",
            "city": "Maynaguri",
            "postal_code": "735224",
            "state": "West Bengal",
            "country_code": "IN"
        },
        "images": [
            {
                "about": "All",
                "link": "https://lh5.googleusercontent.com/p/AF1QipNka2dZjtjIdx4oJAmEswFNRknsbUM7nrIhnNz2=w397-h298-k-no"
            }
        ],
        "link": "https://www.google.com/maps/place/Maynaguri+Jame+Masjid+%D9%85%D8%B3%D8%AC%D8%AF%E2%80%AD/data=!4m7!3m6!1s0x39e387ac304c3ad1:0x4eb22b2a9bbf1ab4!8m2!3d26.5644168!4d88.8221991!16s%2Fg%2F11dxbk4m0r!19sChIJ0TpMMKyH4zkRtBq_myorsk4?authuser=0&hl=en&rclk=1",
        "coordinates": {
            "latitude": 26.5644168,
            "longitude": 88.82219909999999
        }
    },
    {
        "name": "Maynaguri Town Jame Mosjid",
        "main_category": "Mosque",
        "address": "HR7C+XQ7 Maynaguri Town Jame Mosjid, Unnamed Road, Puraton Bazar, Maynaguri, West Bengal 735224",
        "detailed_address": {
            "ward": "Puraton Bazar",
            "street": "HR7C+XQ7, Unnamed Road",
            "city": "Maynaguri",
            "postal_code": "735224",
            "state": "West Bengal",
            "country_code": "IN"
        },
        "images": [
            {
                "about": "All",
                "link": "https://lh5.googleusercontent.com/p/AF1QipNsPElpVP0UTuCb9ntSQy0ICM9Ht_ks9Maht3bf=w224-h398-k-no"
            },
            {
                "about": "Street View & 360deg",
                "link": "https://streetviewpixels-pa.googleapis.com/v1/thumbnail?panoid=5m88PfY-szbnOcjlJVpV0w&cb_client=maps_sv.tactile.gps&w=224&h=298&yaw=134.37242&pitch=0&thumbfov=100"
            },
            {
                "about": "Videos",
                "link": "https://lh5.googleusercontent.com/p/AF1QipMwYrx243BNUiY_7zCsRo_1wlZiwL2_usJk9zn1=w530-h298-k-no"
            }
        ],
        "link": "https://www.google.com/maps/place/Maynaguri+Town+Jame+Mosjid/data=!4m7!3m6!1s0x39e3873faf5fae13:0x151172befa1d1d9c!8m2!3d26.5649098!4d88.8219282!16s%2Fg%2F11fmz0gx5q!19sChIJE65frz-H4zkRnB0d-r5yERU?authuser=0&hl=en&rclk=1",
        "coordinates": {
            "latitude": 26.5649098,
            "longitude": 88.8219282
        }
    },
    {
        "name": "Masjid",
        "main_category": "Mosque",
        "address": "HR9R+X6Q Masjid, Madhya Khagrabari, West Bengal 735224",
        "detailed_address": {
            "ward": null,
            "street": "HR9R+X6Q",
            "city": "Madhya Khagrabari",
            "postal_code": "735224",
            "state": "West Bengal",
            "country_code": "IN"
        },
        "images": [
            {
                "about": "All",
                "link": "https://streetviewpixels-pa.googleapis.com/v1/thumbnail?panoid=502VfiLYlp3c8nHyrLjAYw&cb_client=maps_sv.tactile.gps&w=224&h=298&yaw=1.7774483&pitch=0&thumbfov=100"
            },
            {
                "about": "Street View & 360deg",
                "link": "https://streetviewpixels-pa.googleapis.com/v1/thumbnail?panoid=502VfiLYlp3c8nHyrLjAYw&cb_client=maps_sv.tactile.gps&w=224&h=298&yaw=1.7774483&pitch=0&thumbfov=100"
            }
        ],
        "link": "https://www.google.com/maps/place/Masjid/data=!4m7!3m6!1s0x39e3879e0b446ca9:0xc463e12ccfa183bb!8m2!3d26.5699563!4d88.8406249!16s%2Fg%2F11p3hphjx6!19sChIJqWxEC56H4zkRu4OhzyzhY8Q?authuser=0&hl=en&rclk=1",
        "coordinates": {
            "latitude": 26.569956299999998,
            "longitude": 88.8406249
        }
    },
    {
        "name": "MAYNAGURI MASZID",
        "main_category": "Mosque",
        "address": "HR7C+RVJ MAYNAGURI MASZID, Puraton Bazar, Maynaguri, West Bengal 735224",
        "detailed_address": {
            "ward": "Puraton Bazar",
            "street": "HR7C+RVJ",
            "city": "Maynaguri",
            "postal_code": "735224",
            "state": "West Bengal",
            "country_code": "IN"
        },
        "images": [],
        "link": "https://www.google.com/maps/place/MAYNAGURI+MASZID/data=!4m7!3m6!1s0x39e38738de468903:0x27421e986c9f371!8m2!3d26.5645944!4d88.8221303!16s%2Fg%2F11js28ls6s!19sChIJA4lG3jiH4zkRcfPJhukhdAI?authuser=0&hl=en&rclk=1",
        "coordinates": {
            "latitude": 26.564594399999997,
            "longitude": 88.8221303
        }
    }
]