[
    {
        "name": "Jamia Masjid",
        "main_category": "Mosque",
        "address": "C6CJ+G24 Jamia Masjid, Pulivendula, Andhra Pradesh 516390",
        "detailed_address": {
            "ward": null,
            "street": "C6CJ+G24",
            "city": "Pulivendula",
            "postal_code": "516390",
            "state": "Andhra Pradesh",
            "country_code": "IN"
        },
        "images": [
            {
                "about": "All",
                "link": "https://lh5.googleusercontent.com/p/AF1QipMRgt0eCZdMSkznmPaK4iKQRh2me2XK4QPfYM4y=w224-h298-k-no"
            },
            {
                "about": "Street View & 360deg",
                "link": "https://streetviewpixels-pa.googleapis.com/v1/thumbnail?panoid=CjEcAdkFIGFf1p_6KressQ&cb_client=maps_sv.tactile.gps&w=224&h=298&yaw=194.2565&pitch=0&thumbfov=100"
            }
        ],
        "link": "https://www.google.com/maps/place/Jamia+Masjid/data=!4m7!3m6!1s0x3bb3ebb9fa15c7df:0xe414f78d8584d67e!8m2!3d14.4212606!4d78.230093!16s%2Fg%2F11hdb1svpc!19sChIJ38cV-rnrszsRftaEhY33FOQ?authuser=0&hl=en&rclk=1",
        "coordinates": {
            "latitude": 14.4212606,
            "longitude": 78.230093
        }
    },
    {
        "name": "Madina Masjid",
        "main_category": "Mosque",
        "address": "C6JJ+44Q Madina Masjid, Pulivendula, Andhra Pradesh 516390",
        "detailed_address": {
            "ward": null,
            "street": "C6JJ+44Q",
            "city": "Pulivendula",
            "postal_code": "516390",
            "state": "Andhra Pradesh",
            "country_code": "IN"
        },
        "images": [
            {
                "about": "All",
                "link": "https://lh5.googleusercontent.com/p/AF1QipObQW3cAcU3aYEWX5KdmvcW7qNPM18HrDY1K9CZ=w529-h298-k-no"
            },
            {
                "about": "Street View & 360deg",
                "link": "https://streetviewpixels-pa.googleapis.com/v1/thumbnail?panoid=wgDDbd579SWEWvOZ8YZ45Q&cb_client=maps_sv.tactile.gps&w=224&h=298&yaw=325.21356&pitch=0&thumbfov=100"
            }
        ],
        "link": "https://www.google.com/maps/place/Madina+Masjid/data=!4m7!3m6!1s0x3bb3ebbe76877863:0x490deec4a9384f50!8m2!3d14.4303368!4d78.2303458!16s%2Fg%2F11h9ztx_zf!19sChIJY3iHdr7rszsRUE84qcTuDUk?authuser=0&hl=en&rclk=1",
        "coordinates": {
            "latitude": 14.4303368,
            "longitude": 78.2303458
        }
    },
    {
        "name": "Makka Masjid",
        "main_category": "Mosque",
        "address": "C6CG+VGV Makka Masjid, Near APSRTC Bustand, Pulivendula, Andhra Pradesh",
        "detailed_address": {
            "ward": null,
            "street": "C6CG+VGV, Near APSRTC Bustand",
            "city": "Pulivendula",
            "postal_code": null,
            "state": "Andhra Pradesh",
            "country_code": "IN"
        },
        "images": [
            {
                "about": "All",
                "link": "https://lh5.googleusercontent.com/p/AF1QipN0D4mwBUoZ6Z9-XvQEA647iy3YNjySUWjMK9uS=w224-h398-k-no"
            },
            {
                "about": "Street View & 360deg",
                "link": "https://streetviewpixels-pa.googleapis.com/v1/thumbnail?panoid=YxwtIJ1nFLG1Y5frxD11tw&cb_client=maps_sv.tactile.gps&w=224&h=298&yaw=285.04663&pitch=0&thumbfov=100"
            }
        ],
        "link": "https://www.google.com/maps/place/Makka+Masjid/data=!4m7!3m6!1s0x3bb3ebb841eca4c5:0x961ea6695a69a073!8m2!3d14.4222377!4d78.2263053!16s%2Fg%2F11fz5cqvdf!19sChIJxaTsQbjrszsRc6BpWmmmHpY?authuser=0&hl=en&rclk=1",
        "coordinates": {
            "latitude": 14.4222377,
            "longitude": 78.22630529999999
        }
    },
    {
        "name": "Makkah Masjid",
        "main_category": "Mosque",
        "address": "C67G+P47 Makkah Masjid, Islampuram, Bakarapuram, Andhra Pradesh 516349",
        "detailed_address": {
            "ward": "Islampuram",
            "street": "C67G+P47",
            "city": "Bakarapuram",
            "postal_code": "516349",
            "state": "Andhra Pradesh",
            "country_code": "IN"
        },
        "images": [
            {
                "about": "All",
                "link": "https://lh5.googleusercontent.com/p/AF1QipP1ncGdGEJE4zrJbtKxQNwBxb61fKwZ6wyJB75R=w661-h298-k-no"
            },
            {
                "about": "Street View & 360deg",
                "link": "https://streetviewpixels-pa.googleapis.com/v1/thumbnail?panoid=pkRUkxmmQfgRDBvyQNov4A&cb_client=maps_sv.tactile.gps&w=224&h=298&yaw=255.17694&pitch=0&thumbfov=100"
            }
        ],
        "link": "https://www.google.com/maps/place/Makkah+Masjid/data=!4m7!3m6!1s0x3bb3ebb5fbbdc4eb:0x52c74d9d01590949!8m2!3d14.4142753!4d78.2252996!16s%2Fg%2F11hb3g6szz!19sChIJ68S9-7XrszsRSQlZAZ1Nx1I?authuser=0&hl=en&rclk=1",
        "coordinates": {
            "latitude": 14.4142753,
            "longitude": 78.2252996
        }
    },
    {
        "name": "Majid-A-Nimra",
        "main_category": "Mosque",
        "address": "C69G+2QH Majid-A-Nimra, SH 28, near Urdu School, Islampuram, Pulivendula, Bakarapuram, Andhra Pradesh 516390",
        "detailed_address": {
            "ward": "Islampuram",
            "street": "C69G+2QH, SH 28, near Urdu School",
            "city": "Pulivendula, Bakarapuram",
            "postal_code": "516390",
            "state": "Andhra Pradesh",
            "country_code": "IN"
        },
        "images": [
            {
                "about": "All",
                "link": "https://lh5.googleusercontent.com/p/AF1QipM71Atb74en7XAzUw654yw7f_MwfaN4VE-njBd_=w224-h398-k-no"
            }
        ],
        "link": "https://www.google.com/maps/place/Majid-A-Nimra/data=!4m7!3m6!1s0x3bb3ebb64e6378d5:0x2cc08169a256c7ef!8m2!3d14.4175592!4d78.2269964!16s%2Fg%2F11b6rzcspw!19sChIJ1XhjTrbrszsR78dWommBwCw?authuser=0&hl=en&rclk=1",
        "coordinates": {
            "latitude": 14.4175592,
            "longitude": 78.22699639999999
        }
    },
    {
        "name": "Rehmania Masjid",
        "main_category": "Mosque",
        "address": "C68C+WX9 Rehmania Masjid, Prasanthi Nagar Rd, Pulivendula, Bakarapuram, Andhra Pradesh 516390",
        "detailed_address": {
            "ward": null,
            "street": "C68C+WX9, Prasanthi Nagar Rd",
            "city": "Pulivendula, Bakarapuram",
            "postal_code": "516390",
            "state": "Andhra Pradesh",
            "country_code": "IN"
        },
        "images": [],
        "link": "https://www.google.com/maps/place/Rehmania+Masjid/data=!4m7!3m6!1s0x3bb3ebc9acf146b7:0xa39dbf4a0d87433!8m2!3d14.4172901!4d78.2224739!16s%2Fg%2F1tdq9083!19sChIJt0bxrMnrszsRM3TYoPTbOQo?authuser=0&hl=en&rclk=1",
        "coordinates": {
            "latitude": 14.417290099999999,
            "longitude": 78.2224739
        }
    },
    {
        "name": "Markas",
        "main_category": "Mosque",
        "address": "C6CG+JGP Markas, Pulivendula, Andhra Pradesh 516390",
        "detailed_address": {
            "ward": null,
            "street": "C6CG+JGP",
            "city": "Pulivendula",
            "postal_code": "516390",
            "state": "Andhra Pradesh",
            "country_code": "IN"
        },
        "images": [
            {
                "about": "All",
                "link": "https://streetviewpixels-pa.googleapis.com/v1/thumbnail?panoid=SgOc9s_Yoj3T-ZS2vCKMHA&cb_client=maps_sv.tactile.gps&w=224&h=298&yaw=160.54866&pitch=0&thumbfov=100"
            },
            {
                "about": "Street View & 360deg",
                "link": "https://streetviewpixels-pa.googleapis.com/v1/thumbnail?panoid=SgOc9s_Yoj3T-ZS2vCKMHA&cb_client=maps_sv.tactile.gps&w=224&h=298&yaw=160.54866&pitch=0&thumbfov=100"
            }
        ],
        "link": "https://www.google.com/maps/place/Markas/data=!4m7!3m6!1s0x3bb3ebb83ef625ff:0xf4087d8d6640948b!8m2!3d14.4215804!4d78.2263352!16s%2Fg%2F11d_9jwnnd!19sChIJ_yX2PrjrszsRi5RAZo19CPQ?authuser=0&hl=en&rclk=1",
        "coordinates": {
            "latitude": 14.4215804,
            "longitude": 78.2263352
        }
    },
    {
        "name": "Firdous Masjid",
        "main_category": "Mosque",
        "address": "C69G+XG3 Firdous Masjid, Pulivendula, Andhra Pradesh 516390",
        "detailed_address": {
            "ward": null,
            "street": "C69G+XG3",
            "city": "Pulivendula",
            "postal_code": "516390",
            "state": "Andhra Pradesh",
            "country_code": "IN"
        },
        "images": [
            {
                "about": "All",
                "link": "https://streetviewpixels-pa.googleapis.com/v1/thumbnail?panoid=ZLLYO-SAtKURzE8H3295ww&cb_client=maps_sv.tactile.gps&w=224&h=298&yaw=6.5052667&pitch=0&thumbfov=100"
            },
            {
                "about": "Street View & 360deg",
                "link": "https://streetviewpixels-pa.googleapis.com/v1/thumbnail?panoid=ZLLYO-SAtKURzE8H3295ww&cb_client=maps_sv.tactile.gps&w=224&h=298&yaw=6.5052667&pitch=0&thumbfov=100"
            }
        ],
        "link": "https://www.google.com/maps/place/Firdous+Masjid/data=!4m7!3m6!1s0x3bb3ebb7925a0f23:0xb755ff8c76afbfe2!8m2!3d14.4198793!4d78.2262863!16s%2Fg%2F11gh3bzs6t!19sChIJIw9akrfrszsR4r-vdoz_Vbc?authuser=0&hl=en&rclk=1",
        "coordinates": {
            "latitude": 14.4198793,
            "longitude": 78.2262863
        }
    },
    {
        "name": "Musjid E Ayesha",
        "main_category": "Mosque",
        "address": "C6F9+8Q6 Musjid E Ayesha, Parnapalli Road, Pulivendla, parnapalli road, Pulivendula, Andhra Pradesh 516390",
        "detailed_address": {
            "ward": null,
            "street": "C6F9+8Q6, Parnapalli Road, Pulivendla, parnapalli road",
            "city": "Pulivendula",
            "postal_code": "516390",
            "state": "Andhra Pradesh",
            "country_code": "IN"
        },
        "images": [],
        "link": "https://www.google.com/maps/place/Musjid+E+Ayesha/data=!4m7!3m6!1s0x3bb3ebc681400001:0x7398604bad3c28a6!8m2!3d14.4232891!4d78.2193991!16s%2Fg%2F11dxdjwrgl!19sChIJAQBAgcbrszsRpig8rUtgmHM?authuser=0&hl=en&rclk=1",
        "coordinates": {
            "latitude": 14.4232891,
            "longitude": 78.21939909999999
        }
    },
    {
        "name": "Masjid e Aqsa",
        "main_category": "Mosque",
        "address": "C6F7+P8P Masjid e Aqsa, Pulivendula, Andhra Pradesh 516390",
        "detailed_address": {
            "ward": null,
            "street": "C6F7+P8P",
            "city": "Pulivendula",
            "postal_code": null,
            "state": "Andhra Pradesh",
            "country_code": "IN"
        },
        "images": [
            {
                "about": "All",
                "link": "https://streetviewpixels-pa.googleapis.com/v1/thumbnail?panoid=_cDsVv6qUSley_wunvuuxw&cb_client=maps_sv.tactile.gps&w=224&h=298&yaw=274.0851&pitch=0&thumbfov=100"
            },
            {
                "about": "Street View & 360deg",
                "link": "https://streetviewpixels-pa.googleapis.com/v1/thumbnail?panoid=_cDsVv6qUSley_wunvuuxw&cb_client=maps_sv.tactile.gps&w=224&h=298&yaw=274.0851&pitch=0&thumbfov=100"
            }
        ],
        "link": "https://www.google.com/maps/place/Masjid+e+Aqsa/data=!4m7!3m6!1s0x3bb3ebde1201c301:0x4aef84eb43fd3645!8m2!3d14.4243311!4d78.2133352!16s%2Fg%2F11h4jch6tz!19sChIJAcMBEt7rszsRRTb9Q-uE70o?authuser=0&hl=en&rclk=1",
        "coordinates": {
            "latitude": 14.4243311,
            "longitude": 78.2133352
        }
    },
    {
        "name": "Pulivendula Eid field",
        "main_category": "Mosque",
        "address": "C69F+M9F Pulivendula Eid field, MDR84, Pulivendula, Andhra Pradesh 516390",
        "detailed_address": {
            "ward": null,
            "street": "C69F+M9F, MDR84",
            "city": "Pulivendula",
            "postal_code": "516390",
            "state": "Andhra Pradesh",
            "country_code": "IN"
        },
        "images": [],
        "link": "https://www.google.com/maps/place/Pulivendula+Eid+field/data=!4m7!3m6!1s0x3bb3eb25e6e1bdf7:0xaef959f1f967b7dd!8m2!3d14.4183799!4d78.2228682!16s%2Fg%2F11v156qtw3!19sChIJ973h5iXrszsR3bdn-fFZ-a4?authuser=0&hl=en&rclk=1",
        "coordinates": {
            "latitude": 14.4183799,
            "longitude": 78.2228682
        }
    },
    {
        "name": "Masjide Mohammadi",
        "main_category": "Mosque",
        "address": "Masjide Mohammadi, HP pump, near, Pulivendula, Bakarapuram, Andhra Pradesh 516390",
        "detailed_address": {
            "ward": null,
            "street": "HP pump, near",
            "city": "Pulivendula, Bakarapuram",
            "postal_code": null,
            "state": "Andhra Pradesh",
            "country_code": "IN"
        },
        "images": [],
        "link": "https://www.google.com/maps/place/Masjide+Mohammadi/data=!4m7!3m6!1s0x3bb3eb4ae62912df:0xa7dda73fcc0fe59f!8m2!3d14.4173049!4d78.2225453!16s%2Fg%2F11g_t3kgvh!19sChIJ3xIp5krrszsRn-UPzD-n3ac?authuser=0&hl=en&rclk=1",
        "coordinates": {
            "latitude": 14.4173049,
            "longitude": 78.2225453
        }
    }
]