[
    {
        "name": "Jama Masjid Neelaroza",
        "main_category": "Mosque",
        "address": "G6CF+88J Jama Masjid Neelaroza, peerzadgaan, Jhinjhana, Uttar Pradesh 247773",
        "detailed_address": {
            "ward": "peerzadgaan",
            "street": "G6CF+88J",
            "city": "Jhinjhana",
            "postal_code": null,
            "state": "Uttar Pradesh",
            "country_code": "IN"
        },
        "images": [
            {
                "about": "All",
                "link": "https://lh5.googleusercontent.com/p/AF1QipOqhVh-XTQUTQbK397qHpqKK3xhQ-HYfPA-MIA=w401-h298-k-no"
            },
            {
                "about": "Dome",
                "link": "https://lh5.googleusercontent.com/p/AF1QipPUXU9qThZSILsN4UlO8N2JbQq5VtNwVts-LmM=w301-h298-k-no"
            },
            {
                "about": "Videos",
                "link": "https://lh5.googleusercontent.com/p/AF1QipO7mr3Rw6gxDAZU3txH1R3m_VUQMcByiNnlm-lc=w224-h398-k-no"
            },
            {
                "about": "Street View & 360deg",
                "link": "https://lh5.googleusercontent.com/p/AF1QipNC4uSODjRophXrffp7oEV_ADsmR3fdI0tB9aQ=w224-h298-k-no-pi0-ya353-ro-0-fo100"
            }
        ],
        "link": "https://www.google.com/maps/place/Jama+Masjid+Neelaroza/data=!4m7!3m6!1s0x390c2befe2cd567b:0x9feb38bcfa1f456c!8m2!3d29.5208443!4d77.2232796!16s%2Fg%2F11gk69v6ss!19sChIJe1bN4u8rDDkRbEUf-rw4658?authuser=0&hl=en&rclk=1",
        "coordinates": {
            "latitude": 29.5208443,
            "longitude": 77.2232796
        }
    },
    {
        "name": "Jhalda Jama Masjid",
        "main_category": "Mosque",
        "address": "9X7H+X2X Jhalda Jama Masjid, Sadagar para Rd, Jhalida, West Bengal 723202",
        "detailed_address": {
            "ward": null,
            "street": "9X7H+X2X, Sadagar para Rd",
            "city": "Jhalida",
            "postal_code": "723202",
            "state": "West Bengal",
            "country_code": "IN"
        },
        "images": [],
        "link": "https://www.google.com/maps/place/Jhalda+Jama+Masjid/data=!4m7!3m6!1s0x39f434e4eab0cc25:0x6ea6c0d25ccee2c1!8m2!3d23.3649969!4d85.9776111!16s%2Fg%2F11dympw58c!19sChIJJcyw6uQ09DkRweLOXNLApm4?authuser=0&hl=en&rclk=1",
        "coordinates": {
            "latitude": 23.364996899999998,
            "longitude": 85.97761109999999
        }
    },
    {
        "name": "Jama Masjid",
        "main_category": "Mosque",
        "address": "VF5C+PJF Jama Masjid, Bhiwani - Rohtak Rd, Lahli, Haryana 124411",
        "detailed_address": {
            "ward": null,
            "street": "VF5C+PJF, Bhiwani - Rohtak Rd",
            "city": "Lahli",
            "postal_code": "124411",
            "state": "Haryana",
            "country_code": "IN"
        },
        "images": [
            {
                "about": "All",
                "link": "https://streetviewpixels-pa.googleapis.com/v1/thumbnail?panoid=o0LX8fL-NIOXvBwiBN8TSg&cb_client=maps_sv.tactile.gps&w=224&h=298&yaw=137.47905&pitch=0&thumbfov=100"
            },
            {
                "about": "Street View & 360deg",
                "link": "https://streetviewpixels-pa.googleapis.com/v1/thumbnail?panoid=o0LX8fL-NIOXvBwiBN8TSg&cb_client=maps_sv.tactile.gps&w=224&h=298&yaw=137.47905&pitch=0&thumbfov=100"
            }
        ],
        "link": "https://www.google.com/maps/place/Jama+Masjid/data=!4m7!3m6!1s0x390d879104daa265:0x2de7c454ddf70c85!8m2!3d28.8593168!4d76.471518!16s%2Fg%2F11v5ywsrvv!19sChIJZaLaBJGHDTkRhQz33VTE5y0?authuser=0&hl=en&rclk=1",
        "coordinates": {
            "latitude": 28.8593168,
            "longitude": 76.471518
        }
    },
    {
        "name": "Jama masjid Hussindhi",
        "main_category": "Mosque",
        "address": "9X7Q+PQC Jama masjid Hussindhi, Jhalida, West Bengal 723202",
        "detailed_address": {
            "ward": null,
            "street": "9X7Q+PQC",
            "city": "Jhalida",
            "postal_code": "723202",
            "state": "West Bengal",
            "country_code": "IN"
        },
        "images": [
            {
                "about": "All",
                "link": "https://lh5.googleusercontent.com/p/AF1QipN8R-XzwitaFHMZU9brWFQzx8ygmpy8dr1-X-DY=w224-h298-k-no"
            },
            {
                "about": "Videos",
                "link": "https://lh5.googleusercontent.com/p/AF1QipPcoZgtWD0utQMgeNAnyNKnhyHcOU1hJ00OWElH=w224-h398-k-no"
            }
        ],
        "link": "https://www.google.com/maps/place/Jama+masjid+Hussindhi/data=!4m7!3m6!1s0x39f4356fd8a65243:0xd15af8890f8b87a2!8m2!3d23.3642695!4d85.9887018!16s%2Fg%2F11txh8jvp6!19sChIJQ1Km2G819DkRooeLD4n4WtE?authuser=0&hl=en&rclk=1",
        "coordinates": {
            "latitude": 23.3642695,
            "longitude": 85.9887018
        }
    },
    {
        "name": "Old masjid",
        "main_category": "Mosque",
        "address": "HPR6+H2X Old masjid, Jalmana, Haryana 132039",
        "detailed_address": {
            "ward": null,
            "street": "HPR6+H2X",
            "city": "Jalmana",
            "postal_code": "132039",
            "state": "Haryana",
            "country_code": "IN"
        },
        "images": [
            {
                "about": "All",
                "link": "https://lh5.googleusercontent.com/p/AF1QipPcehLJpctCIM5BFe4DmBYZLAJnCigtyoV8vRWh=w397-h298-k-no"
            },
            {
                "about": "Dome",
                "link": "https://lh5.googleusercontent.com/p/AF1QipOauu52mH83BE2UpNXvmGLaxm2ie0vL7PlHaYOh=w397-h298-k-no"
            }
        ],
        "link": "https://www.google.com/maps/place/Old+masjid/data=!4m7!3m6!1s0x390e0f3967f9a635:0xc64313e8e9fea16b!8m2!3d29.5914862!4d76.7101194!16s%2Fg%2F11knp4367b!19sChIJNab5ZzkPDjkRa6H-6egTQ8Y?authuser=0&hl=en&rclk=1",
        "coordinates": {
            "latitude": 29.5914862,
            "longitude": 76.7101194
        }
    }
]