[
    {
        "name": "Jama Masjid",
        "main_category": "Religious destination",
        "address": "Jama Masjid, Atlanta Point, Port Blair, Andaman and Nicobar Islands 744104",
        "detailed_address": {
            "ward": "Atlanta Point",
            "street": null,
            "city": "Port Blair",
            "postal_code": "744104",
            "state": "Andaman and Nicobar Islands",
            "country_code": "IN"
        },
        "images": [
            {
                "about": "All",
                "link": "https://lh5.googleusercontent.com/p/AF1QipMzLTTizhv8szNJ3xlnV7dQ-MbtgYBF-MYRI87Z=w224-h298-k-no"
            },
            {
                "about": "Videos",
                "link": "https://lh5.googleusercontent.com/p/AF1QipP1lLU91HsmDtXM29Nk1B-SOfVcc1v0_kJmsegf=w529-h298-k-no"
            }
        ],
        "link": "https://www.google.com/maps/place/Jama+Masjid/data=!4m7!3m6!1s0x308895b12c553857:0x613196be3699535a!8m2!3d11.6710394!4d92.7433908!16s%2Fg%2F11rq5_qlsv!19sChIJVzhVLLGViDARWlOZNr6WMWE?authuser=0&hl=en&rclk=1",
        "coordinates": {
            "latitude": 11.6710394,
            "longitude": 92.7433908
        }
    },
    {
        "name": "MARKAZ Masjidu Ssahaba",
        "main_category": "Mosque",
        "address": "MPFF+VM9 MARKAZ Masjidu Ssahaba, Haddo, Port Blair, Andaman and Nicobar Islands 744102",
        "detailed_address": {
            "ward": "Haddo",
            "street": "MPFF+VM9",
            "city": "Port Blair",
            "postal_code": "744102",
            "state": "Andaman and Nicobar Islands",
            "country_code": "IN"
        },
        "images": [
            {
                "about": "All",
                "link": "https://lh5.googleusercontent.com/p/AF1QipMPuTUaptVvq1Rk5qP46J4_TjxzeJcJae86PHu8=w224-h398-k-no"
            }
        ],
        "link": "https://www.google.com/maps/place/MARKAZ+Masjidu+Ssahaba/data=!4m7!3m6!1s0x308895bdb1ddfedb:0x40c56dd8b60faeba!8m2!3d11.674662!4d92.724249!16s%2Fg%2F11q4jz9v6z!19sChIJ2_7dsb2ViDARuq4PtthtxUA?authuser=0&hl=en&rclk=1",
        "coordinates": {
            "latitude": 11.674662,
            "longitude": 92.724249
        }
    },
    {
        "name": "Masjidun Noor",
        "main_category": "Mosque",
        "address": "MPCP+P2P Masjidun Noor, Phoenix Bay, Port Blair, Andaman and Nicobar Islands 744101",
        "detailed_address": {
            "ward": "Phoenix Bay",
            "street": "MPCP+P2P",
            "city": "Port Blair",
            "postal_code": null,
            "state": "Andaman and Nicobar Islands",
            "country_code": "IN"
        },
        "images": [
            {
                "about": "All",
                "link": "https://lh5.googleusercontent.com/p/AF1QipNNMJk--oo4C1GYXU0PTyLCXRRTz9aKlQOWz-eS=w530-h298-k-no"
            },
            {
                "about": "Dome",
                "link": "https://lh5.googleusercontent.com/p/AF1QipMy2LEiGO7DOJI15AC_w8OrGbfkIREUC6XQurFC=w224-h298-k-no"
            }
        ],
        "link": "https://www.google.com/maps/place/Masjidun+Noor/data=!4m7!3m6!1s0x30889563a6582af5:0xedae036c650e8f69!8m2!3d11.67183!4d92.7350791!16s%2Fg%2F11vdpcqkv9!19sChIJ9SpYpmOViDARaY8OZWwDru0?authuser=0&hl=en&rclk=1",
        "coordinates": {
            "latitude": 11.67183,
            "longitude": 92.7350791
        }
    },
    {
        "name": "Al Abrar Masjid, Pema",
        "main_category": "Mosque",
        "address": "HPV7+QMJ Al Abrar Masjid, Pema, Calicut, Port Blair, Andaman and Nicobar Islands 744105",
        "detailed_address": {
            "ward": "Calicut",
            "street": "HPV7+QMJ",
            "city": "Port Blair",
            "postal_code": "744105",
            "state": "Andaman and Nicobar Islands",
            "country_code": "IN"
        },
        "images": [
            {
                "about": "All",
                "link": "https://lh5.googleusercontent.com/p/AF1QipMVNmqfX8Hac-AVQwSIAKJ8L32JL382cQV-C2Rn=w224-h298-k-no"
            },
            {
                "about": "By owner",
                "link": "https://lh5.googleusercontent.com/p/AF1QipMTMwkeqHkeaRrds554TU26cSLq_hwIPUBbV9tf=w224-h298-k-no"
            }
        ],
        "link": "https://www.google.com/maps/place/Al+Abrar+Masjid,+Pema/data=!4m7!3m6!1s0x308893855119ceb1:0xd9c33a86b124339a!8m2!3d11.5945138!4d92.7141793!16s%2Fg%2F11vbygs3q1!19sChIJsc4ZUYWTiDARmjMksYY6w9k?authuser=0&hl=en&rclk=1",
        "coordinates": {
            "latitude": 11.5945138,
            "longitude": 92.7141793
        }
    },
    {
        "name": "Al-Huda Juma Masjid",
        "main_category": "Mosque",
        "address": "HPX9+822 Al-Huda Juma Masjid, Calicut, Port Blair, Andaman and Nicobar Islands 744105",
        "detailed_address": {
            "ward": "Calicut",
            "street": "HPX9+822",
            "city": "Port Blair",
            "postal_code": "744105",
            "state": "Andaman and Nicobar Islands",
            "country_code": "IN"
        },
        "images": [
            {
                "about": "All",
                "link": "https://lh5.googleusercontent.com/p/AF1QipPSLYSoavKIiPGd0hrz9PYSnrWitW9JPUqjl6wv=w397-h298-k-no"
            }
        ],
        "link": "https://www.google.com/maps/place/Al-Huda+Juma+Masjid/data=!4m7!3m6!1s0x308893d821661c4f:0x4a6044c849396b2f!8m2!3d11.598252!4d92.71753!16s%2Fg%2F11l33nzm7q!19sChIJTxxmIdiTiDARL2s5SchEYEo?authuser=0&hl=en&rclk=1",
        "coordinates": {
            "latitude": 11.598251999999999,
            "longitude": 92.71753
        }
    },
    {
        "name": "Junglighat Maszid , Janglighat Jame (Juma) Maszid (Janglighat), Janglighat Masjid",
        "main_category": "Mosque",
        "address": "MP4J+FV3 Junglighat Maszid , Janglighat Jame (Juma) Maszid (Janglighat), Janglighat Masjid, Dairy Farm, Port Blair, Andaman and Nicobar Islands 744103",
        "detailed_address": {
            "ward": "Dairy Farm",
            "street": "MP4J+FV3",
            "city": "Port Blair",
            "postal_code": null,
            "state": "Andaman and Nicobar Islands",
            "country_code": "IN"
        },
        "images": [],
        "link": "https://www.google.com/maps/place/Junglighat+Maszid+,+Janglighat+Jame+%28Juma%29+Maszid+%28Janglighat%29,+Janglighat+Masjid/data=!4m7!3m6!1s0x30889569d9807285:0x54b5699165cdfae8!8m2!3d11.6561473!4d92.7321805!16s%2Fg%2F11l6gnnjcl!19sChIJhXKA2WmViDAR6PrNZZFptVQ?authuser=0&hl=en&rclk=1",
        "coordinates": {
            "latitude": 11.656147299999999,
            "longitude": 92.7321805
        }
    },
    {
        "name": "Masjid ul Huda",
        "main_category": "Mosque",
        "address": "Shop no. 11, Masjid ul Huda, Masjidul Huda Building, M A Road Phoniex bay, Delanipur, Port Blair, Andaman and Nicobar Islands 744102",
        "detailed_address": {
            "ward": "Delanipur",
            "street": "Shop no. 11, Masjidul Huda Building, M A Road Phoniex bay",
            "city": "Port Blair",
            "postal_code": "744102",
            "state": "Andaman and Nicobar Islands",
            "country_code": "IN"
        },
        "images": [
            {
                "about": "All",
                "link": "https://lh5.googleusercontent.com/p/AF1QipNNmC8hZX0rceFb1W0wR1bJj9DKye9IanxmF978=w224-h298-k-no"
            }
        ],
        "link": "https://www.google.com/maps/place/Masjid+ul+Huda/data=!4m7!3m6!1s0x308895f5a7c93d3b:0x2429dd34128b54bc!8m2!3d11.6688834!4d92.7310236!16s%2Fg%2F11l257dk4p!19sChIJOz3Jp_WViDARvFSLEjTdKSQ?authuser=0&hl=en&rclk=1",
        "coordinates": {
            "latitude": 11.6688834,
            "longitude": 92.7310236
        }
    },
    {
        "name": "Noor Masjid",
        "main_category": "Religious destination",
        "address": "MP9P+GPJ Noor Masjid, Moulana Azad Rd, opp. Andaman Tamizhar Sangam, Phoenix Bay, Port Blair, Andaman and Nicobar Islands 744101",
        "detailed_address": {
            "ward": "Phoenix Bay",
            "street": "MP9P+GPJ, Moulana Azad Rd, opp. Andaman Tamizhar Sangam",
            "city": "Port Blair",
            "postal_code": "744101",
            "state": "Andaman and Nicobar Islands",
            "country_code": "IN"
        },
        "images": [
            {
                "about": "All",
                "link": "https://lh5.googleusercontent.com/p/AF1QipMHU1K0tKGJkpf81m1Tfbe9YxK4AGNY_XMF_liI=w646-h298-k-no"
            }
        ],
        "link": "https://www.google.com/maps/place/Noor+Masjid/data=!4m7!3m6!1s0x3088951eb3965e3d:0xd461a6e996438766!8m2!3d11.6688368!4d92.7367625!16s%2Fg%2F11rq5_ydhq!19sChIJPV6Wsx6ViDARZodDlummYdQ?authuser=0&hl=en&rclk=1",
        "coordinates": {
            "latitude": 11.6688368,
            "longitude": 92.7367625
        }
    },
    {
        "name": "Police Masjid",
        "main_category": "Mosque",
        "address": "MP9V+P9R Police Masjid, Supply Ln, Aberdeen Bazar, Rajiv Gandhi Nagar, Port Blair, Andaman and Nicobar Islands 744101",
        "detailed_address": {
            "ward": "Aberdeen Bazar, Rajiv Gandhi Nagar",
            "street": "MP9V+P9R, Supply Ln",
            "city": "Port Blair",
            "postal_code": "744101",
            "state": "Andaman and Nicobar Islands",
            "country_code": "IN"
        },
        "images": [
            {
                "about": "All",
                "link": "https://lh5.googleusercontent.com/p/AF1QipN437c4L2cTqClI0Atfj022sxfVEDmK2ao_TP7C=w529-h298-k-no"
            }
        ],
        "link": "https://www.google.com/maps/place/Police+Masjid/data=!4m7!3m6!1s0x3088955ab0384d69:0xb5cd9582e7a2ba05!8m2!3d11.6693642!4d92.7433869!16s%2Fg%2F11l29ts_80!19sChIJaU04sFqViDARBbqi54KVzbU?authuser=0&hl=en&rclk=1",
        "coordinates": {
            "latitude": 11.669364199999999,
            "longitude": 92.74338689999999
        }
    },
    {
        "name": "Masjid, Paani Tanky",
        "main_category": "Mosque",
        "address": "JP46+HPW Masjid, Paani Tanky, CARI Quarters, Garacharama, Port Blair, Andaman and Nicobar Islands 744105",
        "detailed_address": {
            "ward": "CARI Quarters, Garacharama",
            "street": "JP46+HPW",
            "city": "Port Blair",
            "postal_code": "744105",
            "state": "Andaman and Nicobar Islands",
            "country_code": "IN"
        },
        "images": [
            {
                "about": "All",
                "link": "https://lh5.googleusercontent.com/p/AF1QipNIf5ZyKGlq_bvrWxLGSAMkIwW7C0POnUUcw2SE=w224-h298-k-no"
            }
        ],
        "link": "https://www.google.com/maps/place/Masjid,+Paani+Tanky/data=!4m7!3m6!1s0x308895e0dc216a7b:0x1e3b10c8d74a466c!8m2!3d11.6064842!4d92.7118168!16s%2Fg%2F11l5jv79jr!19sChIJe2oh3OCViDARbEZK18gQOx4?authuser=0&hl=en&rclk=1",
        "coordinates": {
            "latitude": 11.606484199999999,
            "longitude": 92.7118168
        }
    },
    {
        "name": "Quraisha Masjid",
        "main_category": "Mosque",
        "address": "MPCQ+FQV Quraisha Masjid, Mohanpura, Port Blair, Andaman and Nicobar Islands 744104",
        "detailed_address": {
            "ward": "Mohanpura",
            "street": "MPCQ+FQV",
            "city": "Port Blair",
            "postal_code": null,
            "state": "Andaman and Nicobar Islands",
            "country_code": "IN"
        },
        "images": [],
        "link": "https://www.google.com/maps/place/Quraisha+Masjid/data=!4m7!3m6!1s0x308895746fabf701:0x7b65e82703ce39be!8m2!3d11.6712301!4d92.7394075!16s%2Fg%2F11vb69tj_y!19sChIJAferb3SViDARvjnOAyfoZXs?authuser=0&hl=en&rclk=1",
        "coordinates": {
            "latitude": 11.671230099999999,
            "longitude": 92.7394075
        }
    },
    {
        "name": "IMDADUL ISLAM MADRESSA",
        "main_category": "Mosque",
        "address": "HPX8+8RV IMDADUL ISLAM MADRESSA, Calicut, Port Blair, Andaman and Nicobar Islands 744105",
        "detailed_address": {
            "ward": "Calicut",
            "street": "HPX8+8RV",
            "city": "Port Blair",
            "postal_code": "744105",
            "state": "Andaman and Nicobar Islands",
            "country_code": "IN"
        },
        "images": [],
        "link": "https://www.google.com/maps/place/IMDADUL+ISLAM+MADRESSA/data=!4m7!3m6!1s0x308893caafc36f21:0xd1ba5b1222ebfc72!8m2!3d11.5983075!4d92.7171562!16s%2Fg%2F11rzbz96lq!19sChIJIW_Dr8qTiDARcvzrIhJbutE?authuser=0&hl=en&rclk=1",
        "coordinates": {
            "latitude": 11.598307499999999,
            "longitude": 92.71715619999999
        }
    },
    {
        "name": "Basoo basthi",
        "main_category": "Mosque",
        "address": "JPC8+VXW Basoo basthi, Pathergudda, Pahargaon, Port Blair, Andaman and Nicobar Islands 744103",
        "detailed_address": {
            "ward": "Pathergudda, Pahargaon",
            "street": "JPC8+VXW",
            "city": "Port Blair",
            "postal_code": "744103",
            "state": "Andaman and Nicobar Islands",
            "country_code": "IN"
        },
        "images": [],
        "link": "https://www.google.com/maps/place/Basoo+basthi/data=!4m7!3m6!1s0x308895640325bfeb:0x51195100bae2d431!8m2!3d11.6223143!4d92.7178905!16s%2Fg%2F11kssr55vw!19sChIJ678lA2SViDARMdTiugBRGVE?authuser=0&hl=en&rclk=1",
        "coordinates": {
            "latitude": 11.6223143,
            "longitude": 92.7178905
        }
    },
    {
        "name": "Rolberdh",
        "main_category": "Mosque",
        "address": "MQ62+PMM Rolberdh, South Point, Shadipur, Port Blair, Andaman and Nicobar Islands 744106",
        "detailed_address": {
            "ward": "South Point, Shadipur",
            "street": "MQ62+PMM",
            "city": "Port Blair",
            "postal_code": "744106",
            "state": "Andaman and Nicobar Islands",
            "country_code": "IN"
        },
        "images": [],
        "link": "https://www.google.com/maps/place/Rolberdh/data=!4m7!3m6!1s0x30889514817a24d5:0x9bdd5a02d53890ce!8m2!3d11.6618375!4d92.7516719!16s%2Fg%2F11l1f7pm5d!19sChIJ1SR6gRSViDARzpA41QJa3Zs?authuser=0&hl=en&rclk=1",
        "coordinates": {
            "latitude": 11.661837499999999,
            "longitude": 92.75167189999999
        }
    },
    {
        "name": "Mosque calicut",
        "main_category": "Mosque",
        "address": "HPX8+8RV Mosque calicut, Calicut, Port Blair, Andaman and Nicobar Islands 744105",
        "detailed_address": {
            "ward": "Calicut",
            "street": "HPX8+8RV",
            "city": "Port Blair",
            "postal_code": "744105",
            "state": "Andaman and Nicobar Islands",
            "country_code": "IN"
        },
        "images": [],
        "link": "https://www.google.com/maps/place/Mosque+calicut/data=!4m7!3m6!1s0x30889365b8e133e5:0x1de808ec1369c98c!8m2!3d11.598184!4d92.7174938!16s%2Fg%2F11qbd1bh6j!19sChIJ5TPhuGWTiDARjMlpE-wI6B0?authuser=0&hl=en&rclk=1",
        "coordinates": {
            "latitude": 11.598184,
            "longitude": 92.7174938
        }
    },
    {
        "name": "Masjid Zackariyah (Andaman Sheik Faqeer Muhammed)",
        "main_category": "Mosque",
        "address": "Masjid Zackariyah (Andaman Sheik Faqeer Muhammed), 45/6, MA Rd, Phoenix Bay, Port Blair, Andaman and Nicobar Islands 744102",
        "detailed_address": {
            "ward": "Phoenix Bay",
            "street": "45/6, MA Rd",
            "city": "Port Blair",
            "postal_code": "744102",
            "state": "Andaman and Nicobar Islands",
            "country_code": "IN"
        },
        "images": [],
        "link": "https://www.google.com/maps/place/Masjid+Zackariyah+%28Andaman+Sheik+Faqeer+Muhammed%29/data=!4m7!3m6!1s0x3088959ffaa2a547:0x934971159e01fc38!8m2!3d11.6681596!4d92.7328685!16s%2Fg%2F11vf6cvtl0!19sChIJR6Wi-p-ViDAROPwBnhVxSZM?authuser=0&hl=en&rclk=1",
        "coordinates": {
            "latitude": 11.6681596,
            "longitude": 92.7328685
        }
    },
    {
        "name": "MASJID-E-DARUL JANNAH",
        "main_category": "Religious destination",
        "address": "JPFG+9H5 MASJID-E-DARUL JANNAH, Macchi Line, Prothrapur, Port Blair, Andaman and Nicobar Islands 744103",
        "detailed_address": {
            "ward": "Prothrapur",
            "street": "JPFG+9H5, Macchi Line",
            "city": "Port Blair",
            "postal_code": null,
            "state": "Andaman and Nicobar Islands",
            "country_code": "IN"
        },
        "images": [
            {
                "about": "All",
                "link": "https://lh5.googleusercontent.com/p/AF1QipM1aCyFzaDEr9czsCwaeLeWhDgMhi9iIiiHJd3k=w224-h484-k-no"
            }
        ],
        "link": "https://www.google.com/maps/place/MASJID-E-DARUL+JANNAH/data=!4m7!3m6!1s0x30889580db90f87d:0x95f2d4c36ec7a08c!8m2!3d11.6233774!4d92.7264828!16s%2Fg%2F11vd6_xjhk!19sChIJffiQ24CViDARjKDHbsPU8pU?authuser=0&hl=en&rclk=1",
        "coordinates": {
            "latitude": 11.623377399999999,
            "longitude": 92.7264828
        }
    },
    {
        "name": "Al Noor Ibadatgah, Haddo Musallah",
        "main_category": "Mosque",
        "address": "MPHF+X96 Al Noor Ibadatgah, Haddo Musallah, Great Andaman Trunk Rd, Haddo, Port Blair, Andaman and Nicobar Islands 744102",
        "detailed_address": {
            "ward": "Haddo",
            "street": "MPHF+X96, Great Andaman Trunk Rd",
            "city": "Port Blair",
            "postal_code": "744102",
            "state": "Andaman and Nicobar Islands",
            "country_code": "IN"
        },
        "images": [
            {
                "about": "All",
                "link": "https://lh5.googleusercontent.com/p/AF1QipNU9erwucWgpTC6k7KUFgqjUEM9P-GHFR1Kk69S=w224-h298-k-no"
            }
        ],
        "link": "https://www.google.com/maps/place/Al+Noor+Ibadatgah,+Haddo+Musallah/data=!4m7!3m6!1s0x3088951080d77053:0x6083c41d545b2633!8m2!3d11.6799589!4d92.7234075!16s%2Fg%2F11ssbpbsd7!19sChIJU3DXgBCViDARMyZbVB3Eg2A?authuser=0&hl=en&rclk=1",
        "coordinates": {
            "latitude": 11.679958899999999,
            "longitude": 92.7234075
        }
    },
    {
        "name": "Mosque, Phoneix Bay.",
        "main_category": "Mosque",
        "address": "MP8Q+G8R Mosque, Phoneix Bay., near APWD Store, DAG Colony, Port Blair, Andaman and Nicobar Islands 744101",
        "detailed_address": {
            "ward": "DAG Colony",
            "street": "MP8Q+G8R, near APWD Store",
            "city": "Port Blair",
            "postal_code": "744101",
            "state": "Andaman and Nicobar Islands",
            "country_code": "IN"
        },
        "images": [],
        "link": "https://www.google.com/maps/place/Mosque,+Phoneix+Bay./data=!4m7!3m6!1s0x30889590f041874f:0xfc31bd126f9f5472!8m2!3d11.666369!4d92.73827!16s%2Fg%2F11l2ffwssh!19sChIJT4dB8JCViDARclSfbxK9Mfw?authuser=0&hl=en&rclk=1",
        "coordinates": {
            "latitude": 11.666369,
            "longitude": 92.73827
        }
    },
    {
        "name": "Phonix Bay Mosque",
        "main_category": "Mosque",
        "address": "Phonix Bay Mosque, 54, MA Rd, DAG Colony, Port Blair, Andaman and Nicobar Islands 744101",
        "detailed_address": {
            "ward": "DAG Colony",
            "street": "54, MA Rd",
            "city": "Port Blair",
            "postal_code": "744101",
            "state": "Andaman and Nicobar Islands",
            "country_code": "IN"
        },
        "images": [
            {
                "about": "All",
                "link": "https://lh5.googleusercontent.com/p/AF1QipN7ZkuLNdQqsol-fhFCQQ_UCrNCvn3Uv2JokB8Y=w645-h298-k-no"
            }
        ],
        "link": "https://www.google.com/maps/place/Phonix+Bay+Mosque/data=!4m7!3m6!1s0x3088957e633ca235:0x2f39426eb3119766!8m2!3d11.6685623!4d92.7344481!16s%2Fg%2F11l1nxgzpq!19sChIJNaI8Y36ViDARZpcRs25COS8?authuser=0&hl=en&rclk=1",
        "coordinates": {
            "latitude": 11.6685623,
            "longitude": 92.7344481
        }
    },
    {
        "name": "Makka pahad mosque",
        "main_category": "Mosque",
        "address": "HPM7+RV Makka pahad mosque, Port Blair, Andaman and Nicobar Islands 744105",
        "detailed_address": {
            "ward": null,
            "street": "HPM7+RV",
            "city": "Port Blair",
            "postal_code": "744105",
            "state": "Andaman and Nicobar Islands",
            "country_code": "IN"
        },
        "images": [],
        "link": "https://www.google.com/maps/place/Makka+pahad+mosque/data=!4m7!3m6!1s0x308893a478d76589:0xa992a852dcb081bc!8m2!3d11.5849959!4d92.7153168!16s%2Fg%2F11vf0jm490!19sChIJiWXXeKSTiDARvIGw3FKokqk?authuser=0&hl=en&rclk=1",
        "coordinates": {
            "latitude": 11.5849959,
            "longitude": 92.7153168
        }
    },
    {
        "name": "Kabristan Phoneix Bay",
        "main_category": "Mosque",
        "address": "Kabristan Phoneix Bay, APWD Store, junction, DAG Colony, Port Blair, Andaman and Nicobar Islands 744101",
        "detailed_address": {
            "ward": "DAG Colony",
            "street": "APWD Store, junction",
            "city": "Port Blair",
            "postal_code": null,
            "state": "Andaman and Nicobar Islands",
            "country_code": "IN"
        },
        "images": [],
        "link": "https://www.google.com/maps/place/Kabristan+Phoneix+Bay/data=!4m7!3m6!1s0x30889563fdad4eaf:0xd3f0bb35c136dce!8m2!3d11.6687836!4d92.7347525!16s%2Fg%2F11vb9mpv7y!19sChIJr06t_WOViDARzm0TXLMLPw0?authuser=0&hl=en&rclk=1",
        "coordinates": {
            "latitude": 11.6687836,
            "longitude": 92.7347525
        }
    },
    {
        "name": "Muslim kabristan",
        "main_category": "Religious destination",
        "address": "Muslim kabristan, Sy. No. 1524, Muslim Burial Ground Road, Ganesh Nagar Ward No. 05, Calicut, Port Blair, Andaman and Nicobar Islands 744105",
        "detailed_address": {
            "ward": "Calicut",
            "street": "Sy. No. 1524, Muslim Burial Ground Road, Ganesh Nagar Ward No. 05",
            "city": "Port Blair",
            "postal_code": "744105",
            "state": "Andaman and Nicobar Islands",
            "country_code": "IN"
        },
        "images": [],
        "link": "https://www.google.com/maps/place/Muslim+kabristan/data=!4m7!3m6!1s0x308893406d5cc3fd:0x4cf772826ad603ce!8m2!3d11.5966545!4d92.7183632!16s%2Fg%2F11s557_hm1!19sChIJ_cNcbUCTiDARzgPWaoJy90w?authuser=0&hl=en&rclk=1",
        "coordinates": {
            "latitude": 11.5966545,
            "longitude": 92.7183632
        }
    },
    {
        "name": "Police Masjid New Shopping Complex",
        "main_category": "Shopping mall",
        "address": "MP9V+RCC Police Masjid New Shopping Complex, Supply Ln, Aberdeen Bazar, Rajiv Gandhi Nagar, Port Blair, Andaman and Nicobar Islands 744101",
        "detailed_address": {
            "ward": "Aberdeen Bazar, Rajiv Gandhi Nagar",
            "street": "MP9V+RCC, Supply Ln",
            "city": "Port Blair",
            "postal_code": "744101",
            "state": "Andaman and Nicobar Islands",
            "country_code": "IN"
        },
        "images": [],
        "link": "https://www.google.com/maps/place/Police+Masjid+New+Shopping+Complex/data=!4m7!3m6!1s0x308895182f8f8e3f:0x6f51d0217866bf68!8m2!3d11.6695588!4d92.7435143!16s%2Fg%2F11l29zxdh3!19sChIJP46PLxiViDARaL9meCHQUW8?authuser=0&hl=en&rclk=1",
        "coordinates": {
            "latitude": 11.669558799999999,
            "longitude": 92.7435143
        }
    },
    {
        "name": "Jama Masjid Garacharma",
        "main_category": "Mosque",
        "address": "JP74+323 Jama Masjid Garacharma, Garacharama, Port Blair, Andaman and Nicobar Islands 744103",
        "detailed_address": {
            "ward": "Garacharama",
            "street": "JP74+323",
            "city": "Port Blair",
            "postal_code": "744103",
            "state": "Andaman and Nicobar Islands",
            "country_code": "IN"
        },
        "images": [],
        "link": "https://www.google.com/maps/place/Jama+Masjid+Garacharma/data=!4m7!3m6!1s0x3088950052620cdd:0xf5d2af21f5b6a39d!8m2!3d11.612006!4d92.704845!16s%2Fg%2F11y29bnb14!19sChIJ3QxiUgCViDARnaO29SGv0vU?authuser=0&hl=en&rclk=1",
        "coordinates": {
            "latitude": 11.612006,
            "longitude": 92.70484499999999
        }
    }
]