[
    {
        "name": "Jama Masjid",
        "main_category": "Mosque",
        "address": "M774+HPQ Jama Masjid, Main Road, Gandhi Nagar Main Rd, Kailash Nagar, Gandhi Nagar, Delhi, 110031",
        "detailed_address": {
            "ward": "Kailash Nagar, Gandhi Nagar, Shahdara",
            "street": "M774+HPQ, Main Road, Gandhi Nagar Main Rd",
            "city": "Delhi",
            "postal_code": "110031",
            "state": "Delhi",
            "country_code": "IN"
        },
        "images": [
            {
                "about": "All",
                "link": "https://lh5.googleusercontent.com/p/AF1QipNgkpW6Iiuezk5EJoDl7tm_5gZqAhkvmDY5_9rA=w224-h501-k-no"
            },
            {
                "about": "Dome",
                "link": "https://lh5.googleusercontent.com/p/AF1QipOnqQScMVrlDic3EHPKstNq_pqBDbTw9DRTviy5=w397-h298-k-no"
            }
        ],
        "link": "https://www.google.com/maps/place/Jama+Masjid/data=!4m7!3m6!1s0x390cfcf19c235fd3:0xed8f393d881632ba!8m2!3d28.6639541!4d77.2568444!16s%2Fg%2F1ptvqbr89!19sChIJ018jnPH8DDkRujIWiD05j-0?authuser=0&hl=en&rclk=1",
        "coordinates": {
            "latitude": 28.663954099999998,
            "longitude": 77.25684439999999
        }
    },
    {
        "name": "Gandhi Nagar Madina Masjid",
        "main_category": "Mosque",
        "address": "Gandhi Nagar Madina Masjid, G1853, Multani Mohalla, Gandhi Nagar, Seelampur, Shahdara, New Delhi, Delhi, 110031",
        "detailed_address": {
            "ward": "Multani Mohalla, Gandhi Nagar, Seelampur, Shahdara",
            "street": "G1853",
            "city": "New Delhi, Delhi",
            "postal_code": "110031",
            "state": "Delhi",
            "country_code": "IN"
        },
        "images": [
            {
                "about": "All",
                "link": "https://lh5.googleusercontent.com/p/AF1QipNq1DgrqJ_su6-h2JFCOwkZuhmubN-d9vGi1cbJ=w397-h298-k-no"
            },
            {
                "about": "Videos",
                "link": "https://lh5.googleusercontent.com/p/AF1QipPLON7JYdqCPo8_zdhapd7V_OtfytqMTKVxDoGE=w224-h398-k-no"
            }
        ],
        "link": "https://www.google.com/maps/place/Gandhi+Nagar+Madina+Masjid/data=!4m7!3m6!1s0x390cfdb3ff4e65ed:0x3e698580608c94fd!8m2!3d28.657263!4d77.2630734!16s%2Fg%2F11g0l47wp9!19sChIJ7WVO_7P9DDkR_ZSMYICFaT4?authuser=0&hl=en&rclk=1",
        "coordinates": {
            "latitude": 28.657263,
            "longitude": 77.2630734
        }
    },
    {
        "name": "Mosque",
        "main_category": "Mosque",
        "address": "M747+V64 Mosque, Pushta Rd, Multani Mohalla, Gandhi Nagar, Shahdara, New Delhi, Delhi, 110031",
        "detailed_address": {
            "ward": "Multani Mohalla, Gandhi Nagar, Shahdara",
            "street": "M747+V64, Pushta Rd",
            "city": "New Delhi, Delhi",
            "postal_code": "110031",
            "state": "Delhi",
            "country_code": "IN"
        },
        "images": [
            {
                "about": "All",
                "link": "https://lh5.googleusercontent.com/p/AF1QipNvv_Ghhc2yJY-uuqUW38p-FGaMlRtNUd_8r3KT=w224-h298-k-no"
            }
        ],
        "link": "https://www.google.com/maps/place/Mosque/data=!4m7!3m6!1s0x390cfcecc3c3a38d:0x1e72f8e84718020c!8m2!3d28.6571357!4d77.2630907!16s%2Fg%2F1jkvzp3j_!19sChIJjaPDw-z8DDkRDAIYR-j4ch4?authuser=0&hl=en&rclk=1",
        "coordinates": {
            "latitude": 28.657135699999998,
            "longitude": 77.26309069999999
        }
    },
    {
        "name": "Masjid Madarsay Wali msjd mdrsh wly",
        "main_category": "Mosque",
        "address": "Masjid Madarsay Wali msjd mdrsh wly, 9/4062 Street Number 15 Ajeet Nagar, Gandhi Nagar, Seelampur, Shahdara, Delhi, 110031",
        "detailed_address": {
            "ward": "Gandhi Nagar, Seelampur, Shahdara",
            "street": "9/4062 Street Number 15 Ajeet Nagar",
            "city": "Delhi",
            "postal_code": "110031",
            "state": "Delhi",
            "country_code": "IN"
        },
        "images": [
            {
                "about": "All",
                "link": "https://lh5.googleusercontent.com/p/AF1QipNbdLtC3RxK3Sf6H8HIENShjcCuxmb2xTXWRkPE=w224-h398-k-no"
            },
            {
                "about": "Videos",
                "link": "https://lh5.googleusercontent.com/p/AF1QipNw0G78yX9S52pBZ1wERYT81yiKUMB8EOxfBH-p=w224-h395-k-no"
            }
        ],
        "link": "https://www.google.com/maps/place/Masjid+Madarsay+Wali+%D9%85%D8%B3%D8%AC%D8%AF+%D9%85%D8%AF%D8%B1%D8%B3%DB%81+%D9%88%D8%A7%D9%84%DB%8C%E2%80%AD/data=!4m7!3m6!1s0x390cfd30c19695f1:0x56b150c51a56e61e!8m2!3d28.6682086!4d77.2644022!16s%2Fg%2F11g071sw7v!19sChIJ8ZWWwTD9DDkRHuZWGsVQsVY?authuser=0&hl=en&rclk=1",
        "coordinates": {
            "latitude": 28.6682086,
            "longitude": 77.26440219999999
        }
    },
    {
        "name": "Masjid Wa Madarsa Anjuman Islamia",
        "main_category": "Mosque",
        "address": "Masjid Wa Madarsa Anjuman Islamia, 1765, Kailash Nagar, Gandhi Nagar, Seelampur, Shahdara, Delhi, 110031",
        "detailed_address": {
            "ward": "Kailash Nagar, Gandhi Nagar, Seelampur, Shahdara",
            "street": "1765",
            "city": "Delhi",
            "postal_code": "110031",
            "state": "Delhi",
            "country_code": "IN"
        },
        "images": [
            {
                "about": "All",
                "link": "https://lh5.googleusercontent.com/p/AF1QipMqR4PSwemFretbHHAJInZUnGozMspjmzCebMxS=w529-h298-k-no"
            }
        ],
        "link": "https://www.google.com/maps/place/Masjid+Wa+Madarsa+Anjuman+Islamia/data=!4m7!3m6!1s0x390cfcf19e1bff3b:0x6435b45c7032686f!8m2!3d28.6644392!4d77.2566237!16s%2Fg%2F11c60jb2f8!19sChIJO_8bnvH8DDkRb2gycFy0NWQ?authuser=0&hl=en&rclk=1",
        "coordinates": {
            "latitude": 28.6644392,
            "longitude": 77.25662369999999
        }
    },
    {
        "name": "Masjid gandhi nagar",
        "main_category": "Mosque",
        "address": "Masjid gandhi nagar, 6785A, Kailash Nagar, Gyan Nagar, Seelampur, Shahdara, New Delhi, Delhi, 110031",
        "detailed_address": {
            "ward": "Kailash Nagar, Gyan Nagar, Seelampur, Shahdara",
            "street": "6785A",
            "city": "New Delhi, Delhi",
            "postal_code": "110031",
            "state": "Delhi",
            "country_code": "IN"
        },
        "images": [
            {
                "about": "All",
                "link": "https://lh5.googleusercontent.com/p/AF1QipMFMUeB1u5xZD7oIWC_7KtvEh6z_K9VB1yFaQbu=w224-h298-k-no"
            },
            {
                "about": "Videos",
                "link": "https://lh5.googleusercontent.com/p/AF1QipNJHktUwVo8IB10L_mC2MNxp8onJh39R877nBIU=w224-h377-k-no"
            }
        ],
        "link": "https://www.google.com/maps/place/Masjid+gandhi+nagar/data=!4m7!3m6!1s0x390cfd352df8a669:0x97ffa44e28ef95ba!8m2!3d28.6638173!4d77.264023!16s%2Fg%2F11pqvsjxyr!19sChIJaab4LTX9DDkRupXvKE6k_5c?authuser=0&hl=en&rclk=1",
        "coordinates": {
            "latitude": 28.663817299999998,
            "longitude": 77.264023
        }
    },
    {
        "name": "Jeans market masjid",
        "main_category": "Mosque",
        "address": "M777+GJW Jeans market masjid, Shyam Gali, Kailash Nagar, Gandhi Nagar, Seelampur, Shahdara, New Delhi, Delhi, 110031",
        "detailed_address": {
            "ward": "Kailash Nagar, Gandhi Nagar, Seelampur, Shahdara",
            "street": "M777+GJW, Shyam Gali",
            "city": "New Delhi, Delhi",
            "postal_code": "110031",
            "state": "Delhi",
            "country_code": "IN"
        },
        "images": [],
        "link": "https://www.google.com/maps/place/Jeans+market+masjid/data=!4m7!3m6!1s0x390cfd1f8397bc1b:0xba3b1ea9f03130cb!8m2!3d28.6638571!4d77.2640884!16s%2Fg%2F11s1s3d0rn!19sChIJG7yXgx_9DDkRyzAx8KkeO7o?authuser=0&hl=en&rclk=1",
        "coordinates": {
            "latitude": 28.663857099999998,
            "longitude": 77.26408839999999
        }
    }
]