[
    {
        "name": "Nori masjid msjd Rampur Bujurg",
        "main_category": "Mosque",
        "address": "Nori masjid msjd Rampur Bujurg, Maharajganj, Lakhima Tharua, Uttar Pradesh 273303",
        "detailed_address": {
            "ward": null,
            "street": null,
            "city": "Maharajganj, Lakhima Tharua",
            "postal_code": "273303",
            "state": "Uttar Pradesh",
            "country_code": "IN"
        },
        "images": [
            {
                "about": "All",
                "link": "https://lh5.googleusercontent.com/p/AF1QipNS7bRjcSFN_FxAvP7DEOnEZmEyjVziH6vQKr8t=w530-h298-k-no"
            },
            {
                "about": "By owner",
                "link": "https://lh5.googleusercontent.com/p/AF1QipPOTTjMr87bk7ZwQ7F2vFmKmTB5FpS1irlKIgTC=w529-h298-k-no"
            },
            {
                "about": "Videos",
                "link": "https://lh5.googleusercontent.com/p/AF1QipO75NojllQSp_jYR2Vo1d4XHjxZEZaTCBZ5llTz=w224-h448-k-no"
            },
            {
                "about": "Street View & 360deg",
                "link": "https://streetviewpixels-pa.googleapis.com/v1/thumbnail?panoid=ZH38MJZioWa_yZWu1wj3Zw&cb_client=maps_sv.tactile.gps&w=224&h=298&yaw=9.741982&pitch=0&thumbfov=100"
            }
        ],
        "link": "https://www.google.com/maps/place/Nori+masjid+%D9%85%D8%B3%D8%AC%D8%AF+Rampur+Bujurg%E2%80%AD/data=!4m7!3m6!1s0x3996a9a49589c35f:0x29166ace5c23f0e7!8m2!3d27.1758756!4d83.5443366!16s%2Fg%2F11fk86s313!19sChIJX8OJlaSpljkR5_AjXM5qFik?authuser=0&hl=en&rclk=1",
        "coordinates": {
            "latitude": 27.175875599999998,
            "longitude": 83.5443366
        }
    },
    {
        "name": "Jama Masjid",
        "main_category": "Mosque",
        "address": "5H66+F9V Jama Masjid, Gabarua, Maharajganj, Uttar Pradesh 273303",
        "detailed_address": {
            "ward": "Gabarua",
            "street": "5H66+F9V",
            "city": "Maharajganj",
            "postal_code": "273303",
            "state": "Uttar Pradesh",
            "country_code": "IN"
        },
        "images": [
            {
                "about": "All",
                "link": "https://lh5.googleusercontent.com/p/AF1QipNDgXtvLry_GIfuKu9a4KaW7z5lduozzE3k51aq=w461-h298-k-no"
            }
        ],
        "link": "https://www.google.com/maps/place/Jama+Masjid/data=!4m7!3m6!1s0x3996a9b202af896b:0x6860720e9b4b333a!8m2!3d27.1612496!4d83.5609334!16s%2Fg%2F11fx7mvn1v!19sChIJa4mvArKpljkROjNLmw5yYGg?authuser=0&hl=en&rclk=1",
        "coordinates": {
            "latitude": 27.161249599999998,
            "longitude": 83.5609334
        }
    },
    {
        "name": "Noori Jama Masjid",
        "main_category": "Mosque",
        "address": "4HX7+V5W Noori Jama Masjid, Bismil Nagar, Maharajganj, Uttar Pradesh 273303",
        "detailed_address": {
            "ward": "Bismil Nagar",
            "street": "4HX7+V5W",
            "city": "Maharajganj",
            "postal_code": "273303",
            "state": "Uttar Pradesh",
            "country_code": "IN"
        },
        "images": [
            {
                "about": "All",
                "link": "https://lh5.googleusercontent.com/p/AF1QipMRlKeStIYySz-WND9EEufxAfL8GpRKycduDZR3=w253-h298-k-no"
            }
        ],
        "link": "https://www.google.com/maps/place/Noori+Jama+Masjid/data=!4m7!3m6!1s0x3996a9bb7f8f4da5:0x4843da392d1f4bcd!8m2!3d27.1497348!4d83.562953!16s%2Fg%2F11c5xmgqgc!19sChIJpU2Pf7upljkRzUsfLTnaQ0g?authuser=0&hl=en&rclk=1",
        "coordinates": {
            "latitude": 27.149734799999997,
            "longitude": 83.562953
        }
    },
    {
        "name": "Madeena Masjid",
        "main_category": "Mosque",
        "address": "5H47+8FX Madeena Masjid, Chowk Rd, Azad Nagar, Bismil Nagar, Maharajganj, Uttar Pradesh 273303",
        "detailed_address": {
            "ward": "Azad Nagar, Bismil Nagar",
            "street": "5H47+8FX, Chowk Rd",
            "city": "Maharajganj",
            "postal_code": "273303",
            "state": "Uttar Pradesh",
            "country_code": "IN"
        },
        "images": [
            {
                "about": "All",
                "link": "https://lh5.googleusercontent.com/p/AF1QipN0lXdBNNYpuC-6wwf6pKxaM_7yHEM1KvdyYTad=w224-h299-k-no"
            },
            {
                "about": "Dome",
                "link": "https://lh5.googleusercontent.com/p/AF1QipPHkU1fEQVehho8AaHFXg_Uzv8mDyPE9jEPZECB=w224-h398-k-no"
            },
            {
                "about": "Videos",
                "link": "https://lh5.googleusercontent.com/p/AF1QipOIluVc0qYFZS-FLfzhbL0cL7TFm_H7H0GRr9wt=w224-h398-k-no"
            }
        ],
        "link": "https://www.google.com/maps/place/Madeena+Masjid/data=!4m7!3m6!1s0x3996a9b09c9fef21:0x1976ac3d7cc9ef35!8m2!3d27.1558549!4d83.5637273!16s%2Fg%2F11dxbd5rw8!19sChIJIe-fnLCpljkRNe_JfD2sdhk?authuser=0&hl=en&rclk=1",
        "coordinates": {
            "latitude": 27.155854899999998,
            "longitude": 83.5637273
        }
    },
    {
        "name": "Al Aqsa Masjid",
        "main_category": "Mosque",
        "address": "4HW4+5GM Al Aqsa Masjid, Unnamed Road, Shastri Nagar, Maharajganj, Uttar Pradesh 273303",
        "detailed_address": {
            "ward": "Shastri Nagar",
            "street": "4HW4+5GM, Unnamed Road",
            "city": "Maharajganj",
            "postal_code": "273303",
            "state": "Uttar Pradesh",
            "country_code": "IN"
        },
        "images": [
            {
                "about": "All",
                "link": "https://lh5.googleusercontent.com/p/AF1QipND2lo5GFTHnWkDgO-b5QXl9sQIcT70Fxd0sdSh=w529-h298-k-no"
            },
            {
                "about": "Street View & 360deg",
                "link": "https://streetviewpixels-pa.googleapis.com/v1/thumbnail?panoid=9JdtJYreby1pEzKnJA_1Uw&cb_client=maps_sv.tactile.gps&w=224&h=298&yaw=230.79012&pitch=0&thumbfov=100"
            }
        ],
        "link": "https://www.google.com/maps/place/Al+Aqsa+Masjid/data=!4m7!3m6!1s0x3996a918851a0aa3:0x1f96573e7cf75e15!8m2!3d27.1454722!4d83.5563124!16s%2Fg%2F11ghtr_m3q!19sChIJowoahRipljkRFV73fD5Xlh8?authuser=0&hl=en&rclk=1",
        "coordinates": {
            "latitude": 27.1454722,
            "longitude": 83.5563124
        }
    },
    {
        "name": "Eidgaah Gabarua",
        "main_category": "Mosque",
        "address": "Eidgaah Gabarua, gabaduan eidgaah, Azad Nagar, Gabarua, Maharajganj, Uttar Pradesh 273303",
        "detailed_address": {
            "ward": "Azad Nagar, Gabarua",
            "street": "gabaduan eidgaah",
            "city": "Maharajganj",
            "postal_code": "273303",
            "state": "Uttar Pradesh",
            "country_code": "IN"
        },
        "images": [],
        "link": "https://www.google.com/maps/place/Eidgaah+Gabarua/data=!4m7!3m6!1s0x3996a9b0653629a9:0x33967a52664bed1a!8m2!3d27.1558281!4d83.5623604!16s%2Fg%2F11cjj1m811!19sChIJqSk2ZbCpljkRGu1LZlJ6ljM?authuser=0&hl=en&rclk=1",
        "coordinates": {
            "latitude": 27.155828099999997,
            "longitude": 83.5623604
        }
    },
    {
        "name": "Nooran Tola mosque",
        "main_category": "Mosque",
        "address": "2HC8+8F3 Nooran Tola mosque, Maharajganj, Uttar Pradesh 273302",
        "detailed_address": {
            "ward": null,
            "street": "2HC8+8F3",
            "city": "Maharajganj",
            "postal_code": null,
            "state": "Uttar Pradesh",
            "country_code": "IN"
        },
        "images": [
            {
                "about": "All",
                "link": "https://lh5.googleusercontent.com/p/AF1QipPYdqiKlcf5z-PbgdkHJaB_ytIbUuqpeW9vFr68=w224-h298-k-no"
            },
            {
                "about": "Videos",
                "link": "https://lh5.googleusercontent.com/p/AF1QipPdPAS55D2-Ci_clef656Y_OW5_z5bSDUTxHIwr=w224-h977-k-no"
            }
        ],
        "link": "https://www.google.com/maps/place/Nooran+Tola+mosque/data=!4m7!3m6!1s0x3991552c6db20a3b:0xb77efa3b8d53b168!8m2!3d27.0207516!4d83.5661698!16s%2Fg%2F11gw2kjfqn!19sChIJOwqybSxVkTkRaLFTjTv6frc?authuser=0&hl=en&rclk=1",
        "coordinates": {
            "latitude": 27.0207516,
            "longitude": 83.5661698
        }
    },
    {
        "name": "msjid raampurvaa",
        "main_category": "Mosque",
        "address": "4HCM+J3G msjid raampurvaa, raampurvaa cauraahaa, Maharajganj, Siswa Babu, Uttar Pradesh 273303",
        "detailed_address": {
            "ward": null,
            "street": "4HCM+J3G raampurvaa cauraahaa",
            "city": "Maharajganj, Siswa Babu",
            "postal_code": "273303",
            "state": "Uttar Pradesh",
            "country_code": "IN"
        },
        "images": [
            {
                "about": "All",
                "link": "https://lh5.googleusercontent.com/p/AF1QipMqT2vbfYOmRzs2_osEImrRTl9_r5if7JXrLWMd=w224-h298-k-no"
            }
        ],
        "link": "https://www.google.com/maps/place/%E0%A4%AE%E0%A4%B8%E0%A5%8D%E0%A4%9C%E0%A4%BF%E0%A4%A6+%E0%A4%B0%E0%A4%BE%E0%A4%AE%E0%A4%AA%E0%A5%81%E0%A4%B0%E0%A4%B5%E0%A4%BE/data=!4m7!3m6!1s0x3996a9f80c6bd317:0x60c7f30d017865af!8m2!3d27.1215625!4d83.5826875!16s%2Fg%2F11gc1sl6y_!19sChIJF9NrDPipljkRr2V4AQ3zx2A?authuser=0&hl=en&rclk=1",
        "coordinates": {
            "latitude": 27.1215625,
            "longitude": 83.58268749999999
        }
    },
    {
        "name": "MASJID-E-MUHAMMADIA",
        "main_category": "Mosque",
        "address": "MASJID-E-MUHAMMADIA, Chaupariya, Maharajganj, Mahuawa, Uttar Pradesh 273303",
        "detailed_address": {
            "ward": "Chaupariya",
            "street": null,
            "city": "Maharajganj, Mahuawa",
            "postal_code": "273303",
            "state": "Uttar Pradesh",
            "country_code": "IN"
        },
        "images": [
            {
                "about": "All",
                "link": "https://lh5.googleusercontent.com/p/AF1QipMoPftXGpDQFlZGn9YJfjEwiSEAF7FtjxxWq2Wt=w397-h298-k-no"
            },
            {
                "about": "By owner",
                "link": "https://lh5.googleusercontent.com/p/AF1QipMznvLCssVZ07AIAeU7Nx4Aiev9ePCutJkf2Uvn=w397-h298-k-no"
            }
        ],
        "link": "https://www.google.com/maps/place/MASJID-E-MUHAMMADIA/data=!4m7!3m6!1s0x3996a90fddf26d63:0x43cca23771de1add!8m2!3d27.1423024!4d83.5371338!16s%2Fg%2F11hz_t3pp_!19sChIJY23y3Q-pljkR3RrecTeizEM?authuser=0&hl=en&rclk=1",
        "coordinates": {
            "latitude": 27.1423024,
            "longitude": 83.53713379999999
        }
    },
    {
        "name": "Quba Masjid",
        "main_category": "Mosque",
        "address": "5H65+6HW Quba Masjid, Unnamed Road, Gabarua, Maharajganj, Uttar Pradesh 273303",
        "detailed_address": {
            "ward": "Gabarua",
            "street": "5H65+6HW, Unnamed Road",
            "city": "Maharajganj",
            "postal_code": "273303",
            "state": "Uttar Pradesh",
            "country_code": "IN"
        },
        "images": [
            {
                "about": "All",
                "link": "https://lh5.googleusercontent.com/p/AF1QipNSH95e9RkOxtgkZuF4-yWPczd31xAeRoGiJ1bG=w397-h298-k-no"
            },
            {
                "about": "Videos",
                "link": "https://lh5.googleusercontent.com/p/AF1QipPiVSa3oLchlXLtGn6rvGTki5RqpuRvJwd5aDJ0=w224-h398-k-no"
            }
        ],
        "link": "https://www.google.com/maps/place/Quba+Masjid/data=!4m7!3m6!1s0x3996a921a0c8898f:0xc3c5f9430ee6f809!8m2!3d27.1606141!4d83.5589657!16s%2Fg%2F11f9wwpngy!19sChIJj4nIoCGpljkRCfjmDkP5xcM?authuser=0&hl=en&rclk=1",
        "coordinates": {
            "latitude": 27.1606141,
            "longitude": 83.5589657
        }
    },
    {
        "name": "Sunni Soharwardi Jama Masjid",
        "main_category": "Mosque",
        "address": "Sunni Soharwardi Jama Masjid, Front of ssb camp, Chiurahan, Rampur Rd, Uttar Pradesh 273303",
        "detailed_address": {
            "ward": null,
            "street": "Front of ssb camp, Chiurahan, Rampur Rd",
            "city": "Chauparia, Maharajganj",
            "postal_code": "273303",
            "state": "Uttar Pradesh",
            "country_code": "IN"
        },
        "images": [
            {
                "about": "All",
                "link": "https://lh5.googleusercontent.com/p/AF1QipM0cC3Y1i-tF0rer7m7YrnA6hcHRewZ3wiH5o6G=w397-h298-k-no"
            },
            {
                "about": "Dome",
                "link": "https://lh5.googleusercontent.com/p/AF1QipN_s5A00sdnt0pH4P6Zv99aziw-505EPssIpSzK=w390-h298-k-no"
            }
        ],
        "link": "https://www.google.com/maps/place/Sunni+Soharwardi+Jama+Masjid/data=!4m7!3m6!1s0x3996a9d38552e627:0x6f678a63897b5e4c!8m2!3d27.1585442!4d83.5535135!16s%2Fg%2F11q2xx1kgh!19sChIJJ-ZShdOpljkRTF57iWOKZ28?authuser=0&hl=en&rclk=1",
        "coordinates": {
            "latitude": 27.158544199999998,
            "longitude": 83.5535135
        }
    },
    {
        "name": "Mohammadi masjid",
        "main_category": "Mosque",
        "address": "5H22+V32 Mohammadi masjid, Chiuraha Khas, Maharajganj, Uttar Pradesh 273303",
        "detailed_address": {
            "ward": null,
            "street": "5H22+V32, Chiuraha Khas",
            "city": "Maharajganj, Chauparia",
            "postal_code": "273303",
            "state": "Uttar Pradesh",
            "country_code": "IN"
        },
        "images": [],
        "link": "https://www.google.com/maps/place/Mohammadi+masjid/data=!4m7!3m6!1s0x3996a9fca2a586b1:0x58f1b1af38f710c8!8m2!3d27.1521357!4d83.5501276!16s%2Fg%2F11q3nxpfxg!19sChIJsYalovypljkRyBD3OK-x8Vg?authuser=0&hl=en&rclk=1",
        "coordinates": {
            "latitude": 27.1521357,
            "longitude": 83.5501276
        }
    },
    {
        "name": "mosque",
        "main_category": "Mosque",
        "address": "5H26+FW3 mosque, Ward No 11, Maupakar, Maharajganj, Uttar Pradesh 273303",
        "detailed_address": {
            "ward": "Ward No 11, Maupakar",
            "street": "5H26+FW3",
            "city": "Maharajganj",
            "postal_code": "273303",
            "state": "Uttar Pradesh",
            "country_code": "IN"
        },
        "images": [
            {
                "about": "All",
                "link": "https://streetviewpixels-pa.googleapis.com/v1/thumbnail?panoid=TLAuISezt9GcNLVwiTCbvQ&cb_client=maps_sv.tactile.gps&w=224&h=298&yaw=342.9666&pitch=0&thumbfov=100"
            },
            {
                "about": "Street View & 360deg",
                "link": "https://streetviewpixels-pa.googleapis.com/v1/thumbnail?panoid=TLAuISezt9GcNLVwiTCbvQ&cb_client=maps_sv.tactile.gps&w=224&h=298&yaw=342.9666&pitch=0&thumbfov=100"
            }
        ],
        "link": "https://www.google.com/maps/place/mosque/data=!4m7!3m6!1s0x3996a9bb0d5e2bf5:0x38aab5e3c466ae61!8m2!3d27.1511293!4d83.5623007!16s%2Fg%2F11c7ssb20y!19sChIJ9SteDbupljkRYa5mxOO1qjg?authuser=0&hl=en&rclk=1",
        "coordinates": {
            "latitude": 27.151129299999997,
            "longitude": 83.5623007
        }
    },
    {
        "name": "Makki masjid mkhy msjd",
        "main_category": "Mosque",
        "address": "4HX5+WV9 Makki masjid mkhy msjd, Unnamed Road, Bismil Nagar, Maharajganj, Uttar Pradesh 273303",
        "detailed_address": {
            "ward": "Bismil Nagar",
            "street": "4HX5+WV9, Unnamed Road",
            "city": "Maharajganj",
            "postal_code": "273303",
            "state": "Uttar Pradesh",
            "country_code": "IN"
        },
        "images": [
            {
                "about": "All",
                "link": "https://lh5.googleusercontent.com/p/AF1QipM-SUC5VifbPQYuTrki0FtBJS1WSl14WPfTi4ZX=w224-h298-k-no"
            }
        ],
        "link": "https://www.google.com/maps/place/Makki+masjid+%D9%85%DA%A9%DB%8C+%D9%85%D8%B3%D8%AC%D8%AF%E2%80%AD/data=!4m7!3m6!1s0x3996a9da95d215b5:0xe3f03f7bcd2475ca!8m2!3d27.1497791!4d83.5597497!16s%2Fg%2F11rxrzbpt1!19sChIJtRXSldqpljkRynUkzXs_8OM?authuser=0&hl=en&rclk=1",
        "coordinates": {
            "latitude": 27.1497791,
            "longitude": 83.5597497
        }
    },
    {
        "name": "Masjid E Rahmaniya",
        "main_category": "Mosque",
        "address": "Masjid E Rahmaniya, Patel Nagar ward number 13, Maharajganj, Uttar Pradesh",
        "detailed_address": {
            "ward": null,
            "street": "Patel Nagar ward number 13",
            "city": "Maharajganj, Chauparia",
            "postal_code": null,
            "state": "Uttar Pradesh",
            "country_code": "IN"
        },
        "images": [],
        "link": "https://www.google.com/maps/place/Masjid+E+Rahmaniya/data=!4m7!3m6!1s0x3996a934ea0c9f19:0xf766f05ab9c0f66!8m2!3d27.1513186!4d83.549257!16s%2Fg%2F11h713ycsf!19sChIJGZ8M6jSpljkRZg-cqwVvdg8?authuser=0&hl=en&rclk=1",
        "coordinates": {
            "latitude": 27.1513186,
            "longitude": 83.549257
        }
    },
    {
        "name": "Azizi Masjid",
        "main_category": "Mosque",
        "address": "5H65+2W4 Azizi Masjid, Gabarua, Maharajganj, Uttar Pradesh 273303",
        "detailed_address": {
            "ward": "Gabarua",
            "street": "5H65+2W4",
            "city": "Maharajganj",
            "postal_code": "273303",
            "state": "Uttar Pradesh",
            "country_code": "IN"
        },
        "images": [],
        "link": "https://www.google.com/maps/place/Azizi+Masjid/data=!4m7!3m6!1s0x3996a9b734e61b5b:0x8008477330245fa5!8m2!3d27.1600148!4d83.559837!16s%2Fg%2F11j5s5w1k9!19sChIJWxvmNLepljkRpV8kMHNHCIA?authuser=0&hl=en&rclk=1",
        "coordinates": {
            "latitude": 27.1600148,
            "longitude": 83.559837
        }
    },
    {
        "name": "Masjid",
        "main_category": "Mosque",
        "address": "Masjid, Pant Nagar Ward No 18 Amrutiya Bazar, Nagar Palika Parishad, Anarutia, Maharajganj, Uttar Pradesh 273303",
        "detailed_address": {
            "ward": "Anarutia",
            "street": "Pant Nagar Ward No 18 Amrutiya Bazar, Nagar Palika Parishad",
            "city": "Maharajganj",
            "postal_code": "273303",
            "state": "Uttar Pradesh",
            "country_code": "IN"
        },
        "images": [
            {
                "about": "All",
                "link": "https://lh5.googleusercontent.com/p/AF1QipMdd7lHH_zfsPfKIfChkeIRvD1cWxjE2MrGCPe6=w224-h298-k-no"
            }
        ],
        "link": "https://www.google.com/maps/place/Masjid/data=!4m7!3m6!1s0x3996a99ad6cebddd:0xb8632c590b2ed258!8m2!3d27.1457297!4d83.5666824!16s%2Fg%2F11rss7sn26!19sChIJ3b3O1pqpljkRWNIuC1ksY7g?authuser=0&hl=en&rclk=1",
        "coordinates": {
            "latitude": 27.1457297,
            "longitude": 83.56668239999999
        }
    },
    {
        "name": "Gausul wara Masjid",
        "main_category": "Mosque",
        "address": "4HV6+RWJ Gausul wara Masjid, Lohia Nagar, Bismil Nagar, Maharajganj, Uttar Pradesh 273303",
        "detailed_address": {
            "ward": "Lohia Nagar, Bismil Nagar",
            "street": "4HV6+RWJ",
            "city": "Maharajganj",
            "postal_code": null,
            "state": "Uttar Pradesh",
            "country_code": "IN"
        },
        "images": [
            {
                "about": "All",
                "link": "https://streetviewpixels-pa.googleapis.com/v1/thumbnail?panoid=Xpj48B0_Wmi2ME7fzYMV4g&cb_client=maps_sv.tactile.gps&w=224&h=298&yaw=322.86478&pitch=0&thumbfov=100"
            },
            {
                "about": "Street View & 360deg",
                "link": "https://streetviewpixels-pa.googleapis.com/v1/thumbnail?panoid=Xpj48B0_Wmi2ME7fzYMV4g&cb_client=maps_sv.tactile.gps&w=224&h=298&yaw=322.86478&pitch=0&thumbfov=100"
            }
        ],
        "link": "https://www.google.com/maps/place/Gausul+wara+Masjid/data=!4m7!3m6!1s0x3996a9bd6fadd2c5:0xe09bf575a2fd7a3!8m2!3d27.1445835!4d83.5622505!16s%2Fg%2F11hd1qn0yl!19sChIJxdKtb72pljkRo9cvWle_CQ4?authuser=0&hl=en&rclk=1",
        "coordinates": {
            "latitude": 27.1445835,
            "longitude": 83.56225049999999
        }
    },
    {
        "name": "Badi Masjid",
        "main_category": "Mosque",
        "address": "4HV6+XV5 Badi Masjid, Veer Bahadur Nagar, Bismil Nagar, Maharajganj, Uttar Pradesh 273303",
        "detailed_address": {
            "ward": "Veer Bahadur Nagar, Bismil Nagar",
            "street": "4HV6+XV5",
            "city": "Maharajganj",
            "postal_code": "273303",
            "state": "Uttar Pradesh",
            "country_code": "IN"
        },
        "images": [
            {
                "about": "All",
                "link": "https://streetviewpixels-pa.googleapis.com/v1/thumbnail?panoid=Rchai0Gy1kkOIT8tZl26Pg&cb_client=maps_sv.tactile.gps&w=224&h=298&yaw=268.7736&pitch=0&thumbfov=100"
            },
            {
                "about": "Street View & 360deg",
                "link": "https://streetviewpixels-pa.googleapis.com/v1/thumbnail?panoid=Rchai0Gy1kkOIT8tZl26Pg&cb_client=maps_sv.tactile.gps&w=224&h=298&yaw=268.7736&pitch=0&thumbfov=100"
            }
        ],
        "link": "https://www.google.com/maps/place/Badi+Masjid/data=!4m7!3m6!1s0x3996a99817e0095b:0x1bcbc00505824bbf!8m2!3d27.1448902!4d83.562232!16s%2Fg%2F11fqcw9fft!19sChIJWwngF5ipljkRv0uCBQXAyxs?authuser=0&hl=en&rclk=1",
        "coordinates": {
            "latitude": 27.1448902,
            "longitude": 83.562232
        }
    },
    {
        "name": "Masjid surhurwa",
        "main_category": "Mosque",
        "address": "4G6G+6GW Masjid surhurwa, Maharajganj, Netasurhurawa, Uttar Pradesh 273303",
        "detailed_address": {
            "ward": null,
            "street": "4G6G+6GW",
            "city": "Maharajganj, Netasurhurawa",
            "postal_code": "273303",
            "state": "Uttar Pradesh",
            "country_code": "IN"
        },
        "images": [],
        "link": "https://www.google.com/maps/place/Masjid+surhurwa/data=!4m7!3m6!1s0x3996ab485e26d4f9:0x1ad7af59d99848f2!8m2!3d27.1106495!4d83.52627!16s%2Fg%2F11sb5bzg2b!19sChIJ-dQmXkirljkR8kiY2Vmv1xo?authuser=0&hl=en&rclk=1",
        "coordinates": {
            "latitude": 27.110649499999997,
            "longitude": 83.52627
        }
    }
]