[
    {
        "name": "Jama Masjid",
        "main_category": "Mosque",
        "address": "2RHQ+4FM Jama Masjid, Jama Masjid Telhara, Om Nagar, Telhara, Maharashtra 444108",
        "detailed_address": {
            "ward": "Om Nagar",
            "street": "2RHQ+4FM, Jama Masjid Telhara",
            "city": "Telhara",
            "postal_code": "444108",
            "state": "Maharashtra",
            "country_code": "IN"
        },
        "images": [
            {
                "about": "All",
                "link": "https://lh5.googleusercontent.com/p/AF1QipMeKnreLz1Aqn0tIoA3i55jYoHytUXb93Ybmeer=w529-h298-k-no"
            },
            {
                "about": "Videos",
                "link": "https://lh5.googleusercontent.com/p/AF1QipN9f9NG9l2zM9k73Ej917jnBh9hSZ7WxoWJdeFM=w224-h398-k-no"
            }
        ],
        "link": "https://www.google.com/maps/place/Jama+Masjid/data=!4m7!3m6!1s0x3bd714c6348b61af:0xcbfd7b1a85ca5a55!8m2!3d21.0278295!4d76.8386645!16s%2Fg%2F11c5s8jmgb!19sChIJr2GLNMYU1zsRVVrKhRp7_cs?authuser=0&hl=en&rclk=1",
        "coordinates": {
            "latitude": 21.0278295,
            "longitude": 76.8386645
        }
    },
    {
        "name": "Takiya Masjid",
        "main_category": "Mosque",
        "address": "2RHQ+JG2 Takiya Masjid, Om Nagar, Telhara, Maharashtra 444108",
        "detailed_address": {
            "ward": "Om Nagar",
            "street": "2RHQ+JG2",
            "city": "Telhara",
            "postal_code": "444108",
            "state": "Maharashtra",
            "country_code": "IN"
        },
        "images": [],
        "link": "https://www.google.com/maps/place/Takiya+Masjid/data=!4m7!3m6!1s0x3bd714c7c722e507:0xba283b87f8751dd9!8m2!3d21.0290186!4d76.8387784!16s%2Fg%2F11g659_6c_!19sChIJB-Uix8cU1zsR2R11-Ic7KLo?authuser=0&hl=en&rclk=1",
        "coordinates": {
            "latitude": 21.0290186,
            "longitude": 76.8387784
        }
    },
    {
        "name": "Masjid Ibrahim",
        "main_category": "Mosque",
        "address": "Masjid Ibrahim, Telhara, Maharashtra 444108",
        "detailed_address": {
            "ward": null,
            "street": null,
            "city": "Telhara",
            "postal_code": "444108",
            "state": "Maharashtra",
            "country_code": "IN"
        },
        "images": [
            {
                "about": "All",
                "link": "https://lh5.googleusercontent.com/p/AF1QipOdxL_2T1a0daHTYCBrlKBCIbxumoprL-3m78h8=w397-h298-k-no"
            }
        ],
        "link": "https://www.google.com/maps/place/Masjid+Ibrahim/data=!4m7!3m6!1s0x3bd7157c75a22fc9:0xd2e7e8b6af43cf7f!8m2!3d21.0305021!4d76.8436323!16s%2Fg%2F11gs4s_h19!19sChIJyS-idXwV1zsRf89Dr7bo59I?authuser=0&hl=en&rclk=1",
        "coordinates": {
            "latitude": 21.0305021,
            "longitude": 76.8436323
        }
    },
    {
        "name": "Masjid e Ayyub Charminar",
        "main_category": "Musalla",
        "address": "2RGV+58C Masjid e Ayyub Charminar, Computer's Circle, Rathi Jin, Telhara, Maharashtra 444108",
        "detailed_address": {
            "ward": "Computer's Circle, Rathi Jin",
            "street": "2RGV+58C",
            "city": "Telhara",
            "postal_code": "444108",
            "state": "Maharashtra",
            "country_code": "IN"
        },
        "images": [
            {
                "about": "All",
                "link": "https://lh5.googleusercontent.com/p/AF1QipP7_zsrm7BZn9EGdwh3d5cWNbPoFAhqSLsZQ8VE=w224-h398-k-no"
            }
        ],
        "link": "https://www.google.com/maps/place/Masjid+e+Ayyub+Charminar/data=!4m7!3m6!1s0x3bd7154c15c7471b:0xee883cbacbe8ab3c!8m2!3d21.025427!4d76.8432663!16s%2Fg%2F11txzkst6y!19sChIJG0fHFUwV1zsRPKvoy7o8iO4?authuser=0&hl=en&rclk=1",
        "coordinates": {
            "latitude": 21.025427,
            "longitude": 76.8432663
        }
    },
    {
        "name": "Mohammadiya masjid",
        "main_category": "Mosque",
        "address": "3VX4+4FF Mohammadiya masjid, Hiwarkhed - Telhara Rd, Gordha, Maharashtra 444103",
        "detailed_address": {
            "ward": null,
            "street": "3VX4+4FF, Hiwarkhed - Telhara Rd",
            "city": "Gordha",
            "postal_code": null,
            "state": "Maharashtra",
            "country_code": "IN"
        },
        "images": [
            {
                "about": "All",
                "link": "https://lh5.googleusercontent.com/p/AF1QipPsn9Rxhm2fJfEZVgpk2g3ap2fPfgukeKW8oEyz=w397-h298-k-no"
            }
        ],
        "link": "https://www.google.com/maps/place/Mohammadiya+masjid/data=!4m7!3m6!1s0x3bd71383be0c4f8f:0xe6c1fd4b4391271b!8m2!3d21.0978138!4d76.8561734!16s%2Fg%2F11rxtb_3pp!19sChIJj08MvoMT1zsRGyeRQ0v9weY?authuser=0&hl=en&rclk=1",
        "coordinates": {
            "latitude": 21.097813799999997,
            "longitude": 76.8561734
        }
    },
    {
        "name": "Jama Masjid Yetala",
        "main_category": "Mosque",
        "address": "WQRX+M3X Jama Masjid Yetala, Yetala, Maharashtra 431809",
        "detailed_address": {
            "ward": null,
            "street": "WQRX+M3X",
            "city": "Yetala",
            "postal_code": "431809",
            "state": "Maharashtra",
            "country_code": "IN"
        },
        "images": [],
        "link": "https://www.google.com/maps/place/Jama+Masjid+Yetala/data=!4m7!3m6!1s0x3bce0f2e2e8f9759:0x2d1d79b453d8efe1!8m2!3d18.94179!4d77.7972106!16s%2Fg%2F11sdfzmdnt!19sChIJWZePLi4PzjsR4e_YU7R5HS0?authuser=0&hl=en&rclk=1",
        "coordinates": {
            "latitude": 18.941789999999997,
            "longitude": 77.7972106
        }
    },
    {
        "name": "Masjid-E-Hajrat Ali (RA)",
        "main_category": "Mosque",
        "address": "4WFV+FHQ Masjid-E-Hajrat Ali (RA), Tajnagar Adgaon Bk Ta, Dist, Telhara, Maharashtra",
        "detailed_address": {
            "ward": null,
            "street": "4WFV+FHQ, Tajnagar Adgaon Bk Ta, Dist",
            "city": "Telhara, Adgaon Budruk",
            "postal_code": null,
            "state": "Maharashtra",
            "country_code": "IN"
        },
        "images": [],
        "link": "https://www.google.com/maps/place/Masjid-E-Hajrat+Ali+%28RA%29/data=!4m7!3m6!1s0x3bd7116f45a993a7:0xb9f1eddb3169d4fc!8m2!3d21.1237128!4d76.9439939!16s%2Fg%2F11l6sfq85v!19sChIJp5OpRW8R1zsR_NRpMdvt8bk?authuser=0&hl=en&rclk=1",
        "coordinates": {
            "latitude": 21.1237128,
            "longitude": 76.9439939
        }
    },
    {
        "name": "Khadipura Jama masjid",
        "main_category": "Supermarket",
        "address": "Khadipura, Khadipura Jama masjid, Jama masjid chowk, Om Nagar, Telhara, Maharashtra 444108",
        "detailed_address": {
            "ward": "Om Nagar",
            "street": "Khadipura, Jama masjid chowk",
            "city": "Telhara",
            "postal_code": "444108",
            "state": "Maharashtra",
            "country_code": "IN"
        },
        "images": [],
        "link": "https://www.google.com/maps/place/Khadipura+Jama+masjid/data=!4m7!3m6!1s0x3bd715b5e849fd41:0xc85c705f67ecab84!8m2!3d21.0272962!4d76.8396926!16s%2Fg%2F11hyqbm3qh!19sChIJQf1J6LUV1zsRhKvsZ19wXMg?authuser=0&hl=en&rclk=1",
        "coordinates": {
            "latitude": 21.0272962,
            "longitude": 76.83969259999999
        }
    }
]