[
    {
        "name": "naamr'uup mchjid Namrup Masjid",
        "main_category": "Mosque",
        "address": "59W4+XG9 naamr'uup mchjid Namrup Masjid, Namrup, Assam 786623",
        "detailed_address": {
            "ward": null,
            "street": "59W4+XG9",
            "city": "Namrup",
            "postal_code": "786623",
            "state": "Assam",
            "country_code": "IN"
        },
        "images": [
            {
                "about": "All",
                "link": "https://lh5.googleusercontent.com/p/AF1QipMgzqixQEuGCs1ktX2JzkuO9REPCvLD1ZukZBpz=w397-h298-k-no"
            },
            {
                "about": "Street View & 360deg",
                "link": "https://streetviewpixels-pa.googleapis.com/v1/thumbnail?panoid=UbEZGOuRh3BJWbIIKZQu1Q&cb_client=maps_sv.tactile.gps&w=224&h=298&yaw=263.97122&pitch=0&thumbfov=100"
            }
        ],
        "link": "https://www.google.com/maps/place/%E0%A6%A8%E0%A6%BE%E0%A6%AE%E0%A7%B0%E0%A7%82%E0%A6%AA+%E0%A6%AE%E0%A6%9B%E0%A6%9C%E0%A6%BF%E0%A6%A6+Namrup+Masjid/data=!4m7!3m6!1s0x373f49a695d1b3a1:0xc341e1a95df3097a!8m2!3d27.1974023!4d95.356371!16s%2Fg%2F1hc66q7cp!19sChIJobPRlaZJPzcRegnzXanhQcM?authuser=0&hl=en&rclk=1",
        "coordinates": {
            "latitude": 27.1974023,
            "longitude": 95.356371
        }
    },
    {
        "name": "NAMRUP MILONPUR MASJID",
        "main_category": "Mosque",
        "address": "58X8+W6P NAMRUP MILONPUR MASJID, Namrup - Tingkhong Rd, Namrup Chah Bagicha, Namrup, Assam 786623",
        "detailed_address": {
            "ward": null,
            "street": "58X8+W6P, Namrup - Tingkhong Rd",
            "city": "Namrup Chah Bagicha, Namrup",
            "postal_code": "786623",
            "state": "Assam",
            "country_code": "IN"
        },
        "images": [
            {
                "about": "All",
                "link": "https://lh5.googleusercontent.com/p/AF1QipPSIUXYnH5hQ5qlvhq8VwJL_8OEKeLz5NluK_7b=w529-h298-k-no"
            }
        ],
        "link": "https://www.google.com/maps/place/NAMRUP+MILONPUR+MASJID/data=!4m7!3m6!1s0x373f49c4f86cd8ad:0xfcd38df4e8db0969!8m2!3d27.1998326!4d95.3155767!16s%2Fg%2F11j3s8w1xq!19sChIJrdhs-MRJPzcRaQnb6PSN0_w?authuser=0&hl=en&rclk=1",
        "coordinates": {
            "latitude": 27.199832599999997,
            "longitude": 95.3155767
        }
    },
    {
        "name": "Charminar Masjid",
        "main_category": "Mosque",
        "address": "59M2+659 Charminar Masjid, Namrup, Assam 786623",
        "detailed_address": {
            "ward": null,
            "street": "59M2+659",
            "city": "Namrup",
            "postal_code": null,
            "state": "Assam",
            "country_code": "IN"
        },
        "images": [],
        "link": "https://www.google.com/maps/place/Charminar+Masjid/data=!4m7!3m6!1s0x373f49f342225beb:0xe2952f9fd5f124f6!8m2!3d27.183047!4d95.350493!16s%2Fg%2F11g0khq0yd!19sChIJ61siQvNJPzcR9iTx1Z8vleI?authuser=0&hl=en&rclk=1",
        "coordinates": {
            "latitude": 27.183047,
            "longitude": 95.350493
        }
    }
]