[
    {
        "name": "Eidgah, uravakonda",
        "main_category": "Mosque",
        "address": "W6XV+9QV Eidgah, uravakonda, Uravakonda, Andhra Pradesh 515812",
        "detailed_address": {
            "ward": null,
            "street": "W6XV+9QV",
            "city": "Uravakonda",
            "postal_code": "515812",
            "state": "Andhra Pradesh",
            "country_code": "IN"
        },
        "images": [
            {
                "about": "All",
                "link": "https://lh5.googleusercontent.com/p/AF1QipNl0o_LQWUpVbxBG6wAnX2K0TIOTJbvVrMKfnZT=w397-h298-k-no"
            },
            {
                "about": "Videos",
                "link": "https://lh5.googleusercontent.com/p/AF1QipO6en9x94wtLtRB_x49XtonUXoS1fTgPMaBCUlN=w298-h298-k-no"
            }
        ],
        "link": "https://www.google.com/maps/place/Eidgah,+uravakonda/data=!4m7!3m6!1s0x3bb6d92bbb8d161f:0x6b1824858bb08863!8m2!3d14.9484852!4d77.2444291!16s%2Fg%2F11c558_v0q!19sChIJHxaNuyvZtjsRY4iwi4UkGGs?authuser=0&hl=en&rclk=1",
        "coordinates": {
            "latitude": 14.948485199999999,
            "longitude": 77.24442909999999
        }
    },
    {
        "name": "Jammiya masjid",
        "main_category": "Mosque",
        "address": "W7X3+J92 Jammiya masjid, Old Market, Uravakonda, Andhra Pradesh 515812",
        "detailed_address": {
            "ward": "Old Market",
            "street": "W7X3+J92",
            "city": "Uravakonda",
            "postal_code": "515812",
            "state": "Andhra Pradesh",
            "country_code": "IN"
        },
        "images": [
            {
                "about": "All",
                "link": "https://lh5.googleusercontent.com/p/AF1QipNtOFDt4qDjtzM_o_SkR-Vi30XswtLupBu9EN-h=w224-h298-k-no"
            }
        ],
        "link": "https://www.google.com/maps/place/Jammiya+masjid/data=!4m7!3m6!1s0x3bb6d93269e5edb3:0x85bbb0d5fec04f07!8m2!3d14.9490156!4d77.2534023!16s%2Fg%2F11f03pr4k3!19sChIJs-3laTLZtjsRB0_A_tWwu4U?authuser=0&hl=en&rclk=1",
        "coordinates": {
            "latitude": 14.9490156,
            "longitude": 77.25340229999999
        }
    },
    {
        "name": "Madeena Masjid",
        "main_category": "Mosque",
        "address": "W6QW+63Q Madeena Masjid, Lakshmi Narasimha Colony, Uravakonda, Andhra Pradesh 515812",
        "detailed_address": {
            "ward": "Lakshmi Narasimha Colony",
            "street": "W6QW+63Q",
            "city": "Uravakonda",
            "postal_code": "515812",
            "state": "Andhra Pradesh",
            "country_code": "IN"
        },
        "images": [
            {
                "about": "All",
                "link": "https://lh5.googleusercontent.com/p/AF1QipNe-pesGgC2fqvRdjUGzMMtbyhXgI7iemoF8LVg=w529-h298-k-no"
            },
            {
                "about": "Videos",
                "link": "https://lh5.googleusercontent.com/p/AF1QipNwTDdRC4Tb3L8WmCmOX2-MI9XLQAkTHIzd-TV3=w224-h395-k-no"
            }
        ],
        "link": "https://www.google.com/maps/place/Madeena+Masjid/data=!4m7!3m6!1s0x3bb6d9e5e339d2ab:0x43e935eeddd5bf4!8m2!3d14.9380929!4d77.2452395!16s%2Fg%2F11gmzxqybf!19sChIJq9I54-XZtjsR9Fvd7V6TPgQ?authuser=0&hl=en&rclk=1",
        "coordinates": {
            "latitude": 14.9380929,
            "longitude": 77.2452395
        }
    },
    {
        "name": "Ayesha masjid",
        "main_category": "Place of worship",
        "address": "W6MW+J7M Ayesha masjid, Uravakonda, Andhra Pradesh 515812",
        "detailed_address": {
            "ward": null,
            "street": "W6MW+J7M",
            "city": "Uravakonda",
            "postal_code": null,
            "state": "Andhra Pradesh",
            "country_code": "IN"
        },
        "images": [
            {
                "about": "All",
                "link": "https://lh5.googleusercontent.com/p/AF1QipP4uvCXxPLGV1PPm-6RuZXm5wAAGowfNYfAEiYx=w529-h298-k-no"
            }
        ],
        "link": "https://www.google.com/maps/place/Ayesha+masjid/data=!4m7!3m6!1s0x3bb6d934b0d9a4cf:0x77d0cf96964c317c!8m2!3d14.9340807!4d77.2456729!16s%2Fg%2F11nmckbp0z!19sChIJz6TZsDTZtjsRfDFMlpbP0Hc?authuser=0&hl=en&rclk=1",
        "coordinates": {
            "latitude": 14.934080699999999,
            "longitude": 77.2456729
        }
    },
    {
        "name": "Masjid Bilal",
        "main_category": "Museum",
        "address": "Masjid Bilal, Bellary Road, Uravakonda, Andhra Pradesh 515812",
        "detailed_address": {
            "ward": null,
            "street": "Bellary Road",
            "city": "Uravakonda",
            "postal_code": "515812",
            "state": "Andhra Pradesh",
            "country_code": "IN"
        },
        "images": [
            {
                "about": "All",
                "link": "https://lh5.googleusercontent.com/p/AF1QipNrJ2KVXRnPpJe0NYsJPc7jvdxbDx1wahJ57oQf=w224-h398-k-no"
            }
        ],
        "link": "https://www.google.com/maps/place/Masjid+Bilal/data=!4m7!3m6!1s0x3bb6d9263eff09e7:0xe6400009f3bbbd8!8m2!3d14.9462719!4d77.2527211!16s%2Fg%2F11j8k461md!19sChIJ5wn_PibZtjsR2Ls7nwAAZA4?authuser=0&hl=en&rclk=1",
        "coordinates": {
            "latitude": 14.9462719,
            "longitude": 77.2527211
        }
    },
    {
        "name": "Mamma Masjid",
        "main_category": "Mosque",
        "address": "W7R6+Q9V Mamma Masjid, Uravakonda, Andhra Pradesh 515812",
        "detailed_address": {
            "ward": null,
            "street": "W7R6+Q9V",
            "city": "Uravakonda",
            "postal_code": "515812",
            "state": "Andhra Pradesh",
            "country_code": "IN"
        },
        "images": [],
        "link": "https://www.google.com/maps/place/Mamma+Masjid/data=!4m7!3m6!1s0x3bb6d9ab8e809ea3:0xc1510a3bfbca462b!8m2!3d14.9419776!4d77.2609133!16s%2Fg%2F11hzv0d_c5!19sChIJo56AjqvZtjsRK0bK-zsKUcE?authuser=0&hl=en&rclk=1",
        "coordinates": {
            "latitude": 14.9419776,
            "longitude": 77.2609133
        }
    },
    {
        "name": "Khila masjid",
        "main_category": "Mosque",
        "address": "W7X5+RHQ Khila masjid, Uravakonda, Andhra Pradesh 515812",
        "detailed_address": {
            "ward": null,
            "street": "W7X5+RHQ",
            "city": "Uravakonda",
            "postal_code": null,
            "state": "Andhra Pradesh",
            "country_code": "IN"
        },
        "images": [],
        "link": "https://www.google.com/maps/place/Khila+masjid/data=!4m7!3m6!1s0x3bb6d986986122ab:0x8085a00e019ab2cc!8m2!3d14.9495956!4d77.2589764!16s%2Fg%2F11sdtfrfn8!19sChIJqyJhmIbZtjsRzLKaAQ6ghYA?authuser=0&hl=en&rclk=1",
        "coordinates": {
            "latitude": 14.949595599999999,
            "longitude": 77.2589764
        }
    },
    {
        "name": "mosque, Noorani",
        "main_category": "Mosque",
        "address": "W7W6+VM4 mosque, Noorani, Uravakonda, Andhra Pradesh 515812",
        "detailed_address": {
            "ward": null,
            "street": "W7W6+VM4",
            "city": "Uravakonda",
            "postal_code": "515812",
            "state": "Andhra Pradesh",
            "country_code": "IN"
        },
        "images": [],
        "link": "https://www.google.com/maps/place/mosque,+Noorani/data=!4m7!3m6!1s0x3bb6d9d789565db7:0x62ad78acf7081a3!8m2!3d14.9471405!4d77.2617172!16s%2Fg%2F11qmbystlt!19sChIJt11WidfZtjsRo4Fwz4rXKgY?authuser=0&hl=en&rclk=1",
        "coordinates": {
            "latitude": 14.9471405,
            "longitude": 77.26171719999999
        }
    },
    {
        "name": "Makka Masjid",
        "main_category": "Place of worship",
        "address": "W7R6+Q9V Makka Masjid, Uravakonda, Andhra Pradesh 515812",
        "detailed_address": {
            "ward": null,
            "street": "W7R6+Q9V",
            "city": "Uravakonda",
            "postal_code": "515812",
            "state": "Andhra Pradesh",
            "country_code": "IN"
        },
        "images": [],
        "link": "https://www.google.com/maps/place/Makka+Masjid/data=!4m7!3m6!1s0x3bb6d96cf74c7c0d:0x466eb2f5f65ff1ee!8m2!3d14.9419833!4d77.2609191!16s%2Fg%2F11fnx5tlhf!19sChIJDXxM92zZtjsR7vFf9vWybkY?authuser=0&hl=en&rclk=1",
        "coordinates": {
            "latitude": 14.941983299999999,
            "longitude": 77.2609191
        }
    },
    {
        "name": "Syed Jamaluddin Tasser Qadri",
        "main_category": "Shrine",
        "address": "Syed Jamaluddin Tasser Qadri, Aastana-E-Tasser, beside Jamia Masjid, near girls high school, Uravakonda, Andhra Pradesh 515812",
        "detailed_address": {
            "ward": null,
            "street": "Aastana-E-Tasser, beside Jamia Masjid, near girls high school",
            "city": "Uravakonda",
            "postal_code": "515812",
            "state": "Andhra Pradesh",
            "country_code": "IN"
        },
        "images": [],
        "link": "https://www.google.com/maps/place/Syed+Jamaluddin+Tasser+Qadri/data=!4m7!3m6!1s0x3bb6d90270477f45:0x53a88b90f930c27f!8m2!3d14.9460406!4d77.260551!16s%2Fg%2F11tc3xrm_q!19sChIJRX9HcALZtjsRf8Iw-ZCLqFM?authuser=0&hl=en&rclk=1",
        "coordinates": {
            "latitude": 14.9460406,
            "longitude": 77.26055099999999
        }
    },
    {
        "name": "Masjid",
        "main_category": "Mosque",
        "address": "W6CH+HVQ Masjid, Uravakonda, Chinna Musturu, Andhra Pradesh 515812",
        "detailed_address": {
            "ward": null,
            "street": "W6CH+HVQ",
            "city": "Uravakonda, Chinna Musturu",
            "postal_code": "515812",
            "state": "Andhra Pradesh",
            "country_code": "IN"
        },
        "images": [],
        "link": "https://www.google.com/maps/place/Masjid/data=!4m7!3m6!1s0x3bb6d9046c126f29:0x409b39f1bc109aed!8m2!3d14.9214573!4d77.2297246!16s%2Fg%2F11grbtzwzf!19sChIJKW8SbATZtjsR7ZoQvPE5m0A?authuser=0&hl=en&rclk=1",
        "coordinates": {
            "latitude": 14.9214573,
            "longitude": 77.2297246
        }
    }
]