[
    {
        "name": "Jama Masjid",
        "main_category": "Mosque",
        "address": "VRRX+3Q4 Jama Masjid, Railway Station Rd, Dharmabad, Maharashtra 431809",
        "detailed_address": {
            "ward": null,
            "street": "VRRX+3Q4, Railway Station Rd",
            "city": "Dharmabad",
            "postal_code": "431809",
            "state": "Maharashtra",
            "country_code": "IN"
        },
        "images": [
            {
                "about": "All",
                "link": "https://lh5.googleusercontent.com/p/AF1QipM9B7sxCk0IE-l8sMu5wcgXxPF-sJif-H_esXJ_=w241-h298-k-no"
            },
            {
                "about": "Videos",
                "link": "https://lh5.googleusercontent.com/p/AF1QipNQ1eWj3U8dilziDa0jl0jPUoLc4eHP3Nhg-1AJ=w224-h398-k-no"
            }
        ],
        "link": "https://www.google.com/maps/place/Jama+Masjid/data=!4m7!3m6!1s0x3bce095a6985d181:0x9376586762334371!8m2!3d18.8901443!4d77.8494451!16s%2Fg%2F1hhkhyjk2!19sChIJgdGFaVoJzjsRcUMzYmdYdpM?authuser=0&hl=en&rclk=1",
        "coordinates": {
            "latitude": 18.8901443,
            "longitude": 77.8494451
        }
    },
    {
        "name": "Masjd E Aqsa",
        "main_category": "Mosque",
        "address": "VVR2+VHR Masjd E Aqsa, Dharmabad, Maharashtra 431809",
        "detailed_address": {
            "ward": null,
            "street": "VVR2+VHR",
            "city": "Dharmabad",
            "postal_code": null,
            "state": "Maharashtra",
            "country_code": "IN"
        },
        "images": [
            {
                "about": "All",
                "link": "https://lh5.googleusercontent.com/p/AF1QipMatJPZpVx6cuX1ZhNYrmiKTLAvmZqVLbWKL-bg=w291-h298-k-no"
            }
        ],
        "link": "https://www.google.com/maps/place/Masjd+E+Aqsa/data=!4m7!3m6!1s0x3bce095b1f233657:0xe641b52499a7beb7!8m2!3d18.8922486!4d77.8513773!16s%2Fg%2F11gfnfknkt!19sChIJVzYjH1sJzjsRt76nmSS1QeY?authuser=0&hl=en&rclk=1",
        "coordinates": {
            "latitude": 18.8922486,
            "longitude": 77.8513773
        }
    },
    {
        "name": "Masjid E Umar Farooq Ahle Hadees",
        "main_category": "Mosque",
        "address": "VRRX+HJ8 Masjid E Umar Farooq Ahle Hadees, Dharmabad, Maharashtra 431809",
        "detailed_address": {
            "ward": null,
            "street": "VRRX+HJ8",
            "city": "Dharmabad",
            "postal_code": null,
            "state": "Maharashtra",
            "country_code": "IN"
        },
        "images": [
            {
                "about": "All",
                "link": "https://lh5.googleusercontent.com/p/AF1QipNf0BGOc104ne1hRurydJdkWqQcNRP9fx_P3-b-=w397-h298-k-no"
            }
        ],
        "link": "https://www.google.com/maps/place/Masjid+E+Umar+Farooq+Ahle+Hadees/data=!4m7!3m6!1s0x3bce095a8f63a4eb:0x47fa168662851729!8m2!3d18.8914116!4d77.8490799!16s%2Fg%2F11hckg7n50!19sChIJ66Rjj1oJzjsRKReFYoYW-kc?authuser=0&hl=en&rclk=1",
        "coordinates": {
            "latitude": 18.891411599999998,
            "longitude": 77.84907989999999
        }
    },
    {
        "name": "Jama Masjid Balapur",
        "main_category": "Mosque",
        "address": "VVQ7+G42 Jama Masjid Balapur, Unnamed Road, Balapur Dharmabad, Maharashtra 431809",
        "detailed_address": {
            "ward": null,
            "street": "VVQ7+G42, Unnamed Road",
            "city": "Balapur Dharmabad",
            "postal_code": "431809",
            "state": "Maharashtra",
            "country_code": "IN"
        },
        "images": [
            {
                "about": "All",
                "link": "https://lh5.googleusercontent.com/p/AF1QipMJkNK-vU_Do9czheC7Jqbqj_A-muka-DBqJLEK=w401-h298-k-no"
            },
            {
                "about": "Dome",
                "link": "https://lh5.googleusercontent.com/p/AF1QipPdJUdhKksVkb-E2NhzlvMahyTF_jjkbrp9i3OV=w397-h298-k-no"
            }
        ],
        "link": "https://www.google.com/maps/place/Jama+Masjid+Balapur/data=!4m7!3m6!1s0x3bce09612b4f64b3:0xa43c832f950ffd33!8m2!3d18.8887613!4d77.8627531!16s%2Fg%2F11gbxb0tkx!19sChIJs2RPK2EJzjsRM_0PlS-DPKQ?authuser=0&hl=en&rclk=1",
        "coordinates": {
            "latitude": 18.8887613,
            "longitude": 77.86275309999999
        }
    },
    {
        "name": "MADINA MASJID",
        "main_category": "Place of worship",
        "address": "VVQ3+7FV MADINA MASJID, Dharmabad Rd, Dharmabad, Maharashtra 431809",
        "detailed_address": {
            "ward": null,
            "street": "VVQ3+7FV, Dharmabad Rd",
            "city": "Dharmabad",
            "postal_code": "431809",
            "state": "Maharashtra",
            "country_code": "IN"
        },
        "images": [
            {
                "about": "All",
                "link": "https://lh5.googleusercontent.com/p/AF1QipPzP8Lk0MUxp-a9kdqIXj-Xf0sHhSDaGuODEHXK=w224-h298-k-no"
            }
        ],
        "link": "https://www.google.com/maps/place/MADINA+MASJID/data=!4m7!3m6!1s0x3bce095bfe295b5b:0xdae54f20c45d2af6!8m2!3d18.8882258!4d77.8536762!16s%2Fg%2F11bxf0xzf0!19sChIJW1sp_lsJzjsR9ipdxCBP5do?authuser=0&hl=en&rclk=1",
        "coordinates": {
            "latitude": 18.8882258,
            "longitude": 77.8536762
        }
    },
    {
        "name": "Mehbobiya Masjid",
        "main_category": "Mosque",
        "address": "VRWX+4RW Mehbobiya Masjid, Unnamed Road, Dharmabad, Maharashtra 431809",
        "detailed_address": {
            "ward": null,
            "street": "VRWX+4RW, Unnamed Road",
            "city": "Dharmabad",
            "postal_code": "431809",
            "state": "Maharashtra",
            "country_code": "IN"
        },
        "images": [],
        "link": "https://www.google.com/maps/place/Mehbobiya+Masjid/data=!4m7!3m6!1s0x3bce09456ac5ab6f:0x36b472ee20305144!8m2!3d18.8953653!4d77.8495855!16s%2Fg%2F11g6zhfr0d!19sChIJb6vFakUJzjsRRFEwIO5ytDY?authuser=0&hl=en&rclk=1",
        "coordinates": {
            "latitude": 18.895365299999998,
            "longitude": 77.8495855
        }
    },
    {
        "name": "Jama Masjid Ratnale",
        "main_category": "Mosque",
        "address": "VRPP+9Q8 Jama Masjid Ratnale, Ratnale, Dharmabad, Maharashtra 431809",
        "detailed_address": {
            "ward": null,
            "street": "VRPP+9Q8",
            "city": "Ratnale, Dharmabad",
            "postal_code": "431809",
            "state": "Maharashtra",
            "country_code": "IN"
        },
        "images": [
            {
                "about": "All",
                "link": "https://lh5.googleusercontent.com/p/AF1QipP-mLqM7ui0J6moenLi69-ibbGW8_sk-3PLAM2C=w224-h298-k-no"
            },
            {
                "about": "Videos",
                "link": "https://lh5.googleusercontent.com/p/AF1QipPcnRkrmx7Sr4sL6bRaNGRDZrRNYQTTs45uBgIq=w224-h449-k-no"
            }
        ],
        "link": "https://www.google.com/maps/place/Jama+Masjid+Ratnale/data=!4m7!3m6!1s0x3bce0954b4677af7:0x2e4c719a06daa534!8m2!3d18.8859186!4d77.8369382!16s%2Fg%2F11c32j_2q1!19sChIJ93pntFQJzjsRNKXaBppxTC4?authuser=0&hl=en&rclk=1",
        "coordinates": {
            "latitude": 18.8859186,
            "longitude": 77.83693819999999
        }
    },
    {
        "name": "Masjid -e- Bilal",
        "main_category": "Mosque",
        "address": "VRRR+WQQ Masjid -e- Bilal, Dharmabad, Maharashtra 431809",
        "detailed_address": {
            "ward": null,
            "street": "VRRR+WQQ",
            "city": "Dharmabad",
            "postal_code": "431809",
            "state": "Maharashtra",
            "country_code": "IN"
        },
        "images": [
            {
                "about": "All",
                "link": "https://lh5.googleusercontent.com/p/AF1QipNx6d-OwNpZqHNX5kL7h8bHgbUcbEx5rBdSPvnn=w224-h298-k-no"
            },
            {
                "about": "Videos",
                "link": "https://lh5.googleusercontent.com/p/AF1QipOtRA59rAGtooqXeXA1WN_OU263uhwzXPDGXjvU=w224-h407-k-no"
            }
        ],
        "link": "https://www.google.com/maps/place/Masjid+-e-+Bilal/data=!4m7!3m6!1s0x3bce09521b8c2309:0xcc8cbdc30dbc6427!8m2!3d18.8923325!4d77.8419851!16s%2Fg%2F11c481zd1v!19sChIJCSOMG1IJzjsRJ2S8DcO9jMw?authuser=0&hl=en&rclk=1",
        "coordinates": {
            "latitude": 18.8923325,
            "longitude": 77.8419851
        }
    },
    {
        "name": "Makkah masjid",
        "main_category": "Mosque",
        "address": "VRQR+M4V Makkah masjid, Moula Ali nagar, Rukmininagar, Dharmabad, Maharashtra 431809",
        "detailed_address": {
            "ward": "Rukmininagar",
            "street": "VRQR+M4V, Moula Ali nagar",
            "city": "Dharmabad",
            "postal_code": "431809",
            "state": "Maharashtra",
            "country_code": "IN"
        },
        "images": [
            {
                "about": "All",
                "link": "https://lh5.googleusercontent.com/p/AF1QipPSu_w9SGY9Ww8BLEVRO9pRbgjpvihyHzhIZZ-P=w224-h496-k-no"
            }
        ],
        "link": "https://www.google.com/maps/place/Makkah+masjid/data=!4m7!3m6!1s0x3bce09d433e118e7:0x4abd6616c35c0036!8m2!3d18.8892455!4d77.840302!16s%2Fg%2F11h84qcdzy!19sChIJ5xjhM9QJzjsRNgBcwxZmvUo?authuser=0&hl=en&rclk=1",
        "coordinates": {
            "latitude": 18.889245499999998,
            "longitude": 77.840302
        }
    },
    {
        "name": "Hazrat Khan Sahab Dargah Shareef",
        "main_category": "Mosque",
        "address": "VVV5+66H Hazrat Khan Sahab Dargah Shareef, Dharmabad, Maharashtra 431809",
        "detailed_address": {
            "ward": null,
            "street": "VVV5+66H",
            "city": "Dharmabad",
            "postal_code": null,
            "state": "Maharashtra",
            "country_code": "IN"
        },
        "images": [],
        "link": "https://www.google.com/maps/place/Hazrat+Khan+Sahab+Dargah+Shareef/data=!4m7!3m6!1s0x3bce095d40787575:0xbc3a6ce70efb3a89!8m2!3d18.8930503!4d77.8581013!16s%2Fg%2F11gfmbyxpz!19sChIJdXV4QF0JzjsRiTr7DudsOrw?authuser=0&hl=en&rclk=1",
        "coordinates": {
            "latitude": 18.8930503,
            "longitude": 77.8581013
        }
    },
    {
        "name": "Abdula mosque",
        "main_category": "Mosque",
        "address": "VRXV+96X Abdula mosque, Dharmabad, Maharashtra 431809",
        "detailed_address": {
            "ward": null,
            "street": "VRXV+96X",
            "city": "Dharmabad",
            "postal_code": "431809",
            "state": "Maharashtra",
            "country_code": "IN"
        },
        "images": [],
        "link": "https://www.google.com/maps/place/Abdula+mosque/data=!4m7!3m6!1s0x3bce099a3232c25d:0xe9ed8c5631fa0463!8m2!3d18.8985373!4d77.8428997!16s%2Fg%2F11vdm0pv73!19sChIJXcIyMpoJzjsRYwT6MVaM7ek?authuser=0&hl=en&rclk=1",
        "coordinates": {
            "latitude": 18.898537299999997,
            "longitude": 77.84289969999999
        }
    },
    {
        "name": "Hazrat Sayyad Sadat Dargah Shareef",
        "main_category": "Mosque",
        "address": "VVQ7+CJH Hazrat Sayyad Sadat Dargah Shareef, Balapur Dharmabad, Maharashtra 431809",
        "detailed_address": {
            "ward": null,
            "street": "VVQ7+CJH",
            "city": "Balapur Dharmabad",
            "postal_code": "431809",
            "state": "Maharashtra",
            "country_code": "IN"
        },
        "images": [],
        "link": "https://www.google.com/maps/place/Hazrat+Sayyad+Sadat+Dargah+Shareef/data=!4m7!3m6!1s0x3bce09614a4a6fc9:0xdf68120891d1c161!8m2!3d18.8885638!4d77.8640996!16s%2Fg%2F11f3zs63xn!19sChIJyW9KSmEJzjsRYcHRkQgSaN8?authuser=0&hl=en&rclk=1",
        "coordinates": {
            "latitude": 18.8885638,
            "longitude": 77.8640996
        }
    },
    {
        "name": "Zahoor Masjid",
        "main_category": "Mosque",
        "address": "VVQ2+MP8 Zahoor Masjid, Dharmabad, Maharashtra 431809",
        "detailed_address": {
            "ward": null,
            "street": "VVQ2+MP8",
            "city": "Dharmabad",
            "postal_code": "431809",
            "state": "Maharashtra",
            "country_code": "IN"
        },
        "images": [
            {
                "about": "All",
                "link": "https://lh5.googleusercontent.com/p/AF1QipO-biNPvJgzaZ9xtMabN9uOTEJt8DuPrNcM29AX=w224-h398-k-no"
            }
        ],
        "link": "https://www.google.com/maps/place/Zahoor+Masjid/data=!4m7!3m6!1s0x3bce095bc5ddef05:0xdb0aa629d867afcd!8m2!3d18.8891546!4d77.8518288!16s%2Fg%2F11f4ptkzlt!19sChIJBe_dxVsJzjsRza9n2CmmCts?authuser=0&hl=en&rclk=1",
        "coordinates": {
            "latitude": 18.889154599999998,
            "longitude": 77.85182879999999
        }
    },
    {
        "name": "MASJID E RIZWAN",
        "main_category": "Mosque",
        "address": "VVV3+V59 MASJID E RIZWAN, Dharmabad, Maharashtra 431809",
        "detailed_address": {
            "ward": null,
            "street": "VVV3+V59",
            "city": "Dharmabad",
            "postal_code": "431809",
            "state": "Maharashtra",
            "country_code": "IN"
        },
        "images": [],
        "link": "https://www.google.com/maps/place/MASJID+E+RIZWAN/data=!4m7!3m6!1s0x3bce090d4adc453d:0xfce40afdc7cf9103!8m2!3d18.8946593!4d77.8529781!16s%2Fg%2F11nn1zd0x1!19sChIJPUXcSg0JzjsRA5HPx_0K5Pw?authuser=0&hl=en&rclk=1",
        "coordinates": {
            "latitude": 18.8946593,
            "longitude": 77.8529781
        }
    },
    {
        "name": "Masjid-e-Ismail",
        "main_category": "Mosque",
        "address": "VRXR+MW8 Masjid-e-Ismail, kuntha Galli, Dharmabad, Maharashtra 431809",
        "detailed_address": {
            "ward": null,
            "street": "VRXR+MW8, kuntha Galli",
            "city": "Dharmabad",
            "postal_code": null,
            "state": "Maharashtra",
            "country_code": "IN"
        },
        "images": [],
        "link": "https://www.google.com/maps/place/Masjid-e-Ismail/data=!4m7!3m6!1s0x3bce09f6543229f7:0x967e84958478b13f!8m2!3d18.8991633!4d77.8423421!16s%2Fg%2F11g_r6l1zw!19sChIJ9ykyVPYJzjsRP7F4hJWEfpY?authuser=0&hl=en&rclk=1",
        "coordinates": {
            "latitude": 18.899163299999998,
            "longitude": 77.8423421
        }
    },
    {
        "name": "Dargha. drg",
        "main_category": "Mosque",
        "address": "VVQ2+7MG Dargha. drg, Dharmabad, Maharashtra 431809",
        "detailed_address": {
            "ward": null,
            "street": "VVQ2+7MG",
            "city": "Dharmabad",
            "postal_code": "431809",
            "state": "Maharashtra",
            "country_code": "IN"
        },
        "images": [],
        "link": "https://www.google.com/maps/place/Dargha.+%D8%AF%D8%B1%DA%AF%D8%A7%E2%80%AD/data=!4m7!3m6!1s0x3bce09b4d112d6d5:0xf9fa85dbfbbd86bb!8m2!3d18.888181!4d77.8516966!16s%2Fg%2F11j040xb_h!19sChIJ1dYS0bQJzjsRu4a9-9uF-vk?authuser=0&hl=en&rclk=1",
        "coordinates": {
            "latitude": 18.888181,
            "longitude": 77.8516966
        }
    },
    {
        "name": "msjid abdullaa dhrmaabaad",
        "main_category": "Mosque",
        "address": "VRXV+96X msjid abdullaa dhrmaabaad, Dharmabad, Maharashtra 431809",
        "detailed_address": {
            "ward": null,
            "street": "VRXV+96X",
            "city": "Dharmabad",
            "postal_code": "431809",
            "state": "Maharashtra",
            "country_code": "IN"
        },
        "images": [],
        "link": "https://www.google.com/maps/place/%E0%A4%AE%E0%A4%B8%E0%A5%8D%E0%A4%9C%E0%A4%BF%E0%A4%A6+%E0%A4%85%E0%A4%AC%E0%A4%A6%E0%A5%81%E0%A4%B2%E0%A5%8D%E0%A4%B2%E0%A4%BE+%E0%A4%A7%E0%A4%B0%E0%A4%AE%E0%A4%BE%E0%A4%AC%E0%A4%BE%E0%A4%A6/data=!4m7!3m6!1s0x3bce0967bce8ba71:0x5190a887bf5c3eed!8m2!3d18.8985374!4d77.8428997!16s%2Fg%2F11v0qg1xjx!19sChIJcbrovGcJzjsR7T5cv4eokFE?authuser=0&hl=en&rclk=1",
        "coordinates": {
            "latitude": 18.8985374,
            "longitude": 77.84289969999999
        }
    },
    {
        "name": "Mohamadiya Masjid",
        "main_category": "Mosque",
        "address": "VRWR+6RC Mohamadiya Masjid, Dharmabad, Maharashtra 431809",
        "detailed_address": {
            "ward": null,
            "street": "VRWR+6RC",
            "city": "Dharmabad",
            "postal_code": "431809",
            "state": "Maharashtra",
            "country_code": "IN"
        },
        "images": [],
        "link": "https://www.google.com/maps/place/Mohamadiya+Masjid/data=!4m7!3m6!1s0x3bce09ec053a7609:0x1ae38fdaf89eee7e!8m2!3d18.8955728!4d77.8420012!16s%2Fg%2F11g0hb37dm!19sChIJCXY6BewJzjsRfu6e-NqP4xo?authuser=0&hl=en&rclk=1",
        "coordinates": {
            "latitude": 18.8955728,
            "longitude": 77.8420012
        }
    },
    {
        "name": "EIDGAH DHRAMABAD",
        "main_category": "Mosque",
        "address": "VRVV+R48 EIDGAH DHRAMABAD, Unnamed Road, Dharmabad, Maharashtra 431809",
        "detailed_address": {
            "ward": null,
            "street": "VRVV+R48, Unnamed Road",
            "city": "Dharmabad",
            "postal_code": "431809",
            "state": "Maharashtra",
            "country_code": "IN"
        },
        "images": [
            {
                "about": "All",
                "link": "https://lh5.googleusercontent.com/p/AF1QipNRSCXDk8HnZ9ZU3MWrFEie8sx1ml8mND7sa0NM=w397-h298-k-no"
            }
        ],
        "link": "https://www.google.com/maps/place/EIDGAH+DHRAMABAD/data=!4m7!3m6!1s0x3bce092dd865ad23:0x43491ca1bbc7ba99!8m2!3d18.8945295!4d77.8428327!16s%2Fg%2F11p5csnn80!19sChIJI61l2C0JzjsRmbrHu6EcSUM?authuser=0&hl=en&rclk=1",
        "coordinates": {
            "latitude": 18.8945295,
            "longitude": 77.8428327
        }
    },
    {
        "name": "Eidgah",
        "main_category": "Mosque",
        "address": "VVV3+W3G Eidgah, Dharmabad, Maharashtra 431809",
        "detailed_address": {
            "ward": null,
            "street": "VVV3+W3G",
            "city": "Dharmabad",
            "postal_code": "431809",
            "state": "Maharashtra",
            "country_code": "IN"
        },
        "images": [],
        "link": "https://www.google.com/maps/place/Eidgah/data=!4m7!3m6!1s0x3bce0944b9955555:0x2c7f6deecd9cffea!8m2!3d18.8948082!4d77.8527185!16s%2Fg%2F11sscs8plg!19sChIJVVWVuUQJzjsR6v-cze5tfyw?authuser=0&hl=en&rclk=1",
        "coordinates": {
            "latitude": 18.8948082,
            "longitude": 77.8527185
        }
    },
    {
        "name": "Shadulla Husain chilla",
        "main_category": "Mosque",
        "address": "VRQV+6W9 Shadulla Husain chilla, Ratnali Rd, Shanker Gunj, Dharmabad, Maharashtra 431809",
        "detailed_address": {
            "ward": "Shanker Gunj",
            "street": "VRQV+6W9, Ratnali Rd",
            "city": "Dharmabad",
            "postal_code": "431809",
            "state": "Maharashtra",
            "country_code": "IN"
        },
        "images": [
            {
                "about": "All",
                "link": "https://lh5.googleusercontent.com/p/AF1QipMDpDGzLTrsVJi6qpmmLNQ8Qh0ooZjaw1AdifV3=w224-h497-k-no"
            }
        ],
        "link": "https://www.google.com/maps/place/Shadulla+Husain+chilla/data=!4m7!3m6!1s0x3bce09836eb28fc7:0xcf04da1252de8024!8m2!3d18.88805!4d77.844847!16s%2Fg%2F11s2rcbrdz!19sChIJx4-yboMJzjsRJIDeUhLaBM8?authuser=0&hl=en&rclk=1",
        "coordinates": {
            "latitude": 18.88805,
            "longitude": 77.844847
        }
    },
    {
        "name": "Masjid",
        "main_category": "Mosque",
        "address": "RR59+M45 Masjid, Dharmabad To Kundalwadi Rd, Hungunda, Harnali, Maharashtra 431711",
        "detailed_address": {
            "ward": null,
            "street": "RR59+M45, Dharmabad To Kundalwadi Rd",
            "city": "Hungunda, Harnali",
            "postal_code": "431711",
            "state": "Maharashtra",
            "country_code": "IN"
        },
        "images": [],
        "link": "https://www.google.com/maps/place/Masjid/data=!4m7!3m6!1s0x3bce0ddc72aec8af:0xd1ba08b96463cfe0!8m2!3d18.8091256!4d77.8178469!16s%2Fg%2F11r96_z36z!19sChIJr8iuctwNzjsR4M9jZLkIutE?authuser=0&hl=en&rclk=1",
        "coordinates": {
            "latitude": 18.809125599999998,
            "longitude": 77.81784689999999
        }
    }
]