[
    {
        "name": "Chinnathirupathi Mosque",
        "main_category": "Mosque",
        "address": "M5J9+H2Q Chinnathirupathi Mosque, Annasalai, Gandhi Nagar, Periyakollappatty, Chinna Thirupathi, Salem, Tamil Nadu 636008",
        "detailed_address": {
            "ward": "Gandhi Nagar, Periyakollappatty",
            "street": "M5J9+H2Q, Annasalai",
            "city": "Chinna Thirupathi, Salem",
            "postal_code": "636008",
            "state": "Tamil Nadu",
            "country_code": "IN"
        },
        "images": [
            {
                "about": "All",
                "link": "https://lh5.googleusercontent.com/p/AF1QipPy1oYArDEPPWNEaKFYiL5WK9wkN_5G0AloWdx1=w224-h298-k-no"
            },
            {
                "about": "Dome",
                "link": "https://lh5.googleusercontent.com/p/AF1QipNW0VeWapa0SjQyaHIav6_TBfhvV2DqYuUQndYS=w224-h298-k-no"
            }
        ],
        "link": "https://www.google.com/maps/place/Chinnathirupathi+Mosque/data=!4m7!3m6!1s0x3babf1af5ef17277:0xec732c4f3c5e7856!8m2!3d11.6814733!4d78.1676036!16s%2Fg%2F11dxn01g_2!19sChIJd3LxXq_xqzsRVnhePE8sc-w?authuser=0&hl=en&rclk=1",
        "coordinates": {
            "latitude": 11.681473299999999,
            "longitude": 78.16760359999999
        }
    },
    {
        "name": "Al Masjidhun Noor",
        "main_category": "Mosque",
        "address": "M5HG+28R Al Masjidhun Noor, Chinna Thirupathi, Salem, Tamil Nadu 636008",
        "detailed_address": {
            "ward": null,
            "street": "M5HG+28R",
            "city": "Chinna Thirupathi, Salem",
            "postal_code": "636008",
            "state": "Tamil Nadu",
            "country_code": "IN"
        },
        "images": [
            {
                "about": "All",
                "link": "https://lh5.googleusercontent.com/p/AF1QipPULD69Fz0l2aQtYVZLE0IijMyBAy9bIbxOXY4A=w397-h298-k-no"
            }
        ],
        "link": "https://www.google.com/maps/place/Al+Masjidhun+Noor/data=!4m7!3m6!1s0x3babf1a32d0b37c5:0xcd2d69f23437015a!8m2!3d11.6776119!4d78.1757538!16s%2Fg%2F11cl_fpj30!19sChIJxTcLLaPxqzsRWgE3NPJpLc0?authuser=0&hl=en&rclk=1",
        "coordinates": {
            "latitude": 11.677611899999999,
            "longitude": 78.1757538
        }
    },
    {
        "name": "EID HA GROUND MUSLIMS PRAYER AREA",
        "main_category": "Mosque",
        "address": "JVM9+J7H EID HA GROUND MUSLIMS PRAYER AREA, Chinnasalem, Tamil Nadu 606201",
        "detailed_address": {
            "ward": null,
            "street": "JVM9+J7H",
            "city": "Chinnasalem",
            "postal_code": "606201",
            "state": "Tamil Nadu",
            "country_code": "IN"
        },
        "images": [
            {
                "about": "All",
                "link": "https://streetviewpixels-pa.googleapis.com/v1/thumbnail?panoid=JcSQzNhe0fCb6dSLVob4dw&cb_client=maps_sv.tactile.gps&w=224&h=298&yaw=185.95352&pitch=0&thumbfov=100"
            },
            {
                "about": "Street View & 360deg",
                "link": "https://streetviewpixels-pa.googleapis.com/v1/thumbnail?panoid=JcSQzNhe0fCb6dSLVob4dw&cb_client=maps_sv.tactile.gps&w=224&h=298&yaw=185.95352&pitch=0&thumbfov=100"
            }
        ],
        "link": "https://www.google.com/maps/place/EID+HA+GROUND+MUSLIMS+PRAYER+AREA/data=!4m7!3m6!1s0x3bab6fb1145db9c1:0xb43f1f713168f825!8m2!3d11.6340591!4d78.8682459!16s%2Fg%2F11f1pdz2yl!19sChIJwbldFLFvqzsRJfhoMXEfP7Q?authuser=0&hl=en&rclk=1",
        "coordinates": {
            "latitude": 11.6340591,
            "longitude": 78.86824589999999
        }
    },
    {
        "name": "Haqqania Masjid &Madarasa",
        "main_category": "Mosque",
        "address": "M5J9+J3G Haqqania Masjid &Madarasa, Annasalai, Gandhi Nagar, Periyakollappatty, Chinna Thirupathi, Salem, Tamil Nadu 636008",
        "detailed_address": {
            "ward": "Gandhi Nagar, Periyakollappatty",
            "street": "M5J9+J3G, Annasalai",
            "city": "Chinna Thirupathi, Salem",
            "postal_code": "636008",
            "state": "Tamil Nadu",
            "country_code": "IN"
        },
        "images": [
            {
                "about": "All",
                "link": "https://lh5.googleusercontent.com/p/AF1QipO48HAoULVKlnrPFD2K_ux7_lUUCcm3geQXV2fi=w529-h298-k-no"
            },
            {
                "about": "Videos",
                "link": "https://lh5.googleusercontent.com/p/AF1QipML3b0Xe0V31_onTwLu5IHDs6GAsmXKWn4tFJDV=w529-h298-k-no"
            }
        ],
        "link": "https://www.google.com/maps/place/Haqqania+Masjid+%26Madarasa/data=!4m7!3m6!1s0x3babf12194255817:0xf248909c952ad19c!8m2!3d11.6815734!4d78.1677162!16s%2Fg%2F11h2fs4zpm!19sChIJF1gllCHxqzsRnNEqlZyQSPI?authuser=0&hl=en&rclk=1",
        "coordinates": {
            "latitude": 11.6815734,
            "longitude": 78.1677162
        }
    },
    {
        "name": "Pallivasal Masjid-Mosque",
        "main_category": "Mosque",
        "address": "JVMF+QV2 Pallivasal Masjid-Mosque, Chinnasalem, Tamil Nadu 606201",
        "detailed_address": {
            "ward": null,
            "street": "JVMF+QV2",
            "city": "Chinnasalem",
            "postal_code": null,
            "state": "Tamil Nadu",
            "country_code": "IN"
        },
        "images": [
            {
                "about": "All",
                "link": "https://lh5.googleusercontent.com/p/AF1QipPhxY0fWEsPfbVXr5svbFzyp4YDixdv-bHVaUwu=w397-h298-k-no"
            }
        ],
        "link": "https://www.google.com/maps/place/Pallivasal+Masjid-Mosque/data=!4m7!3m6!1s0x3bab6fa120decae7:0x1609a9a16c78f5bf!8m2!3d11.634377!4d78.8746339!16s%2Fg%2F11mhxz9m53!19sChIJ58reIKFvqzsRv_V4bKGpCRY?authuser=0&hl=en&rclk=1",
        "coordinates": {
            "latitude": 11.634376999999999,
            "longitude": 78.87463389999999
        }
    }
]