[
    {
        "name": "Masjid E aqsa",
        "main_category": "Mosque",
        "address": "CJ4F+9WM Masjid E aqsa, Kodugallu Rd, Thi Nam Shrikanthaiah Layout, Chikkanayakanahalli, Karnataka 572214",
        "detailed_address": {
            "ward": "Thi Nam Shrikanthaiah Layout",
            "street": "CJ4F+9WM, Kodugallu Rd",
            "city": "Chikkanayakanahalli",
            "postal_code": "572214",
            "state": "Karnataka",
            "country_code": "IN"
        },
        "images": [
            {
                "about": "All",
                "link": "https://lh5.googleusercontent.com/p/AF1QipMFY6yKnNh6H0uAF531ZN1JELDd95hdz-u_DcQ=w529-h298-k-no"
            },
            {
                "about": "Dome",
                "link": "https://lh5.googleusercontent.com/p/AF1QipNkBKG0P_kV84aTHbyTIrizaT70uDMo0aiQaSg=w529-h298-k-no"
            },
            {
                "about": "Videos",
                "link": "https://lh5.googleusercontent.com/p/AF1QipOBh_9NvAG_MWiM0v8d-OZDBNDgt4sWlN4_2Yk=w529-h298-k-no"
            },
            {
                "about": "Street View & 360deg",
                "link": "https://streetviewpixels-pa.googleapis.com/v1/thumbnail?panoid=yRqGQIfxHabr52tKKvErDA&cb_client=maps_sv.tactile.gps&w=224&h=298&yaw=222.88525&pitch=0&thumbfov=100"
            }
        ],
        "link": "https://www.google.com/maps/place/Masjid+E+aqsa/data=!4m7!3m6!1s0x3bb00e3414b148db:0x9b49b6cbacf74331!8m2!3d13.4059539!4d76.6248007!16s%2Fg%2F1trpjng4!19sChIJ20ixFDQOsDsRMUP3rMu2SZs?authuser=0&hl=en&rclk=1",
        "coordinates": {
            "latitude": 13.4059539,
            "longitude": 76.6248007
        }
    },
    {
        "name": "Noorani Masjid, Chikkanayakanahalli",
        "main_category": "Mosque",
        "address": "CJ99+JR2 Noorani Masjid, Chikkanayakanahalli, Chikkanayakanahalli, Karnataka 572214",
        "detailed_address": {
            "ward": null,
            "street": "CJ99+JR2",
            "city": "Chikkanayakanahalli",
            "postal_code": "572214",
            "state": "Karnataka",
            "country_code": "IN"
        },
        "images": [],
        "link": "https://www.google.com/maps/place/Noorani+Masjid,+Chikkanayakanahalli/data=!4m7!3m6!1s0x3bb00e3595bfdbcb:0xcbf02a39cc44ab7c!8m2!3d13.4190083!4d76.6195177!16s%2Fg%2F11gbxb0hn2!19sChIJy9u_lTUOsDsRfKtEzDkq8Ms?authuser=0&hl=en&rclk=1",
        "coordinates": {
            "latitude": 13.4190083,
            "longitude": 76.6195177
        }
    },
    {
        "name": "Bilal Masjid",
        "main_category": "Mosque",
        "address": "CJ7C+C85 Bilal Masjid, Bilal mohalla, shetty keray gate, Chikkanayakanahalli, 572214",
        "detailed_address": {
            "ward": "Mahalakshmi Layout",
            "street": "CJ7C+C85, Bilal mohalla, shetty keray gate",
            "city": "Chikkanayakanahalli",
            "postal_code": "572214",
            "state": "Karnataka",
            "country_code": "IN"
        },
        "images": [
            {
                "about": "All",
                "link": "https://lh5.googleusercontent.com/p/AF1QipO_9lqpPoY11G_Jo1GUVS9DnML0l7Y62VbkbH2b=w224-h298-k-no"
            }
        ],
        "link": "https://www.google.com/maps/place/Bilal+Masjid/data=!4m7!3m6!1s0x3bb00f2645d8c819:0x5f491701745cf2a5!8m2!3d13.4135122!4d76.6208463!16s%2Fg%2F11gh_73d53!19sChIJGcjYRSYPsDsRpfJcdAEXSV8?authuser=0&hl=en&rclk=1",
        "coordinates": {
            "latitude": 13.4135122,
            "longitude": 76.6208463
        }
    },
    {
        "name": "Jamiya masjid",
        "main_category": "Mosque",
        "address": "CJ9F+P53 Jamiya masjid, Chikkanayakanahalli, Karnataka 572214",
        "detailed_address": {
            "ward": null,
            "street": "CJ9F+P53",
            "city": "Chikkanayakanahalli",
            "postal_code": "572214",
            "state": "Karnataka",
            "country_code": "IN"
        },
        "images": [
            {
                "about": "All",
                "link": "https://lh5.googleusercontent.com/p/AF1QipM2-YVODG27c-_yB3CfwaFT7w9SJmROkhbrIWvt=w224-h298-k-no"
            },
            {
                "about": "Street View & 360deg",
                "link": "https://streetviewpixels-pa.googleapis.com/v1/thumbnail?panoid=BevXetN2QkNnih7kz5gGeA&cb_client=maps_sv.tactile.gps&w=224&h=298&yaw=124.56886&pitch=0&thumbfov=100"
            }
        ],
        "link": "https://www.google.com/maps/place/Jamiya+masjid/data=!4m7!3m6!1s0x3bb00f1513ccef25:0x6fb7d7f40818ba50!8m2!3d13.4192614!4d76.6229104!16s%2Fg%2F11h4pcpgkl!19sChIJJe_MExUPsDsRULoYCPTXt28?authuser=0&hl=en&rclk=1",
        "coordinates": {
            "latitude": 13.4192614,
            "longitude": 76.6229104
        }
    }
]