[
    {
        "name": "Lala Ka Talab",
        "main_category": "Mosque",
        "address": "Lala Ka Talab, 286/k, Hardaul, Datia, Madhya Pradesh 475661",
        "detailed_address": {
            "ward": "Hardaul",
            "street": "286/k, Hardaul",
            "city": "Datia",
            "postal_code": "475661",
            "state": "Madhya Pradesh",
            "country_code": "IN"
        },
        "images": [
            {
                "about": "All",
                "link": "https://lh5.googleusercontent.com/p/AF1QipNt9FRmWhejjVLb5GStLULTN8UKaeKh1YeXBbWx=w397-h298-k-no"
            },
            {
                "about": "Videos",
                "link": "https://lh5.googleusercontent.com/p/AF1QipNXHVGiDIba1q2bv3UWGcuew_mdPFIXCueui1Ec=w529-h298-k-no"
            }
        ],
        "link": "https://www.google.com/maps/place/Lala+Ka+Talab/data=!4m7!3m6!1s0x39771221ad017535:0x3e71bc0fee70805f!8m2!3d25.6722512!4d78.4501612!16s%2Fg%2F1tjrncrj!19sChIJNXUBrSESdzkRX4Bw7g-8cT4?authuser=0&hl=en&rclk=1",
        "coordinates": {
            "latitude": 25.672251199999998,
            "longitude": 78.4501612
        }
    },
    {
        "name": "gudri masjid",
        "main_category": "Mosque",
        "address": "MFC6+V5M gudri masjid, Datia, Madhya Pradesh 475661",
        "detailed_address": {
            "ward": null,
            "street": "MFC6+V5M",
            "city": "Datia",
            "postal_code": "475661",
            "state": "Madhya Pradesh",
            "country_code": "IN"
        },
        "images": [
            {
                "about": "All",
                "link": "https://lh5.googleusercontent.com/p/AF1QipOdamEK61Lz5gtGuaqa0Jb9kUYTdU7NnCYc8PFn=w224-h398-k-no"
            },
            {
                "about": "Videos",
                "link": "https://lh5.googleusercontent.com/p/AF1QipMRN-HZ0evJfwMbRUQ0PZcs0HT2E-7m9_4kpZlN=w224-h398-k-no"
            }
        ],
        "link": "https://www.google.com/maps/place/gudri+masjid/data=!4m7!3m6!1s0x3977121c5b71737d:0xa75ebf82a1ec557d!8m2!3d25.672204!4d78.4604207!16s%2Fg%2F11hbgjd97h!19sChIJfXNxWxwSdzkRfVXsoYK_Xqc?authuser=0&hl=en&rclk=1",
        "coordinates": {
            "latitude": 25.672203999999997,
            "longitude": 78.4604207
        }
    },
    {
        "name": "Markaz Masjid",
        "main_category": "Mosque",
        "address": "MFC3+VMX Markaz Masjid, Unnamed Road, Datia, Madhya Pradesh 475661",
        "detailed_address": {
            "ward": null,
            "street": "MFC3+VMX, Unnamed Road",
            "city": "Datia",
            "postal_code": "475661",
            "state": "Madhya Pradesh",
            "country_code": "IN"
        },
        "images": [
            {
                "about": "All",
                "link": "https://lh5.googleusercontent.com/p/AF1QipOJzvN5aisbbzSOFEW0tN1ybM9tzPuglbrl7SBN=w224-h477-k-no"
            }
        ],
        "link": "https://www.google.com/maps/place/Markaz+Masjid/data=!4m7!3m6!1s0x3977121f0e8301ab:0xd3c84eddcfe23ba2!8m2!3d25.6722303!4d78.4542472!16s%2Fg%2F11f1jwx0mq!19sChIJqwGDDh8SdzkRojviz91OyNM?authuser=0&hl=en&rclk=1",
        "coordinates": {
            "latitude": 25.6722303,
            "longitude": 78.4542472
        }
    },
    {
        "name": "Chhoti Idgaah richhra fatak datia",
        "main_category": "Mosque",
        "address": "MFH6+QM7 Chhoti Idgaah richhra fatak datia, Unnamed Road, Datia, Madhya Pradesh 475661",
        "detailed_address": {
            "ward": null,
            "street": "MFH6+QM7, Unnamed Road",
            "city": "Datia",
            "postal_code": "475661",
            "state": "Madhya Pradesh",
            "country_code": "IN"
        },
        "images": [
            {
                "about": "All",
                "link": "https://lh5.googleusercontent.com/p/AF1QipOYIFEGYKBhJCuMF0zVuOP8Ll3mkeg8MWbblt3X=w224-h298-k-no"
            },
            {
                "about": "Latest",
                "link": "https://lh5.googleusercontent.com/p/AF1QipOYIFEGYKBhJCuMF0zVuOP8Ll3mkeg8MWbblt3X=w224-h298-k-no"
            },
            {
                "about": "Street View & 360deg",
                "link": "https://streetviewpixels-pa.googleapis.com/v1/thumbnail?panoid=RLUR0SQ2GploQAToqHqJRQ&cb_client=maps_sv.tactile.gps&w=224&h=298&yaw=324.5639&pitch=0&thumbfov=100"
            }
        ],
        "link": "https://www.google.com/maps/place/Chhoti+Idgaah+richhra+fatak+datia/data=!4m7!3m6!1s0x397711564e90bc6d:0x38faaa0e8a2b3398!8m2!3d25.6794029!4d78.4616843!16s%2Fg%2F11fl8md414!19sChIJbbyQTlYRdzkRmDMrig6q-jg?authuser=0&hl=en&rclk=1",
        "coordinates": {
            "latitude": 25.6794029,
            "longitude": 78.4616843
        }
    },
    {
        "name": "Masjid & Madarsa Rabbania",
        "main_category": "Mosque",
        "address": "JFX6+QG4 Masjid & Madarsa Rabbania, Police Line Maszid Road, Datia, Madhya Pradesh 475661",
        "detailed_address": {
            "ward": null,
            "street": "JFX6+QG4, Police Line Maszid Road",
            "city": "Datia",
            "postal_code": "475661",
            "state": "Madhya Pradesh",
            "country_code": "IN"
        },
        "images": [
            {
                "about": "All",
                "link": "https://streetviewpixels-pa.googleapis.com/v1/thumbnail?panoid=G9CUNPnLhWdVY5cy_PtIew&cb_client=maps_sv.tactile.gps&w=224&h=298&yaw=317.7766&pitch=0&thumbfov=100"
            },
            {
                "about": "Street View & 360deg",
                "link": "https://streetviewpixels-pa.googleapis.com/v1/thumbnail?panoid=G9CUNPnLhWdVY5cy_PtIew&cb_client=maps_sv.tactile.gps&w=224&h=298&yaw=317.7766&pitch=0&thumbfov=100"
            }
        ],
        "link": "https://www.google.com/maps/place/Masjid+%26+Madarsa+Rabbania/data=!4m7!3m6!1s0x3977126dae932dab:0x578474c119d717c3!8m2!3d25.6493884!4d78.4613407!16s%2Fg%2F1tj2g8wy!19sChIJqy2Trm0SdzkRwxfXGcF0hFc?authuser=0&hl=en&rclk=1",
        "coordinates": {
            "latitude": 25.6493884,
            "longitude": 78.4613407
        }
    },
    {
        "name": "Shia Masjid",
        "main_category": "Mosque",
        "address": "MFC4+G74 Shia Masjid, Datia, Madhya Pradesh 475661",
        "detailed_address": {
            "ward": null,
            "street": "MFC4+G74",
            "city": "Datia",
            "postal_code": "475661",
            "state": "Madhya Pradesh",
            "country_code": "IN"
        },
        "images": [
            {
                "about": "All",
                "link": "https://lh5.googleusercontent.com/p/AF1QipNK_C4PEFv28nkXWvY4MPKKzfMHizxZtXvibQ2S=w529-h298-k-no"
            }
        ],
        "link": "https://www.google.com/maps/place/Shia+Masjid/data=!4m7!3m6!1s0x3977121eddcfe769:0x3f0d90e44cc12c16!8m2!3d25.6712576!4d78.4557027!16s%2Fg%2F11c206gsk5!19sChIJaefP3R4SdzkRFizBTOSQDT8?authuser=0&hl=en&rclk=1",
        "coordinates": {
            "latitude": 25.6712576,
            "longitude": 78.4557027
        }
    },
    {
        "name": "Moti Masjid",
        "main_category": "Mosque",
        "address": "PC2M+XWV Moti Masjid, Datia, Madhya Pradesh 475661",
        "detailed_address": {
            "ward": null,
            "street": "PC2M+XWV",
            "city": "Datia",
            "postal_code": "475661",
            "state": "Madhya Pradesh",
            "country_code": "IN"
        },
        "images": [
            {
                "about": "All",
                "link": "https://lh5.googleusercontent.com/p/AF1QipPaD87DTIIEvAvCmhWMaKZfHgkEVOLp6YYALWjb=w397-h298-k-no"
            }
        ],
        "link": "https://www.google.com/maps/place/Moti+Masjid/data=!4m7!3m6!1s0x397711a15a982be5:0xa6bb9141bc22a239!8m2!3d25.702479!4d78.4347924!16s%2Fg%2F11g88ccn87!19sChIJ5SuYWqERdzkROaIivEGRu6Y?authuser=0&hl=en&rclk=1",
        "coordinates": {
            "latitude": 25.702479,
            "longitude": 78.43479239999999
        }
    },
    {
        "name": "Badi Masjid Datia",
        "main_category": "Mosque",
        "address": "MFH6+G46 Badi Masjid Datia, Datia, Madhya Pradesh 475661",
        "detailed_address": {
            "ward": null,
            "street": "MFH6+G46",
            "city": "Datia",
            "postal_code": "475661",
            "state": "Madhya Pradesh",
            "country_code": "IN"
        },
        "images": [
            {
                "about": "All",
                "link": "https://lh5.googleusercontent.com/p/AF1QipN1MaqMphJCHVpj73P1qEqBlcVUPOEsWAm4jH4=w224-h398-k-no"
            },
            {
                "about": "Videos",
                "link": "https://lh5.googleusercontent.com/p/AF1QipPEBr2eJ3vMrdtylwif88FP_75oVCjt2OvCWRA=w224-h398-k-no"
            }
        ],
        "link": "https://www.google.com/maps/place/Badi+Masjid+Datia/data=!4m7!3m6!1s0x397711c98d9e1b91:0xa591044ae2775d57!8m2!3d25.6787871!4d78.4602594!16s%2Fg%2F11fl8mfb_p!19sChIJkRuejckRdzkRV1134koEkaU?authuser=0&hl=en&rclk=1",
        "coordinates": {
            "latitude": 25.678787099999997,
            "longitude": 78.4602594
        }
    },
    {
        "name": "msjid ismaaiil",
        "main_category": "Mosque",
        "address": "JFV2+5FP msjid ismaaiil, DINARA, ROAD, Industrial Area, Datia",
        "detailed_address": {
            "ward": "Industrial Area",
            "street": "JFV2+5FP, DINARA, ROAD",
            "city": "Datia, Ramnagar",
            "postal_code": null,
            "state": "Madhya Pradesh",
            "country_code": "IN"
        },
        "images": [
            {
                "about": "All",
                "link": "https://lh5.googleusercontent.com/p/AF1QipNQsLdxu-4EAnLVt3LYN1weVAkx7oqSyDuA8YUL=w397-h298-k-no"
            }
        ],
        "link": "https://www.google.com/maps/place/%E0%A4%AE%E0%A4%B8%E0%A5%8D%E0%A4%9C%E0%A4%BF%E0%A4%A6+%E0%A4%87%E0%A4%B8%E0%A5%8D%E0%A4%AE%E0%A4%BE%E0%A4%88%E0%A4%B2/data=!4m7!3m6!1s0x39771319d751f805:0x49399bfbf9108206!8m2!3d25.6429553!4d78.4512021!16s%2Fg%2F11n03hvmfw!19sChIJBfhR1xkTdzkRBoIQ-fubOUk?authuser=0&hl=en&rclk=1",
        "coordinates": {
            "latitude": 25.6429553,
            "longitude": 78.4512021
        }
    },
    {
        "name": "Veer Singh palace Sunni juma Masjid",
        "main_category": "Mosque",
        "address": "MFF2+P38 Veer Singh palace Sunni juma Masjid, Hardaul, Aman Colony, Datia, Madhya Pradesh 475661",
        "detailed_address": {
            "ward": "Hardaul, Aman Colony",
            "street": "MFF2+P38, Hardaul",
            "city": "Datia",
            "postal_code": "475661",
            "state": "Madhya Pradesh",
            "country_code": "IN"
        },
        "images": [
            {
                "about": "All",
                "link": "https://lh5.googleusercontent.com/p/AF1QipMYphXtm8KMzAYHdLqZl10phO_2uq5u2flWVltL=w529-h298-k-no"
            }
        ],
        "link": "https://www.google.com/maps/place/Veer+Singh+palace+Sunni+juma+Masjid/data=!4m7!3m6!1s0x397713893c6e6a7d:0x7deea859f8d9a7cc!8m2!3d25.6742824!4d78.4502031!16s%2Fg%2F11j0zrvz1b!19sChIJfWpuPIkTdzkRzKfZ-Fmo7n0?authuser=0&hl=en&rclk=1",
        "coordinates": {
            "latitude": 25.6742824,
            "longitude": 78.4502031
        }
    },
    {
        "name": "masjid Al Usmaniya",
        "main_category": "Mosque",
        "address": "MCHV+4H3 masjid Al Usmaniya, Aman Colony, Datia, Madhya Pradesh 475661",
        "detailed_address": {
            "ward": "Aman Colony",
            "street": "MCHV+4H3",
            "city": "Datia",
            "postal_code": "475661",
            "state": "Madhya Pradesh",
            "country_code": "IN"
        },
        "images": [],
        "link": "https://www.google.com/maps/place/masjid+Al+Usmaniya/data=!4m7!3m6!1s0x39771188ffffffff:0xe7e6459fb2542324!8m2!3d25.6777534!4d78.443932!16s%2Fg%2F11f3xh1v7d!19sChIJ_____4gRdzkRJCNUsp9F5uc?authuser=0&hl=en&rclk=1",
        "coordinates": {
            "latitude": 25.6777534,
            "longitude": 78.44393199999999
        }
    },
    {
        "name": "Imambargah-e-Abul fazlil ABBAS (Hakim Sahab ki Haweli)",
        "main_category": "Mosque",
        "address": "MFC4+FHJ Imambargah-e-Abul fazlil ABBAS (Hakim Sahab ki Haweli), Datia, Madhya Pradesh 475661",
        "detailed_address": {
            "ward": null,
            "street": "MFC4+FHJ",
            "city": "Datia",
            "postal_code": "475661",
            "state": "Madhya Pradesh",
            "country_code": "IN"
        },
        "images": [
            {
                "about": "All",
                "link": "https://lh5.googleusercontent.com/p/AF1QipOcGSj_-qMQp5eIXT3mPALWcgZfES28XVfrgvyn=w501-h298-k-no"
            }
        ],
        "link": "https://www.google.com/maps/place/Imambargah-e-Abul+fazlil+ABBAS+%28Hakim+Sahab+ki+Haweli%29/data=!4m7!3m6!1s0x397713a4db7ca951:0x892dfdadfee9ba6a!8m2!3d25.6712118!4d78.4563868!16s%2Fg%2F11qq9r21kk!19sChIJUal826QTdzkRarrp_q39LYk?authuser=0&hl=en&rclk=1",
        "coordinates": {
            "latitude": 25.6712118,
            "longitude": 78.45638679999999
        }
    },
    {
        "name": "Maszid",
        "main_category": "Mosque",
        "address": "Maszid, Police Line, Datia, Madhya Pradesh 475661",
        "detailed_address": {
            "ward": null,
            "street": "Police Line",
            "city": "Datia",
            "postal_code": "475661",
            "state": "Madhya Pradesh",
            "country_code": "IN"
        },
        "images": [
            {
                "about": "All",
                "link": "https://streetviewpixels-pa.googleapis.com/v1/thumbnail?panoid=-j1kUddeqz-l-GaFio64dA&cb_client=maps_sv.tactile.gps&w=224&h=298&yaw=252.79387&pitch=0&thumbfov=100"
            },
            {
                "about": "Street View & 360deg",
                "link": "https://streetviewpixels-pa.googleapis.com/v1/thumbnail?panoid=-j1kUddeqz-l-GaFio64dA&cb_client=maps_sv.tactile.gps&w=224&h=298&yaw=252.79387&pitch=0&thumbfov=100"
            }
        ],
        "link": "https://www.google.com/maps/place/Maszid/data=!4m7!3m6!1s0x397713a425cd5b85:0x8fe0f403e79f83ea!8m2!3d25.649519!4d78.4613589!16s%2Fg%2F11v3lcsn9k!19sChIJhVvNJaQTdzkR6oOf5wP04I8?authuser=0&hl=en&rclk=1",
        "coordinates": {
            "latitude": 25.649518999999998,
            "longitude": 78.4613589
        }
    },
    {
        "name": "Chhoti masjid datia",
        "main_category": "Mosque",
        "address": "MFH5+GV2 Chhoti masjid datia, Datia, Madhya Pradesh 475661",
        "detailed_address": {
            "ward": null,
            "street": "MFH5+GV2",
            "city": "Datia",
            "postal_code": "475661",
            "state": "Madhya Pradesh",
            "country_code": "IN"
        },
        "images": [],
        "link": "https://www.google.com/maps/place/Chhoti+masjid+datia/data=!4m7!3m6!1s0x39771142aa58111b:0x6c58882bc50671df!8m2!3d25.6787565!4d78.4596474!16s%2Fg%2F11ftmkbp9r!19sChIJGxFYqkIRdzkR33EGxSuIWGw?authuser=0&hl=en&rclk=1",
        "coordinates": {
            "latitude": 25.6787565,
            "longitude": 78.4596474
        }
    },
    {
        "name": "Masjid",
        "main_category": "Mosque",
        "address": "MFG4+CRM Masjid, Khatiko Ka patla, Datia, Madhya Pradesh 475661",
        "detailed_address": {
            "ward": null,
            "street": "MFG4+CRM, Khatiko Ka patla",
            "city": "Datia",
            "postal_code": "475661",
            "state": "Madhya Pradesh",
            "country_code": "IN"
        },
        "images": [
            {
                "about": "All",
                "link": "https://streetviewpixels-pa.googleapis.com/v1/thumbnail?panoid=gHcr2jw-pEzfExKX_yIe-g&cb_client=maps_sv.tactile.gps&w=224&h=298&yaw=323.31586&pitch=0&thumbfov=100"
            },
            {
                "about": "Street View & 360deg",
                "link": "https://streetviewpixels-pa.googleapis.com/v1/thumbnail?panoid=gHcr2jw-pEzfExKX_yIe-g&cb_client=maps_sv.tactile.gps&w=224&h=298&yaw=323.31586&pitch=0&thumbfov=100"
            }
        ],
        "link": "https://www.google.com/maps/place/Masjid/data=!4m7!3m6!1s0x3977111543cc48e3:0xce658b815d267f3!8m2!3d25.6760823!4d78.4570751!16s%2Fg%2F11t3lr010f!19sChIJ40jMQxURdzkR82fSFbhY5gw?authuser=0&hl=en&rclk=1",
        "coordinates": {
            "latitude": 25.676082299999997,
            "longitude": 78.4570751
        }
    },
    {
        "name": "Masjid",
        "main_category": "Mosque",
        "address": "Masjid, 286/k, Hardaul, Datia, Madhya Pradesh 475661",
        "detailed_address": {
            "ward": null,
            "street": "286/k, Hardaul",
            "city": "Datia",
            "postal_code": "475661",
            "state": "Madhya Pradesh",
            "country_code": "IN"
        },
        "images": [],
        "link": "https://www.google.com/maps/place/Masjid/data=!4m7!3m6!1s0x3977139c925f2395:0x7b612dc691feec01!8m2!3d25.672189!4d78.4501826!16s%2Fg%2F11tgc987ty!19sChIJlSNfkpwTdzkRAez-kcYtYXs?authuser=0&hl=en&rclk=1",
        "coordinates": {
            "latitude": 25.672189,
            "longitude": 78.45018259999999
        }
    },
    {
        "name": "Masjid Aman colony",
        "main_category": "Mosque",
        "address": "MCGV+XWF Masjid Aman colony, Aman Colony, Datia, Madhya Pradesh 475661",
        "detailed_address": {
            "ward": "Aman Colony",
            "street": "MCGV+XWF",
            "city": "Datia",
            "postal_code": "475661",
            "state": "Madhya Pradesh",
            "country_code": "IN"
        },
        "images": [],
        "link": "https://www.google.com/maps/place/Masjid+Aman+colony/data=!4m7!3m6!1s0x3977117ee0ee59f3:0x47d72d394e08de1d!8m2!3d25.6774933!4d78.4449041!16s%2Fg%2F11srjj_b6p!19sChIJ81nu4H4RdzkRHd4ITjkt10c?authuser=0&hl=en&rclk=1",
        "coordinates": {
            "latitude": 25.6774933,
            "longitude": 78.4449041
        }
    },
    {
        "name": "Filter masjid",
        "main_category": "Mosque",
        "address": "MF65+WGF Filter masjid, near sita sagar, Datia, Madhya Pradesh 475661",
        "detailed_address": {
            "ward": null,
            "street": "MF65+WGF, near sita sagar",
            "city": "Datia",
            "postal_code": "475661",
            "state": "Madhya Pradesh",
            "country_code": "IN"
        },
        "images": [],
        "link": "https://www.google.com/maps/place/Filter+masjid/data=!4m7!3m6!1s0x397713e9df9cad0f:0x45a0b8c426201a25!8m2!3d25.6623002!4d78.4587858!16s%2Fg%2F11tjrj__nl!19sChIJD62c3-kTdzkRJRogJsS4oEU?authuser=0&hl=en&rclk=1",
        "coordinates": {
            "latitude": 25.662300199999997,
            "longitude": 78.4587858
        }
    },
    {
        "name": "Masjid chaupal",
        "main_category": "Mosque",
        "address": "MFC2+9WV Masjid chaupal, Datia, Madhya Pradesh 475661",
        "detailed_address": {
            "ward": null,
            "street": "MFC2+9WV",
            "city": "Datia",
            "postal_code": "475661",
            "state": "Madhya Pradesh",
            "country_code": "IN"
        },
        "images": [],
        "link": "https://www.google.com/maps/place/Masjid+chaupal/data=!4m7!3m6!1s0x39771398b7c61461:0xc25b4cc5c135708f!8m2!3d25.6710082!4d78.4523006!16s%2Fg%2F11khb583c5!19sChIJYRTGt5gTdzkRj3A1wcVMW8I?authuser=0&hl=en&rclk=1",
        "coordinates": {
            "latitude": 25.6710082,
            "longitude": 78.4523006
        }
    },
    {
        "name": "Masjid in Madarsah",
        "main_category": "Mosque",
        "address": "MFJ2+32C Masjid in Madarsah, Eid gah mohalla, chungar fatak, Aman Colony, Datia, Madhya Pradesh 475661",
        "detailed_address": {
            "ward": "chungar fatak, Aman Colony",
            "street": "MFJ2+32C, Eid gah mohalla",
            "city": "Datia",
            "postal_code": "475661",
            "state": "Madhya Pradesh",
            "country_code": "IN"
        },
        "images": [
            {
                "about": "All",
                "link": "https://streetviewpixels-pa.googleapis.com/v1/thumbnail?panoid=BMFrDcV1-UrjSRq4QczXbg&cb_client=maps_sv.tactile.gps&w=224&h=298&yaw=252.90195&pitch=0&thumbfov=100"
            },
            {
                "about": "Street View & 360deg",
                "link": "https://streetviewpixels-pa.googleapis.com/v1/thumbnail?panoid=BMFrDcV1-UrjSRq4QczXbg&cb_client=maps_sv.tactile.gps&w=224&h=298&yaw=252.90195&pitch=0&thumbfov=100"
            }
        ],
        "link": "https://www.google.com/maps/place/Masjid+in+Madarsah/data=!4m7!3m6!1s0x397711b73f7a6b9f:0x34dc2417ec46a307!8m2!3d25.6799505!4d78.4495651!16s%2Fg%2F11khb57fp_!19sChIJn2t6P7cRdzkRB6NG7Bck3DQ?authuser=0&hl=en&rclk=1",
        "coordinates": {
            "latitude": 25.6799505,
            "longitude": 78.4495651
        }
    },
    {
        "name": "Masjid Bahadur Khan",
        "main_category": "Mosque",
        "address": "MFH3+C52 Masjid Bahadur Khan, Chungar Fatak, near Bhairab Mandir, Aman Colony, Datia, Madhya Pradesh 475661",
        "detailed_address": {
            "ward": "Aman Colony",
            "street": "MFH3+C52, Chungar Fatak, near Bhairab Mandir",
            "city": "Datia",
            "postal_code": "475661",
            "state": "Madhya Pradesh",
            "country_code": "IN"
        },
        "images": [
            {
                "about": "All",
                "link": "https://streetviewpixels-pa.googleapis.com/v1/thumbnail?panoid=ZfRToBYnw2sJbJoF44YTtw&cb_client=maps_sv.tactile.gps&w=224&h=298&yaw=216.13663&pitch=0&thumbfov=100"
            },
            {
                "about": "Street View & 360deg",
                "link": "https://streetviewpixels-pa.googleapis.com/v1/thumbnail?panoid=ZfRToBYnw2sJbJoF44YTtw&cb_client=maps_sv.tactile.gps&w=224&h=298&yaw=216.13663&pitch=0&thumbfov=100"
            }
        ],
        "link": "https://www.google.com/maps/place/Masjid+Bahadur+Khan/data=!4m7!3m6!1s0x39771132fdcd7057:0x8622820d2e89ccb3!8m2!3d25.6782121!4d78.4526141!16s%2Fg%2F11tgc9j6_g!19sChIJV3DN_TIRdzkRs8yJLg2CIoY?authuser=0&hl=en&rclk=1",
        "coordinates": {
            "latitude": 25.6782121,
            "longitude": 78.45261409999999
        }
    },
    {
        "name": "Rani Puri nayi masjid",
        "main_category": "Mosque",
        "address": "MFF6+CWX Rani Puri nayi masjid, Datia, Madhya Pradesh 475661",
        "detailed_address": {
            "ward": null,
            "street": "MFF6+CWX",
            "city": "Datia",
            "postal_code": null,
            "state": "Madhya Pradesh",
            "country_code": "IN"
        },
        "images": [],
        "link": "https://www.google.com/maps/place/Rani+Puri+nayi+masjid/data=!4m7!3m6!1s0x397713816f67120b:0xaa03d651178584e9!8m2!3d25.6736206!4d78.4623629!16s%2Fg%2F11t3gdcgbb!19sChIJCxJnb4ETdzkR6YSFF1HWA6o?authuser=0&hl=en&rclk=1",
        "coordinates": {
            "latitude": 25.6736206,
            "longitude": 78.4623629
        }
    },
    {
        "name": "Masjid Aqsa (DATIA GATE)",
        "main_category": "Mosque",
        "address": "FH8C+JX6 Masjid Aqsa (DATIA GATE), Datia Gate Area, Jhansi, Uttar Pradesh 284002",
        "detailed_address": {
            "ward": "Datia Gate Area",
            "street": "FH8C+JX6",
            "city": "Jhansi",
            "postal_code": "284002",
            "state": "Uttar Pradesh",
            "country_code": "IN"
        },
        "images": [
            {
                "about": "All",
                "link": "https://streetviewpixels-pa.googleapis.com/v1/thumbnail?panoid=jqbd2Dn3twNnspeeU6Kamw&cb_client=maps_sv.tactile.gps&w=224&h=298&yaw=4.2057734&pitch=0&thumbfov=100"
            },
            {
                "about": "Street View & 360deg",
                "link": "https://streetviewpixels-pa.googleapis.com/v1/thumbnail?panoid=jqbd2Dn3twNnspeeU6Kamw&cb_client=maps_sv.tactile.gps&w=224&h=298&yaw=4.2057734&pitch=0&thumbfov=100"
            }
        ],
        "link": "https://www.google.com/maps/place/Masjid+Aqsa+%28DATIA+GATE%29/data=!4m7!3m6!1s0x397777cf511aedaf:0xd0a61a50c4937a0!8m2!3d25.4665325!4d78.5724045!16s%2Fg%2F11kqhws_kh!19sChIJr-0aUc93dzkRoDdJDKVhCg0?authuser=0&hl=en&rclk=1",
        "coordinates": {
            "latitude": 25.4665325,
            "longitude": 78.57240449999999
        }
    }
]