[
    {
        "name": "Jama Masjid",
        "main_category": "Mosque",
        "address": "RJC5+XW4 Jama Masjid, Talab Chowk, Pahad Sing Pura, Khargone, Madhya Pradesh 451001",
        "detailed_address": {
            "ward": "Pahad Sing Pura",
            "street": "RJC5+XW4, Talab Chowk",
            "city": "Khargone",
            "postal_code": "451001",
            "state": "Madhya Pradesh",
            "country_code": "IN"
        },
        "images": [
            {
                "about": "All",
                "link": "https://streetviewpixels-pa.googleapis.com/v1/thumbnail?panoid=D7Clt78YSvygfOSf238iKQ&cb_client=maps_sv.tactile.gps&w=224&h=298&yaw=336.842&pitch=0&thumbfov=100"
            },
            {
                "about": "Street View & 360deg",
                "link": "https://streetviewpixels-pa.googleapis.com/v1/thumbnail?panoid=D7Clt78YSvygfOSf238iKQ&cb_client=maps_sv.tactile.gps&w=224&h=298&yaw=336.842&pitch=0&thumbfov=100"
            }
        ],
        "link": "https://www.google.com/maps/place/Jama+Masjid/data=!4m7!3m6!1s0x3bd885db4f6ce5ab:0xc16d64c616cb8bf0!8m2!3d21.8223897!4d75.6098162!16s%2Fg%2F11bv19dbh5!19sChIJq-VsT9uF2DsR8IvLFsZkbcE?authuser=0&hl=en&rclk=1",
        "coordinates": {
            "latitude": 21.8223897,
            "longitude": 75.6098162
        }
    },
    {
        "name": "Masjid E Umar",
        "main_category": "Mosque",
        "address": "RJ87+28W Masjid E Umar, Azad Nagar, Khargone, Madhya Pradesh 451001",
        "detailed_address": {
            "ward": "Azad Nagar",
            "street": "RJ87+28W",
            "city": "Khargone",
            "postal_code": "451001",
            "state": "Madhya Pradesh",
            "country_code": "IN"
        },
        "images": [
            {
                "about": "All",
                "link": "https://lh5.googleusercontent.com/p/AF1QipPWNxYbFKVv0OCAVVkOhtaAkwIK8-JiELAY3pUg=w224-h298-k-no"
            }
        ],
        "link": "https://www.google.com/maps/place/Masjid+E+Umar/data=!4m7!3m6!1s0x3bd885e7687b409f:0xbd822283b86b9a4a!8m2!3d21.8151047!4d75.6133308!16s%2Fg%2F11b869rhj6!19sChIJn0B7aOeF2DsRSppruIMigr0?authuser=0&hl=en&rclk=1",
        "coordinates": {
            "latitude": 21.8151047,
            "longitude": 75.6133308
        }
    },
    {
        "name": "Markaz Masjid Miyaman",
        "main_category": "Mosque",
        "address": "Markaz Masjid Miyaman, Behind, Tilak Path, Mohalla Miyaman, Brahmanpuri Mohalla, Khargone, Madhya Pradesh 451001",
        "detailed_address": {
            "ward": "Mohalla Miyaman, Brahmanpuri Mohalla",
            "street": "Behind, Tilak Path",
            "city": "Khargone",
            "postal_code": "451001",
            "state": "Madhya Pradesh",
            "country_code": "IN"
        },
        "images": [
            {
                "about": "All",
                "link": "https://lh5.googleusercontent.com/p/AF1QipOd8Hodc-YRmFOn4ik0enoWzoMDlNCY7F4Azno5=w224-h298-k-no"
            }
        ],
        "link": "https://www.google.com/maps/place/Markaz+Masjid+Miyaman/data=!4m7!3m6!1s0x3bd885db17637727:0x1734e9e50d00762!8m2!3d21.8238568!4d75.6110232!16s%2Fg%2F11b81s19cl!19sChIJJ3djF9uF2DsRYgfQUJ5OcwE?authuser=0&hl=en&rclk=1",
        "coordinates": {
            "latitude": 21.823856799999998,
            "longitude": 75.61102319999999
        }
    },
    {
        "name": "Aurangpura Masjid",
        "main_category": "Mosque",
        "address": "RJF2+WXC Aurangpura Masjid, Rahimpura, Khargone, Madhya Pradesh 451001",
        "detailed_address": {
            "ward": "Rahimpura",
            "street": "RJF2+WXC",
            "city": "Khargone",
            "postal_code": "451001",
            "state": "Madhya Pradesh",
            "country_code": "IN"
        },
        "images": [
            {
                "about": "All",
                "link": "https://streetviewpixels-pa.googleapis.com/v1/thumbnail?panoid=0Ut9p1cMgN_DPN80oJpURg&cb_client=maps_sv.tactile.gps&w=224&h=298&yaw=357.09363&pitch=0&thumbfov=100"
            },
            {
                "about": "Street View & 360deg",
                "link": "https://streetviewpixels-pa.googleapis.com/v1/thumbnail?panoid=0Ut9p1cMgN_DPN80oJpURg&cb_client=maps_sv.tactile.gps&w=224&h=298&yaw=357.09363&pitch=0&thumbfov=100"
            },
            {
                "about": "Videos",
                "link": "https://lh5.googleusercontent.com/p/AF1QipOfvqt5jHMXsCvbsivDWQcrX9R54oiG4O85BHb1=w224-h398-k-no"
            }
        ],
        "link": "https://www.google.com/maps/place/Aurangpura+Masjid/data=!4m7!3m6!1s0x3bd885c66c2bc53b:0xe9696d3e02b1184f!8m2!3d21.8248098!4d75.6023784!16s%2Fg%2F11bv19gjpl!19sChIJO8UrbMaF2DsRTxixAj5taek?authuser=0&hl=en&rclk=1",
        "coordinates": {
            "latitude": 21.8248098,
            "longitude": 75.60237839999999
        }
    },
    {
        "name": "Masjid E Yunoos",
        "main_category": "Mosque",
        "address": "Masjid E Yunoos, Madani Nagar, Azad Nagar, Khargone, Madhya Pradesh 451001",
        "detailed_address": {
            "ward": "Azad Nagar",
            "street": "Madani Nagar",
            "city": "Khargone",
            "postal_code": "451001",
            "state": "Madhya Pradesh",
            "country_code": "IN"
        },
        "images": [
            {
                "about": "All",
                "link": "https://streetviewpixels-pa.googleapis.com/v1/thumbnail?panoid=3oPazIR4yDViezDes8TUmg&cb_client=maps_sv.tactile.gps&w=224&h=298&yaw=349.7825&pitch=0&thumbfov=100"
            },
            {
                "about": "Street View & 360deg",
                "link": "https://streetviewpixels-pa.googleapis.com/v1/thumbnail?panoid=3oPazIR4yDViezDes8TUmg&cb_client=maps_sv.tactile.gps&w=224&h=298&yaw=349.7825&pitch=0&thumbfov=100"
            }
        ],
        "link": "https://www.google.com/maps/place/Masjid+E+Yunoos/data=!4m7!3m6!1s0x3bd885e7283d9cfd:0x61e3d47d813f93ec!8m2!3d21.8132175!4d75.6144944!16s%2Fg%2F11bv30l9v4!19sChIJ_Zw9KOeF2DsR7JM_gX3U42E?authuser=0&hl=en&rclk=1",
        "coordinates": {
            "latitude": 21.8132175,
            "longitude": 75.6144944
        }
    },
    {
        "name": "Sukhpuri Masjid",
        "main_category": "Mosque",
        "address": "RJP3+G97 Sukhpuri Masjid, Industrial Area, Bardiya, Khargone, Madhya Pradesh 451001",
        "detailed_address": {
            "ward": "Industrial Area, Bardiya",
            "street": "RJP3+G97",
            "city": "Khargone",
            "postal_code": "451001",
            "state": "Madhya Pradesh",
            "country_code": "IN"
        },
        "images": [],
        "link": "https://www.google.com/maps/place/Sukhpuri+Masjid/data=!4m7!3m6!1s0x3bd885cc9d7291ff:0xb1424a3f1bfed772!8m2!3d21.8362825!4d75.6034322!16s%2Fg%2F11b86rz3_h!19sChIJ_5FyncyF2DsRctf-Gz9KQrE?authuser=0&hl=en&rclk=1",
        "coordinates": {
            "latitude": 21.8362825,
            "longitude": 75.6034322
        }
    },
    {
        "name": "Dhaan Mandi Masjid",
        "main_category": "Mosque",
        "address": "RJG6+85F Dhaan Mandi Masjid, MG Rd, D R P Line, Brahmanpuri Mohalla, Khargone, Madhya Pradesh 451001",
        "detailed_address": {
            "ward": "D R P Line, Brahmanpuri Mohalla",
            "street": "RJG6+85F, MG Rd",
            "city": "Khargone",
            "postal_code": "451001",
            "state": "Madhya Pradesh",
            "country_code": "IN"
        },
        "images": [
            {
                "about": "All",
                "link": "https://streetviewpixels-pa.googleapis.com/v1/thumbnail?panoid=3Dj0Vr6mOWvg9AM3LIjuZQ&cb_client=maps_sv.tactile.gps&w=224&h=298&yaw=50.354465&pitch=0&thumbfov=100"
            },
            {
                "about": "Street View & 360deg",
                "link": "https://streetviewpixels-pa.googleapis.com/v1/thumbnail?panoid=3Dj0Vr6mOWvg9AM3LIjuZQ&cb_client=maps_sv.tactile.gps&w=224&h=298&yaw=50.354465&pitch=0&thumbfov=100"
            }
        ],
        "link": "https://www.google.com/maps/place/Dhaan+Mandi+Masjid/data=!4m7!3m6!1s0x3bd885dac080ecc7:0x4706cd075066572b!8m2!3d21.8258246!4d75.6104257!16s%2Fg%2F11bv1cb7hd!19sChIJx-yAwNqF2DsRK1dmUAfNBkc?authuser=0&hl=en&rclk=1",
        "coordinates": {
            "latitude": 21.8258246,
            "longitude": 75.6104257
        }
    },
    {
        "name": "Zaqariya Masjid",
        "main_category": "Mosque",
        "address": "RJ75+F47 Zaqariya Masjid, Sanjay Nagar Marg, Moti Pura, Khargone, Madhya Pradesh 451001",
        "detailed_address": {
            "ward": "Moti Pura",
            "street": "RJ75+F47, Sanjay Nagar Marg",
            "city": "Khargone",
            "postal_code": "451001",
            "state": "Madhya Pradesh",
            "country_code": "IN"
        },
        "images": [],
        "link": "https://www.google.com/maps/place/Zaqariya+Masjid/data=!4m7!3m6!1s0x3bd885e86a398f71:0x47a5980be1cdb3f6!8m2!3d21.8136601!4d75.6077908!16s%2Fg%2F11c4bq2t12!19sChIJcY85auiF2DsR9rPN4QuYpUc?authuser=0&hl=en&rclk=1",
        "coordinates": {
            "latitude": 21.8136601,
            "longitude": 75.6077908
        }
    },
    {
        "name": "Masjid E Firdaus",
        "main_category": "Mosque",
        "address": "RJC6+CCV Masjid E Firdaus, Kazipura Rd, Azad Nagar, Khargone, Madhya Pradesh 451001",
        "detailed_address": {
            "ward": "Azad Nagar",
            "street": "RJC6+CCV, Kazipura Rd",
            "city": "Khargone",
            "postal_code": "451001",
            "state": "Madhya Pradesh",
            "country_code": "IN"
        },
        "images": [
            {
                "about": "All",
                "link": "https://lh5.googleusercontent.com/p/AF1QipOdHBoJ7XgZ8rvYUGok_F0IQdlNOP8W64aV3quO=w395-h298-k-no"
            }
        ],
        "link": "https://www.google.com/maps/place/Masjid+E+Firdaus/data=!4m7!3m6!1s0x3bd885dc9c0a3dd9:0xf24a5366dd73c21c!8m2!3d21.8211159!4d75.6110621!16s%2Fg%2F11fx7lz14t!19sChIJ2T0KnNyF2DsRHMJz3WZTSvI?authuser=0&hl=en&rclk=1",
        "coordinates": {
            "latitude": 21.8211159,
            "longitude": 75.6110621
        }
    },
    {
        "name": "Masjid Baag E Jannat",
        "main_category": "Mosque",
        "address": "RJ75+69X Masjid Baag E Jannat, Moti Pura, Khargone, Madhya Pradesh 451001",
        "detailed_address": {
            "ward": "Moti Pura",
            "street": "RJ75+69X",
            "city": "Khargone",
            "postal_code": "451001",
            "state": "Madhya Pradesh",
            "country_code": "IN"
        },
        "images": [
            {
                "about": "All",
                "link": "https://lh5.googleusercontent.com/p/AF1QipMhKI7CtV-n6YcR7xYYdJ4rLOgzQSWQxpgenxV7=w397-h298-k-no"
            }
        ],
        "link": "https://www.google.com/maps/place/Masjid+Baag+E+Jannat/data=!4m7!3m6!1s0x3bd885e87ae28df5:0x5f01f1ef030c63fb!8m2!3d21.8131172!4d75.6084762!16s%2Fg%2F11c2ppn7qk!19sChIJ9Y3ieuiF2DsR-2MMA-_xAV8?authuser=0&hl=en&rclk=1",
        "coordinates": {
            "latitude": 21.8131172,
            "longitude": 75.6084762
        }
    },
    {
        "name": "Madina Masjid",
        "main_category": "Mosque",
        "address": "RPHQ+V42 Madina Masjid, Devalgaon, Madhya Pradesh 451335",
        "detailed_address": {
            "ward": null,
            "street": "RPHQ+V42",
            "city": "Devalgaon",
            "postal_code": "451335",
            "state": "Madhya Pradesh",
            "country_code": "IN"
        },
        "images": [
            {
                "about": "All",
                "link": "https://lh5.googleusercontent.com/p/AF1QipN3uOTwBcBN-ER37nQmmr9-ScX5sIs-itZ68TVm=w224-h298-k-no"
            },
            {
                "about": "Dome",
                "link": "https://lh5.googleusercontent.com/p/AF1QipPskkpIzEHZXwxsBlEOjiut-UNGyjR6dhusODJ1=w397-h298-k-no"
            },
            {
                "about": "Videos",
                "link": "https://lh5.googleusercontent.com/p/AF1QipN319t4wZbnYFijsUgcRhYPZ_Bnnv6otOOcpoBR=w224-h397-k-no"
            },
            {
                "about": "Street View & 360deg",
                "link": "https://streetviewpixels-pa.googleapis.com/v1/thumbnail?panoid=cwB8ZoQ5Opq-d5Sgc6NZVg&cb_client=maps_sv.tactile.gps&w=224&h=298&yaw=262.57928&pitch=0&thumbfov=100"
            }
        ],
        "link": "https://www.google.com/maps/place/Madina+Masjid/data=!4m7!3m6!1s0x3bd87d15285ce0d7:0xd7f81a97c4385a10!8m2!3d21.8296365!4d75.7377723!16s%2Fg%2F11d_786ty2!19sChIJ1-BcKBV92DsREFo4xJca-Nc?authuser=0&hl=en&rclk=1",
        "coordinates": {
            "latitude": 21.8296365,
            "longitude": 75.7377723
        }
    },
    {
        "name": "Masjid E Ayesha",
        "main_category": "Mosque",
        "address": "RJ96+586 Masjid E Ayesha, Gulshan Nagar, Khargone, Madhya Pradesh 451001",
        "detailed_address": {
            "ward": "Gulshan Nagar",
            "street": "RJ96+586",
            "city": "Khargone",
            "postal_code": null,
            "state": "Madhya Pradesh",
            "country_code": "IN"
        },
        "images": [],
        "link": "https://www.google.com/maps/place/Masjid+E+Ayesha/data=!4m7!3m6!1s0x3bd885dd178774b5:0x8da6306fa11bee85!8m2!3d21.8179078!4d75.610762!16s%2Fg%2F11bv2l1yq6!19sChIJtXSHF92F2DsRhe4boW8wpo0?authuser=0&hl=en&rclk=1",
        "coordinates": {
            "latitude": 21.8179078,
            "longitude": 75.610762
        }
    },
    {
        "name": "Nurani Masjid",
        "main_category": "Mosque",
        "address": "Nurani Masjid, Lakhi, Madhya Pradesh 451335",
        "detailed_address": {
            "ward": null,
            "street": null,
            "city": "Lakhi",
            "postal_code": null,
            "state": "Madhya Pradesh",
            "country_code": "IN"
        },
        "images": [
            {
                "about": "All",
                "link": "https://lh5.googleusercontent.com/p/AF1QipMKjRwVm5sydCA7rs5FSHKvnLa8h7CAZnVQbOq3=w397-h298-k-no"
            },
            {
                "about": "Videos",
                "link": "https://lh5.googleusercontent.com/p/AF1QipOLtLU_Ty7LLaaND6IcznHwrFFxIoGllcMKt1u_=w224-h398-k-no"
            }
        ],
        "link": "https://www.google.com/maps/place/Nurani+Masjid/data=!4m7!3m6!1s0x3bd87cf707596c5b:0x7b3e1af8a4f1bb8d!8m2!3d21.8504681!4d75.7745156!16s%2Fg%2F124yk25v7!19sChIJW2xZB_d82DsRjbvxpPgaPns?authuser=0&hl=en&rclk=1",
        "coordinates": {
            "latitude": 21.8504681,
            "longitude": 75.7745156
        }
    },
    {
        "name": "Jama masjid",
        "main_category": "Mosque",
        "address": "XJ4F+XPH Jama masjid, Lohari, Madhya Pradesh 451001",
        "detailed_address": {
            "ward": null,
            "street": "XJ4F+XPH",
            "city": "Lohari",
            "postal_code": "451001",
            "state": "Madhya Pradesh",
            "country_code": "IN"
        },
        "images": [
            {
                "about": "All",
                "link": "https://lh5.googleusercontent.com/p/AF1QipPRCtzIrPJm2tsAg7M7_G99QD1mM3aV-4a0t160=w298-h298-k-no"
            },
            {
                "about": "Videos",
                "link": "https://lh5.googleusercontent.com/p/AF1QipM9td_IAy8LHP6ehXTNwdhl1dJOj4GQAGvFvwjk=w611-h298-k-no"
            }
        ],
        "link": "https://www.google.com/maps/place/Jama+masjid/data=!4m7!3m6!1s0x3bd881f4cfffb497:0x7d9f64f004f72006!8m2!3d21.9574351!4d75.6243663!16s%2Fg%2F11c6s1h8cn!19sChIJl7T_z_SB2DsRBiD3BPBkn30?authuser=0&hl=en&rclk=1",
        "coordinates": {
            "latitude": 21.957435099999998,
            "longitude": 75.62436629999999
        }
    },
    {
        "name": "Noorani Masjid",
        "main_category": "Mosque",
        "address": "4GFR+F3G Noorani Masjid, Khargone, Madhya Pradesh 451228",
        "detailed_address": {
            "ward": null,
            "street": "4GFR+F3G",
            "city": "Khargone",
            "postal_code": "451228",
            "state": "Madhya Pradesh",
            "country_code": "IN"
        },
        "images": [
            {
                "about": "All",
                "link": "https://lh5.googleusercontent.com/p/AF1QipNeT0TKkAUerMyN5DOmXSDNu6Ah8R-lvI9a82YP=w224-h407-k-no"
            },
            {
                "about": "Videos",
                "link": "https://lh5.googleusercontent.com/p/AF1QipNeT0TKkAUerMyN5DOmXSDNu6Ah8R-lvI9a82YP=w224-h407-k-no"
            }
        ],
        "link": "https://www.google.com/maps/place/Noorani+Masjid/data=!4m7!3m6!1s0x39627a8fe30a2b3d:0x1148dd2664001828!8m2!3d22.1236797!4d75.5402142!16s%2Fg%2F11dxs38pjw!19sChIJPSsK4496YjkRKBgAZCbdSBE?authuser=0&hl=en&rclk=1",
        "coordinates": {
            "latitude": 22.1236797,
            "longitude": 75.5402142
        }
    },
    {
        "name": "Masjid E Shakoor",
        "main_category": "Mosque",
        "address": "RJF6+2C7 Masjid E Shakoor, Sahkar Nagar, Rishika Nagar, Khargone, Madhya Pradesh 451001",
        "detailed_address": {
            "ward": "Sahkar Nagar, Rishika Nagar",
            "street": "RJF6+2C7",
            "city": "Khargone",
            "postal_code": "451001",
            "state": "Madhya Pradesh",
            "country_code": "IN"
        },
        "images": [
            {
                "about": "All",
                "link": "https://streetviewpixels-pa.googleapis.com/v1/thumbnail?panoid=fvBNvsGoV5RZ_HgeZB8xrQ&cb_client=maps_sv.tactile.gps&w=224&h=298&yaw=199.53264&pitch=0&thumbfov=100"
            },
            {
                "about": "Street View & 360deg",
                "link": "https://streetviewpixels-pa.googleapis.com/v1/thumbnail?panoid=fvBNvsGoV5RZ_HgeZB8xrQ&cb_client=maps_sv.tactile.gps&w=224&h=298&yaw=199.53264&pitch=0&thumbfov=100"
            }
        ],
        "link": "https://www.google.com/maps/place/Masjid+E+Shakoor/data=!4m7!3m6!1s0x3bd885db6eb15975:0x75a32f0de051e637!8m2!3d21.8225343!4d75.6110406!16s%2Fg%2F11bv1lzpx2!19sChIJdVmxbtuF2DsRN-ZR4A0vo3U?authuser=0&hl=en&rclk=1",
        "coordinates": {
            "latitude": 21.822534299999997,
            "longitude": 75.6110406
        }
    },
    {
        "name": "Masjid E Hasnain",
        "main_category": "Mosque",
        "address": "Masjid E Hasnain, Hasnain Chowk, 1107, Brahmanpuri Mohalla, Khargone, Madhya Pradesh 451001",
        "detailed_address": {
            "ward": "Brahmanpuri Mohalla",
            "street": "Hasnain Chowk, 1107",
            "city": "Khargone",
            "postal_code": "451001",
            "state": "Madhya Pradesh",
            "country_code": "IN"
        },
        "images": [
            {
                "about": "All",
                "link": "https://streetviewpixels-pa.googleapis.com/v1/thumbnail?panoid=Xw_wpQmkNfGBTK2fuEadOw&cb_client=maps_sv.tactile.gps&w=224&h=298&yaw=300.40094&pitch=0&thumbfov=100"
            },
            {
                "about": "Street View & 360deg",
                "link": "https://streetviewpixels-pa.googleapis.com/v1/thumbnail?panoid=Xw_wpQmkNfGBTK2fuEadOw&cb_client=maps_sv.tactile.gps&w=224&h=298&yaw=300.40094&pitch=0&thumbfov=100"
            }
        ],
        "link": "https://www.google.com/maps/place/Masjid+E+Hasnain/data=!4m7!3m6!1s0x3bd885da573d30a5:0x973733f200643c4b!8m2!3d21.8251553!4d75.612396!16s%2Fg%2F11b86qp6zd!19sChIJpTA9V9qF2DsRSzxkAPIzN5c?authuser=0&hl=en&rclk=1",
        "coordinates": {
            "latitude": 21.8251553,
            "longitude": 75.61239599999999
        }
    },
    {
        "name": "Masjid Ameer Hamza",
        "main_category": "Mosque",
        "address": "RJC7+8CG Masjid Ameer Hamza, Shiv Shakti Nagar Rd, Anjuman Nagar, Rishika Nagar, Khargone, Madhya Pradesh 451001",
        "detailed_address": {
            "ward": "Anjuman Nagar, Rishika Nagar",
            "street": "RJC7+8CG, Shiv Shakti Nagar Rd",
            "city": "Khargone",
            "postal_code": "451001",
            "state": "Madhya Pradesh",
            "country_code": "IN"
        },
        "images": [],
        "link": "https://www.google.com/maps/place/Masjid+Ameer+Hamza/data=!4m7!3m6!1s0x3bd885dc12ef1d4f:0x41f1c1c6976297a3!8m2!3d21.8208043!4d75.6135883!16s%2Fg%2F11bv2l2xsc!19sChIJTx3vEtyF2DsRo5dil8bB8UE?authuser=0&hl=en&rclk=1",
        "coordinates": {
            "latitude": 21.8208043,
            "longitude": 75.6135883
        }
    },
    {
        "name": "JAMA MASJID",
        "main_category": "Mosque",
        "address": "WP9W+3QF JAMA MASJID, Gogawan, Shahpura[Gogaon], Madhya Pradesh 451335",
        "detailed_address": {
            "ward": null,
            "street": "WP9W+3QF",
            "city": "Gogawan, Shahpura[Gogaon]",
            "postal_code": "451335",
            "state": "Madhya Pradesh",
            "country_code": "IN"
        },
        "images": [],
        "link": "https://www.google.com/maps/place/JAMA+MASJID/data=!4m7!3m6!1s0x3bd87fb6851c8af3:0xdcc65efc01074046!8m2!3d21.9176888!4d75.7469123!16s%2Fg%2F11tt9213h4!19sChIJ84ochbZ_2DsRRkAHAfxextw?authuser=0&hl=en&rclk=1",
        "coordinates": {
            "latitude": 21.9176888,
            "longitude": 75.74691229999999
        }
    },
    {
        "name": "Jama masjid Mohammadpur",
        "main_category": "Mosque",
        "address": "VPJW+455 Jama masjid Mohammadpur, Mahammadpur, Malkapur, Madhya Pradesh 451335",
        "detailed_address": {
            "ward": null,
            "street": "VPJW+455",
            "city": "Mahammadpur, Malkapur",
            "postal_code": "451335",
            "state": "Madhya Pradesh",
            "country_code": "IN"
        },
        "images": [
            {
                "about": "All",
                "link": "https://lh5.googleusercontent.com/p/AF1QipOzY-mZOVu1EUQEjrlMUdXLXcul3r5dQiq2S4t1=w397-h298-k-no"
            }
        ],
        "link": "https://www.google.com/maps/place/Jama+masjid+Mohammadpur/data=!4m7!3m6!1s0x3bd87d3f796d28c1:0x7cc1e19dfb91aec4!8m2!3d21.8802586!4d75.7454699!16s%2Fg%2F11g4c_sdkj!19sChIJwShteT992DsRxK6R-53hwXw?authuser=0&hl=en&rclk=1",
        "coordinates": {
            "latitude": 21.880258599999998,
            "longitude": 75.7454699
        }
    },
    {
        "name": "Muhammadi Masjid",
        "main_category": "Mosque",
        "address": "RJG6+WPV Muhammadi Masjid, Talai Marg, Brahmanpuri Mohalla, Khargone, Madhya Pradesh 451001",
        "detailed_address": {
            "ward": "Brahmanpuri Mohalla",
            "street": "RJG6+WPV, Talai Marg",
            "city": "Khargone",
            "postal_code": "451001",
            "state": "Madhya Pradesh",
            "country_code": "IN"
        },
        "images": [
            {
                "about": "All",
                "link": "https://lh5.googleusercontent.com/p/AF1QipOcgFZzpi6_zfEwwA-Spskcmt4LQ85-IWChqPT0=w224-h497-k-no"
            }
        ],
        "link": "https://www.google.com/maps/place/Muhammadi+Masjid/data=!4m7!3m6!1s0x3bd885da81e7d1ed:0xe3d0948e8de5292c!8m2!3d21.8273729!4d75.611797!16s%2Fg%2F11c5srp9sx!19sChIJ7dHngdqF2DsRLCnljY6U0OM?authuser=0&hl=en&rclk=1",
        "coordinates": {
            "latitude": 21.8273729,
            "longitude": 75.611797
        }
    },
    {
        "name": "Jumma Masjid",
        "main_category": "Mosque",
        "address": "RJG6+Q2R Jumma Masjid, Jhanda Chowk Rd, Brahmanpuri Mohalla, Khargone, Madhya Pradesh 451001",
        "detailed_address": {
            "ward": "Brahmanpuri Mohalla",
            "street": "RJG6+Q2R, Jhanda Chowk Rd",
            "city": "Khargone",
            "postal_code": null,
            "state": "Madhya Pradesh",
            "country_code": "IN"
        },
        "images": [
            {
                "about": "All",
                "link": "https://lh5.googleusercontent.com/p/AF1QipPXS5pYqVHLdgIG_rhHoUckZ2Ssih00QUiXoJej=w224-h298-k-no"
            },
            {
                "about": "Videos",
                "link": "https://lh5.googleusercontent.com/p/AF1QipP0A4qyE5AjzNqNp2674gGC4oPsVsu63Hl1nTYA=w224-h398-k-no"
            }
        ],
        "link": "https://www.google.com/maps/place/Jumma+Masjid/data=!4m7!3m6!1s0x3bd885dab0b54607:0x721eaa222f08a924!8m2!3d21.8269881!4d75.6100007!16s%2Fg%2F11b81s7qyf!19sChIJB0a1sNqF2DsRJKkILyKqHnI?authuser=0&hl=en&rclk=1",
        "coordinates": {
            "latitude": 21.826988099999998,
            "longitude": 75.6100007
        }
    },
    {
        "name": "Masjid Anwaar E Mustafa",
        "main_category": "Mosque",
        "address": "RJ75+CRX Masjid Anwaar E Mustafa, Sanjay Nagar Marg, Moti Pura, Khargone, Madhya Pradesh 451001",
        "detailed_address": {
            "ward": "Moti Pura",
            "street": "RJ75+CRX, Sanjay Nagar Marg",
            "city": "Khargone",
            "postal_code": "451001",
            "state": "Madhya Pradesh",
            "country_code": "IN"
        },
        "images": [
            {
                "about": "All",
                "link": "https://streetviewpixels-pa.googleapis.com/v1/thumbnail?panoid=2CbiXFscRuiWbZgBnrHtgA&cb_client=maps_sv.tactile.gps&w=224&h=298&yaw=92.26973&pitch=0&thumbfov=100"
            },
            {
                "about": "Street View & 360deg",
                "link": "https://streetviewpixels-pa.googleapis.com/v1/thumbnail?panoid=2CbiXFscRuiWbZgBnrHtgA&cb_client=maps_sv.tactile.gps&w=224&h=298&yaw=92.26973&pitch=0&thumbfov=100"
            }
        ],
        "link": "https://www.google.com/maps/place/Masjid+Anwaar+E+Mustafa/data=!4m7!3m6!1s0x3bd885e7dbc67193:0xed0212d6d4ada36d!8m2!3d21.8136204!4d75.609604!16s%2Fg%2F11c0xx5dxl!19sChIJk3HG2-eF2DsRbaOt1NYSAu0?authuser=0&hl=en&rclk=1",
        "coordinates": {
            "latitude": 21.813620399999998,
            "longitude": 75.60960399999999
        }
    },
    {
        "name": "Noorani masjid",
        "main_category": "Mosque",
        "address": "VMJM+WQM Noorani masjid, Thibgaon, Madhya Pradesh 451335",
        "detailed_address": {
            "ward": null,
            "street": "VMJM+WQM",
            "city": "Thibgaon",
            "postal_code": "451335",
            "state": "Madhya Pradesh",
            "country_code": "IN"
        },
        "images": [
            {
                "about": "All",
                "link": "https://streetviewpixels-pa.googleapis.com/v1/thumbnail?panoid=YON3HSL3d9dUbkCYHPmZmA&cb_client=maps_sv.tactile.gps&w=224&h=298&yaw=346.77386&pitch=0&thumbfov=100"
            },
            {
                "about": "Street View & 360deg",
                "link": "https://streetviewpixels-pa.googleapis.com/v1/thumbnail?panoid=YON3HSL3d9dUbkCYHPmZmA&cb_client=maps_sv.tactile.gps&w=224&h=298&yaw=346.77386&pitch=0&thumbfov=100"
            }
        ],
        "link": "https://www.google.com/maps/place/Noorani+masjid/data=!4m7!3m6!1s0x3bd88730cf4d3b63:0xae4fd4726fd012ef!8m2!3d21.8823465!4d75.6844138!16s%2Fg%2F11c74bdkpk!19sChIJYztNzzCH2DsR7xLQb3LUT64?authuser=0&hl=en&rclk=1",
        "coordinates": {
            "latitude": 21.8823465,
            "longitude": 75.6844138
        }
    },
    {
        "name": "Shaahi Masjid",
        "main_category": "Mosque",
        "address": "RJF5+JMG Shaahi Masjid, Mohalla Miyaman, Brahmanpuri Mohalla, Khargone, Madhya Pradesh 451001",
        "detailed_address": {
            "ward": "Mohalla Miyaman, Brahmanpuri Mohalla",
            "street": "RJF5+JMG",
            "city": "Khargone",
            "postal_code": "451001",
            "state": "Madhya Pradesh",
            "country_code": "IN"
        },
        "images": [],
        "link": "https://www.google.com/maps/place/Shaahi+Masjid/data=!4m7!3m6!1s0x3bd885db2b2e5da9:0x945ca5b38bb03129!8m2!3d21.8240556!4d75.6092107!16s%2Fg%2F11b866mr0j!19sChIJqV0uK9uF2DsRKTGwi7OlXJQ?authuser=0&hl=en&rclk=1",
        "coordinates": {
            "latitude": 21.824055599999998,
            "longitude": 75.60921069999999
        }
    },
    {
        "name": "Masjid Usmaniya (RA)",
        "main_category": "Mosque",
        "address": "Masjid Usmaniya (RA), 22/36, Azad Nagar, Khargone, Madhya Pradesh 451001",
        "detailed_address": {
            "ward": "Azad Nagar",
            "street": "22/36",
            "city": "Khargone",
            "postal_code": "451001",
            "state": "Madhya Pradesh",
            "country_code": "IN"
        },
        "images": [
            {
                "about": "All",
                "link": "https://streetviewpixels-pa.googleapis.com/v1/thumbnail?panoid=ZaeZf80Gv-bjNczK4kk2Xg&cb_client=maps_sv.tactile.gps&w=224&h=298&yaw=181.17917&pitch=0&thumbfov=100"
            },
            {
                "about": "Street View & 360deg",
                "link": "https://streetviewpixels-pa.googleapis.com/v1/thumbnail?panoid=ZaeZf80Gv-bjNczK4kk2Xg&cb_client=maps_sv.tactile.gps&w=224&h=298&yaw=181.17917&pitch=0&thumbfov=100"
            }
        ],
        "link": "https://www.google.com/maps/place/Masjid+Usmaniya+%28RA%29/data=!4m7!3m6!1s0x3bd8857f09c0e963:0x1d3a26ffc3a25924!8m2!3d21.8125415!4d75.6132269!16s%2Fg%2F11t14gzzqv!19sChIJY-nACX-F2DsRJFmiw_8mOh0?authuser=0&hl=en&rclk=1",
        "coordinates": {
            "latitude": 21.8125415,
            "longitude": 75.6132269
        }
    },
    {
        "name": "Masjid-e-abrar",
        "main_category": "Mosque",
        "address": "RJH7+34H Masjid-e-abrar, Brahmanpuri Mohalla, Khargone, Madhya Pradesh 451001",
        "detailed_address": {
            "ward": "Brahmanpuri Mohalla",
            "street": "RJH7+34H",
            "city": "Khargone",
            "postal_code": "451001",
            "state": "Madhya Pradesh",
            "country_code": "IN"
        },
        "images": [
            {
                "about": "All",
                "link": "https://streetviewpixels-pa.googleapis.com/v1/thumbnail?panoid=4UXkdQ2t0qHX7A0G4a5Exg&cb_client=maps_sv.tactile.gps&w=224&h=298&yaw=248.28561&pitch=0&thumbfov=100"
            },
            {
                "about": "Street View & 360deg",
                "link": "https://streetviewpixels-pa.googleapis.com/v1/thumbnail?panoid=4UXkdQ2t0qHX7A0G4a5Exg&cb_client=maps_sv.tactile.gps&w=224&h=298&yaw=248.28561&pitch=0&thumbfov=100"
            }
        ],
        "link": "https://www.google.com/maps/place/Masjid-e-abrar/data=!4m7!3m6!1s0x3bd8855057fc0ced:0xdc394e11c4245926!8m2!3d21.8276919!4d75.6128712!16s%2Fg%2F11l5stkysc!19sChIJ7Qz8V1CF2DsRJlkkxBFOOdw?authuser=0&hl=en&rclk=1",
        "coordinates": {
            "latitude": 21.827691899999998,
            "longitude": 75.6128712
        }
    },
    {
        "name": "Darul Uloom Masjid",
        "main_category": "Mosque",
        "address": "RJG2+J4Q Darul Uloom Masjid, Damkheda Rd, Rahimpura, Khargone, Madhya Pradesh 451001",
        "detailed_address": {
            "ward": "Rahimpura",
            "street": "RJG2+J4Q, Damkheda Rd",
            "city": "Khargone",
            "postal_code": "451001",
            "state": "Madhya Pradesh",
            "country_code": "IN"
        },
        "images": [
            {
                "about": "All",
                "link": "https://streetviewpixels-pa.googleapis.com/v1/thumbnail?panoid=-WGX-U-jEAD2WwwPLJ_lVw&cb_client=maps_sv.tactile.gps&w=224&h=298&yaw=241.78752&pitch=0&thumbfov=100"
            },
            {
                "about": "Street View & 360deg",
                "link": "https://streetviewpixels-pa.googleapis.com/v1/thumbnail?panoid=-WGX-U-jEAD2WwwPLJ_lVw&cb_client=maps_sv.tactile.gps&w=224&h=298&yaw=241.78752&pitch=0&thumbfov=100"
            }
        ],
        "link": "https://www.google.com/maps/place/Darul+Uloom+Masjid/data=!4m7!3m6!1s0x3bd885722bb05799:0x18f846302443b456!8m2!3d21.826582!4d75.6003641!16s%2Fg%2F11lqw0v1qq!19sChIJmVewK3KF2DsRVrRDJDBG-Bg?authuser=0&hl=en&rclk=1",
        "coordinates": {
            "latitude": 21.826582,
            "longitude": 75.6003641
        }
    },
    {
        "name": "Buland Masjid",
        "main_category": "Mosque",
        "address": "RJ75+CXH Buland Masjid, Sanjay Nagar Marg, Moti Pura, Khargone, Madhya Pradesh 451001",
        "detailed_address": {
            "ward": "Moti Pura",
            "street": "RJ75+CXH, Sanjay Nagar Marg",
            "city": "Khargone",
            "postal_code": "451001",
            "state": "Madhya Pradesh",
            "country_code": "IN"
        },
        "images": [
            {
                "about": "All",
                "link": "https://streetviewpixels-pa.googleapis.com/v1/thumbnail?panoid=kyfjXuMcu_WpJN3UPOPU3w&cb_client=maps_sv.tactile.gps&w=224&h=298&yaw=63.045532&pitch=0&thumbfov=100"
            },
            {
                "about": "Street View & 360deg",
                "link": "https://streetviewpixels-pa.googleapis.com/v1/thumbnail?panoid=kyfjXuMcu_WpJN3UPOPU3w&cb_client=maps_sv.tactile.gps&w=224&h=298&yaw=63.045532&pitch=0&thumbfov=100"
            }
        ],
        "link": "https://www.google.com/maps/place/Buland+Masjid/data=!4m7!3m6!1s0x3bd885e7c5183b65:0x17ddf1e9b7669242!8m2!3d21.81356!4d75.6099952!16s%2Fg%2F11cp7rxk0_!19sChIJZTsYxeeF2DsRQpJmt-nx3Rc?authuser=0&hl=en&rclk=1",
        "coordinates": {
            "latitude": 21.81356,
            "longitude": 75.6099952
        }
    },
    {
        "name": "Chistiya Masjid",
        "main_category": "Mosque",
        "address": "RJ86+25H Chistiya Masjid, Chistiya Nagar, Aman Nagar, Moti Pura, Khargone, Madhya Pradesh 451001",
        "detailed_address": {
            "ward": "Aman Nagar, Moti Pura",
            "street": "RJ86+25H Chistiya Nagar",
            "city": "Khargone",
            "postal_code": "451001",
            "state": "Madhya Pradesh",
            "country_code": "IN"
        },
        "images": [
            {
                "about": "All",
                "link": "https://lh5.googleusercontent.com/p/AF1QipM4k6sg7SWOAtc5p288qPZ8SvLpcZ_nepGCoVg=w224-h298-k-no"
            }
        ],
        "link": "https://www.google.com/maps/place/Chistiya+Masjid/data=!4m7!3m6!1s0x3bd885b2e12771a3:0x892b31a811340e6e!8m2!3d21.8164349!4d75.6107124!16s%2Fg%2F11rqzfby0f!19sChIJo3En4bKF2DsRbg40EagxK4k?authuser=0&hl=en&rclk=1",
        "coordinates": {
            "latitude": 21.816434899999997,
            "longitude": 75.6107124
        }
    },
    {
        "name": "Ahle sunnat masjid.gopalpura",
        "main_category": "Mosque",
        "address": "RMG2+77F Ahle sunnat masjid.gopalpura, Khandwa Rd, Gopalpura, Madhya Pradesh 451001",
        "detailed_address": {
            "ward": null,
            "street": "RMG2+77F, Khandwa Rd",
            "city": "Gopalpura",
            "postal_code": "451001",
            "state": "Madhya Pradesh",
            "country_code": "IN"
        },
        "images": [
            {
                "about": "All",
                "link": "https://lh5.googleusercontent.com/p/AF1QipP2cEtOpuXa7Z2qN6IoE0yfYbD40KeJtLf43lnx=w298-h298-k-no"
            }
        ],
        "link": "https://www.google.com/maps/place/Ahle+sunnat+masjid.gopalpura/data=!4m7!3m6!1s0x3bd887d5da4a826b:0xa2d5bacbd0344a35!8m2!3d21.8256643!4d75.650697!16s%2Fg%2F11vkkt3gg6!19sChIJa4JK2tWH2DsRNUo00Mu61aI?authuser=0&hl=en&rclk=1",
        "coordinates": {
            "latitude": 21.8256643,
            "longitude": 75.650697
        }
    },
    {
        "name": "Masjid e Mariyam",
        "main_category": "Mosque",
        "address": "RJ75+WRM Masjid e Mariyam, Sanjay Nagar Marg, pathar gali, Khargone, Madhya Pradesh 451001",
        "detailed_address": {
            "ward": "pathar gali",
            "street": "RJ75+WRM, Sanjay Nagar Marg",
            "city": "Khargone",
            "postal_code": "451001",
            "state": "Madhya Pradesh",
            "country_code": "IN"
        },
        "images": [
            {
                "about": "All",
                "link": "https://streetviewpixels-pa.googleapis.com/v1/thumbnail?panoid=2Ub-ww5vQbCTz0qeJusnGQ&cb_client=maps_sv.tactile.gps&w=224&h=298&yaw=295.6186&pitch=0&thumbfov=100"
            },
            {
                "about": "Street View & 360deg",
                "link": "https://streetviewpixels-pa.googleapis.com/v1/thumbnail?panoid=2Ub-ww5vQbCTz0qeJusnGQ&cb_client=maps_sv.tactile.gps&w=224&h=298&yaw=295.6186&pitch=0&thumbfov=100"
            }
        ],
        "link": "https://www.google.com/maps/place/Masjid+e+Mariyam/data=!4m7!3m6!1s0x3bd8850088c9ac0f:0xb12ac0fd3dffaab4!8m2!3d21.8148355!4d75.6095498!16s%2Fg%2F11y1jg5354!19sChIJD6zJiACF2DsRtKr_Pf3AKrE?authuser=0&hl=en&rclk=1",
        "coordinates": {
            "latitude": 21.814835499999997,
            "longitude": 75.6095498
        }
    },
    {
        "name": "Masjid e Hira",
        "main_category": "Mosque",
        "address": "294, Masjid e Hira, Masjid E Hira, Aman Nagar, Azad Nagar, Khargone, Madhya Pradesh 451001",
        "detailed_address": {
            "ward": "Aman Nagar, Azad Nagar",
            "street": "294, Masjid E Hira",
            "city": "Khargone",
            "postal_code": "451001",
            "state": "Madhya Pradesh",
            "country_code": "IN"
        },
        "images": [],
        "link": "https://www.google.com/maps/place/Masjid+e+Hira/data=!4m7!3m6!1s0x3bd885af35a89697:0xc76b3943a0ba2e43!8m2!3d21.81842!4d75.613476!16s%2Fg%2F11ksnkbzdj!19sChIJl5aoNa-F2DsRQy66oEM5a8c?authuser=0&hl=en&rclk=1",
        "coordinates": {
            "latitude": 21.81842,
            "longitude": 75.61347599999999
        }
    },
    {
        "name": "Gausiya Masjid",
        "main_category": "Mosque",
        "address": "RJ87+RF4 Gausiya Masjid, jilani Nagar, Rishika Nagar, Khargone, Madhya Pradesh 451001",
        "detailed_address": {
            "ward": "jilani Nagar, Rishika Nagar",
            "street": "RJ87+RF4",
            "city": "Khargone",
            "postal_code": "451001",
            "state": "Madhya Pradesh",
            "country_code": "IN"
        },
        "images": [],
        "link": "https://www.google.com/maps/place/Gausiya+Masjid/data=!4m7!3m6!1s0x3bd885ddebab61e1:0xea4d52fb15751da5!8m2!3d21.8170213!4d75.613688!16s%2Fg%2F11c463q151!19sChIJ4WGr692F2DsRpR11FftSTeo?authuser=0&hl=en&rclk=1",
        "coordinates": {
            "latitude": 21.8170213,
            "longitude": 75.613688
        }
    },
    {
        "name": "Mullanwadi Masjid",
        "main_category": "Mosque",
        "address": "RJG5+WJX Mullanwadi Masjid, Mullanwadi Mohalla, Khargone, Madhya Pradesh 451001",
        "detailed_address": {
            "ward": "Mullanwadi Mohalla",
            "street": "RJG5+WJX",
            "city": "Khargone",
            "postal_code": "451001",
            "state": "Madhya Pradesh",
            "country_code": "IN"
        },
        "images": [],
        "link": "https://www.google.com/maps/place/Mullanwadi+Masjid/data=!4m7!3m6!1s0x3bd885cffe514151:0xbb575b21dd3e9e43!8m2!3d21.8273648!4d75.6091171!16s%2Fg%2F11c4kwmw5h!19sChIJUUFR_s-F2DsRQ54-3SFbV7s?authuser=0&hl=en&rclk=1",
        "coordinates": {
            "latitude": 21.827364799999998,
            "longitude": 75.60911709999999
        }
    },
    {
        "name": "Masjid e Quba",
        "main_category": "Mosque",
        "address": "Masjid e Quba, jilani Nagar, Rishika Nagar, Khargone, Madhya Pradesh 451001",
        "detailed_address": {
            "ward": "jilani Nagar, Rishika Nagar",
            "street": "Masjid e Quba",
            "city": "Khargone",
            "postal_code": "451001",
            "state": "Madhya Pradesh",
            "country_code": "IN"
        },
        "images": [
            {
                "about": "All",
                "link": "https://streetviewpixels-pa.googleapis.com/v1/thumbnail?panoid=77QYO-io2YPpuEFj_jaDaw&cb_client=maps_sv.tactile.gps&w=224&h=298&yaw=204.77612&pitch=0&thumbfov=100"
            },
            {
                "about": "Street View & 360deg",
                "link": "https://streetviewpixels-pa.googleapis.com/v1/thumbnail?panoid=77QYO-io2YPpuEFj_jaDaw&cb_client=maps_sv.tactile.gps&w=224&h=298&yaw=204.77612&pitch=0&thumbfov=100"
            }
        ],
        "link": "https://www.google.com/maps/place/Masjid+e+Quba/data=!4m7!3m6!1s0x3bd88570e372a975:0xb6def0b06f8a92bf!8m2!3d21.81767!4d75.6151799!16s%2Fg%2F11v6wnm7dj!19sChIJdaly43CF2DsRv5KKb7Dw3rY?authuser=0&hl=en&rclk=1",
        "coordinates": {
            "latitude": 21.81767,
            "longitude": 75.6151799
        }
    },
    {
        "name": "IMAMBAADA ( Talai Bangla )",
        "main_category": "Mosque",
        "address": "IMAMBAADA ( Talai Bangla ), 10, Talai Marg, Brahmanpuri Mohalla, Khargone, Madhya Pradesh 451001",
        "detailed_address": {
            "ward": "Brahmanpuri Mohalla",
            "street": "10, Talai Marg",
            "city": "Khargone",
            "postal_code": "451001",
            "state": "Madhya Pradesh",
            "country_code": "IN"
        },
        "images": [
            {
                "about": "All",
                "link": "https://lh5.googleusercontent.com/p/AF1QipM8tVMxoWfV5ejbXr_XRwkmz-h8Skg_l4Rf6uFV=w528-h298-k-no"
            }
        ],
        "link": "https://www.google.com/maps/place/IMAMBAADA+%28+Talai+Bangla+%29/data=!4m7!3m6!1s0x3bd885cdcdcd327f:0x7f0781db79ec8eee!8m2!3d21.8271135!4d75.611913!16s%2Fg%2F11p009z2bp!19sChIJfzLNzc2F2DsR7o7seduBB38?authuser=0&hl=en&rclk=1",
        "coordinates": {
            "latitude": 21.8271135,
            "longitude": 75.611913
        }
    },
    {
        "name": "JAMA MASJID LIKKHI, Dist, Khargone",
        "main_category": "Mosque",
        "address": "WFG3+C88 JAMA MASJID LIKKHI, Dist, Khargone, Likkhi, Madhya Pradesh 451001",
        "detailed_address": {
            "ward": null,
            "street": "WFG3+C88",
            "city": "Likkhi",
            "postal_code": "451001",
            "state": "Madhya Pradesh",
            "country_code": "IN"
        },
        "images": [
            {
                "about": "All",
                "link": "https://lh5.googleusercontent.com/p/AF1QipM9Hc8ZXVkJn5jQfmeLDl18uTNk50zsf4ZpSils=w224-h298-k-no"
            },
            {
                "about": "Dome",
                "link": "https://lh5.googleusercontent.com/p/AF1QipM9Hc8ZXVkJn5jQfmeLDl18uTNk50zsf4ZpSils=w224-h298-k-no"
            }
        ],
        "link": "https://www.google.com/maps/place/JAMA+MASJID+LIKKHI,+Dist,+Khargone/data=!4m7!3m6!1s0x3bd89d43d578883d:0x87d80c163ea1a86f!8m2!3d21.9260071!4d75.4533385!16s%2Fg%2F11t529qsm9!19sChIJPYh41UOd2DsRb6ihPhYM2Ic?authuser=0&hl=en&rclk=1",
        "coordinates": {
            "latitude": 21.9260071,
            "longitude": 75.4533385
        }
    },
    {
        "name": "Chhota Mandir",
        "main_category": "Hindu temple",
        "address": "RJ85+F3G Chhota Mandir, Sanjay Nagar Marg, Moti Pura, Khargone, Madhya Pradesh 451001",
        "detailed_address": {
            "ward": "Moti Pura",
            "street": "RJ85+F3G, Sanjay Nagar Marg",
            "city": "Khargone",
            "postal_code": "451001",
            "state": "Madhya Pradesh",
            "country_code": "IN"
        },
        "images": [
            {
                "about": "All",
                "link": "https://streetviewpixels-pa.googleapis.com/v1/thumbnail?panoid=C44wAnQw5U0q_ECEqqpKlA&cb_client=maps_sv.tactile.gps&w=224&h=298&yaw=204.35855&pitch=0&thumbfov=100"
            },
            {
                "about": "Street View & 360deg",
                "link": "https://streetviewpixels-pa.googleapis.com/v1/thumbnail?panoid=C44wAnQw5U0q_ECEqqpKlA&cb_client=maps_sv.tactile.gps&w=224&h=298&yaw=204.35855&pitch=0&thumbfov=100"
            }
        ],
        "link": "https://www.google.com/maps/place/Chhota+Mandir/data=!4m7!3m6!1s0x3bd885c297fc1307:0x791390ab073606cb!8m2!3d21.8161904!4d75.6076885!16s%2Fg%2F11c5blmkb1!19sChIJBxP8l8KF2DsRywY2B6uQE3k?authuser=0&hl=en&rclk=1",
        "coordinates": {
            "latitude": 21.8161904,
            "longitude": 75.6076885
        }
    },
    {
        "name": "Masjid Ground",
        "main_category": "Playground",
        "address": "RJ87+597 Masjid Ground, Azad Nagar, Khargone, Madhya Pradesh 451001",
        "detailed_address": {
            "ward": "Azad Nagar",
            "street": "RJ87+597",
            "city": "Khargone",
            "postal_code": "451001",
            "state": "Madhya Pradesh",
            "country_code": "IN"
        },
        "images": [],
        "link": "https://www.google.com/maps/place/Masjid+Ground/data=!4m7!3m6!1s0x3bd885123f72291f:0x5fd95de9601732ff!8m2!3d21.8154202!4d75.6134342!16s%2Fg%2F11fm17xg3v!19sChIJHylyPxKF2DsR_zIXYOld2V8?authuser=0&hl=en&rclk=1",
        "coordinates": {
            "latitude": 21.8154202,
            "longitude": 75.6134342
        }
    },
    {
        "name": "Siptan Masjid",
        "main_category": "Mosque",
        "address": "Siptan Masjid, Unnamed Road, Siptan, Madhya Pradesh 451335",
        "detailed_address": {
            "ward": null,
            "street": "Unnamed Road",
            "city": "Siptan",
            "postal_code": "451335",
            "state": "Madhya Pradesh",
            "country_code": "IN"
        },
        "images": [
            {
                "about": "All",
                "link": "https://lh5.googleusercontent.com/p/AF1QipPipOWemXcflPkX1H1VAGgFNb3Q8yy0snuH5ahv=w397-h298-k-no"
            },
            {
                "about": "By owner",
                "link": "https://lh5.googleusercontent.com/p/AF1QipPU62bZe7jJKnlgbPf42FyKC-h_ClnTCCi1GWPS=w662-h298-k-no"
            },
            {
                "about": "Videos",
                "link": "https://lh5.googleusercontent.com/p/AF1QipMwdr6_oIcfW9D5iE2ICvF4SP4RaxqKVg6bzoWJ=w224-h407-k-no"
            }
        ],
        "link": "https://www.google.com/maps/place/Siptan+Masjid/data=!4m7!3m6!1s0x3bd87ff49e61aac5:0x3132c8719b99c601!8m2!3d21.9643608!4d75.7158243!16s%2Fg%2F11h07tqb69!19sChIJxaphnvR_2DsRAcaZm3HIMjE?authuser=0&hl=en&rclk=1",
        "coordinates": {
            "latitude": 21.964360799999998,
            "longitude": 75.7158243
        }
    },
    {
        "name": "Siddiquie Masjid",
        "main_category": "Mosque",
        "address": "Siddiquie Masjid, 1/832, Mohalla Miyaman, Brahmanpuri Mohalla, Khargone, Madhya Pradesh 451001",
        "detailed_address": {
            "ward": "Mohalla Miyaman, Brahmanpuri Mohalla",
            "street": "1/832",
            "city": "Khargone",
            "postal_code": "451001",
            "state": "Madhya Pradesh",
            "country_code": "IN"
        },
        "images": [
            {
                "about": "All",
                "link": "https://lh5.googleusercontent.com/p/AF1QipOYKZoNFKamWzMXdozBImKs9dOozYt7AvVQFnd_=w529-h298-k-no"
            }
        ],
        "link": "https://www.google.com/maps/place/Siddiquie+Masjid/data=!4m7!3m6!1s0x3bd885dad5514d65:0x242377f5211f14fd!8m2!3d21.8242969!4d75.6092074!16s%2Fg%2F11bv2ljftz!19sChIJZU1R1dqF2DsR_RQfIfV3IyQ?authuser=0&hl=en&rclk=1",
        "coordinates": {
            "latitude": 21.8242969,
            "longitude": 75.6092074
        }
    },
    {
        "name": "Masjid e Bilal (r)",
        "main_category": "Mosque",
        "address": "Masjid e Bilal (r), 2209, Moti Pura, Khargone, Madhya Pradesh 451001",
        "detailed_address": {
            "ward": "Moti Pura",
            "street": "2209",
            "city": "Khargone",
            "postal_code": "451001",
            "state": "Madhya Pradesh",
            "country_code": "IN"
        },
        "images": [
            {
                "about": "All",
                "link": "https://streetviewpixels-pa.googleapis.com/v1/thumbnail?panoid=1vfuZeIBI8sC62abLhPOYQ&cb_client=maps_sv.tactile.gps&w=224&h=298&yaw=277.09518&pitch=0&thumbfov=100"
            },
            {
                "about": "Street View & 360deg",
                "link": "https://streetviewpixels-pa.googleapis.com/v1/thumbnail?panoid=1vfuZeIBI8sC62abLhPOYQ&cb_client=maps_sv.tactile.gps&w=224&h=298&yaw=277.09518&pitch=0&thumbfov=100"
            }
        ],
        "link": "https://www.google.com/maps/place/Masjid+e+Bilal+%C2%AE/data=!4m7!3m6!1s0x3bd8856662977621:0xdc2710af2050ff7b!8m2!3d21.8127165!4d75.611364!16s%2Fg%2F11kqlsd6b6!19sChIJIXaXYmaF2DsRe_9QIK8QJ9w?authuser=0&hl=en&rclk=1",
        "coordinates": {
            "latitude": 21.8127165,
            "longitude": 75.611364
        }
    },
    {
        "name": "RangrezWadi Masjid",
        "main_category": "Mosque",
        "address": "RJG5+9W7 RangrezWadi Masjid, Jhanda Chowk Rd, D R P Line, Brahmanpuri Mohalla, Khargone, Madhya Pradesh 451001",
        "detailed_address": {
            "ward": "D R P Line, Brahmanpuri Mohalla",
            "street": "RJG5+9W7, Jhanda Chowk Rd",
            "city": "Khargone",
            "postal_code": null,
            "state": "Madhya Pradesh",
            "country_code": "IN"
        },
        "images": [
            {
                "about": "All",
                "link": "https://streetviewpixels-pa.googleapis.com/v1/thumbnail?panoid=Gvz_a0Vsw2yHg_sz_UPyEQ&cb_client=maps_sv.tactile.gps&w=224&h=298&yaw=55.299164&pitch=0&thumbfov=100"
            },
            {
                "about": "Street View & 360deg",
                "link": "https://streetviewpixels-pa.googleapis.com/v1/thumbnail?panoid=Gvz_a0Vsw2yHg_sz_UPyEQ&cb_client=maps_sv.tactile.gps&w=224&h=298&yaw=55.299164&pitch=0&thumbfov=100"
            },
            {
                "about": "Videos",
                "link": "https://lh5.googleusercontent.com/p/AF1QipMAyetEBHVy_C8h9MF-_W77fIgUEgb1ayPB6q9T=w224-h398-k-no"
            }
        ],
        "link": "https://www.google.com/maps/place/RangrezWadi+Masjid/data=!4m7!3m6!1s0x3bd885dab64dc15f:0x8ba66e6e3091b54a!8m2!3d21.8259127!4d75.609794!16s%2Fg%2F11bv1lkbgt!19sChIJX8FNttqF2DsRSrWRMG5upos?authuser=0&hl=en&rclk=1",
        "coordinates": {
            "latitude": 21.8259127,
            "longitude": 75.609794
        }
    },
    {
        "name": "Mariyam masjid",
        "main_category": "Mosque",
        "address": "Mariyam masjid, 2169, Moti Pura, Khargone, Madhya Pradesh 451001",
        "detailed_address": {
            "ward": "Moti Pura",
            "street": "2169",
            "city": "Khargone",
            "postal_code": "451001",
            "state": "Madhya Pradesh",
            "country_code": "IN"
        },
        "images": [],
        "link": "https://www.google.com/maps/place/Mariyam+masjid/data=!4m7!3m6!1s0x3bd8858a34ba0a99:0x4182015bd0ce30d9!8m2!3d21.8120477!4d75.6115729!16s%2Fg%2F11vdg9s93w!19sChIJmQq6NIqF2DsR2TDO0FsBgkE?authuser=0&hl=en&rclk=1",
        "coordinates": {
            "latitude": 21.812047699999997,
            "longitude": 75.6115729
        }
    },
    {
        "name": "Masjid abubkra",
        "main_category": "Mosque",
        "address": "RJ86+84C Masjid abubkra, Aman Nagar, Moti Pura, Khargone, Madhya Pradesh 451001",
        "detailed_address": {
            "ward": "Aman Nagar, Moti Pura",
            "street": "RJ86+84C",
            "city": "Khargone",
            "postal_code": "451001",
            "state": "Madhya Pradesh",
            "country_code": "IN"
        },
        "images": [],
        "link": "https://www.google.com/maps/place/Masjid+abubkra/data=!4m7!3m6!1s0x3bd8854656081fed:0xb71515a5444a0dda!8m2!3d21.8158046!4d75.6102551!16s%2Fg%2F11l5pmj74j!19sChIJ7R8IVkaF2DsR2g1KRKUVFbc?authuser=0&hl=en&rclk=1",
        "coordinates": {
            "latitude": 21.8158046,
            "longitude": 75.6102551
        }
    },
    {
        "name": "BADI EID GAAH",
        "main_category": "Mosque",
        "address": "RJ93+749 BADI EID GAAH, Khargone, Madhya Pradesh 451001",
        "detailed_address": {
            "ward": null,
            "street": "RJ93+749",
            "city": "Khargone",
            "postal_code": null,
            "state": "Madhya Pradesh",
            "country_code": "IN"
        },
        "images": [],
        "link": "https://www.google.com/maps/place/BADI+EID+GAAH/data=!4m7!3m6!1s0x3bd8857c9bfdf59f:0x203042ea34f4ffba!8m2!3d21.818173!4d75.6028596!16s%2Fg%2F11f5v0nsfw!19sChIJn_X9m3yF2DsRuv_0NOpCMCA?authuser=0&hl=en&rclk=1",
        "coordinates": {
            "latitude": 21.818172999999998,
            "longitude": 75.6028596
        }
    },
    {
        "name": "Madina Masjid",
        "main_category": "Mosque",
        "address": "WP9X+WRH Madina Masjid, Devla - Khargone Rd, Adalpura, Madhya Pradesh 451335",
        "detailed_address": {
            "ward": null,
            "street": "WP9X+WRH, Devla - Khargone Rd",
            "city": "Adalpura",
            "postal_code": "451335",
            "state": "Madhya Pradesh",
            "country_code": "IN"
        },
        "images": [
            {
                "about": "All",
                "link": "https://streetviewpixels-pa.googleapis.com/v1/thumbnail?panoid=ByQhKCEoOr3s1nla_uZqqQ&cb_client=maps_sv.tactile.gps&w=224&h=298&yaw=211.69922&pitch=0&thumbfov=100"
            },
            {
                "about": "Street View & 360deg",
                "link": "https://streetviewpixels-pa.googleapis.com/v1/thumbnail?panoid=ByQhKCEoOr3s1nla_uZqqQ&cb_client=maps_sv.tactile.gps&w=224&h=298&yaw=211.69922&pitch=0&thumbfov=100"
            }
        ],
        "link": "https://www.google.com/maps/place/Madina+Masjid/data=!4m7!3m6!1s0x3bd87f65e2ca6fdf:0xfb4ec7f3990e3f60!8m2!3d21.9198196!4d75.7495973!16s%2Fg%2F11rcnxv0bh!19sChIJ32_K4mV_2DsRYD8OmfPHTvs?authuser=0&hl=en&rclk=1",
        "coordinates": {
            "latitude": 21.9198196,
            "longitude": 75.74959729999999
        }
    },
    {
        "name": "muktidhaam",
        "main_category": "Hindu temple",
        "address": "VJ42+RQR muktidhaam, Khaltaka, Khargone, Madhya Pradesh 451001",
        "detailed_address": {
            "ward": null,
            "street": "VJ42+RQR",
            "city": "Khaltaka, Khargone",
            "postal_code": "451001",
            "state": "Madhya Pradesh",
            "country_code": "IN"
        },
        "images": [
            {
                "about": "All",
                "link": "https://streetviewpixels-pa.googleapis.com/v1/thumbnail?panoid=mXvQHfIYJgWCjVuTpSGMpg&cb_client=maps_sv.tactile.gps&w=224&h=298&yaw=92.35679&pitch=0&thumbfov=100"
            },
            {
                "about": "Street View & 360deg",
                "link": "https://streetviewpixels-pa.googleapis.com/v1/thumbnail?panoid=mXvQHfIYJgWCjVuTpSGMpg&cb_client=maps_sv.tactile.gps&w=224&h=298&yaw=92.35679&pitch=0&thumbfov=100"
            }
        ],
        "link": "https://www.google.com/maps/place/%E0%A4%AE%E0%A5%81%E0%A4%95%E0%A5%8D%E0%A4%A4%E0%A4%BF%E0%A4%A7%E0%A4%BE%E0%A4%AE/data=!4m7!3m6!1s0x3bd885b55719b2c1:0x960ec3e293d3f276!8m2!3d21.8571234!4d75.6018947!16s%2Fg%2F11l1jq_tnm!19sChIJwbIZV7WF2DsRdvLTk-LDDpY?authuser=0&hl=en&rclk=1",
        "coordinates": {
            "latitude": 21.8571234,
            "longitude": 75.6018947
        }
    },
    {
        "name": "Nurani maszid",
        "main_category": "Mosque",
        "address": "JHGW+2C5 Nurani maszid, Khargone Rd, Bhagwanpura, Madhya Pradesh 451441",
        "detailed_address": {
            "ward": null,
            "street": "JHGW+2C5, Khargone Rd",
            "city": "Bhagwanpura",
            "postal_code": "451441",
            "state": "Madhya Pradesh",
            "country_code": "IN"
        },
        "images": [
            {
                "about": "All",
                "link": "https://streetviewpixels-pa.googleapis.com/v1/thumbnail?panoid=2S_z3exkmafI2850f9OyXQ&cb_client=maps_sv.tactile.gps&w=224&h=298&yaw=258.5725&pitch=0&thumbfov=100"
            },
            {
                "about": "Street View & 360deg",
                "link": "https://streetviewpixels-pa.googleapis.com/v1/thumbnail?panoid=2S_z3exkmafI2850f9OyXQ&cb_client=maps_sv.tactile.gps&w=224&h=298&yaw=258.5725&pitch=0&thumbfov=100"
            }
        ],
        "link": "https://www.google.com/maps/place/Nurani+maszid/data=!4m7!3m6!1s0x3bd88d1790c84913:0x5ba0fc28a8e8167a!8m2!3d21.625016!4d75.5961085!16s%2Fg%2F11rg6yydw7!19sChIJE0nIkBeN2DsRehboqCj8oFs?authuser=0&hl=en&rclk=1",
        "coordinates": {
            "latitude": 21.625016,
            "longitude": 75.5961085
        }
    },
    {
        "name": "nuuraanii msjid",
        "main_category": "Mosque",
        "address": "VMJM+WQM nuuraanii msjid, Thibgaon, Madhya Pradesh 451335",
        "detailed_address": {
            "ward": null,
            "street": "VMJM+WQM",
            "city": "Thibgaon",
            "postal_code": "451335",
            "state": "Madhya Pradesh",
            "country_code": "IN"
        },
        "images": [
            {
                "about": "All",
                "link": "https://streetviewpixels-pa.googleapis.com/v1/thumbnail?panoid=YON3HSL3d9dUbkCYHPmZmA&cb_client=maps_sv.tactile.gps&w=224&h=298&yaw=340.48392&pitch=0&thumbfov=100"
            },
            {
                "about": "Street View & 360deg",
                "link": "https://streetviewpixels-pa.googleapis.com/v1/thumbnail?panoid=YON3HSL3d9dUbkCYHPmZmA&cb_client=maps_sv.tactile.gps&w=224&h=298&yaw=340.48392&pitch=0&thumbfov=100"
            }
        ],
        "link": "https://www.google.com/maps/place/%E0%A4%A8%E0%A5%82%E0%A4%B0%E0%A4%BE%E0%A4%A8%E0%A5%80+%E0%A4%AE%E0%A4%B8%E0%A5%8D%E0%A4%9C%E0%A4%BF%E0%A4%A6/data=!4m7!3m6!1s0x3bd8878a9c1b6d35:0x66ded9d210763337!8m2!3d21.8823453!4d75.6843632!16s%2Fg%2F11tcq_fl97!19sChIJNW0bnIqH2DsRNzN2ENLZ3mY?authuser=0&hl=en&rclk=1",
        "coordinates": {
            "latitude": 21.8823453,
            "longitude": 75.68436319999999
        }
    },
    {
        "name": "Darul Qaza Khargone",
        "main_category": "Religious organization",
        "address": "RJF6+2GX Darul Qaza Khargone, Near Masjid E Shakoor, Sahkar Nagar, Lovkush Vihar, Industrial Area, Rishika Nagar, Khargone, Madhya Pradesh 451001",
        "detailed_address": {
            "ward": "Sahkar Nagar, Lovkush Vihar, Industrial Area, Rishika Nagar",
            "street": "RJF6+2GX, Near Masjid E Shakoor",
            "city": "Khargone",
            "postal_code": "451001",
            "state": "Madhya Pradesh",
            "country_code": "IN"
        },
        "images": [
            {
                "about": "All",
                "link": "https://lh5.googleusercontent.com/p/AF1QipOkyVSQkuMsi36YfEzRB0Yy7DKbPxm8CWi-JpEB=w224-h298-k-no"
            },
            {
                "about": "Street View & 360deg",
                "link": "https://streetviewpixels-pa.googleapis.com/v1/thumbnail?panoid=iwynpk0hALu1pyztwNP0dA&cb_client=maps_sv.tactile.gps&w=224&h=298&yaw=164.86243&pitch=0&thumbfov=100"
            }
        ],
        "link": "https://www.google.com/maps/place/Darul+Qaza+Khargone/data=!4m7!3m6!1s0x3bd885db71ff962d:0xf85247e28db1f007!8m2!3d21.8226111!4d75.6113612!16s%2Fg%2F11c2pl9kpf!19sChIJLZb_cduF2DsRB_CxjeJHUvg?authuser=0&hl=en&rclk=1",
        "coordinates": {
            "latitude": 21.8226111,
            "longitude": 75.61136119999999
        }
    }
]