[
    {
        "name": "Badriya Juma Masjid Abdul Azeez Al Sagar",
        "main_category": "Mosque",
        "address": "Badriya Juma Masjid Abdul Azeez Al Sagar, Chovva Mattannur Rd, Komathukunnumbram, Chala, Kerala 670613",
        "detailed_address": {
            "ward": "Komathukunnumbram",
            "street": "Chovva Mattannur Rd",
            "city": "Chala",
            "postal_code": "670613",
            "state": "Kerala",
            "country_code": "IN"
        },
        "images": [
            {
                "about": "All",
                "link": "https://lh5.googleusercontent.com/p/AF1QipPHGKsYjn2qdpWbeMRSlIy2HL1W3I5si9tR0EU=w529-h298-k-no"
            },
            {
                "about": "By owner",
                "link": "https://lh5.googleusercontent.com/p/AF1QipOf6BxrrznXuvEQv3Q2Vy8D1SDqCxVpdEkk0Og=w224-h424-k-no"
            },
            {
                "about": "Videos",
                "link": "https://lh5.googleusercontent.com/p/AF1QipPE1hTBQgoSLMNoVfc40CPgxb0LGYqjxa8Epzo=w224-h407-k-no"
            },
            {
                "about": "Street View & 360deg",
                "link": "https://streetviewpixels-pa.googleapis.com/v1/thumbnail?panoid=S6nkB6cRlC5AszhHTZ3KPA&cb_client=maps_sv.tactile.gps&w=224&h=298&yaw=156.72182&pitch=0&thumbfov=100"
            }
        ],
        "link": "https://www.google.com/maps/place/Badriya+Juma+Masjid+Abdul+Azeez+Al+Sagar/data=!4m7!3m6!1s0x3ba43b4f7ea5f433:0xeca239f31b1020eb!8m2!3d11.8839296!4d75.4495214!16s%2Fg%2F11ckr5bpr1!19sChIJM_Slfk87pDsR6yAQG_M5ouw?authuser=0&hl=en&rclk=1",
        "coordinates": {
            "latitude": 11.8839296,
            "longitude": 75.4495214
        }
    },
    {
        "name": "Jamiul Manar (JAQH)",
        "main_category": "Mosque",
        "address": "77V4+96G Jamiul Manar (JAQH), kuruvilaikadu Eraviputhoorkadai, Tamil Nadu 629158",
        "detailed_address": {
            "ward": null,
            "street": "77V4+96G",
            "city": "kuruvilaikadu Eraviputhoorkadai",
            "postal_code": "629158",
            "state": "Tamil Nadu",
            "country_code": "IN"
        },
        "images": [
            {
                "about": "All",
                "link": "https://lh5.googleusercontent.com/p/AF1QipNJtkJcx2exU6FWNsx-cKKUe7KXSd3BiDsdvNFl=w397-h298-k-no"
            },
            {
                "about": "Street View & 360deg",
                "link": "https://streetviewpixels-pa.googleapis.com/v1/thumbnail?panoid=Mig8ZUzCtCxwEWeYYJdVnA&cb_client=maps_sv.tactile.gps&w=224&h=298&yaw=113.593765&pitch=0&thumbfov=100"
            }
        ],
        "link": "https://www.google.com/maps/place/Jamiul+Manar+%28JAQH%29/data=!4m7!3m6!1s0x3b045543d7effd31:0x7b5d117f4a35526c!8m2!3d8.2934296!4d77.2555718!16s%2Fg%2F11g0lh0f28!19sChIJMf3v10NVBDsRbFI1Sn8RXXs?authuser=0&hl=en&rclk=1",
        "coordinates": {
            "latitude": 8.2934296,
            "longitude": 77.2555718
        }
    },
    {
        "name": "Chalad Juma Masjid",
        "main_category": "Mosque",
        "address": "V9M3+4PR Chalad Juma Masjid, Manal, Kannur, Kerala 670014",
        "detailed_address": {
            "ward": "Manal",
            "street": "V9M3+4PR",
            "city": "Kannur",
            "postal_code": "670014",
            "state": "Kerala",
            "country_code": "IN"
        },
        "images": [
            {
                "about": "All",
                "link": "https://lh5.googleusercontent.com/p/AF1QipN7l21pQxVQBa5Z1QeRYKtyXrYeRq8KGOQyfKOl=w224-h398-k-no"
            },
            {
                "about": "Videos",
                "link": "https://lh5.googleusercontent.com/p/AF1QipPsnVERLiJAiFULQjUTGfSNJdWbauP-VQwSiSRu=w224-h398-k-no"
            }
        ],
        "link": "https://www.google.com/maps/place/Chalad+Juma+Masjid/data=!4m7!3m6!1s0x3ba43d44c2644f8d:0x94581e47f2caad7d!8m2!3d11.8828583!4d75.3542751!16s%2Fg%2F1ths7sq3!19sChIJjU9kwkQ9pDsRfa3K8kceWJQ?authuser=0&hl=en&rclk=1",
        "coordinates": {
            "latitude": 11.882858299999999,
            "longitude": 75.3542751
        }
    },
    {
        "name": "Chalai Juma masjid",
        "main_category": "Mosque",
        "address": "Chalai Juma masjid, Chalai Market Road, Chalai, Thiruvananthapuram, Kerala 695036",
        "detailed_address": {
            "ward": "Chalai",
            "street": "Chalai Market Road",
            "city": "Thiruvananthapuram",
            "postal_code": "695036",
            "state": "Kerala",
            "country_code": "IN"
        },
        "images": [
            {
                "about": "All",
                "link": "https://lh5.googleusercontent.com/p/AF1QipPCfmUkX1Bw5lrtCfaZ4csX9hHW2C1tAhmGEX2T=w397-h298-k-no"
            },
            {
                "about": "Street View & 360deg",
                "link": "https://streetviewpixels-pa.googleapis.com/v1/thumbnail?panoid=fqW2KpeXl44PjiPZli0uAg&cb_client=maps_sv.tactile.gps&w=224&h=298&yaw=168.68672&pitch=0&thumbfov=100"
            },
            {
                "about": "Videos",
                "link": "https://lh5.googleusercontent.com/p/AF1QipNJi5wRaB1uCndoNRN6qxc7795QsLbn5oJfL16n=w224-h398-k-no"
            }
        ],
        "link": "https://www.google.com/maps/place/Chalai+Juma+masjid/data=!4m7!3m6!1s0x3b05bb082a79722f:0x8b42ccecdbe3f2b0!8m2!3d8.482578!4d76.9501144!16s%2Fg%2F124yb5jvl!19sChIJL3J5Kgi7BTsRsPLj2-zMQos?authuser=0&hl=en&rclk=1",
        "coordinates": {
            "latitude": 8.482578,
            "longitude": 76.95011439999999
        }
    },
    {
        "name": "Chala Juma Masjid",
        "main_category": "Mosque",
        "address": "RCXJ+3MX Chala Juma Masjid, Chala, Kerala 670621",
        "detailed_address": {
            "ward": null,
            "street": "RCXJ+3MX",
            "city": "Chala",
            "postal_code": "670621",
            "state": "Kerala",
            "country_code": "IN"
        },
        "images": [
            {
                "about": "All",
                "link": "https://lh5.googleusercontent.com/p/AF1QipPb1fiMdp4kKQc8dgE8Mvm_Ukgp2qVXnWejDurc=w224-h298-k-no"
            },
            {
                "about": "Latest",
                "link": "https://lh5.googleusercontent.com/p/AF1QipPb1fiMdp4kKQc8dgE8Mvm_Ukgp2qVXnWejDurc=w224-h298-k-no"
            },
            {
                "about": "Street View & 360deg",
                "link": "https://streetviewpixels-pa.googleapis.com/v1/thumbnail?panoid=d0wehWL2CEm89XSgWpwQmg&cb_client=maps_sv.tactile.gps&w=224&h=298&yaw=341.51428&pitch=0&thumbfov=100"
            }
        ],
        "link": "https://www.google.com/maps/place/Chala+Juma+Masjid/data=!4m7!3m6!1s0x3ba4236057722ab9:0x11842582587df93b!8m2!3d11.8477499!4d75.4317279!16s%2Fg%2F11c1pqybz0!19sChIJuSpyV2AjpDsRO_l9WIIlhBE?authuser=0&hl=en&rclk=1",
        "coordinates": {
            "latitude": 11.8477499,
            "longitude": 75.4317279
        }
    },
    {
        "name": "Thuckalay Thowheed Centre",
        "main_category": "Mosque",
        "address": "Thuckalay Thowheed Centre, 24/17C, Thowheed Street, Chakala, Thuckalay, Tamil Nadu 629175",
        "detailed_address": {
            "ward": "Chakala",
            "street": "24/17C, Thowheed Street",
            "city": "Thuckalay",
            "postal_code": "629175",
            "state": "Tamil Nadu",
            "country_code": "IN"
        },
        "images": [
            {
                "about": "All",
                "link": "https://lh5.googleusercontent.com/p/AF1QipOSCUSaCgvZFSuIuDgNzQRDAwiN9SwVG-RYtVFi=w529-h298-k-no"
            },
            {
                "about": "Videos",
                "link": "https://lh5.googleusercontent.com/p/AF1QipMA29Ot2VnnV2GHM5GqkjP2RnXUdXM1jyVk5VOc=w224-h398-k-no"
            }
        ],
        "link": "https://www.google.com/maps/place/Thuckalay+Thowheed+Centre/data=!4m7!3m6!1s0x3b04f8ef4befc2bf:0xbd7f3bce5a5de880!8m2!3d8.2492011!4d77.3156745!16s%2Fg%2F12hr5vw8t!19sChIJv8LvS-_4BDsRgOhdWs47f70?authuser=0&hl=en&rclk=1",
        "coordinates": {
            "latitude": 8.2492011,
            "longitude": 77.3156745
        }
    },
    {
        "name": "Chooliyad Juma Masjid",
        "main_category": "Mosque",
        "address": "XGW3+VG3 Chooliyad Juma Masjid, Kannur, Kerala 670631",
        "detailed_address": {
            "ward": null,
            "street": "XGW3+VG3",
            "city": "Kannur",
            "postal_code": "670631",
            "state": "Kerala",
            "country_code": "IN"
        },
        "images": [
            {
                "about": "All",
                "link": "https://lh5.googleusercontent.com/p/AF1QipMp35u5UVu20P62RycFYMljzBw5-lXa01ujp6uT=w398-h298-k-no"
            },
            {
                "about": "Videos",
                "link": "https://lh5.googleusercontent.com/p/AF1QipNhdv98xJ6VnsQRQ6raREFq-A4bXHVKO2Fr_TSg=w224-h398-k-no"
            }
        ],
        "link": "https://www.google.com/maps/place/Chooliyad+Juma+Masjid/data=!4m7!3m6!1s0x3ba439b80c52f9f9:0x80d5af51b8ac6b3c!8m2!3d11.9971301!4d75.5037868!16s%2Fg%2F11g7kyh3x3!19sChIJ-flSDLg5pDsRPGusuFGv1YA?authuser=0&hl=en&rclk=1",
        "coordinates": {
            "latitude": 11.9971301,
            "longitude": 75.5037868
        }
    },
    {
        "name": "Jumma Masjid",
        "main_category": "Mosque",
        "address": "57F4+GH6 Jumma Masjid, Colachel, Tamil Nadu 629251",
        "detailed_address": {
            "ward": null,
            "street": "57F4+GH6",
            "city": "Colachel",
            "postal_code": "629251",
            "state": "Tamil Nadu",
            "country_code": "IN"
        },
        "images": [
            {
                "about": "All",
                "link": "https://lh5.googleusercontent.com/p/AF1QipPnz2m6XURAi8AfPucRdNJfd5KWhJNJD1ODwhG2=w397-h298-k-no"
            },
            {
                "about": "Street View & 360deg",
                "link": "https://streetviewpixels-pa.googleapis.com/v1/thumbnail?panoid=ISc5XYA7NkG3VgMTQbRM5w&cb_client=maps_sv.tactile.gps&w=224&h=298&yaw=280.3231&pitch=0&thumbfov=100"
            }
        ],
        "link": "https://www.google.com/maps/place/Jumma+Masjid/data=!4m7!3m6!1s0x3b04fc39200975e5:0x1302bced281f8126!8m2!3d8.173786!4d77.2563834!16s%2Fg%2F11ckxfc6hx!19sChIJ5XUJIDn8BDsRJoEfKO28AhM?authuser=0&hl=en&rclk=1",
        "coordinates": {
            "latitude": 8.173786,
            "longitude": 77.25638339999999
        }
    },
    {
        "name": "Masjid Makkai Palayam",
        "main_category": "Mosque",
        "address": "68W8+VP2 Masjid Makkai Palayam, Darga Road, Chakala, Thuckalay, Tamil Nadu 629175",
        "detailed_address": {
            "ward": "Chakala",
            "street": "68W8+VP2, Darga Road",
            "city": "Thuckalay",
            "postal_code": "629175",
            "state": "Tamil Nadu",
            "country_code": "IN"
        },
        "images": [
            {
                "about": "All",
                "link": "https://lh5.googleusercontent.com/p/AF1QipNw-TsLxtLi2-boh_ijiujYMzkxymyw9k9Whsk8=w397-h298-k-no"
            },
            {
                "about": "Dome",
                "link": "https://lh5.googleusercontent.com/p/AF1QipNETpXRWPFCM45WRxLfFmeypkFAfQlRsrtCmcon=w397-h298-k-no"
            },
            {
                "about": "Videos",
                "link": "https://lh5.googleusercontent.com/p/AF1QipM7BQqbYI7F_ZZHVYHJPZg7xi5zUFqHsVCxgBsV=w529-h298-k-no"
            },
            {
                "about": "Street View & 360deg",
                "link": "https://streetviewpixels-pa.googleapis.com/v1/thumbnail?panoid=86MZk40mXkpx6eI9YATqfw&cb_client=maps_sv.tactile.gps&w=224&h=298&yaw=342.235&pitch=0&thumbfov=100"
            }
        ],
        "link": "https://www.google.com/maps/place/Masjid+Makkai+Palayam/data=!4m7!3m6!1s0x3b04f8e5932b2017:0x1a4a9ec9e1009c94!8m2!3d8.2471488!4d77.316768!16s%2Fg%2F11cfh2y8s!19sChIJFyArk-X4BDsRlJwA4cmeSho?authuser=0&hl=en&rclk=1",
        "coordinates": {
            "latitude": 8.2471488,
            "longitude": 77.316768
        }
    },
    {
        "name": "Vazhoor Muslim Juma Masjid",
        "main_category": "Mosque",
        "address": "GPR9+2RG Vazhoor Muslim Juma Masjid, Chamampathal, Kerala 686517",
        "detailed_address": {
            "ward": null,
            "street": "GPR9+2RG",
            "city": "Chamampathal",
            "postal_code": "686517",
            "state": "Kerala",
            "country_code": "IN"
        },
        "images": [
            {
                "about": "All",
                "link": "https://lh5.googleusercontent.com/p/AF1QipMbQjRc8cZV5S_oo-AtndGnZAt5wEjJWx4-QW_F=w224-h298-k-no"
            },
            {
                "about": "Latest",
                "link": "https://lh5.googleusercontent.com/p/AF1QipOT_EZwO5q-EioZk02reHFBhceIVKQJ3dtsjg8v=w224-h298-k-no"
            },
            {
                "about": "Dome",
                "link": "https://lh5.googleusercontent.com/p/AF1QipPqfyPCVDV0o5Ga193mJt991y5zjBulaBRbtRUd=w224-h298-k-no"
            }
        ],
        "link": "https://www.google.com/maps/place/Vazhoor+Muslim+Juma+Masjid/data=!4m7!3m6!1s0x3b063145d03df6e1:0xb4df28c1e702e19f!8m2!3d9.5400701!4d76.7195849!16s%2Fg%2F11bt_g_gxt!19sChIJ4fY90EUxBjsRn-EC58Eo37Q?authuser=0&hl=en&rclk=1",
        "coordinates": {
            "latitude": 9.5400701,
            "longitude": 76.7195849
        }
    },
    {
        "name": "Thannada JUMA MASJID",
        "main_category": "Mosque",
        "address": "VC2V+2F5 Thannada JUMA MASJID, Chala, Kerala 670621",
        "detailed_address": {
            "ward": null,
            "street": "VC2V+2F5",
            "city": "Chala",
            "postal_code": "670621",
            "state": "Kerala",
            "country_code": "IN"
        },
        "images": [
            {
                "about": "All",
                "link": "https://lh5.googleusercontent.com/p/AF1QipO8PQkPbH4f3_DcuZuXZnJDIUrCOL33dD2_KABf=w224-h298-k-no"
            }
        ],
        "link": "https://www.google.com/maps/place/Thannada+JUMA+MASJID/data=!4m7!3m6!1s0x3ba42498047f553d:0xdccf55b4412f36e6!8m2!3d11.8500231!4d75.4437342!16s%2Fg%2F11c1ww6k87!19sChIJPVV_BJgkpDsR5jYvQbRVz9w?authuser=0&hl=en&rclk=1",
        "coordinates": {
            "latitude": 11.8500231,
            "longitude": 75.4437342
        }
    },
    {
        "name": "Masjidul Hamza",
        "main_category": "Mosque",
        "address": "VCF5+MQJ Masjidul Hamza, Elayavoor, Kerala 670018",
        "detailed_address": {
            "ward": null,
            "street": "VCF5+MQJ",
            "city": "Elayavoor",
            "postal_code": "670018",
            "state": "Kerala",
            "country_code": "IN"
        },
        "images": [
            {
                "about": "All",
                "link": "https://lh5.googleusercontent.com/p/AF1QipOPCXLHed1lBbNrGZBzzMdLIHXsQzj2R3HQ0HoE=w224-h298-k-no"
            },
            {
                "about": "Dome",
                "link": "https://lh5.googleusercontent.com/p/AF1QipMjciKUhfCaMPNJ4Bq8fyTECVSPd4k2TN4QwPQd=w298-h298-k-no"
            },
            {
                "about": "Street View & 360deg",
                "link": "https://streetviewpixels-pa.googleapis.com/v1/thumbnail?panoid=-JXkzM3uoHWhFa5Kow80Mw&cb_client=maps_sv.tactile.gps&w=224&h=298&yaw=307.5416&pitch=0&thumbfov=100"
            }
        ],
        "link": "https://www.google.com/maps/place/Masjidul+Hamza/data=!4m7!3m6!1s0x3ba43cca5c721de9:0x3907155cf932559b!8m2!3d11.8742041!4d75.4093848!16s%2Fg%2F11bw4s_kwb!19sChIJ6R1yXMo8pDsRm1Uy-VwVBzk?authuser=0&hl=en&rclk=1",
        "coordinates": {
            "latitude": 11.8742041,
            "longitude": 75.4093848
        }
    },
    {
        "name": "Kunithalakkadav Juma Masjid",
        "main_category": "Mosque",
        "address": "Kunithalakkadav Juma Masjid, Poonkudi - Vilayil, Road, Pallimukku, Kerala 673641",
        "detailed_address": {
            "ward": null,
            "street": "Poonkudi - Vilayil, Road",
            "city": "Pallimukku",
            "postal_code": "673641",
            "state": "Kerala",
            "country_code": "IN"
        },
        "images": [
            {
                "about": "All",
                "link": "https://lh5.googleusercontent.com/p/AF1QipPs3cdS9BTcsQWC1TSlcnAMMvmrqt0cjxAsyuN-=w397-h298-k-no"
            },
            {
                "about": "Street View & 360deg",
                "link": "https://lh5.googleusercontent.com/p/AF1QipPrcXJ0_oCTmXrC-O3lh59rTNaj8SU3-hL9tCuF=w224-h298-k-no-pi-0-ya184-ro0-fo100"
            }
        ],
        "link": "https://www.google.com/maps/place/Kunithalakkadav+Juma+Masjid/data=!4m7!3m6!1s0x3ba64665fbb0cb29:0x18eeabce1d0e4d24!8m2!3d11.2252921!4d76.0096722!16s%2Fg%2F11fzffwyt7!19sChIJKcuw-2VGpjsRJE0OHc6r7hg?authuser=0&hl=en&rclk=1",
        "coordinates": {
            "latitude": 11.225292099999999,
            "longitude": 76.0096722
        }
    },
    {
        "name": "Sheik Masjid Thannada",
        "main_category": "Mosque",
        "address": "VF22+GXG Sheik Masjid Thannada, Chala, Kerala 670621",
        "detailed_address": {
            "ward": null,
            "street": "VF22+GXG",
            "city": "Chala",
            "postal_code": "670621",
            "state": "Kerala",
            "country_code": "IN"
        },
        "images": [
            {
                "about": "All",
                "link": "https://lh5.googleusercontent.com/p/AF1QipOYcGuD0GyCFEIxTEzhX0Fo7kLh2PHITReRCVr_=w282-h298-k-no"
            }
        ],
        "link": "https://www.google.com/maps/place/Sheik+Masjid+Thannada/data=!4m7!3m6!1s0x3ba424be06dd693d:0xebf5b7b31bb911ec!8m2!3d11.8513129!4d75.4524435!16s%2Fg%2F11c1wvhstx!19sChIJPWndBr4kpDsR7BG5G7O39es?authuser=0&hl=en&rclk=1",
        "coordinates": {
            "latitude": 11.8513129,
            "longitude": 75.4524435
        }
    },
    {
        "name": "JAMA MASJID CHALA",
        "main_category": "Mosque",
        "address": "4V55+C6P JAMA MASJID CHALA, Parshiwada, Chakala, Andheri East, Mumbai, Maharashtra 400047",
        "detailed_address": {
            "ward": "Parshiwada, Chakala, Andheri East",
            "street": "4V55+C6P",
            "city": "Mumbai",
            "postal_code": "400047",
            "state": "Maharashtra",
            "country_code": "IN"
        },
        "images": [
            {
                "about": "All",
                "link": "https://lh5.googleusercontent.com/p/AF1QipNarGdqYemhD4TctCcoOCW5qQhjLpADpa71u3e8=w513-h298-k-no"
            },
            {
                "about": "Street View & 360deg",
                "link": "https://streetviewpixels-pa.googleapis.com/v1/thumbnail?panoid=iIBqNPjx4RhheVM9GINS5A&cb_client=maps_sv.tactile.gps&w=224&h=298&yaw=358.94348&pitch=0&thumbfov=100"
            }
        ],
        "link": "https://www.google.com/maps/place/JAMA+MASJID+CHALA/data=!4m7!3m6!1s0x3be7c97601e69f1f:0xbe303432bd07b59b!8m2!3d19.1085865!4d72.8580655!16s%2Fg%2F11h5_vc_k3!19sChIJH5_mAXbJ5zsRm7UHvTI0ML4?authuser=0&hl=en&rclk=1",
        "coordinates": {
            "latitude": 19.108586499999998,
            "longitude": 72.8580655
        }
    },
    {
        "name": "Kizhakkumpadam Juma Masjid",
        "main_category": "Mosque",
        "address": "379Q+GJ4 Kizhakkumpadam Juma Masjid, Edappatta, Kerala 679326",
        "detailed_address": {
            "ward": null,
            "street": "379Q+GJ4",
            "city": "Edappatta",
            "postal_code": "679326",
            "state": "Kerala",
            "country_code": "IN"
        },
        "images": [
            {
                "about": "All",
                "link": "https://lh5.googleusercontent.com/p/AF1QipOhuWV6XwzHdyp8p7iloySeKy1m2LeU73g_N4Tl=w224-h298-k-no"
            },
            {
                "about": "Dome",
                "link": "https://lh5.googleusercontent.com/p/AF1QipNh3Fc18iis5jjVxnhjZgwuqIm5iYtTjtFAwM3y=w596-h298-k-no"
            },
            {
                "about": "Street View & 360deg",
                "link": "https://streetviewpixels-pa.googleapis.com/v1/thumbnail?panoid=F5q5uFzwUNqZYYyb8kFuvg&cb_client=maps_sv.tactile.gps&w=224&h=298&yaw=248.59814&pitch=0&thumbfov=100"
            }
        ],
        "link": "https://www.google.com/maps/place/Kizhakkumpadam+Juma+Masjid/data=!4m7!3m6!1s0x3ba62d742fc781bd:0x270ff29f46d851e8!8m2!3d11.0687712!4d76.2890937!16s%2Fg%2F11f08zz26p!19sChIJvYHHL3QtpjsR6FHYRp_yDyc?authuser=0&hl=en&rclk=1",
        "coordinates": {
            "latitude": 11.068771199999999,
            "longitude": 76.2890937
        }
    },
    {
        "name": "Karuppattikkada Juma Masjid",
        "main_category": "Mosque",
        "address": "FXJ2+PPR Karuppattikkada Juma Masjid, Chalai, Thiruvananthapuram, Kerala 695036",
        "detailed_address": {
            "ward": "Chalai",
            "street": "FXJ2+PPR",
            "city": "Thiruvananthapuram",
            "postal_code": "695036",
            "state": "Kerala",
            "country_code": "IN"
        },
        "images": [
            {
                "about": "All",
                "link": "https://lh5.googleusercontent.com/p/AF1QipMgba2hIspCzUpbmzejtEFFDEaYDFxctaI9BqXo=w529-h298-k-no"
            }
        ],
        "link": "https://www.google.com/maps/place/Karuppattikkada+Juma+Masjid/data=!4m7!3m6!1s0x3b05bb0810c4ec83:0x120ccb95a048f84f!8m2!3d8.4818605!4d76.9517646!16s%2Fg%2F11cn92wh0r!19sChIJg-zEEAi7BTsRT_hIoJXLDBI?authuser=0&hl=en&rclk=1",
        "coordinates": {
            "latitude": 8.4818605,
            "longitude": 76.95176459999999
        }
    },
    {
        "name": "Muhaideen Jumma Masjid Verkilambi.",
        "main_category": "Mosque",
        "address": "77VV+R9G Muhaideen Jumma Masjid Verkilambi., SH 180, Verkilambi, Tamil Nadu 629166",
        "detailed_address": {
            "ward": null,
            "street": "77VV+R9G, SH 180",
            "city": "Verkilambi",
            "postal_code": "629166",
            "state": "Tamil Nadu",
            "country_code": "IN"
        },
        "images": [
            {
                "about": "All",
                "link": "https://lh5.googleusercontent.com/p/AF1QipMehxdk3MshLnX2XoAOLgaokAj_H1gINQeGyi4j=w224-h398-k-no"
            },
            {
                "about": "Street View & 360deg",
                "link": "https://streetviewpixels-pa.googleapis.com/v1/thumbnail?panoid=Fc8AkunlvKdhmWasd8u8Ew&cb_client=maps_sv.tactile.gps&w=224&h=298&yaw=99.33177&pitch=0&thumbfov=100"
            }
        ],
        "link": "https://www.google.com/maps/place/Muhaideen+Jumma+Masjid+Verkilambi./data=!4m7!3m6!1s0x3b04560ebda07345:0xc63d6bf3a720f9da!8m2!3d8.2945528!4d77.2934505!16s%2Fg%2F1ptvzggsl!19sChIJRXOgvQ5WBDsR2vkgp_NrPcY?authuser=0&hl=en&rclk=1",
        "coordinates": {
            "latitude": 8.2945528,
            "longitude": 77.29345049999999
        }
    },
    {
        "name": "Melaseval Mosque",
        "main_category": "Mosque",
        "address": "MJ78+F2H Melaseval Mosque, Melacheval, Tamil Nadu 627452",
        "detailed_address": {
            "ward": null,
            "street": "MJ78+F2H",
            "city": "Melacheval",
            "postal_code": "627452",
            "state": "Tamil Nadu",
            "country_code": "IN"
        },
        "images": [
            {
                "about": "All",
                "link": "https://lh5.googleusercontent.com/p/AF1QipM1sXySlIMJTHkNTNkBBY7DSnQb4r7TgNY8fgo=w397-h298-k-no"
            },
            {
                "about": "Videos",
                "link": "https://lh5.googleusercontent.com/p/AF1QipPauTh-2pfzwJ2VcetxjXgIEJ9JMUDSa7Z5ECE=w541-h298-k-no"
            }
        ],
        "link": "https://www.google.com/maps/place/Melaseval+Mosque/data=!4m7!3m6!1s0x3b0414e4f4f314ff:0x2f21e92f268abfb2!8m2!3d8.6636808!4d77.6150984!16s%2Fg%2F1tf2_tx_!19sChIJ_xTz9OQUBDsRsr-KJi_pIS8?authuser=0&hl=en&rclk=1",
        "coordinates": {
            "latitude": 8.6636808,
            "longitude": 77.6150984
        }
    },
    {
        "name": "Masjid-E-Thaqwathul Hudha",
        "main_category": "Mosque",
        "address": "V6H6+2Q8 Masjid-E-Thaqwathul Hudha, Semmancheri, Arasankalani, Sithalapakkam, Chennai, Tamil Nadu 600119",
        "detailed_address": {
            "ward": "Semmancheri, Arasankalani, Sithalapakkam",
            "street": "V6H6+2Q8",
            "city": "Chennai",
            "postal_code": "600119",
            "state": "Tamil Nadu",
            "country_code": "IN"
        },
        "images": [
            {
                "about": "All",
                "link": "https://lh5.googleusercontent.com/p/AF1QipOULo8D_BFuYt9C7kTNYXSGeNQbBz5rEolw1OUy=w529-h298-k-no"
            },
            {
                "about": "Street View & 360deg",
                "link": "https://streetviewpixels-pa.googleapis.com/v1/thumbnail?panoid=sQ1jaem1XZJdBpPW-daMNg&cb_client=maps_sv.tactile.gps&w=224&h=298&yaw=356.2143&pitch=0&thumbfov=100"
            },
            {
                "about": "Videos",
                "link": "https://lh5.googleusercontent.com/p/AF1QipNP33QOtTuleCNWUTXuTJgqssxAubzZcal-80rA=w529-h298-k-no"
            }
        ],
        "link": "https://www.google.com/maps/place/Masjid-E-Thaqwathul+Hudha/data=!4m7!3m6!1s0x3a525b9503598d73:0xcc45b609a54f5f78!8m2!3d12.877536!4d80.2119632!16s%2Fg%2F11f156qfgx!19sChIJc41ZA5VbUjoReF9PpQm2Rcw?authuser=0&hl=en&rclk=1",
        "coordinates": {
            "latitude": 12.877536,
            "longitude": 80.2119632
        }
    },
    {
        "name": "Jeelani Masjid (Thaika)",
        "main_category": "Mosque",
        "address": "773X+7C5 Jeelani Masjid (Thaika), Thiruvattar - Colachel Rd, Thiruvithamcode, Tamil Nadu 629167",
        "detailed_address": {
            "ward": null,
            "street": "773X+7C5, Thiruvattar - Colachel Rd",
            "city": "Thiruvithamcode",
            "postal_code": "629167",
            "state": "Tamil Nadu",
            "country_code": "IN"
        },
        "images": [
            {
                "about": "All",
                "link": "https://lh5.googleusercontent.com/p/AF1QipPXPUa1_SyB4MFYy9Db_MVmwHRQviWowUXXj439=w445-h298-k-no"
            },
            {
                "about": "Street View & 360deg",
                "link": "https://streetviewpixels-pa.googleapis.com/v1/thumbnail?panoid=-opNifh0vAzIHGyY9ZYcew&cb_client=maps_sv.tactile.gps&w=224&h=298&yaw=252.97102&pitch=0&thumbfov=100"
            }
        ],
        "link": "https://www.google.com/maps/place/Jeelani+Masjid+%28Thaika%29/data=!4m7!3m6!1s0x3b04f8c5e382dc97:0xbef55b87ad7634b2!8m2!3d8.2531315!4d77.2986196!16s%2Fg%2F11c48fjx99!19sChIJl9yC48X4BDsRsjR2rYdb9b4?authuser=0&hl=en&rclk=1",
        "coordinates": {
            "latitude": 8.2531315,
            "longitude": 77.2986196
        }
    },
    {
        "name": "Chembilode Juma Masjid",
        "main_category": "Mosque",
        "address": "VFH2+Q7V Chembilode Juma Masjid, Thaze Chovva Mattannur Rd, Komathukunnumbram, Chala, Kerala 670621",
        "detailed_address": {
            "ward": "Komathukunnumbram",
            "street": "VFH2+Q7V, Thaze Chovva Mattannur Rd",
            "city": "Chala",
            "postal_code": "670621",
            "state": "Kerala",
            "country_code": "IN"
        },
        "images": [
            {
                "about": "All",
                "link": "https://lh5.googleusercontent.com/p/AF1QipPQmZC7TQiro8dstuP0AKHHRqY0AbDqzD25P8Zp=w397-h298-k-no"
            }
        ],
        "link": "https://www.google.com/maps/place/Chembilode+Juma+Masjid/data=!4m7!3m6!1s0x3ba43b4ebd091081:0xdf1c5fa1ab589b21!8m2!3d11.8794985!4d75.4506602!16s%2Fg%2F11ckkx3q3f!19sChIJgRAJvU47pDsRIZtYq6FfHN8?authuser=0&hl=en&rclk=1",
        "coordinates": {
            "latitude": 11.879498499999999,
            "longitude": 75.4506602
        }
    },
    {
        "name": "Chelayil Muslim Jama-Ath",
        "main_category": "Mosque",
        "address": "JXPQ+Q5Q Chelayil Muslim Jama-Ath, Venkavila - Moozhy Road, Kerala 695541",
        "detailed_address": {
            "ward": null,
            "street": "JXPQ+Q5Q, Venkavila - Moozhy Road",
            "city": null,
            "postal_code": "695541",
            "state": "Kerala",
            "country_code": "IN"
        },
        "images": [
            {
                "about": "All",
                "link": "https://lh5.googleusercontent.com/p/AF1QipOEcV_IF3BwGccYIofY9hbrwhaT2YT_-7HNIX6h=w397-h298-k-no"
            },
            {
                "about": "Street View & 360deg",
                "link": "https://streetviewpixels-pa.googleapis.com/v1/thumbnail?panoid=AJZ9EPxh7mIAw2p-kOX56g&cb_client=maps_sv.tactile.gps&w=224&h=298&yaw=219.71986&pitch=0&thumbfov=100"
            }
        ],
        "link": "https://www.google.com/maps/place/Chelayil+Muslim+Jama-Ath/data=!4m7!3m6!1s0x3b05c7c07d30c2cf:0x2af92cc716f94250!8m2!3d8.6369711!4d76.9879821!16s%2Fg%2F11f08yn6v6!19sChIJz8IwfcDHBTsRUEL5Fscs-So?authuser=0&hl=en&rclk=1",
        "coordinates": {
            "latitude": 8.6369711,
            "longitude": 76.9879821
        }
    },
    {
        "name": "Cheriya Kumbalam Juma Masjid",
        "main_category": "Mosque",
        "address": "Cheriya Kumbalam Juma Masjid, 673508, Palery, Kerala",
        "detailed_address": {
            "ward": null,
            "street": "673508",
            "city": "Palery",
            "postal_code": null,
            "state": "Kerala",
            "country_code": "IN"
        },
        "images": [
            {
                "about": "All",
                "link": "https://streetviewpixels-pa.googleapis.com/v1/thumbnail?panoid=zkwkn4XqED2y-4MNcRohnw&cb_client=maps_sv.tactile.gps&w=224&h=298&yaw=215.86006&pitch=0&thumbfov=100"
            },
            {
                "about": "Street View & 360deg",
                "link": "https://streetviewpixels-pa.googleapis.com/v1/thumbnail?panoid=zkwkn4XqED2y-4MNcRohnw&cb_client=maps_sv.tactile.gps&w=224&h=298&yaw=215.86006&pitch=0&thumbfov=100"
            }
        ],
        "link": "https://www.google.com/maps/place/Cheriya+Kumbalam+Juma+Masjid/data=!4m7!3m6!1s0x3ba67e672bb333f1:0xec9fd257a6c2e27!8m2!3d11.6488614!4d75.7555044!16s%2Fg%2F11f0kn504v!19sChIJ8TOzK2d-pjsRJy5seiX9yQ4?authuser=0&hl=en&rclk=1",
        "coordinates": {
            "latitude": 11.6488614,
            "longitude": 75.75550439999999
        }
    },
    {
        "name": "Masjid Shamsu Raahilah",
        "main_category": "Mosque",
        "address": "Masjid Shamsu Raahilah, Kaja Beedi Colony, T.Karungulam, Melapalayam, Tirunelveli, Tamil Nadu 627005",
        "detailed_address": {
            "ward": "T.Karungulam, Melapalayam",
            "street": "Kaja Beedi Colony",
            "city": "Tirunelveli",
            "postal_code": "627005",
            "state": "Tamil Nadu",
            "country_code": "IN"
        },
        "images": [
            {
                "about": "All",
                "link": "https://lh5.googleusercontent.com/p/AF1QipPe09lesmuRe6Ks9uTHHjCp4UKPsAgJh3fK-48X=w529-h298-k-no"
            },
            {
                "about": "Street View & 360deg",
                "link": "https://streetviewpixels-pa.googleapis.com/v1/thumbnail?panoid=bbaEvAH2T7KDu7fMcvUxiA&cb_client=maps_sv.tactile.gps&w=224&h=298&yaw=53.52872&pitch=0&thumbfov=100"
            }
        ],
        "link": "https://www.google.com/maps/place/Masjid+Shamsu+Raahilah/data=!4m7!3m6!1s0x3b04125a0c6347d3:0x49ffd3724df129c3!8m2!3d8.6866359!4d77.7112793!16s%2Fg%2F11c48rgrr0!19sChIJ00djDFoSBDsRwynxTXLT_0k?authuser=0&hl=en&rclk=1",
        "coordinates": {
            "latitude": 8.686635899999999,
            "longitude": 77.7112793
        }
    },
    {
        "name": "Masjidul Ahad (TIVA)",
        "main_category": "Mosque",
        "address": "PJ5Q+JQ8 Masjidul Ahad (TIVA), Gopalasamuthiram Rd, Tamil Nadu 627604",
        "detailed_address": {
            "ward": null,
            "street": "PJ5Q+JQ8, Gopalasamuthiram Rd",
            "city": null,
            "postal_code": "627604",
            "state": "Tamil Nadu",
            "country_code": "IN"
        },
        "images": [
            {
                "about": "All",
                "link": "https://streetviewpixels-pa.googleapis.com/v1/thumbnail?panoid=Um9exxzHOwnUqJgsV70jzg&cb_client=maps_sv.tactile.gps&w=224&h=298&yaw=136.02759&pitch=0&thumbfov=100"
            },
            {
                "about": "Street View & 360deg",
                "link": "https://streetviewpixels-pa.googleapis.com/v1/thumbnail?panoid=Um9exxzHOwnUqJgsV70jzg&cb_client=maps_sv.tactile.gps&w=224&h=298&yaw=136.02759&pitch=0&thumbfov=100"
            }
        ],
        "link": "https://www.google.com/maps/place/Masjidul+Ahad+%28TIVA%29/data=!4m7!3m6!1s0x3b041410618c48e5:0x672b703264772c2!8m2!3d8.7090439!4d77.6394546!16s%2Fg%2F11cmydr2zx!19sChIJ5UiMYRAUBDsRwnJHJgO3cgY?authuser=0&hl=en&rclk=1",
        "coordinates": {
            "latitude": 8.7090439,
            "longitude": 77.6394546
        }
    },
    {
        "name": "RAHMATH NAGAR MASJID",
        "main_category": "Mosque",
        "address": "G278+8JR RAHMATH NAGAR MASJID, Chala Vidyanagar Road, Chala, Bedira, Kerala 671121",
        "detailed_address": {
            "ward": "Chala",
            "street": "G278+8JR, Chala Vidyanagar Road",
            "city": "Bedira",
            "postal_code": "671121",
            "state": "Kerala",
            "country_code": "IN"
        },
        "images": [
            {
                "about": "All",
                "link": "https://lh5.googleusercontent.com/p/AF1QipNllZfSxHFR0p7Dx1NK21FyRnmkZZN0HPnua1Pp=w397-h298-k-no"
            }
        ],
        "link": "https://www.google.com/maps/place/RAHMATH+NAGAR+MASJID/data=!4m7!3m6!1s0x3ba483ab6d4e81bb:0xb0235fd19de6b1a8!8m2!3d12.5133727!4d75.0165153!16s%2Fg%2F1pxq846_9!19sChIJu4FObauDpDsRqLHmndFfI7A?authuser=0&hl=en&rclk=1",
        "coordinates": {
            "latitude": 12.5133727,
            "longitude": 75.0165153
        }
    },
    {
        "name": "RAHMANIYA MASJID, PAROTH, MEPOYIL, THANNADA",
        "main_category": "Mosque",
        "address": "VC4W+J76 RAHMANIYA MASJID, PAROTH, MEPOYIL, THANNADA, Chala, Kerala 670621",
        "detailed_address": {
            "ward": null,
            "street": "VC4W+J76",
            "city": "Chala",
            "postal_code": "670621",
            "state": "Kerala",
            "country_code": "IN"
        },
        "images": [
            {
                "about": "All",
                "link": "https://lh5.googleusercontent.com/p/AF1QipMvB1gF0qpus4aZipl3_HQarqrgJxza-Il_iMeQ=w224-h398-k-no"
            },
            {
                "about": "Street View & 360deg",
                "link": "https://streetviewpixels-pa.googleapis.com/v1/thumbnail?panoid=gKqTYy_aHJIJkG7gRF3aFg&cb_client=maps_sv.tactile.gps&w=224&h=298&yaw=104.817535&pitch=0&thumbfov=100"
            }
        ],
        "link": "https://www.google.com/maps/place/RAHMANIYA+MASJID,+PAROTH,+MEPOYIL,+THANNADA/data=!4m7!3m6!1s0x3ba424a4a93323f7:0x29c64819bb06029c!8m2!3d11.85655!4d75.4456379!16s%2Fg%2F11dztr93ck!19sChIJ9yMzqaQkpDsRnAIGuxlIxik?authuser=0&hl=en&rclk=1",
        "coordinates": {
            "latitude": 11.856549999999999,
            "longitude": 75.4456379
        }
    },
    {
        "name": "Yaseen Juma Masjid",
        "main_category": "Mosque",
        "address": "VC7H+G4X Yaseen Juma Masjid, Attadappa Rd, Chala, Kerala 670006",
        "detailed_address": {
            "ward": null,
            "street": "VC7H+G4X, Attadappa Rd",
            "city": "Chala",
            "postal_code": "670006",
            "state": "Kerala",
            "country_code": "IN"
        },
        "images": [
            {
                "about": "All",
                "link": "https://lh5.googleusercontent.com/p/AF1QipMk5lwuKNPnjUomJ9quKqmel9Xh-gcuFyB2draJ=w397-h298-k-no"
            }
        ],
        "link": "https://www.google.com/maps/place/Yaseen+Juma+Masjid/data=!4m7!3m6!1s0x3ba4238e32fe076b:0x88ace593ec3cc8a3!8m2!3d11.8638578!4d75.4278441!16s%2Fg%2F11fk1kyk8l!19sChIJawf-Mo4jpDsRo8g87JPlrIg?authuser=0&hl=en&rclk=1",
        "coordinates": {
            "latitude": 11.8638578,
            "longitude": 75.4278441
        }
    },
    {
        "name": "Chettachal Masjid",
        "main_category": "Mosque",
        "address": "M3Q7+X5F Chettachal Masjid, Chettachal, Kerala 695551",
        "detailed_address": {
            "ward": null,
            "street": "M3Q7+X5F",
            "city": "Chettachal",
            "postal_code": null,
            "state": "Kerala",
            "country_code": "IN"
        },
        "images": [
            {
                "about": "All",
                "link": "https://streetviewpixels-pa.googleapis.com/v1/thumbnail?panoid=U5EiymUx__QEKx444X_Mvg&cb_client=maps_sv.tactile.gps&w=224&h=298&yaw=92.830925&pitch=0&thumbfov=100"
            },
            {
                "about": "Street View & 360deg",
                "link": "https://streetviewpixels-pa.googleapis.com/v1/thumbnail?panoid=U5EiymUx__QEKx444X_Mvg&cb_client=maps_sv.tactile.gps&w=224&h=298&yaw=92.830925&pitch=0&thumbfov=100"
            }
        ],
        "link": "https://www.google.com/maps/place/Chettachal+Masjid/data=!4m7!3m6!1s0x3b05c937285438c7:0xc794d215542b8087!8m2!3d8.6899344!4d77.0629222!16s%2Fg%2F11g046nhxp!19sChIJxzhUKDfJBTsRh4ArVBXSlMc?authuser=0&hl=en&rclk=1",
        "coordinates": {
            "latitude": 8.6899344,
            "longitude": 77.0629222
        }
    },
    {
        "name": "kutpaa mukaitiinnn jumaa pllllivaacl",
        "main_category": "Mosque",
        "address": "MHJ6+F95 kutpaa mukaitiinnn jumaa pllllivaacl, Pallivasal, Cheranmahadevi, Tamil Nadu 627414",
        "detailed_address": {
            "ward": "Pallivasal",
            "street": "MHJ6+F95",
            "city": "Cheranmahadevi",
            "postal_code": "627414",
            "state": "Tamil Nadu",
            "country_code": "IN"
        },
        "images": [
            {
                "about": "All",
                "link": "https://lh5.googleusercontent.com/p/AF1QipP3lvYfSlXvvPTpC6ECjcdKLRrYopkU-meM4XJ3=w529-h298-k-no"
            },
            {
                "about": "Latest",
                "link": "https://lh5.googleusercontent.com/p/AF1QipNQ2XZmX_icsjmTMu2ZwuLkjI1oNUdSMDLd4u2o=w224-h298-k-no"
            },
            {
                "about": "Videos",
                "link": "https://lh5.googleusercontent.com/p/AF1QipNTzYR0RjjHuOeDm-mL41TC14egnlW3oDyM6ocA=w224-h398-k-no"
            },
            {
                "about": "Street View & 360deg",
                "link": "https://streetviewpixels-pa.googleapis.com/v1/thumbnail?panoid=OqLWmcx3jK7T2MqXxJOpog&cb_client=maps_sv.tactile.gps&w=224&h=298&yaw=91.12007&pitch=0&thumbfov=100"
            }
        ],
        "link": "https://www.google.com/maps/place/%E0%AE%95%E0%AF%81%E0%AE%A4%E0%AF%8D%E0%AE%AA%E0%AE%BE+%E0%AE%AE%E0%AF%81%E0%AE%95%E0%AF%88%E0%AE%A4%E0%AF%80%E0%AE%A9%E0%AF%8D+%E0%AE%9C%E0%AF%81%E0%AE%AE%E0%AF%8D%E0%AE%86+%E0%AE%AA%E0%AE%B3%E0%AF%8D%E0%AE%B3%E0%AE%BF%E0%AE%B5%E0%AE%BE%E0%AE%9A%E0%AE%B2%E0%AF%8D/data=!4m7!3m6!1s0x3b043f7d52ad786d:0x9e5d628cd99a70fd!8m2!3d8.6811272!4d77.5609948!16s%2Fg%2F11gjj9jms2!19sChIJbXitUn0_BDsR_XCa2YxiXZ4?authuser=0&hl=en&rclk=1",
        "coordinates": {
            "latitude": 8.681127199999999,
            "longitude": 77.5609948
        }
    },
    {
        "name": "Mohideen Masjid",
        "main_category": "Mosque",
        "address": "Mohideen Masjid, Beach Road, Colachel, Tamil Nadu 629251",
        "detailed_address": {
            "ward": null,
            "street": "Beach Road",
            "city": "Colachel",
            "postal_code": "629251",
            "state": "Tamil Nadu",
            "country_code": "IN"
        },
        "images": [
            {
                "about": "All",
                "link": "https://lh5.googleusercontent.com/p/AF1QipOc1OfkDM6UfMMT2sc35DbEt8yf-PzouMSwMlxq=w224-h298-k-no"
            },
            {
                "about": "Street View & 360deg",
                "link": "https://streetviewpixels-pa.googleapis.com/v1/thumbnail?panoid=45lL2N1kiP-jSyUAJD8ljg&cb_client=maps_sv.tactile.gps&w=224&h=298&yaw=192.45401&pitch=0&thumbfov=100"
            }
        ],
        "link": "https://www.google.com/maps/place/Mohideen+Masjid/data=!4m7!3m6!1s0x3b04fc3757ff0c5b:0x53082e04be034d47!8m2!3d8.1756676!4d77.251999!16s%2Fg%2F11bxdvqk8d!19sChIJWwz_Vzf8BDsRR00DvgQuCFM?authuser=0&hl=en&rclk=1",
        "coordinates": {
            "latitude": 8.175667599999999,
            "longitude": 77.251999
        }
    },
    {
        "name": "Thattanguni Juma Masjid",
        "main_category": "Mosque",
        "address": "VC3J+9RV Thattanguni Juma Masjid, Chala East, Chala, Kerala 670621",
        "detailed_address": {
            "ward": "Chala East",
            "street": "VC3J+9RV",
            "city": "Chala",
            "postal_code": "670621",
            "state": "Kerala",
            "country_code": "IN"
        },
        "images": [
            {
                "about": "All",
                "link": "https://lh5.googleusercontent.com/p/AF1QipPy8BZlXbLVwkePgNE20VWRfuPZ0OLPMvjvwEuO=w529-h298-k-no"
            }
        ],
        "link": "https://www.google.com/maps/place/Thattanguni+Juma+Masjid/data=!4m7!3m6!1s0x3ba4235f0fffdf3f:0xc6cba3da960148bb!8m2!3d11.8534998!4d75.4320624!16s%2Fg%2F11dyz4y_hf!19sChIJP9__D18jpDsRu0gBltqjy8Y?authuser=0&hl=en&rclk=1",
        "coordinates": {
            "latitude": 11.8534998,
            "longitude": 75.43206239999999
        }
    },
    {
        "name": "Masjidul Falah | East Mosque",
        "main_category": "Mosque",
        "address": "P2G5+P7X Masjidul Falah | East Mosque, East Street (kilakku theru), East Street, Nambuthalai, Tamil Nadu 623403",
        "detailed_address": {
            "ward": null,
            "street": "P2G5+P7X, East Street (kilakku theru), East Street",
            "city": "Nambuthalai, Thondi",
            "postal_code": "623403",
            "state": "Tamil Nadu",
            "country_code": "IN"
        },
        "images": [
            {
                "about": "All",
                "link": "https://lh5.googleusercontent.com/p/AF1QipPKaYvbiGElOfJ1W8W2XItE3N4s3MiftnwankGt=w617-h298-k-no"
            }
        ],
        "link": "https://www.google.com/maps/place/Masjidul+Falah+%7C+East+Mosque/data=!4m7!3m6!1s0x3b004aad86ec354f:0xb2ffb60f8b9c46fa!8m2!3d9.7268652!4d79.0082431!16s%2Fg%2F11cjj060m6!19sChIJTzXshq1KADsR-kaciw-2_7I?authuser=0&hl=en&rclk=1",
        "coordinates": {
            "latitude": 9.726865199999999,
            "longitude": 79.0082431
        }
    },
    {
        "name": "Masjid",
        "main_category": "Mosque",
        "address": "RFM2+VQ7 Masjid, Kadachira, Kerala 670621",
        "detailed_address": {
            "ward": null,
            "street": "RFM2+VQ7",
            "city": "Kadachira",
            "postal_code": "670621",
            "state": "Kerala",
            "country_code": "IN"
        },
        "images": [
            {
                "about": "All",
                "link": "https://lh5.googleusercontent.com/p/AF1QipMfjjsK18IcAoXZgeSy8e8O2yQy8MDJtw4CF-ez=w529-h298-k-no"
            },
            {
                "about": "Street View & 360deg",
                "link": "https://streetviewpixels-pa.googleapis.com/v1/thumbnail?panoid=rZMyMGnzIv7ahGkUL3obgQ&cb_client=maps_sv.tactile.gps&w=224&h=298&yaw=113.0202&pitch=0&thumbfov=100"
            }
        ],
        "link": "https://www.google.com/maps/place/Masjid/data=!4m7!3m6!1s0x3ba4248e9668735f:0x45fa03fb47e0311c!8m2!3d11.8346621!4d75.4519244!16s%2Fg%2F11c5b83993!19sChIJX3Nolo4kpDsRHDHgR_sD-kU?authuser=0&hl=en&rclk=1",
        "coordinates": {
            "latitude": 11.8346621,
            "longitude": 75.4519244
        }
    },
    {
        "name": "Chala Sahid Ki Masjid",
        "main_category": "Mosque",
        "address": "2H7M+FXR Chala Sahid Ki Masjid, Mohmmad Sharife Marg, Old City, Khamasa, Ahmedabad, Gujarat 380001",
        "detailed_address": {
            "ward": "Old City, Khamasa",
            "street": "2H7M+FXR, Mohmmad Sharife Marg",
            "city": "Ahmedabad",
            "postal_code": "380001",
            "state": "Gujarat",
            "country_code": "IN"
        },
        "images": [
            {
                "about": "All",
                "link": "https://lh5.googleusercontent.com/p/AF1QipNBuRrzoRymFVNW9Aedkh-yy8zyhxbpa28OzdN7=w395-h298-k-no"
            },
            {
                "about": "Street View & 360deg",
                "link": "https://streetviewpixels-pa.googleapis.com/v1/thumbnail?panoid=Gd0TqC51N97--pyI4xzfQw&cb_client=maps_sv.tactile.gps&w=224&h=298&yaw=223.03749&pitch=0&thumbfov=100"
            }
        ],
        "link": "https://www.google.com/maps/place/Chala+Sahid+Ki+Masjid/data=!4m7!3m6!1s0x395e858093e89723:0x33d5ba652873d8f2!8m2!3d23.0138278!4d72.5849094!16s%2Fg%2F11f657929d!19sChIJI5fok4CFXjkR8thzKGW61TM?authuser=0&hl=en&rclk=1",
        "coordinates": {
            "latitude": 23.013827799999998,
            "longitude": 72.5849094
        }
    },
    {
        "name": "Masjid Al Jalaal",
        "main_category": "Mosque",
        "address": "5C5V+8V3 Masjid Al Jalaal, Ayesha Garden Rd, Mela Puthu Theru, Puthenkudiyiruppu, Nagercoil, Tamil Nadu 629002",
        "detailed_address": {
            "ward": "Mela Puthu Theru, Puthenkudiyiruppu",
            "street": "5C5V+8V3, Ayesha Garden Rd",
            "city": "Nagercoil",
            "postal_code": "629002",
            "state": "Tamil Nadu",
            "country_code": "IN"
        },
        "images": [
            {
                "about": "All",
                "link": "https://lh5.googleusercontent.com/p/AF1QipPfI1_xYbpgowwza6xZ30HBut95vDaW3E8niu7X=w397-h298-k-no"
            }
        ],
        "link": "https://www.google.com/maps/place/Masjid+Al+Jalaal/data=!4m7!3m6!1s0x3b04f10afe107b9b:0xc9e6fdf034a2cdee!8m2!3d8.1582675!4d77.4446849!16s%2Fg%2F11c6qbr_9r!19sChIJm3sQ_grxBDsR7s2iNPD95sk?authuser=0&hl=en&rclk=1",
        "coordinates": {
            "latitude": 8.1582675,
            "longitude": 77.4446849
        }
    },
    {
        "name": "Chala Ummer Bin Khathab Masjid",
        "main_category": "Mosque",
        "address": "Chala Ummer Bin Khathab Masjid, Chala, Kerala 671121",
        "detailed_address": {
            "ward": "Chala",
            "street": null,
            "city": null,
            "postal_code": null,
            "state": "Kerala",
            "country_code": "IN"
        },
        "images": [
            {
                "about": "All",
                "link": "https://streetviewpixels-pa.googleapis.com/v1/thumbnail?panoid=0FYvH5ztEXbVriHHsJpOeg&cb_client=maps_sv.tactile.gps&w=224&h=298&yaw=177.77594&pitch=0&thumbfov=100"
            },
            {
                "about": "Street View & 360deg",
                "link": "https://streetviewpixels-pa.googleapis.com/v1/thumbnail?panoid=0FYvH5ztEXbVriHHsJpOeg&cb_client=maps_sv.tactile.gps&w=224&h=298&yaw=177.77594&pitch=0&thumbfov=100"
            }
        ],
        "link": "https://www.google.com/maps/place/Chala+Ummer+Bin+Khathab+Masjid/data=!4m7!3m6!1s0x3ba483ad84b1810d:0xea2c54bee55ac099!8m2!3d12.50716!4d75.0177403!16s%2Fg%2F1tgdl_l6!19sChIJDYGxhK2DpDsRmcBa5b5ULOo?authuser=0&hl=en&rclk=1",
        "coordinates": {
            "latitude": 12.507159999999999,
            "longitude": 75.0177403
        }
    },
    {
        "name": "Jama masjid chhaala",
        "main_category": "Mosque",
        "address": "8Q4F+WJJ Jama masjid chhaala, Unnamed Road, Chhala, Gujarat 382321",
        "detailed_address": {
            "ward": null,
            "street": "8Q4F+WJJ, Unnamed Road",
            "city": "Chhala",
            "postal_code": "382321",
            "state": "Gujarat",
            "country_code": "IN"
        },
        "images": [
            {
                "about": "All",
                "link": "https://lh5.googleusercontent.com/p/AF1QipO9qqb6inZvMWFJpl53vfVt7XU1PIfnsSUkYL6v=w397-h298-k-no"
            },
            {
                "about": "Street View & 360deg",
                "link": "https://streetviewpixels-pa.googleapis.com/v1/thumbnail?panoid=_Iazr-M_l8EQBO7ZvslJhQ&cb_client=maps_sv.tactile.gps&w=224&h=298&yaw=49.23824&pitch=0&thumbfov=100"
            }
        ],
        "link": "https://www.google.com/maps/place/Jama+masjid+chhaala/data=!4m7!3m6!1s0x395dd39e81e3a22b:0xbdd669554bd7901!8m2!3d23.3073286!4d72.7740124!16s%2Fg%2F11hhsmfc24!19sChIJK6LjgZ7TXTkRAXm9VJVm3Qs?authuser=0&hl=en&rclk=1",
        "coordinates": {
            "latitude": 23.307328599999998,
            "longitude": 72.7740124
        }
    },
    {
        "name": "Failul Ilahia Masjid",
        "main_category": "Mosque",
        "address": "P338+8JR Failul Ilahia Masjid, Chettachal, Kerala 695563",
        "detailed_address": {
            "ward": null,
            "street": "P338+8JR",
            "city": "Chettachal",
            "postal_code": "695563",
            "state": "Kerala",
            "country_code": "IN"
        },
        "images": [
            {
                "about": "All",
                "link": "https://streetviewpixels-pa.googleapis.com/v1/thumbnail?panoid=yAXFdPVBcDpt0lu41_06yA&cb_client=maps_sv.tactile.gps&w=224&h=298&yaw=270.67377&pitch=0&thumbfov=100"
            },
            {
                "about": "Street View & 360deg",
                "link": "https://streetviewpixels-pa.googleapis.com/v1/thumbnail?panoid=yAXFdPVBcDpt0lu41_06yA&cb_client=maps_sv.tactile.gps&w=224&h=298&yaw=270.67377&pitch=0&thumbfov=100"
            }
        ],
        "link": "https://www.google.com/maps/place/Failul+Ilahia+Masjid/data=!4m7!3m6!1s0x3b05ced2ecad0f77:0xca929c82e69758a7!8m2!3d8.7033506!4d77.0665108!16s%2Fg%2F11g6w28x_v!19sChIJdw-t7NLOBTsRp1iX5oKckso?authuser=0&hl=en&rclk=1",
        "coordinates": {
            "latitude": 8.7033506,
            "longitude": 77.0665108
        }
    },
    {
        "name": "Chamavila muhiyudheen masjid",
        "main_category": "Mosque",
        "address": "Chamavila muhiyudheen masjid, Ambalam - Kalloor, Vengod Rd, Melthonnakkal, Kerala 695584",
        "detailed_address": {
            "ward": null,
            "street": "Ambalam - Kalloor, Vengod Rd",
            "city": "Melthonnakkal",
            "postal_code": "695584",
            "state": "Kerala",
            "country_code": "IN"
        },
        "images": [
            {
                "about": "All",
                "link": "https://lh5.googleusercontent.com/p/AF1QipMDQ2PWDblF2zNwKUntNYNq57MkzKqvYy86gx1B=w529-h298-k-no"
            },
            {
                "about": "Street View & 360deg",
                "link": "https://streetviewpixels-pa.googleapis.com/v1/thumbnail?panoid=HHMSnx-CGVOGbl1KKUmcUQ&cb_client=maps_sv.tactile.gps&w=224&h=298&yaw=86.63343&pitch=0&thumbfov=100"
            }
        ],
        "link": "https://www.google.com/maps/place/Chamavila+muhiyudheen+masjid/data=!4m7!3m6!1s0x3b05c15bcf00179d:0x200478fc4f7ed5ef!8m2!3d8.6341993!4d76.8767311!16s%2Fg%2F11fmrjszvv!19sChIJnRcAz1vBBTsR79V-T_x4BCA?authuser=0&hl=en&rclk=1",
        "coordinates": {
            "latitude": 8.634199299999999,
            "longitude": 76.8767311
        }
    },
    {
        "name": "Umar Masjid Poduvachery",
        "main_category": "Mosque",
        "address": "VF39+V46 Umar Masjid Poduvachery, Poduvachery, Chala, Kerala 670621",
        "detailed_address": {
            "ward": "Poduvachery",
            "street": "VF39+V46",
            "city": "Chala",
            "postal_code": "670621",
            "state": "Kerala",
            "country_code": "IN"
        },
        "images": [
            {
                "about": "All",
                "link": "https://lh5.googleusercontent.com/p/AF1QipP1RKANHI2LS_OeJlhrm23ArzVwZZJcC0Cye8de=w224-h298-k-no"
            },
            {
                "about": "Street View & 360deg",
                "link": "https://streetviewpixels-pa.googleapis.com/v1/thumbnail?panoid=0q1Rkwb_LgY_pX7dp_1juQ&cb_client=maps_sv.tactile.gps&w=224&h=298&yaw=139.43869&pitch=0&thumbfov=100"
            }
        ],
        "link": "https://www.google.com/maps/place/Umar+Masjid+Poduvachery/data=!4m7!3m6!1s0x3ba424c31e36b7bf:0x4109e5544015f798!8m2!3d11.8546514!4d75.4677621!16s%2Fg%2F11cp7s0225!19sChIJv7c2HsMkpDsRmPcVQFTlCUE?authuser=0&hl=en&rclk=1",
        "coordinates": {
            "latitude": 11.8546514,
            "longitude": 75.4677621
        }
    },
    {
        "name": "Thuckalai masjid",
        "main_category": "Mosque",
        "address": "68W8+VQ2 Thuckalai masjid, Dargha Rd, Chakala, Thuckalay, Tamil Nadu 629175",
        "detailed_address": {
            "ward": "Chakala",
            "street": "68W8+VQ2, Dargha Rd",
            "city": "Thuckalay",
            "postal_code": "629175",
            "state": "Tamil Nadu",
            "country_code": "IN"
        },
        "images": [
            {
                "about": "All",
                "link": "https://streetviewpixels-pa.googleapis.com/v1/thumbnail?panoid=CgBeIWVEDkpu4p7YpFDyYQ&cb_client=maps_sv.tactile.gps&w=224&h=298&yaw=3.8984425&pitch=0&thumbfov=100"
            },
            {
                "about": "Street View & 360deg",
                "link": "https://streetviewpixels-pa.googleapis.com/v1/thumbnail?panoid=CgBeIWVEDkpu4p7YpFDyYQ&cb_client=maps_sv.tactile.gps&w=224&h=298&yaw=3.8984425&pitch=0&thumbfov=100"
            }
        ],
        "link": "https://www.google.com/maps/place/Thuckalai+masjid/data=!4m7!3m6!1s0x3b04f9681da317e5:0x33f48eedc181fed!8m2!3d8.2471315!4d77.3169045!16s%2Fg%2F11n066n3vy!19sChIJ5RejHWj5BDsR7R8Y3O5IPwM?authuser=0&hl=en&rclk=1",
        "coordinates": {
            "latitude": 8.2471315,
            "longitude": 77.31690449999999
        }
    },
    {
        "name": "Masjid - Tamil Nadu Thowheed Jamath",
        "main_category": "Mosque",
        "address": "4G6V+2Q7 Masjid - Tamil Nadu Thowheed Jamath, Panchalingapuram, Tamil Nadu 629702",
        "detailed_address": {
            "ward": null,
            "street": "4G6V+2Q7",
            "city": "Panchalingapuram",
            "postal_code": "629702",
            "state": "Tamil Nadu",
            "country_code": "IN"
        },
        "images": [
            {
                "about": "All",
                "link": "https://streetviewpixels-pa.googleapis.com/v1/thumbnail?panoid=qJpiiZdtktGz9jLI-u4imQ&cb_client=maps_sv.tactile.gps&w=224&h=298&yaw=203.69122&pitch=0&thumbfov=100"
            },
            {
                "about": "Street View & 360deg",
                "link": "https://streetviewpixels-pa.googleapis.com/v1/thumbnail?panoid=qJpiiZdtktGz9jLI-u4imQ&cb_client=maps_sv.tactile.gps&w=224&h=298&yaw=203.69122&pitch=0&thumbfov=100"
            }
        ],
        "link": "https://www.google.com/maps/place/Masjid+-+Tamil+Nadu+Thowheed+Jamath/data=!4m7!3m6!1s0x3b04ed5c065871db:0xa28990dbb9f03bc4!8m2!3d8.1100369!4d77.5444362!16s%2Fg%2F11hbfjr30j!19sChIJ23FYBlztBDsRxDvwuduQiaI?authuser=0&hl=en&rclk=1",
        "coordinates": {
            "latitude": 8.110036899999999,
            "longitude": 77.54443619999999
        }
    },
    {
        "name": "Thaqwa masjid",
        "main_category": "Mosque",
        "address": "VCFX+WC9 Thaqwa masjid, Unnamed Road, Chala",
        "detailed_address": {
            "ward": "Poduvachery",
            "street": "VCFX+WC9, Unnamed Road",
            "city": "Chala",
            "postal_code": null,
            "state": "Kerala",
            "country_code": "IN"
        },
        "images": [
            {
                "about": "All",
                "link": "https://lh5.googleusercontent.com/p/AF1QipPNB2C1jlVvDDVKEH4_jDM5X9fWEPB6Er0YiKX6=w529-h298-k-no"
            },
            {
                "about": "Street View & 360deg",
                "link": "https://streetviewpixels-pa.googleapis.com/v1/thumbnail?panoid=SnPF4-gWzAWvURml6NbIFQ&cb_client=maps_sv.tactile.gps&w=224&h=298&yaw=275.04205&pitch=0&thumbfov=100"
            }
        ],
        "link": "https://www.google.com/maps/place/Thaqwa+masjid/data=!4m7!3m6!1s0x3ba43bd78fdcbac9:0x7deb1ff8058a2997!8m2!3d11.8747953!4d75.4486114!16s%2Fg%2F11p4qvlf8n!19sChIJybrcj9c7pDsRlymKBfgf630?authuser=0&hl=en&rclk=1",
        "coordinates": {
            "latitude": 11.874795299999999,
            "longitude": 75.44861139999999
        }
    },
    {
        "name": "PUTHANVEEDU JUMA MASJID",
        "main_category": "Mosque",
        "address": "VCGV+HGF PUTHANVEEDU JUMA MASJID, Chembilode, Chala, Kerala 670621",
        "detailed_address": {
            "ward": "Chembilode",
            "street": "VCGV+HGF",
            "city": "Chala",
            "postal_code": "670621",
            "state": "Kerala",
            "country_code": "IN"
        },
        "images": [],
        "link": "https://www.google.com/maps/place/PUTHANVEEDU+JUMA+MASJID/data=!4m7!3m6!1s0x3ba43b524f077141:0xdcc19961234e2cb9!8m2!3d11.8764267!4d75.4438095!16s%2Fg%2F11ggfm3d29!19sChIJQXEHT1I7pDsRuSxOI2GZwdw?authuser=0&hl=en&rclk=1",
        "coordinates": {
            "latitude": 11.8764267,
            "longitude": 75.4438095
        }
    },
    {
        "name": "Koyyode Juma Masjid",
        "main_category": "Mosque",
        "address": "VC9V+9W2 Koyyode Juma Masjid, Koyyode, Chala, Kerala 670621",
        "detailed_address": {
            "ward": "Koyyode",
            "street": "VC9V+9W2",
            "city": "Chala",
            "postal_code": "670621",
            "state": "Kerala",
            "country_code": "IN"
        },
        "images": [],
        "link": "https://www.google.com/maps/place/Koyyode+Juma+Masjid/data=!4m7!3m6!1s0x3ba424adea6aaaab:0xd6b91728b927152e!8m2!3d11.8683972!4d75.44476!16s%2Fg%2F11kj3f6r7z!19sChIJq6pq6q0kpDsRLhUnuSgXudY?authuser=0&hl=en&rclk=1",
        "coordinates": {
            "latitude": 11.868397199999999,
            "longitude": 75.44476
        }
    },
    {
        "name": "Sidhiq Juma Masjid Parekundue",
        "main_category": "Mosque",
        "address": "VF54+PX8 Sidhiq Juma Masjid Parekundue, Parekundue, Poduvachery, Chala, Kerala 670621",
        "detailed_address": {
            "ward": "Parekundue, Poduvachery",
            "street": "VF54+PX8",
            "city": "Chala",
            "postal_code": null,
            "state": "Kerala",
            "country_code": "IN"
        },
        "images": [
            {
                "about": "All",
                "link": "https://lh5.googleusercontent.com/p/AF1QipMxRpECt-oPjnR8r61r5ClqFXYDZf7zDZniabc=w529-h298-k-no"
            },
            {
                "about": "Street View & 360deg",
                "link": "https://streetviewpixels-pa.googleapis.com/v1/thumbnail?panoid=2-_p9bCTuh8EbUI4NMJH-g&cb_client=maps_sv.tactile.gps&w=224&h=298&yaw=246.47748&pitch=0&thumbfov=100"
            }
        ],
        "link": "https://www.google.com/maps/place/Sidhiq+Juma+Masjid+Parekundue/data=!4m7!3m6!1s0x3ba424b881517167:0xeb8d0720829d9888!8m2!3d11.8592836!4d75.4574402!16s%2Fg%2F11c5g_09y_!19sChIJZ3FRgbgkpDsRiJidgiAHjes?authuser=0&hl=en&rclk=1",
        "coordinates": {
            "latitude": 11.8592836,
            "longitude": 75.4574402
        }
    },
    {
        "name": "JAQH Masjid",
        "main_category": "Mosque",
        "address": "JAQH Masjid, 23, Palli Rd, Colachel, Tamil Nadu 629251",
        "detailed_address": {
            "ward": null,
            "street": "23, Palli Rd",
            "city": "Colachel",
            "postal_code": "629251",
            "state": "Tamil Nadu",
            "country_code": "IN"
        },
        "images": [
            {
                "about": "All",
                "link": "https://lh5.googleusercontent.com/p/AF1QipN1Hih2mR5Le_k1x3FNBQQowC2U2f-JuOtVKny7=w250-h298-k-no"
            }
        ],
        "link": "https://www.google.com/maps/place/JAQH+Masjid/data=!4m7!3m6!1s0x3b04fd18484dda85:0xecc0966b71b5823b!8m2!3d8.177944!4d77.258336!16s%2Fg%2F11rxmf4_fr!19sChIJhdpNSBj9BDsRO4K1cWuWwOw?authuser=0&hl=en&rclk=1",
        "coordinates": {
            "latitude": 8.177944,
            "longitude": 77.258336
        }
    },
    {
        "name": "Masjid Twaha",
        "main_category": "Mosque",
        "address": "Q2F6+5Q8 Masjid Twaha, Naduvattom - Karinkallthani Rd, Naduvattom, Vattamkulam, Kerala 679576",
        "detailed_address": {
            "ward": null,
            "street": "Q2F6+5Q8, Naduvattom - Karinkallthani Rd",
            "city": "Naduvattom, Vattamkulam",
            "postal_code": "679576",
            "state": "Kerala",
            "country_code": "IN"
        },
        "images": [
            {
                "about": "All",
                "link": "https://lh5.googleusercontent.com/p/AF1QipP1K-px3hNS6oMPKgNwatof_lsyVfBZxq8yUVpY=w380-h298-k-no"
            },
            {
                "about": "Street View & 360deg",
                "link": "https://streetviewpixels-pa.googleapis.com/v1/thumbnail?panoid=djgfMIaoqdBUhWADAl1Vrg&cb_client=maps_sv.tactile.gps&w=224&h=298&yaw=28.545948&pitch=0&thumbfov=100"
            }
        ],
        "link": "https://www.google.com/maps/place/Masjid+Twaha/data=!4m7!3m6!1s0x3ba7b90abf03460d:0x31e726e2c3f21cd7!8m2!3d10.772969!4d76.0119719!16s%2Fg%2F11l2701_rt!19sChIJDUYDvwq5pzsR1xzyw-Im5zE?authuser=0&hl=en&rclk=1",
        "coordinates": {
            "latitude": 10.772969,
            "longitude": 76.01197189999999
        }
    },
    {
        "name": "Paranilam Salafi Masjid",
        "main_category": "Mosque",
        "address": "8VPG+G6P Paranilam Salafi Masjid, Paranilam Rd, Cholakkarathazham, Kerala 673585",
        "detailed_address": {
            "ward": null,
            "street": "8VPG+G6P, Paranilam Rd",
            "city": "Cholakkarathazham",
            "postal_code": "673585",
            "state": "Kerala",
            "country_code": "IN"
        },
        "images": [
            {
                "about": "All",
                "link": "https://streetviewpixels-pa.googleapis.com/v1/thumbnail?panoid=ESqPi9_q1C8iCry8Olai3w&cb_client=maps_sv.tactile.gps&w=224&h=298&yaw=311.88467&pitch=0&thumbfov=100"
            },
            {
                "about": "Street View & 360deg",
                "link": "https://streetviewpixels-pa.googleapis.com/v1/thumbnail?panoid=ESqPi9_q1C8iCry8Olai3w&cb_client=maps_sv.tactile.gps&w=224&h=298&yaw=311.88467&pitch=0&thumbfov=100"
            }
        ],
        "link": "https://www.google.com/maps/place/Paranilam+Salafi+Masjid/data=!4m7!3m6!1s0x3ba65d1591508c13:0xae41027d93dba137!8m2!3d11.3363439!4d75.8755849!16s%2Fg%2F11g7217105!19sChIJE4xQkRVdpjsRN6Hbk30CQa4?authuser=0&hl=en&rclk=1",
        "coordinates": {
            "latitude": 11.3363439,
            "longitude": 75.87558489999999
        }
    },
    {
        "name": "Masjidul Rahman",
        "main_category": "Mosque",
        "address": "H93R+77F Masjidul Rahman, Choladi, Tamil Nadu 643225",
        "detailed_address": {
            "ward": null,
            "street": "H93R+77F",
            "city": "Choladi",
            "postal_code": "643225",
            "state": "Tamil Nadu",
            "country_code": "IN"
        },
        "images": [
            {
                "about": "All",
                "link": "https://lh5.googleusercontent.com/p/AF1QipPJ7XSXbPX1GyEbK0WQ5-kw-jUwcAT-BQwsuuMv=w224-h398-k-no"
            }
        ],
        "link": "https://www.google.com/maps/place/Masjidul+Rahman/data=!4m7!3m6!1s0x3ba61d0317a16db1:0x19f3aceecdd3d1c4!8m2!3d11.5532453!4d76.3900151!16s%2Fg%2F11pt_2btkb!19sChIJsW2hFwMdpjsRxNHTze6s8xk?authuser=0&hl=en&rclk=1",
        "coordinates": {
            "latitude": 11.553245299999999,
            "longitude": 76.3900151
        }
    },
    {
        "name": "Masjid-e-fazhlullah rah Ahlussunnath wal Jama'ath",
        "main_category": "Mosque",
        "address": "2VJ5+FJJ Masjid-e-fazhlullah rah Ahlussunnath wal Jama'ath, Kilacheri, Tamil Nadu 631402",
        "detailed_address": {
            "ward": null,
            "street": "2VJ5+FJJ",
            "city": "Kilacheri",
            "postal_code": "631402",
            "state": "Tamil Nadu",
            "country_code": "IN"
        },
        "images": [
            {
                "about": "All",
                "link": "https://streetviewpixels-pa.googleapis.com/v1/thumbnail?panoid=toITBX-narYL3lcK6914yw&cb_client=maps_sv.tactile.gps&w=224&h=298&yaw=347.68146&pitch=0&thumbfov=100"
            },
            {
                "about": "Street View & 360deg",
                "link": "https://streetviewpixels-pa.googleapis.com/v1/thumbnail?panoid=toITBX-narYL3lcK6914yw&cb_client=maps_sv.tactile.gps&w=224&h=298&yaw=347.68146&pitch=0&thumbfov=100"
            }
        ],
        "link": "https://www.google.com/maps/place/Masjid-e-fazhlullah+rah+Ahlussunnath+wal+Jama%27ath/data=!4m7!3m6!1s0x3a5293761a11f7d3:0x4d4ff48259d97fdb!8m2!3d13.0312076!4d79.8590173!16s%2Fg%2F11m9q4_fkb!19sChIJ0_cRGnaTUjoR23_ZWYL0T00?authuser=0&hl=en&rclk=1",
        "coordinates": {
            "latitude": 13.0312076,
            "longitude": 79.85901729999999
        }
    },
    {
        "name": "Masjid",
        "main_category": "Mosque",
        "address": "RCWQ+FCX Masjid, Thannada, Chala-Thannada-Chakkarakkal Rd, Chala, Kerala 670621",
        "detailed_address": {
            "ward": null,
            "street": "RCWQ+FCX, Thannada, Chala-Thannada-Chakkarakkal Rd",
            "city": "Chala",
            "postal_code": "670621",
            "state": "Kerala",
            "country_code": "IN"
        },
        "images": [
            {
                "about": "All",
                "link": "https://streetviewpixels-pa.googleapis.com/v1/thumbnail?panoid=tHczKJFOb5qN-gogJUE82w&cb_client=maps_sv.tactile.gps&w=224&h=298&yaw=118.585236&pitch=0&thumbfov=100"
            },
            {
                "about": "Street View & 360deg",
                "link": "https://streetviewpixels-pa.googleapis.com/v1/thumbnail?panoid=tHczKJFOb5qN-gogJUE82w&cb_client=maps_sv.tactile.gps&w=224&h=298&yaw=118.585236&pitch=0&thumbfov=100"
            }
        ],
        "link": "https://www.google.com/maps/place/Masjid/data=!4m7!3m6!1s0x3ba425555f2c3593:0x7b1c3f796d864388!8m2!3d11.8501005!4d75.4463301!16s%2Fg%2F11jt2b3njw!19sChIJkzUsX1UlpDsRiEOGbXk_HHs?authuser=0&hl=en&rclk=1",
        "coordinates": {
            "latitude": 11.8501005,
            "longitude": 75.4463301
        }
    },
    {
        "name": "Kuttichal",
        "main_category": null,
        "address": "Kuttichal, Kerala",
        "detailed_address": {
            "ward": null,
            "street": null,
            "city": "Kuttichal",
            "postal_code": null,
            "state": "Kerala",
            "country_code": "IN"
        },
        "images": [
            {
                "about": "All",
                "link": "https://lh5.googleusercontent.com/p/AF1QipPeP8QWGMTIl2suTksf1mkQBXv_vbLqv67rhMaW=w596-h298-k-no"
            },
            {
                "about": "Videos",
                "link": "https://lh5.googleusercontent.com/p/AF1QipMRX8-aKjJ3aMu6q1LGbbVDegpB85bpk-Oo9Vkw=w224-h398-k-no"
            }
        ],
        "link": "https://www.google.com/maps/place/Kuttichal/data=!4m7!3m6!1s0x3b05b42a0a76ccfb:0x62b8fbe1be01d7ef!8m2!3d8.5655404!4d77.099613!16s%2Fg%2F11bwyvwtm8!19sChIJ-8x2Ciq0BTsR79cBvuH7uGI?authuser=0&hl=en&rclk=1",
        "coordinates": {
            "latitude": 8.5655404,
            "longitude": 77.09961299999999
        }
    },
    {
        "name": "Khadariya masjid cheniyarakkal",
        "main_category": "Mosque",
        "address": "VC6P+CF4 Khadariya masjid cheniyarakkal, Unnamed Road, Chala West, Chala, Kerala 670621",
        "detailed_address": {
            "ward": "Chala West",
            "street": "VC6P+CF4, Unnamed Road",
            "city": "Chala",
            "postal_code": "670621",
            "state": "Kerala",
            "country_code": "IN"
        },
        "images": [
            {
                "about": "All",
                "link": "https://streetviewpixels-pa.googleapis.com/v1/thumbnail?panoid=nsv5PURrYArKUsIm4PtLuA&cb_client=maps_sv.tactile.gps&w=224&h=298&yaw=173.34775&pitch=0&thumbfov=100"
            },
            {
                "about": "Street View & 360deg",
                "link": "https://streetviewpixels-pa.googleapis.com/v1/thumbnail?panoid=nsv5PURrYArKUsIm4PtLuA&cb_client=maps_sv.tactile.gps&w=224&h=298&yaw=173.34775&pitch=0&thumbfov=100"
            }
        ],
        "link": "https://www.google.com/maps/place/Khadariya+masjid+cheniyarakkal/data=!4m7!3m6!1s0x3ba42534382b68fb:0x93dce7524c7fcb03!8m2!3d11.8610203!4d75.4361914!16s%2Fg%2F11pqzvx54p!19sChIJ-2grODQlpDsRA8t_TFLn3JM?authuser=0&hl=en&rclk=1",
        "coordinates": {
            "latitude": 11.8610203,
            "longitude": 75.4361914
        }
    },
    {
        "name": "Koyyod, kulangarakkandi masjid",
        "main_category": "Mosque",
        "address": "VC9Q+4RQ Koyyod, kulangarakkandi masjid, Chala East, Chala, Kerala 670621",
        "detailed_address": {
            "ward": "Chala East",
            "street": "VC9Q+4RQ",
            "city": "Chala",
            "postal_code": "670621",
            "state": "Kerala",
            "country_code": "IN"
        },
        "images": [
            {
                "about": "All",
                "link": "https://lh5.googleusercontent.com/p/AF1QipNezOV8rnpGiTrnBGf7qynr4m0n0Q4KIwXBMbf-=w224-h298-k-no"
            },
            {
                "about": "Street View & 360deg",
                "link": "https://streetviewpixels-pa.googleapis.com/v1/thumbnail?panoid=_S4J2_Ni3G2ivf3v57C_tQ&cb_client=maps_sv.tactile.gps&w=224&h=298&yaw=31.938782&pitch=0&thumbfov=100"
            }
        ],
        "link": "https://www.google.com/maps/place/Koyyod,+kulangarakkandi+masjid/data=!4m7!3m6!1s0x3ba425af152e0e13:0x4d5b5f9386775880!8m2!3d11.8673169!4d75.4400213!16s%2Fg%2F11q99gmx1z!19sChIJEw4uFa8lpDsRgFh3hpNfW00?authuser=0&hl=en&rclk=1",
        "coordinates": {
            "latitude": 11.867316899999999,
            "longitude": 75.4400213
        }
    },
    {
        "name": "Madrasa masjid road",
        "main_category": "Mosque",
        "address": "VF22+7WR Madrasa masjid road, Chala-Thannada-Chakkarakkal Rd, Chala, Kerala 670621",
        "detailed_address": {
            "ward": null,
            "street": "VF22+7WR, Chala-Thannada-Chakkarakkal Rd",
            "city": "Chala",
            "postal_code": "670621",
            "state": "Kerala",
            "country_code": "IN"
        },
        "images": [],
        "link": "https://www.google.com/maps/place/Madrasa+masjid+road/data=!4m7!3m6!1s0x3ba425dc6bc8e171:0x549258c0dbd93c05!8m2!3d11.8507402!4d75.4522569!16s%2Fg%2F11j97k92xs!19sChIJceHIa9wlpDsRBTzZ28BYklQ?authuser=0&hl=en&rclk=1",
        "coordinates": {
            "latitude": 11.850740199999999,
            "longitude": 75.4522569
        }
    },
    {
        "name": "Nagina masjid",
        "main_category": "Mosque",
        "address": "8Q5F+MG7 Nagina masjid, Chhala, Gujarat 382321",
        "detailed_address": {
            "ward": null,
            "street": "8Q5F+MG7",
            "city": "Chhala",
            "postal_code": "382321",
            "state": "Gujarat",
            "country_code": "IN"
        },
        "images": [
            {
                "about": "All",
                "link": "https://streetviewpixels-pa.googleapis.com/v1/thumbnail?panoid=4DzeY7hsZxXm8a-sIiHokQ&cb_client=maps_sv.tactile.gps&w=224&h=298&yaw=39.697014&pitch=0&thumbfov=100"
            },
            {
                "about": "Street View & 360deg",
                "link": "https://streetviewpixels-pa.googleapis.com/v1/thumbnail?panoid=4DzeY7hsZxXm8a-sIiHokQ&cb_client=maps_sv.tactile.gps&w=224&h=298&yaw=39.697014&pitch=0&thumbfov=100"
            }
        ],
        "link": "https://www.google.com/maps/place/Nagina+masjid/data=!4m7!3m6!1s0x395dd3fcdf2cbbb5:0xadcd49089a5a3c7c!8m2!3d23.3087243!4d72.7744899!16s%2Fg%2F11sr0k4wwx!19sChIJtbss3_zTXTkRfDxamghJza0?authuser=0&hl=en&rclk=1",
        "coordinates": {
            "latitude": 23.308724299999998,
            "longitude": 72.77448989999999
        }
    }
]