[
    {
        "name": "Noori Masjid",
        "main_category": "Mosque",
        "address": "6GJR+4H6 Noori Masjid, Bhatisalguda, Nowrangpur, Odisha 764059",
        "detailed_address": {
            "ward": "Bhatisalguda",
            "street": "6GJR+4H6",
            "city": "Nowrangpur",
            "postal_code": "764059",
            "state": "Odisha",
            "country_code": "IN"
        },
        "images": [
            {
                "about": "All",
                "link": "https://lh5.googleusercontent.com/p/AF1QipOZZQhaKh03KygkBfxSGE3EeXDTnEjgky7lAIab=w541-h298-k-no"
            },
            {
                "about": "Videos",
                "link": "https://lh5.googleusercontent.com/p/AF1QipOZZQhaKh03KygkBfxSGE3EeXDTnEjgky7lAIab=w541-h298-k-no"
            }
        ],
        "link": "https://www.google.com/maps/place/Noori+Masjid/data=!4m7!3m6!1s0x3a3ab7f4b3843281:0xaf2c2e22add68a28!8m2!3d19.2302957!4d82.5414!16s%2Fg%2F11g92lk6x5!19sChIJgTKEs_S3OjoRKIrWrSIuLK8?authuser=0&hl=en&rclk=1",
        "coordinates": {
            "latitude": 19.2302957,
            "longitude": 82.5414
        }
    },
    {
        "name": "Jama Masjid",
        "main_category": "Mosque",
        "address": "6GHX+3MJ Jama Masjid, Nowrangpur, Odisha 764059",
        "detailed_address": {
            "ward": null,
            "street": "6GHX+3MJ",
            "city": "Nowrangpur",
            "postal_code": "764059",
            "state": "Odisha",
            "country_code": "IN"
        },
        "images": [
            {
                "about": "All",
                "link": "https://lh5.googleusercontent.com/p/AF1QipNIju_hEj6z6ix4KRt-C4OPPAB73CojNf6eR9h4=w296-h298-k-no"
            },
            {
                "about": "Dome",
                "link": "https://lh5.googleusercontent.com/p/AF1QipPRaGKFW9tvyhoFPWQDqDQcURDZ-DUZ66fnGt2x=w224-h497-k-no"
            },
            {
                "about": "Street View & 360deg",
                "link": "https://streetviewpixels-pa.googleapis.com/v1/thumbnail?panoid=yqxFtK3YCNbxPgMRhAN4fA&cb_client=maps_sv.tactile.gps&w=224&h=298&yaw=148.71642&pitch=0&thumbfov=100"
            }
        ],
        "link": "https://www.google.com/maps/place/Jama+Masjid/data=!4m7!3m6!1s0x3a3ab72c0af284f1:0x1cbf503f08c09eef!8m2!3d19.2277245!4d82.549151!16s%2Fg%2F11txsjjfhn!19sChIJ8YTyCiy3OjoR757ACD9Qvxw?authuser=0&hl=en&rclk=1",
        "coordinates": {
            "latitude": 19.2277245,
            "longitude": 82.549151
        }
    },
    {
        "name": "Tsentralna dzhamiia na Novrangpur",
        "main_category": "Mosque",
        "address": "Tsentralna dzhamiia na Novrangpur, Jumma masjid, Masjid Road, Nowrangpur, Odisha 764059",
        "detailed_address": {
            "ward": null,
            "street": "Jumma masjid, Masjid Road",
            "city": "Nowrangpur",
            "postal_code": "764059",
            "state": "Odisha",
            "country_code": "IN"
        },
        "images": [],
        "link": "https://www.google.com/maps/place/%D0%A6%D0%B5%D0%BD%D1%82%D1%80%D0%B0%D0%BB%D0%BD%D0%B0+%D0%B4%D0%B6%D0%B0%D0%BC%D0%B8%D1%8F+%D0%BD%D0%B0+%D0%9D%D0%BE%D0%B2%D1%80%D0%B0%D0%BD%D0%B3%D0%BF%D1%83%D1%80/data=!4m7!3m6!1s0x3a3ab7f7afe55555:0xe7b275cc200b0cc9!8m2!3d19.229009!4d82.5489761!16s%2Fg%2F11fxb6v1qt!19sChIJVVXlr_e3OjoRyQwLIMx1suc?authuser=0&hl=en&rclk=1",
        "coordinates": {
            "latitude": 19.229008999999998,
            "longitude": 82.54897609999999
        }
    },
    {
        "name": "Jum'ah Masjid",
        "main_category": "Mosque",
        "address": "Jum'ah Masjid, Jumma masjid, Masjid Road, Nowrangpur, Odisha 764059",
        "detailed_address": {
            "ward": null,
            "street": "Jumma masjid, Masjid Road",
            "city": "Nowrangpur",
            "postal_code": "764059",
            "state": "Odisha",
            "country_code": "IN"
        },
        "images": [
            {
                "about": "All",
                "link": "https://lh5.googleusercontent.com/p/AF1QipO2-0bVWMjEyN_nhJ8wf7VFc6DM8kPkzVZXWF-Z=w284-h298-k-no"
            },
            {
                "about": "Dome",
                "link": "https://lh5.googleusercontent.com/p/AF1QipO2-0bVWMjEyN_nhJ8wf7VFc6DM8kPkzVZXWF-Z=w284-h298-k-no"
            }
        ],
        "link": "https://www.google.com/maps/place/Jum%27ah+Masjid/data=!4m7!3m6!1s0x3a3ab796b5a295e7:0x3a05baf4dc2ad99e!8m2!3d19.229009!4d82.5489761!16s%2Fg%2F11fn64y597!19sChIJ55WitZa3OjoRntkq3PS6BTo?authuser=0&hl=en&rclk=1",
        "coordinates": {
            "latitude": 19.229008999999998,
            "longitude": 82.54897609999999
        }
    },
    {
        "name": "Taragaon Sunni Hanafi Barelvi Masjid",
        "main_category": "Mosque",
        "address": "6GHX+3MJ Taragaon Sunni Hanafi Barelvi Masjid, Nowrangpur, Odisha 764059",
        "detailed_address": {
            "ward": null,
            "street": "6GHX+3MJ",
            "city": "Nowrangpur",
            "postal_code": "764059",
            "state": "Odisha",
            "country_code": "IN"
        },
        "images": [
            {
                "about": "All",
                "link": "https://streetviewpixels-pa.googleapis.com/v1/thumbnail?panoid=yqxFtK3YCNbxPgMRhAN4fA&cb_client=maps_sv.tactile.gps&w=224&h=298&yaw=148.69402&pitch=0&thumbfov=100"
            },
            {
                "about": "Street View & 360deg",
                "link": "https://streetviewpixels-pa.googleapis.com/v1/thumbnail?panoid=yqxFtK3YCNbxPgMRhAN4fA&cb_client=maps_sv.tactile.gps&w=224&h=298&yaw=148.69402&pitch=0&thumbfov=100"
            }
        ],
        "link": "https://www.google.com/maps/place/Taragaon+Sunni+Hanafi+Barelvi+Masjid/data=!4m7!3m6!1s0x3a3ab7cd335a049d:0xad18dceedd4b7a98!8m2!3d19.2277244!4d82.5491511!16s%2Fg%2F11vljmtf8t!19sChIJnQRaM823OjoRmHpL3e7cGK0?authuser=0&hl=en&rclk=1",
        "coordinates": {
            "latitude": 19.2277244,
            "longitude": 82.5491511
        }
    },
    {
        "name": "Mosque",
        "main_category": "Mosque",
        "address": "6GJX+FH5 Mosque, National Highway 201, Nowrangpur, Odisha 764059",
        "detailed_address": {
            "ward": null,
            "street": "6GJX+FH5, National Highway 201",
            "city": "Nowrangpur",
            "postal_code": "764059",
            "state": "Odisha",
            "country_code": "IN"
        },
        "images": [],
        "link": "https://www.google.com/maps/place/Mosque/data=!4m7!3m6!1s0x3a3ab7f7180fffff:0x4d88e1593af4f3f9!8m2!3d19.2311327!4d82.5489761!16s%2Fg%2F11tgg7r008!19sChIJ__8PGPe3OjoR-fP0OlnhiE0?authuser=0&hl=en&rclk=1",
        "coordinates": {
            "latitude": 19.2311327,
            "longitude": 82.54897609999999
        }
    }
]