[
    {
        "name": "Masjid sharief radaur",
        "main_category": "Mosque",
        "address": "24HW+X4J Masjid sharief radaur, Radaur, Haryana 135133",
        "detailed_address": {
            "ward": null,
            "street": "24HW+X4J",
            "city": "Radaur",
            "postal_code": "135133",
            "state": "Haryana",
            "country_code": "IN"
        },
        "images": [
            {
                "about": "All",
                "link": "https://lh5.googleusercontent.com/p/AF1QipOawnneOrp5PcDLdKJYZOmH2lUHP42jQ_avhYG8=w224-h298-k-no"
            },
            {
                "about": "Street View & 360deg",
                "link": "https://streetviewpixels-pa.googleapis.com/v1/thumbnail?panoid=KpORagqqR-1P7tdbUd8SBQ&cb_client=maps_sv.tactile.gps&w=224&h=298&yaw=317.4749&pitch=0&thumbfov=100"
            },
            {
                "about": "Videos",
                "link": "https://lh5.googleusercontent.com/p/AF1QipN8WA5lE2NsifQJvkHYwpFuriJaYEGlqJEbrxNI=w529-h298-k-no"
            }
        ],
        "link": "https://www.google.com/maps/place/Masjid+sharief+radaur/data=!4m7!3m6!1s0x390e595e7deb6513:0x6957734a7de4d86e!8m2!3d30.0299748!4d77.1452625!16s%2Fg%2F11h71kstw9!19sChIJE2XrfV5ZDjkRbtjkfUpzV2k?authuser=0&hl=en&rclk=1",
        "coordinates": {
            "latitude": 30.029974799999998,
            "longitude": 77.1452625
        }
    },
    {
        "name": "Mosque Dugari",
        "main_category": "Mosque",
        "address": "3345+CGG Mosque Dugari, Dugari, Haryana 136132",
        "detailed_address": {
            "ward": null,
            "street": "3345+CGG",
            "city": "Dugari",
            "postal_code": "136132",
            "state": "Haryana",
            "country_code": "IN"
        },
        "images": [
            {
                "about": "All",
                "link": "https://lh5.googleusercontent.com/p/AF1QipNHzcWDLj7dcIdxe8p5GvMmNZ1IhwahzAMFinxK=w397-h298-k-no"
            },
            {
                "about": "Dome",
                "link": "https://lh5.googleusercontent.com/p/AF1QipNHzcWDLj7dcIdxe8p5GvMmNZ1IhwahzAMFinxK=w397-h298-k-no"
            }
        ],
        "link": "https://www.google.com/maps/place/Mosque+Dugari/data=!4m7!3m6!1s0x390e5a62ddbc7281:0xdb96208bedbb140c!8m2!3d30.0560605!4d77.058843!16s%2Fg%2F11c6v54sjk!19sChIJgXK83WJaDjkRDBS77Ysglts?authuser=0&hl=en&rclk=1",
        "coordinates": {
            "latitude": 30.056060499999997,
            "longitude": 77.058843
        }
    },
    {
        "name": "Jama masjid",
        "main_category": "Mosque",
        "address": "479P+M97 Jama masjid, Radaur road, Rampura Industrial Area, Yamuna Nagar, Haryana 135001",
        "detailed_address": {
            "ward": "Rampura Industrial Area",
            "street": "479P+M97, Radaur road",
            "city": "Yamuna Nagar",
            "postal_code": null,
            "state": "Haryana",
            "country_code": "IN"
        },
        "images": [
            {
                "about": "All",
                "link": "https://lh5.googleusercontent.com/p/AF1QipOH9P3g4KaSUWfhH8bl1R-PmPdolDJW9-qVEtfp=w224-h298-k-no"
            },
            {
                "about": "Dome",
                "link": "https://lh5.googleusercontent.com/p/AF1QipMZQKyJc_7zh2OrC1w3Ls0JQAMCfhDYlL6HxGyK=w397-h298-k-no"
            },
            {
                "about": "Street View & 360deg",
                "link": "https://streetviewpixels-pa.googleapis.com/v1/thumbnail?panoid=o2tmMZOMVi22njiiLBAWEw&cb_client=maps_sv.tactile.gps&w=224&h=298&yaw=133.81009&pitch=0&thumbfov=100"
            }
        ],
        "link": "https://www.google.com/maps/place/Jama+masjid/data=!4m7!3m6!1s0x390ef9aa98990c8d:0x5a06fdbc8ab8a01b!8m2!3d30.1191615!4d77.2859306!16s%2Fg%2F11t1_n_8hs!19sChIJjQyZmKr5DjkRG6C4irz9Blo?authuser=0&hl=en&rclk=1",
        "coordinates": {
            "latitude": 30.119161499999997,
            "longitude": 77.2859306
        }
    },
    {
        "name": "Rajepur Mosque",
        "main_category": "Mosque",
        "address": "W447+C48 Rajepur Mosque, Rajepur, Haryana 132041",
        "detailed_address": {
            "ward": null,
            "street": "W447+C48",
            "city": "Rajepur",
            "postal_code": "132041",
            "state": "Haryana",
            "country_code": "IN"
        },
        "images": [
            {
                "about": "All",
                "link": "https://lh5.googleusercontent.com/p/AF1QipPJs4ypPFAAIATuN9qhl_J9AuXCTJ_YAg8Qgcc-=w224-h298-k-no"
            },
            {
                "about": "Dome",
                "link": "https://lh5.googleusercontent.com/p/AF1QipPZc5JUUFITd-rLqN9PuHEzzygD450c_48BJflA=w224-h298-k-no"
            },
            {
                "about": "Videos",
                "link": "https://lh5.googleusercontent.com/p/AF1QipN9U9ztb96nezFYmroTs8Kj9tlLzATCFRB9KEYe=w298-h298-k-no"
            }
        ],
        "link": "https://www.google.com/maps/place/Rajepur+Mosque/data=!4m7!3m6!1s0x390e5fa26bb5c4db:0x2a1a4153bf68adb8!8m2!3d29.906044!4d77.1128345!16s%2Fg%2F11j5g_0966!19sChIJ28S1a6JfDjkRuK1ov1NBGio?authuser=0&hl=en&rclk=1",
        "coordinates": {
            "latitude": 29.906043999999998,
            "longitude": 77.11283449999999
        }
    },
    {
        "name": "Masjid Raitkhana",
        "main_category": "Mosque",
        "address": "W2W5+24P Masjid Raitkhana, Raipur Roran - Bhadson - Ladwa Rd, Raitkhana, Haryana 132117",
        "detailed_address": {
            "ward": null,
            "street": "W2W5+24P, Raipur Roran - Bhadson - Ladwa Rd",
            "city": "Raitkhana",
            "postal_code": "132117",
            "state": "Haryana",
            "country_code": "IN"
        },
        "images": [
            {
                "about": "All",
                "link": "https://lh5.googleusercontent.com/p/AF1QipMXSdeMZUtMeup7tLgn0WSRHgqufmczEIxfVnB8=w224-h467-k-no"
            },
            {
                "about": "Videos",
                "link": "https://lh5.googleusercontent.com/p/AF1QipMemZBWfFTcUyrL7UQc-l1LL6n6RKTD4KmeRlPw=w529-h298-k-no"
            }
        ],
        "link": "https://www.google.com/maps/place/Masjid+Raitkhana/data=!4m7!3m6!1s0x390e43111842f849:0xbbf2d76c2b084907!8m2!3d29.9450916!4d77.0078432!16s%2Fg%2F11fl7bjbxh!19sChIJSfhCGBFDDjkRB0kIK2zX8rs?authuser=0&hl=en&rclk=1",
        "coordinates": {
            "latitude": 29.945091599999998,
            "longitude": 77.0078432
        }
    },
    {
        "name": "Municipal Committtee Ladwa",
        "main_category": "Municipal Corporation",
        "address": "Municipal Committtee Ladwa, indri road, SH 7,, Ladwa, Haryana 136132",
        "detailed_address": {
            "ward": null,
            "street": "indri road, SH 7,",
            "city": "Ladwa",
            "postal_code": "136132",
            "state": "Haryana",
            "country_code": "IN"
        },
        "images": [
            {
                "about": "All",
                "link": "https://streetviewpixels-pa.googleapis.com/v1/thumbnail?panoid=X62tCY_IKBQxZp3rSANwLg&cb_client=maps_sv.tactile.gps&w=224&h=298&yaw=258.137&pitch=0&thumbfov=100"
            },
            {
                "about": "Street View & 360deg",
                "link": "https://streetviewpixels-pa.googleapis.com/v1/thumbnail?panoid=X62tCY_IKBQxZp3rSANwLg&cb_client=maps_sv.tactile.gps&w=224&h=298&yaw=258.137&pitch=0&thumbfov=100"
            }
        ],
        "link": "https://www.google.com/maps/place/Municipal+Committtee+Ladwa/data=!4m7!3m6!1s0x390e5b73d1e2acc7:0xd65482eb5e7896d8!8m2!3d29.9946356!4d77.048167!16s%2Fg%2F11c0rnpvg6!19sChIJx6zi0XNbDjkR2JZ4XuuCVNY?authuser=0&hl=en&rclk=1",
        "coordinates": {
            "latitude": 29.9946356,
            "longitude": 77.04816699999999
        }
    },
    {
        "name": "Bari Masjid Ladwa",
        "main_category": "Mosque",
        "address": "GH43+3V3 Bari Masjid Ladwa, Ladwa, Uttar Pradesh 251311",
        "detailed_address": {
            "ward": null,
            "street": "GH43+3V3",
            "city": "Ladwa",
            "postal_code": "251311",
            "state": "Uttar Pradesh",
            "country_code": "IN"
        },
        "images": [
            {
                "about": "All",
                "link": "https://lh5.googleusercontent.com/p/AF1QipMWduy-XKsWztfIcqScsCjqVJaYGE4m2DUjEF0i=w224-h398-k-no"
            }
        ],
        "link": "https://www.google.com/maps/place/Bari+Masjid+Ladwa/data=!4m7!3m6!1s0x390c21e0ab2ab5cb:0x6113d653c3b28701!8m2!3d29.50514!4d77.554666!16s%2Fg%2F11qnrmynf2!19sChIJy7Uqq-AhDDkRAYeyw1PWE2E?authuser=0&hl=en&rclk=1",
        "coordinates": {
            "latitude": 29.505139999999997,
            "longitude": 77.554666
        }
    },
    {
        "name": "Badi Masjid",
        "main_category": "Mosque",
        "address": "GGJX+M94 Badi Masjid, Ladwa Rd, Kulheri, Khuledi, Uttar Pradesh 251311",
        "detailed_address": {
            "ward": null,
            "street": "GGJX+M94, Ladwa Rd",
            "city": "Kulheri, Khuledi",
            "postal_code": "251311",
            "state": "Uttar Pradesh",
            "country_code": "IN"
        },
        "images": [
            {
                "about": "All",
                "link": "https://lh5.googleusercontent.com/p/AF1QipPFNvhryxjQ9qOad3XD0TFQdsEPunvHRH59OYbR=w224-h407-k-no"
            },
            {
                "about": "Street View & 360deg",
                "link": "https://streetviewpixels-pa.googleapis.com/v1/thumbnail?panoid=QqHAMhq3tJb2NsYwfzTyrA&cb_client=maps_sv.tactile.gps&w=224&h=298&yaw=154.09946&pitch=0&thumbfov=100"
            },
            {
                "about": "Videos",
                "link": "https://lh5.googleusercontent.com/p/AF1QipONmU3qTVjl5jcuVwC3uANQWQxHlHIYuuw57n_-=w224-h407-k-no"
            }
        ],
        "link": "https://www.google.com/maps/place/Badi+Masjid/data=!4m7!3m6!1s0x390c21422ebecf4f:0x4bd2947a871edd3!8m2!3d29.5316427!4d77.5484528!16s%2Fg%2F11fsw09m01!19sChIJT8--LkIhDDkR0-1xqEcpvQQ?authuser=0&hl=en&rclk=1",
        "coordinates": {
            "latitude": 29.5316427,
            "longitude": 77.54845279999999
        }
    },
    {
        "name": "masjid garhi sadhan",
        "main_category": "Mosque",
        "address": "W25J+5XC masjid garhi sadhan, Garhi Sadhan, Haryana 132041",
        "detailed_address": {
            "ward": null,
            "street": "W25J+5XC",
            "city": "Garhi Sadhan",
            "postal_code": "132041",
            "state": "Haryana",
            "country_code": "IN"
        },
        "images": [
            {
                "about": "All",
                "link": "https://lh5.googleusercontent.com/p/AF1QipMA-Zjd5lBvL2fuZYLvxWeO3gBdrwtyAujaq8hA=w397-h298-k-no"
            }
        ],
        "link": "https://www.google.com/maps/place/masjid+garhi+sadhan/data=!4m7!3m6!1s0x390e5dea9c2d5757:0xb787af5e1eaba457!8m2!3d29.9079478!4d77.0324045!16s%2Fg%2F11g0w0bt07!19sChIJV1ctnOpdDjkRV6SrHl6vh7c?authuser=0&hl=en&rclk=1",
        "coordinates": {
            "latitude": 29.9079478,
            "longitude": 77.0324045
        }
    },
    {
        "name": "Nahjul blagah Masjid",
        "main_category": "Mosque",
        "address": "GH43+VRM Nahjul blagah Masjid, Ladwa Rd, Ladwa, Uttar Pradesh 251311",
        "detailed_address": {
            "ward": null,
            "street": "GH43+VRM, Ladwa Rd",
            "city": "Ladwa",
            "postal_code": "251311",
            "state": "Uttar Pradesh",
            "country_code": "IN"
        },
        "images": [
            {
                "about": "All",
                "link": "https://streetviewpixels-pa.googleapis.com/v1/thumbnail?panoid=QQy_hrBp6_ngTqWNZNA_TA&cb_client=maps_sv.tactile.gps&w=224&h=298&yaw=31.50102&pitch=0&thumbfov=100"
            },
            {
                "about": "Street View & 360deg",
                "link": "https://streetviewpixels-pa.googleapis.com/v1/thumbnail?panoid=QQy_hrBp6_ngTqWNZNA_TA&cb_client=maps_sv.tactile.gps&w=224&h=298&yaw=31.50102&pitch=0&thumbfov=100"
            },
            {
                "about": "Videos",
                "link": "https://lh5.googleusercontent.com/p/AF1QipMHyJRe5UKx2UupNxCKdbARIXzM47xqvl_17evf=w224-h398-k-no"
            }
        ],
        "link": "https://www.google.com/maps/place/Nahjul+blagah+Masjid/data=!4m7!3m6!1s0x390c21857d62dccd:0xa921474663760c98!8m2!3d29.5072226!4d77.5545364!16s%2Fg%2F11hlg8948p!19sChIJzdxifYUhDDkRmAx2Y0ZHIak?authuser=0&hl=en&rclk=1",
        "coordinates": {
            "latitude": 29.5072226,
            "longitude": 77.5545364
        }
    },
    {
        "name": "lauhaaro vaalii msjid / ",
        "main_category": "Mosque",
        "address": "GH43+3V3 lauhaaro vaalii msjid / , Saifiyaan St, Ladwa, Uttar Pradesh 251311",
        "detailed_address": {
            "ward": null,
            "street": "GH43+3V3, Saifiyaan St",
            "city": "Ladwa",
            "postal_code": "251311",
            "state": "Uttar Pradesh",
            "country_code": "IN"
        },
        "images": [],
        "link": "https://www.google.com/maps/place/%E0%A4%B2%E0%A5%8C%E0%A4%B9%E0%A4%BE%E0%A4%B0%E0%A5%8B+%E0%A4%B5%E0%A4%BE%E0%A4%B2%E0%A5%80+%E0%A4%AE%E0%A4%B8%E0%A5%8D%E0%A4%9C%E0%A4%BF%E0%A4%A6%E0%A5%A4/data=!4m7!3m6!1s0x390c218760e683db:0x12aaf35ffbe6c59e!8m2!3d29.5051319!4d77.5546655!16s%2Fg%2F11jprqhhhc!19sChIJ24PmYIchDDkRnsXm-1_zqhI?authuser=0&hl=en&rclk=1",
        "coordinates": {
            "latitude": 29.5051319,
            "longitude": 77.5546655
        }
    },
    {
        "name": "Astbali peer baba dargah",
        "main_category": "Hindu temple",
        "address": "XW49+3P8 Astbali peer baba dargah, Dherumajra, Shadipur Ladwa, Umri, Haryana 136131",
        "detailed_address": {
            "ward": "Dherumajra",
            "street": "XW49+3P8",
            "city": "Shadipur Ladwa, Umri",
            "postal_code": "136131",
            "state": "Haryana",
            "country_code": "IN"
        },
        "images": [
            {
                "about": "All",
                "link": "https://lh5.googleusercontent.com/p/AF1QipN-0udDqhaFCbDB5oJfBpgaOQK_0wAJGCOxV8ZC=w224-h485-k-no"
            },
            {
                "about": "Street View & 360deg",
                "link": "https://streetviewpixels-pa.googleapis.com/v1/thumbnail?panoid=Vyt7NmRE_cE2b6ZTrI7Wxg&cb_client=maps_sv.tactile.gps&w=224&h=298&yaw=186.12994&pitch=0&thumbfov=100"
            }
        ],
        "link": "https://www.google.com/maps/place/Astbali+peer+baba+dargah/data=!4m7!3m6!1s0x390e432f5c021467:0x67c1f886027415df!8m2!3d29.9551676!4d76.9193169!16s%2Fg%2F11jq730wht!19sChIJZxQCXC9DDjkR3xV0Aob4wWc?authuser=0&hl=en&rclk=1",
        "coordinates": {
            "latitude": 29.9551676,
            "longitude": 76.9193169
        }
    },
    {
        "name": "Jama masjid khedi",
        "main_category": "Mosque",
        "address": "23CM+2RM Jama masjid khedi, Kheri Dab Dalan, Haryana 136132",
        "detailed_address": {
            "ward": null,
            "street": "23CM+2RM",
            "city": "Kheri Dab Dalan",
            "postal_code": "136132",
            "state": "Haryana",
            "country_code": "IN"
        },
        "images": [],
        "link": "https://www.google.com/maps/place/Jama+masjid+khedi/data=!4m7!3m6!1s0x390e5bd164336885:0xec50cc8947dfa8bc!8m2!3d30.0198498!4d77.0858845!16s%2Fg%2F11v9mnrt6r!19sChIJhWgzZNFbDjkRvKjfR4nMUOw?authuser=0&hl=en&rclk=1",
        "coordinates": {
            "latitude": 30.0198498,
            "longitude": 77.08588449999999
        }
    },
    {
        "name": "Noorani jama masjid sangipur",
        "main_category": "Mosque",
        "address": "242F+3FW Noorani jama masjid sangipur, Sangipur, Dhaulra, Haryana 135133",
        "detailed_address": {
            "ward": null,
            "street": "242F+3FW",
            "city": "Sangipur, Dhaulra",
            "postal_code": null,
            "state": "Haryana",
            "country_code": "IN"
        },
        "images": [
            {
                "about": "All",
                "link": "https://lh5.googleusercontent.com/p/AF1QipN1yQ6QRyv9Mqza3rIKYs9fmdTsoDlKWpB0Zw-I=w224-h398-k-no"
            },
            {
                "about": "Videos",
                "link": "https://lh5.googleusercontent.com/p/AF1QipOfuIiHgSPvfSm0ZF3BekoIEm7BZGoDGZ1eVRrp=w224-h388-k-no"
            }
        ],
        "link": "https://www.google.com/maps/place/Noorani+jama+masjid+sangipur/data=!4m7!3m6!1s0x390e59bdc5556ced:0x8e1ba49dea4fba52!8m2!3d30.0002313!4d77.1236918!16s%2Fg%2F11sq1nfdyt!19sChIJ7WxVxb1ZDjkRUrpP6p2kG44?authuser=0&hl=en&rclk=1",
        "coordinates": {
            "latitude": 30.0002313,
            "longitude": 77.1236918
        }
    },
    {
        "name": "Masjid",
        "main_category": "Mosque",
        "address": "X4GG+V3H Masjid, Unnamed Road, Khurdban, Haryana 132054",
        "detailed_address": {
            "ward": null,
            "street": "X4GG+V3H, Unnamed Road",
            "city": "Khurdban",
            "postal_code": "132054",
            "state": "Haryana",
            "country_code": "IN"
        },
        "images": [],
        "link": "https://www.google.com/maps/place/Masjid/data=!4m7!3m6!1s0x390e5f69bae09b49:0x856667decf6b49d7!8m2!3d29.977175!4d77.1252266!16s%2Fg%2F11mr35_brq!19sChIJSZvgumlfDjkR10lrz95nZoU?authuser=0&hl=en&rclk=1",
        "coordinates": {
            "latitude": 29.977175,
            "longitude": 77.12522659999999
        }
    },
    {
        "name": "saiyad masjid",
        "main_category": "Mosque",
        "address": "GH54+6F4 saiyad masjid, Ladwa, Uttar Pradesh 251311",
        "detailed_address": {
            "ward": null,
            "street": "GH54+6F4",
            "city": "Ladwa",
            "postal_code": null,
            "state": "Uttar Pradesh",
            "country_code": "IN"
        },
        "images": [
            {
                "about": "All",
                "link": "https://streetviewpixels-pa.googleapis.com/v1/thumbnail?panoid=rmQmtJNE1YrMQ2JtIOOJGg&cb_client=maps_sv.tactile.gps&w=224&h=298&yaw=260.47476&pitch=0&thumbfov=100"
            },
            {
                "about": "Street View & 360deg",
                "link": "https://streetviewpixels-pa.googleapis.com/v1/thumbnail?panoid=rmQmtJNE1YrMQ2JtIOOJGg&cb_client=maps_sv.tactile.gps&w=224&h=298&yaw=260.47476&pitch=0&thumbfov=100"
            }
        ],
        "link": "https://www.google.com/maps/place/saiyad+masjid/data=!4m7!3m6!1s0x390c21b6e15463df:0xbdd5e9958aeb3fcb!8m2!3d29.5080059!4d77.55621!16s%2Fg%2F11hzx_5n5p!19sChIJ32NU4bYhDDkRyz_ripXp1b0?authuser=0&hl=en&rclk=1",
        "coordinates": {
            "latitude": 29.508005899999997,
            "longitude": 77.55621
        }
    },
    {
        "name": "Sangipur Masjid",
        "main_category": "Mosque",
        "address": "X4P7+RV4 Sangipur Masjid, Sangipur, Haryana 132054",
        "detailed_address": {
            "ward": null,
            "street": "X4P7+RV4",
            "city": "Sangipur",
            "postal_code": null,
            "state": "Haryana",
            "country_code": "IN"
        },
        "images": [],
        "link": "https://www.google.com/maps/place/Sangipur+Masjid/data=!4m7!3m6!1s0x390e5954ea1f6f2d:0x1db80316cf025745!8m2!3d29.9870009!4d77.1147176!16s%2Fg%2F11h7b49b8n!19sChIJLW8f6lRZDjkRRVcCzxYDuB0?authuser=0&hl=en&rclk=1",
        "coordinates": {
            "latitude": 29.987000899999998,
            "longitude": 77.11471759999999
        }
    },
    {
        "name": "Masjid nandi",
        "main_category": "Mosque",
        "address": "W4C9+GJW Masjid nandi, Nandi Rd, Nandi Khalsa, Haryana 132041",
        "detailed_address": {
            "ward": null,
            "street": "W4C9+GJW, Nandi Rd",
            "city": "Nandi Khalsa",
            "postal_code": "132041",
            "state": "Haryana",
            "country_code": "IN"
        },
        "images": [],
        "link": "https://www.google.com/maps/place/Masjid+nandi/data=!4m7!3m6!1s0x390e5f976daeaffd:0x5f72468544b10a2a!8m2!3d29.9213581!4d77.1190441!16s%2Fg%2F11svp3_h19!19sChIJ_a-ubZdfDjkRKgqxRIVGcl8?authuser=0&hl=en&rclk=1",
        "coordinates": {
            "latitude": 29.9213581,
            "longitude": 77.1190441
        }
    }
]