[
    {
        "name": "Mohamathiyar Pattinam Mosque",
        "main_category": "Mosque",
        "address": "Mohamathiyar Pattinam Mosque, Akbar Street, Alagapuri St, Mohamathiyar Pattinam, Devakottai, Tamil Nadu 630302",
        "detailed_address": {
            "ward": "Mohamathiyar Pattinam",
            "street": "Akbar Street, Alagapuri St",
            "city": "Devakottai",
            "postal_code": "630302",
            "state": "Tamil Nadu",
            "country_code": "IN"
        },
        "images": [
            {
                "about": "All",
                "link": "https://lh5.googleusercontent.com/p/AF1QipMZuM50Ss5My-qapoka7HpbzG__fXO7ZViFwtnE=w224-h298-k-no"
            },
            {
                "about": "Street View & 360deg",
                "link": "https://streetviewpixels-pa.googleapis.com/v1/thumbnail?panoid=R_SyubKb4NDvTfjeuKIcIg&cb_client=maps_sv.tactile.gps&w=224&h=298&yaw=143.04877&pitch=0&thumbfov=100"
            }
        ],
        "link": "https://www.google.com/maps/place/Mohamathiyar+Pattinam+Mosque/data=!4m7!3m6!1s0x3b005adf9e083839:0x942a159f1ebce2be!8m2!3d9.9361323!4d78.8185432!16s%2Fg%2F1hg4vzn7n!19sChIJOTgInt9aADsRvuK8Hp8VKpQ?authuser=0&hl=en&rclk=1",
        "coordinates": {
            "latitude": 9.936132299999999,
            "longitude": 78.8185432
        }
    },
    {
        "name": "Al Masjid Noor",
        "main_category": "Mosque",
        "address": "WRRF+88R Al Masjid Noor, Devakottai, Tamil Nadu 630302",
        "detailed_address": {
            "ward": null,
            "street": "WRRF+88R",
            "city": "Devakottai",
            "postal_code": "630302",
            "state": "Tamil Nadu",
            "country_code": "IN"
        },
        "images": [
            {
                "about": "All",
                "link": "https://lh5.googleusercontent.com/p/AF1QipNavigK7sa5n4qMovS3XXeaOxJF1wXtdK9bNEpF=w450-h298-k-no"
            },
            {
                "about": "Dome",
                "link": "https://lh5.googleusercontent.com/p/AF1QipNFiaBZiUoscLujMhl40oAtWgbwSa-XcoVDMvco=w450-h298-k-no"
            },
            {
                "about": "Street View & 360deg",
                "link": "https://streetviewpixels-pa.googleapis.com/v1/thumbnail?panoid=NSaTgvd54f9-ebKlQZDAqQ&cb_client=maps_sv.tactile.gps&w=224&h=298&yaw=150.13786&pitch=0&thumbfov=100"
            }
        ],
        "link": "https://www.google.com/maps/place/Al+Masjid+Noor/data=!4m7!3m6!1s0x3b005b26ef9875c1:0xf84333c23dce1f23!8m2!3d9.9408621!4d78.8232595!16s%2Fg%2F11bxf3k0h9!19sChIJwXWY7yZbADsRIx_OPcIzQ_g?authuser=0&hl=en&rclk=1",
        "coordinates": {
            "latitude": 9.9408621,
            "longitude": 78.82325949999999
        }
    },
    {
        "name": "Devakottai thowheed jamath",
        "main_category": "Mosque",
        "address": "WRRF+6JV Devakottai thowheed jamath, Othakkadai, Devakottai, Tamil Nadu 630302",
        "detailed_address": {
            "ward": "Othakkadai",
            "street": "WRRF+6JV",
            "city": "Devakottai",
            "postal_code": "630302",
            "state": "Tamil Nadu",
            "country_code": "IN"
        },
        "images": [
            {
                "about": "All",
                "link": "https://lh5.googleusercontent.com/p/AF1QipNj5Upu1mJcOPub0B65mvnO90-UhszSrowvvi-g=w224-h398-k-no"
            },
            {
                "about": "Street View & 360deg",
                "link": "https://streetviewpixels-pa.googleapis.com/v1/thumbnail?panoid=CjBJ7izaTJ97lnSKqPvMNQ&cb_client=maps_sv.tactile.gps&w=224&h=298&yaw=57.83314&pitch=0&thumbfov=100"
            }
        ],
        "link": "https://www.google.com/maps/place/Devakottai+thowheed+jamath/data=!4m7!3m6!1s0x3b005b26f88e1db3:0xac8f65fb78f658fa!8m2!3d9.9406237!4d78.8240454!16s%2Fg%2F11ddzqf4n0!19sChIJsx2O-CZbADsR-lj2ePtlj6w?authuser=0&hl=en&rclk=1",
        "coordinates": {
            "latitude": 9.9406237,
            "longitude": 78.8240454
        }
    },
    {
        "name": "Masjidul aqsa Jumma Pallivasal-kannankottai",
        "main_category": "Mosque",
        "address": "XQ4V+VR7 Masjidul aqsa Jumma Pallivasal-kannankottai, Ramnagar, Devakottai, Tamil Nadu 630302",
        "detailed_address": {
            "ward": "Ramnagar",
            "street": "XQ4V+VR7",
            "city": "Devakottai",
            "postal_code": "630302",
            "state": "Tamil Nadu",
            "country_code": "IN"
        },
        "images": [
            {
                "about": "All",
                "link": "https://lh5.googleusercontent.com/p/AF1QipNhFVA-bR268t4u17cLjM7oE-qQ4yvxU9tKe4Rm=w234-h298-k-no"
            }
        ],
        "link": "https://www.google.com/maps/place/Masjidul+aqsa+Jumma+Pallivasal-kannankottai/data=!4m7!3m6!1s0x3b005bd5caa27e33:0x113b14d45e02bd78!8m2!3d9.9571556!4d78.7945336!16s%2Fg%2F11qr0jh51k!19sChIJM36iytVbADsReL0CXtQUOxE?authuser=0&hl=en&rclk=1",
        "coordinates": {
            "latitude": 9.9571556,
            "longitude": 78.7945336
        }
    },
    {
        "name": "iitkaa jumuaa pllllivaacl raamnkr",
        "main_category": "Mosque",
        "address": "XR74+796 iitkaa jumuaa pllllivaacl raamnkr, Ramnagar, Devakottai, Tamil Nadu 630302",
        "detailed_address": {
            "ward": "Ramnagar",
            "street": "XR74+796",
            "city": "Devakottai",
            "postal_code": "630302",
            "state": "Tamil Nadu",
            "country_code": "IN"
        },
        "images": [
            {
                "about": "All",
                "link": "https://lh5.googleusercontent.com/p/AF1QipOZsA5ob8q35zxy3VUOZpuKXyGTV-uMnQW7szOQ=w224-h398-k-no"
            },
            {
                "about": "Street View & 360deg",
                "link": "https://streetviewpixels-pa.googleapis.com/v1/thumbnail?panoid=WTTi9wGq2aHZb14JPdklSg&cb_client=maps_sv.tactile.gps&w=224&h=298&yaw=230.13554&pitch=0&thumbfov=100"
            }
        ],
        "link": "https://www.google.com/maps/place/%E0%AE%88%E0%AE%A4%E0%AF%8D%E0%AE%95%E0%AE%BE+%E0%AE%9C%E0%AF%81%E0%AE%AE%E0%AF%81%E0%AE%86+%E0%AE%AA%E0%AE%B3%E0%AF%8D%E0%AE%B3%E0%AE%BF%E0%AE%B5%E0%AE%BE%E0%AE%9A%E0%AE%B2%E0%AF%8D+%E0%AE%B0%E0%AE%BE%E0%AE%AE%E0%AF%8D%E0%AE%A8%E0%AE%95%E0%AE%B0%E0%AF%8D/data=!4m7!3m6!1s0x3b005b1c71600015:0x2201977ef9482257!8m2!3d9.9631744!4d78.805894!16s%2Fg%2F11gk6h6s45!19sChIJFQBgcRxbADsRVyJI-X6XASI?authuser=0&hl=en&rclk=1",
        "coordinates": {
            "latitude": 9.9631744,
            "longitude": 78.805894
        }
    },
    {
        "name": "mosque",
        "main_category": "Mosque",
        "address": "WRWC+Q5X mosque, Unnamed Road, Devakottai, Tamil Nadu 630302",
        "detailed_address": {
            "ward": null,
            "street": "WRWC+Q5X, Unnamed Road",
            "city": "Devakottai",
            "postal_code": "630302",
            "state": "Tamil Nadu",
            "country_code": "IN"
        },
        "images": [],
        "link": "https://www.google.com/maps/place/mosque/data=!4m7!3m6!1s0x3b005b3a9f2bb2ad:0x41d23ed52adf3828!8m2!3d9.9469755!4d78.8204948!16s%2Fg%2F11h7nbg6vm!19sChIJrbIrnzpbADsRKDjfKtU-0kE?authuser=0&hl=en&rclk=1",
        "coordinates": {
            "latitude": 9.946975499999999,
            "longitude": 78.82049479999999
        }
    }
]