[
    {
        "name": "Masjid-E-Taneem",
        "main_category": "Mosque",
        "address": "MG8P+GJ2 Masjid-E-Taneem, Shanti Nagar, Adilabad, Telangana 504001",
        "detailed_address": {
            "ward": "Shanti Nagar",
            "street": "MG8P+GJ2",
            "city": "Adilabad",
            "postal_code": "504001",
            "state": "Telangana",
            "country_code": "IN"
        },
        "images": [
            {
                "about": "All",
                "link": "https://lh5.googleusercontent.com/p/AF1QipOjd7lpNq766UGNulmzlHg2qYiqx3wfnRbcdNIB=w397-h298-k-no"
            },
            {
                "about": "Street View & 360deg",
                "link": "https://streetviewpixels-pa.googleapis.com/v1/thumbnail?panoid=_rund3yhKX-QH7zmQQiQhQ&cb_client=maps_sv.tactile.gps&w=224&h=298&yaw=15.704543&pitch=0&thumbfov=100"
            },
            {
                "about": "Videos",
                "link": "https://lh5.googleusercontent.com/p/AF1QipPIR-8DYBZRom8Csi00twsBGPz0NV2-Uqjx-o1F=w224-h398-k-no"
            }
        ],
        "link": "https://www.google.com/maps/place/Masjid-E-Taneem/data=!4m7!3m6!1s0x3bd25c7196951817:0xe1695f659d337d7!8m2!3d19.6662707!4d78.5365283!16s%2Fg%2F11c52zx1f3!19sChIJFxiVlnFc0jsR1zfTWfaVFg4?authuser=0&hl=en&rclk=1",
        "coordinates": {
            "latitude": 19.6662707,
            "longitude": 78.5365283
        }
    },
    {
        "name": "Masjid E Abubaker",
        "main_category": "Mosque",
        "address": "MG8V+54F Masjid E Abubaker, Shanti Nagar, Adilabad, Telangana 504001",
        "detailed_address": {
            "ward": "Shanti Nagar",
            "street": "MG8V+54F",
            "city": "Adilabad",
            "postal_code": "504001",
            "state": "Telangana",
            "country_code": "IN"
        },
        "images": [
            {
                "about": "All",
                "link": "https://lh5.googleusercontent.com/p/AF1QipNsiv3Zwshd4f2vzPKsjvZ2xjudRyZrKNnp9bDn=w224-h298-k-no"
            },
            {
                "about": "Street View & 360deg",
                "link": "https://streetviewpixels-pa.googleapis.com/v1/thumbnail?panoid=dEarHw3mXpnMVH5WKtI28g&cb_client=maps_sv.tactile.gps&w=224&h=298&yaw=200.17949&pitch=0&thumbfov=100"
            }
        ],
        "link": "https://www.google.com/maps/place/Masjid+E+Abubaker/data=!4m7!3m6!1s0x3bd25c72afd994d1:0x55e84f035f33b282!8m2!3d19.6654385!4d78.542794!16s%2Fg%2F11c1wsmygw!19sChIJ0ZTZr3Jc0jsRgrIzXwNP6FU?authuser=0&hl=en&rclk=1",
        "coordinates": {
            "latitude": 19.6654385,
            "longitude": 78.542794
        }
    },
    {
        "name": "Jama Masjid",
        "main_category": "Mosque",
        "address": "9WF4+RQQ Jama Masjid, Jainoor, Telangana 504313",
        "detailed_address": {
            "ward": null,
            "street": "9WF4+RQQ",
            "city": "Jainoor",
            "postal_code": "504313",
            "state": "Telangana",
            "country_code": "IN"
        },
        "images": [],
        "link": "https://www.google.com/maps/place/Jama+Masjid/data=!4m7!3m6!1s0x3bd29a35900ac135:0x7391ef599ce08a2c!8m2!3d19.3745916!4d78.9069837!16s%2Fg%2F11f34m3m7b!19sChIJNcEKkDWa0jsRLIrgnFnvkXM?authuser=0&hl=en&rclk=1",
        "coordinates": {
            "latitude": 19.3745916,
            "longitude": 78.9069837
        }
    },
    {
        "name": "Madina Masjid mdynh msjd",
        "main_category": "Mosque",
        "address": "MGCJ+GX8 Madina Masjid mdynh msjd, Netaji Chowk Rd, Ponnar, Bhuktapur, Telangana 504001",
        "detailed_address": {
            "ward": "Ponnar",
            "street": "MGCJ+GX8, Netaji Chowk Rd",
            "city": "Bhuktapur",
            "postal_code": "504001",
            "state": "Telangana",
            "country_code": "IN"
        },
        "images": [
            {
                "about": "All",
                "link": "https://lh5.googleusercontent.com/p/AF1QipMWINhWWSM6sWFYsp8l5BhDXmBVOB76eNAy8eKJ=w398-h298-k-no"
            },
            {
                "about": "Street View & 360deg",
                "link": "https://streetviewpixels-pa.googleapis.com/v1/thumbnail?panoid=izndpRO5k42XE5yRf7yBCQ&cb_client=maps_sv.tactile.gps&w=224&h=298&yaw=149.60033&pitch=0&thumbfov=100"
            }
        ],
        "link": "https://www.google.com/maps/place/Madina+Masjid+%D9%85%D8%AF%DB%8C%D9%86%DB%81+%D9%85%D8%B3%D8%AC%D8%AF%E2%80%AD/data=!4m7!3m6!1s0x3bd25c7742dd0b05:0xf2fb259a889bfa78!8m2!3d19.6712846!4d78.5324561!16s%2Fg%2F11fzzxxq7l!19sChIJBQvdQndc0jsRePqbiJol-_I?authuser=0&hl=en&rclk=1",
        "coordinates": {
            "latitude": 19.6712846,
            "longitude": 78.53245609999999
        }
    },
    {
        "name": "Abubakr masjid",
        "main_category": "Mosque",
        "address": "MG8R+J7F Abubakr masjid, Shanti Nagar, Adilabad, Telangana 504001",
        "detailed_address": {
            "ward": "Shanti Nagar",
            "street": "MG8R+J7F",
            "city": "Adilabad",
            "postal_code": "504001",
            "state": "Telangana",
            "country_code": "IN"
        },
        "images": [
            {
                "about": "All",
                "link": "https://streetviewpixels-pa.googleapis.com/v1/thumbnail?panoid=7W0Fn5dGcp4ikKPMoNJ_5g&cb_client=maps_sv.tactile.gps&w=224&h=298&yaw=298.6791&pitch=0&thumbfov=100"
            },
            {
                "about": "Street View & 360deg",
                "link": "https://streetviewpixels-pa.googleapis.com/v1/thumbnail?panoid=7W0Fn5dGcp4ikKPMoNJ_5g&cb_client=maps_sv.tactile.gps&w=224&h=298&yaw=298.6791&pitch=0&thumbfov=100"
            }
        ],
        "link": "https://www.google.com/maps/place/Abubakr+masjid/data=!4m7!3m6!1s0x3bd25c72f6f46bc9:0xcd16458f413f5d2e!8m2!3d19.6665675!4d78.5406681!16s%2Fg%2F11c607nzf4!19sChIJyWv09nJc0jsRLl0_QY9FFs0?authuser=0&hl=en&rclk=1",
        "coordinates": {
            "latitude": 19.6665675,
            "longitude": 78.54066809999999
        }
    },
    {
        "name": "Masjid E Hassan",
        "main_category": "Mosque",
        "address": "MG8V+QPM Masjid E Hassan, Unnamed Road, Shanti Nagar, Adilabad, Telangana 504001",
        "detailed_address": {
            "ward": "Shanti Nagar",
            "street": "MG8V+QPM, Unnamed Road",
            "city": "Adilabad",
            "postal_code": "504001",
            "state": "Telangana",
            "country_code": "IN"
        },
        "images": [
            {
                "about": "All",
                "link": "https://lh5.googleusercontent.com/p/AF1QipNcCdBHd2u0QKYhnYOap8So5e8L-ozFhrsaHQOq=w529-h298-k-no"
            },
            {
                "about": "Street View & 360deg",
                "link": "https://streetviewpixels-pa.googleapis.com/v1/thumbnail?panoid=WR7kBMdmy-IwAQnXtIeppg&cb_client=maps_sv.tactile.gps&w=224&h=298&yaw=254.96767&pitch=0&thumbfov=100"
            }
        ],
        "link": "https://www.google.com/maps/place/Masjid+E+Hassan/data=!4m7!3m6!1s0x3bd25c0d29000079:0xa0cc092090b96993!8m2!3d19.6669651!4d78.5443022!16s%2Fg%2F11dfk_8lt4!19sChIJeQAAKQ1c0jsRk2m5kCAJzKA?authuser=0&hl=en&rclk=1",
        "coordinates": {
            "latitude": 19.6669651,
            "longitude": 78.54430219999999
        }
    },
    {
        "name": "MASJID E MAHEBOOB E SUBHANI ( Markaz e Ahle Sunnat )",
        "main_category": "Mosque",
        "address": "MASJID E MAHEBOOB E SUBHANI ( Markaz e Ahle Sunnat ), Sanjay Nagar, Adilabad, Telangana 504001",
        "detailed_address": {
            "ward": "Sanjay Nagar",
            "street": null,
            "city": "Adilabad",
            "postal_code": "504001",
            "state": "Telangana",
            "country_code": "IN"
        },
        "images": [
            {
                "about": "All",
                "link": "https://lh5.googleusercontent.com/p/AF1QipMlwz7smo28ZWEXg1jMPA9Dpib4x1Z-2veJVFr0=w496-h298-k-no"
            },
            {
                "about": "Street View & 360deg",
                "link": "https://streetviewpixels-pa.googleapis.com/v1/thumbnail?panoid=OENBtuySPakKgIUrlZOB9w&cb_client=maps_sv.tactile.gps&w=224&h=298&yaw=329.89136&pitch=0&thumbfov=100"
            }
        ],
        "link": "https://www.google.com/maps/place/MASJID+E+MAHEBOOB+E+SUBHANI+%28+Markaz+e+Ahle+Sunnat+%29/data=!4m7!3m6!1s0x3bd25c7cd0000001:0xe56e990e56fe962c!8m2!3d19.6669356!4d78.5213162!16s%2Fg%2F11c2kk77hk!19sChIJAQAA0Hxc0jsRLJb-Vg6ZbuU?authuser=0&hl=en&rclk=1",
        "coordinates": {
            "latitude": 19.6669356,
            "longitude": 78.5213162
        }
    },
    {
        "name": "Masjid",
        "main_category": "Mosque",
        "address": "HFPR+4Q8 Masjid, Adilabad, Telangana 504308",
        "detailed_address": {
            "ward": null,
            "street": "HFPR+4Q8",
            "city": "Adilabad",
            "postal_code": "504308",
            "state": "Telangana",
            "country_code": "IN"
        },
        "images": [
            {
                "about": "All",
                "link": "https://lh5.googleusercontent.com/p/AF1QipNvJQyqZpn3jEbdVvd3A6J1FaPdHk-Ga-1NYWdZ=w529-h298-k-no"
            },
            {
                "about": "Street View & 360deg",
                "link": "https://streetviewpixels-pa.googleapis.com/v1/thumbnail?panoid=4Cb0BpShGN-3qJrXDKRbow&cb_client=maps_sv.tactile.gps&w=224&h=298&yaw=265.60995&pitch=0&thumbfov=100"
            }
        ],
        "link": "https://www.google.com/maps/place/Masjid/data=!4m7!3m6!1s0x3bd25d5bfe1eb429:0x753a217332ff9baa!8m2!3d19.5852914!4d78.4919588!16s%2Fg%2F11dxq2d28t!19sChIJKbQe_ltd0jsRqpv_MnMhOnU?authuser=0&hl=en&rclk=1",
        "coordinates": {
            "latitude": 19.5852914,
            "longitude": 78.49195879999999
        }
    },
    {
        "name": "Masjid e Bilala",
        "main_category": "Mosque",
        "address": "Masjid e Bilala, Adilabad-Asifabad Rd, Jainoor, Telangana 504313",
        "detailed_address": {
            "ward": null,
            "street": "Adilabad-Asifabad Rd",
            "city": "Jainoor",
            "postal_code": "504313",
            "state": "Telangana",
            "country_code": "IN"
        },
        "images": [
            {
                "about": "All",
                "link": "https://lh5.googleusercontent.com/p/AF1QipPrT3QJ9RL-Bce0k5QY-aYY3DzEabo_HLhH0fys=w397-h298-k-no"
            },
            {
                "about": "By owner",
                "link": "https://lh5.googleusercontent.com/p/AF1QipN1YKm-SB7UnN3dLhzYBVnoGdFwOK4HsVBJ1o1d=w397-h298-k-no"
            },
            {
                "about": "Street View & 360deg",
                "link": "https://streetviewpixels-pa.googleapis.com/v1/thumbnail?panoid=oXi_1U0A8V0tvjzlrjwiCw&cb_client=maps_sv.tactile.gps&w=224&h=298&yaw=10.859192&pitch=0&thumbfov=100"
            }
        ],
        "link": "https://www.google.com/maps/place/Masjid+e+Bilala/data=!4m7!3m6!1s0x3bd29bb7204a9e0f:0x706dab2553f72b79!8m2!3d19.3750134!4d78.9120455!16s%2Fg%2F11f6qq3rwz!19sChIJD55KILeb0jsReSv3UyWrbXA?authuser=0&hl=en&rclk=1",
        "coordinates": {
            "latitude": 19.3750134,
            "longitude": 78.91204549999999
        }
    },
    {
        "name": "masjid e noor",
        "main_category": "Mosque",
        "address": "MG4Q+H92 masjid e noor, Sri Rama Colony, Adilabad, Telangana 504001",
        "detailed_address": {
            "ward": "Sri Rama Colony",
            "street": "MG4Q+H92",
            "city": "Adilabad",
            "postal_code": "504001",
            "state": "Telangana",
            "country_code": "IN"
        },
        "images": [
            {
                "about": "All",
                "link": "https://streetviewpixels-pa.googleapis.com/v1/thumbnail?panoid=4b8mR5XHOU1VveslwwKjJQ&cb_client=maps_sv.tactile.gps&w=224&h=298&yaw=150.0055&pitch=0&thumbfov=100"
            },
            {
                "about": "Street View & 360deg",
                "link": "https://streetviewpixels-pa.googleapis.com/v1/thumbnail?panoid=4b8mR5XHOU1VveslwwKjJQ&cb_client=maps_sv.tactile.gps&w=224&h=298&yaw=150.0055&pitch=0&thumbfov=100"
            }
        ],
        "link": "https://www.google.com/maps/place/masjid+e+noor/data=!4m7!3m6!1s0x3bd25c6bd009a42f:0x83777eaad70e454d!8m2!3d19.6563983!4d78.5384053!16s%2Fg%2F11c5t1smfj!19sChIJL6QJ0Gtc0jsRTUUO16p-d4M?authuser=0&hl=en&rclk=1",
        "coordinates": {
            "latitude": 19.6563983,
            "longitude": 78.5384053
        }
    },
    {
        "name": "Jama Masjid",
        "main_category": "Mosque",
        "address": "GJ2X+6JW Jama Masjid, Keslaguda, Telangana 504346",
        "detailed_address": {
            "ward": null,
            "street": "GJ2X+6JW",
            "city": "Keslaguda",
            "postal_code": "504346",
            "state": "Telangana",
            "country_code": "IN"
        },
        "images": [
            {
                "about": "All",
                "link": "https://lh5.googleusercontent.com/p/AF1QipN0HZ51NRJkhkwSqN51m6sbD_Y7qWZ52LqyBxAQ=w224-h398-k-no"
            }
        ],
        "link": "https://www.google.com/maps/place/Jama+Masjid/data=!4m7!3m6!1s0x3bd261f970258be5:0x54b1787a0dcfac1b!8m2!3d19.5006085!4d78.6490645!16s%2Fg%2F11b6c8wzlm!19sChIJ5YslcPlh0jsRG6zPDXp4sVQ?authuser=0&hl=en&rclk=1",
        "coordinates": {
            "latitude": 19.5006085,
            "longitude": 78.6490645
        }
    },
    {
        "name": "Jama Masjid",
        "main_category": "Mosque",
        "address": "Jama Masjid, Bus Station, Old, Utnur, Telangana 504311",
        "detailed_address": {
            "ward": "Sevadas Nagar",
            "street": "Bus Station, Old",
            "city": "Utnur",
            "postal_code": "504311",
            "state": "Telangana",
            "country_code": "IN"
        },
        "images": [
            {
                "about": "All",
                "link": "https://lh5.googleusercontent.com/p/AF1QipNgXmzFIiNb7KaR81NcbxAJRB6oTxPerNoIubTa=w224-h398-k-no"
            },
            {
                "about": "Street View & 360deg",
                "link": "https://streetviewpixels-pa.googleapis.com/v1/thumbnail?panoid=nj6ibS_16-ovKF3omhppBw&cb_client=maps_sv.tactile.gps&w=224&h=298&yaw=312.1434&pitch=0&thumbfov=100"
            }
        ],
        "link": "https://www.google.com/maps/place/Jama+Masjid/data=!4m7!3m6!1s0x3bd285b42543f7db:0xfbc9083caa3eda41!8m2!3d19.3679744!4d78.7738921!16s%2Fg%2F11c2p12cr7!19sChIJ2_dDJbSF0jsRQdo-qjwIyfs?authuser=0&hl=en&rclk=1",
        "coordinates": {
            "latitude": 19.367974399999998,
            "longitude": 78.7738921
        }
    },
    {
        "name": "Masjid-E-Mohammadiya",
        "main_category": "Mosque",
        "address": "Masjid-E-Mohammadiya, 1, Nirmal - Mancherial Rd, Jannaram, Telangana 504205",
        "detailed_address": {
            "ward": null,
            "street": "1, Nirmal - Mancherial Rd",
            "city": "Jannaram",
            "postal_code": "504205",
            "state": "Telangana",
            "country_code": "IN"
        },
        "images": [],
        "link": "https://www.google.com/maps/place/Masjid-E-Mohammadiya/data=!4m7!3m6!1s0x3bcd673fccaa4f81:0xf85ddfa7fa77cdbb!8m2!3d19.1192404!4d78.9938765!16s%2Fg%2F11byvwzk4r!19sChIJgU-qzD9nzTsRu813-qffXfg?authuser=0&hl=en&rclk=1",
        "coordinates": {
            "latitude": 19.1192404,
            "longitude": 78.9938765
        }
    },
    {
        "name": "Masjid E Namrah",
        "main_category": "Mosque",
        "address": "MGGM+7CV Masjid E Namrah, Ambedkar Chowk, Bhuktapur, Telangana 504001",
        "detailed_address": {
            "ward": null,
            "street": "MGGM+7CV, Ambedkar Chowk",
            "city": "Bhuktapur",
            "postal_code": null,
            "state": "Telangana",
            "country_code": "IN"
        },
        "images": [
            {
                "about": "All",
                "link": "https://streetviewpixels-pa.googleapis.com/v1/thumbnail?panoid=YibEOZNMQ1nXdYc_GbW58Q&cb_client=maps_sv.tactile.gps&w=224&h=298&yaw=335.1761&pitch=0&thumbfov=100"
            },
            {
                "about": "Street View & 360deg",
                "link": "https://streetviewpixels-pa.googleapis.com/v1/thumbnail?panoid=YibEOZNMQ1nXdYc_GbW58Q&cb_client=maps_sv.tactile.gps&w=224&h=298&yaw=335.1761&pitch=0&thumbfov=100"
            }
        ],
        "link": "https://www.google.com/maps/place/Masjid+E+Namrah/data=!4m7!3m6!1s0x3bd25b8829cd21e7:0xb871a2b68c3b292c!8m2!3d19.6757458!4d78.5335363!16s%2Fg%2F11b6v0h3n3!19sChIJ5yHNKYhb0jsRLCk7jLaicbg?authuser=0&hl=en&rclk=1",
        "coordinates": {
            "latitude": 19.675745799999998,
            "longitude": 78.5335363
        }
    },
    {
        "name": "Masjid-E-Noor",
        "main_category": "Mosque",
        "address": "9Q8G+JJX Masjid-E-Noor, Mominpura, Sevadas Nagar, Utnur, Telangana 504311",
        "detailed_address": {
            "ward": "Mominpura, Sevadas Nagar",
            "street": "9Q8G+JJX",
            "city": "Utnur",
            "postal_code": null,
            "state": "Telangana",
            "country_code": "IN"
        },
        "images": [
            {
                "about": "All",
                "link": "https://lh5.googleusercontent.com/p/AF1QipNajQqlfnJmgDhkLWN5j0qMRT74Wqxx1B-QTcM=w529-h298-k-no"
            }
        ],
        "link": "https://www.google.com/maps/place/Masjid-E-Noor/data=!4m7!3m6!1s0x3bd285b3f2afb185:0x2ec78038b9f918ae!8m2!3d19.3675545!4d78.7769558!16s%2Fg%2F1pp2tk8bd!19sChIJhbGv8rOF0jsRrhj5uTiAxy4?authuser=0&hl=en&rclk=1",
        "coordinates": {
            "latitude": 19.3675545,
            "longitude": 78.7769558
        }
    },
    {
        "name": "NOORANI JAMA MASJID",
        "main_category": "Mosque",
        "address": "NOORANI JAMA MASJID, Narnoor, Telangana 504311",
        "detailed_address": {
            "ward": null,
            "street": null,
            "city": "Narnoor",
            "postal_code": "504311",
            "state": "Telangana",
            "country_code": "IN"
        },
        "images": [
            {
                "about": "All",
                "link": "https://lh5.googleusercontent.com/p/AF1QipOiXfDy-GPPSsDtDVhLTyiCUQ1ZqshlCukN1InT=w224-h298-k-no"
            }
        ],
        "link": "https://www.google.com/maps/place/NOORANI+JAMA+MASJID/data=!4m7!3m6!1s0x3bd291faf32c3cc1:0x9b5e439f89b47085!8m2!3d19.4987577!4d78.8481544!16s%2Fg%2F11g9mh63k9!19sChIJwTws8_qR0jsRhXC0iZ9DXps?authuser=0&hl=en&rclk=1",
        "coordinates": {
            "latitude": 19.4987577,
            "longitude": 78.8481544
        }
    },
    {
        "name": "jm` msjd ndr wyly. (Jama Masjid indervelly )",
        "main_category": "Mosque",
        "address": "FMVF+HC2 jm` msjd ndr wyly. (Jama Masjid indervelly ), Indervelly, Telangana 504346",
        "detailed_address": {
            "ward": null,
            "street": "FMVF+HC2",
            "city": "Indervelly",
            "postal_code": "504346",
            "state": "Telangana",
            "country_code": "IN"
        },
        "images": [
            {
                "about": "All",
                "link": "https://lh5.googleusercontent.com/p/AF1QipMHYD1_lV7ZhPI2djxNPZjau0S8VHsJ_KYJwCw9=w397-h298-k-no"
            }
        ],
        "link": "https://www.google.com/maps/place/%D8%AC%D8%A7%D9%85%D8%B9+%D9%85%D8%B3%D8%AC%D8%AF+%D8%A7%D9%86%D8%AF%D8%B1+%D9%88%DB%8C%D9%84%DB%8C%DB%94+%28Jama+Masjid+indervelly+%29%E2%80%AD/data=!4m7!3m6!1s0x3bd289e8469486f1:0xf56a332b39f02da9!8m2!3d19.4938815!4d78.6735064!16s%2Fg%2F11h21prn9w!19sChIJ8YaURuiJ0jsRqS3wOSszavU?authuser=0&hl=en&rclk=1",
        "coordinates": {
            "latitude": 19.4938815,
            "longitude": 78.6735064
        }
    },
    {
        "name": "Syed safdar Ali baba dargah",
        "main_category": "Mosque",
        "address": "9G6Q+7G6 Syed safdar Ali baba dargah, Gundala, Telangana 504203",
        "detailed_address": {
            "ward": null,
            "street": "9G6Q+7G6",
            "city": "Gundala",
            "postal_code": "504203",
            "state": "Telangana",
            "country_code": "IN"
        },
        "images": [
            {
                "about": "All",
                "link": "https://lh5.googleusercontent.com/p/AF1QipM5STC91TtGm__KzwxevlKeQSIJhsIBpSQhvTji=w224-h298-k-no"
            },
            {
                "about": "Videos",
                "link": "https://lh5.googleusercontent.com/p/AF1QipPCKjnvjH8KUiMRgbMk2r-VVSDlvYIOb2Y7Y_V3=w224-h398-k-no"
            }
        ],
        "link": "https://www.google.com/maps/place/Syed+safdar+Ali+baba+dargah/data=!4m7!3m6!1s0x3bd27b14930cd77d:0x6edc0f90d9881f5d!8m2!3d19.3606523!4d78.5387547!16s%2Fg%2F11qb3wct7p!19sChIJfdcMkxR70jsRXR-I2ZAP3G4?authuser=0&hl=en&rclk=1",
        "coordinates": {
            "latitude": 19.360652299999998,
            "longitude": 78.5387547
        }
    },
    {
        "name": "Umar Masjid",
        "main_category": "Mosque",
        "address": "MG2H+9J7 Umar Masjid, Pittalwada, Khoja Colony, Adilabad, Telangana 504001",
        "detailed_address": {
            "ward": "Pittalwada, Khoja Colony",
            "street": "MG2H+9J7",
            "city": "Adilabad",
            "postal_code": "504001",
            "state": "Telangana",
            "country_code": "IN"
        },
        "images": [
            {
                "about": "All",
                "link": "https://lh5.googleusercontent.com/p/AF1QipOJYUe5mLVfvcWk98uqTmN6GdcsAB8bciDSoTjv=w529-h298-k-no"
            },
            {
                "about": "Street View & 360deg",
                "link": "https://streetviewpixels-pa.googleapis.com/v1/thumbnail?panoid=C4Ppeq7EFFG4nfqHNpRt4Q&cb_client=maps_sv.tactile.gps&w=224&h=298&yaw=132.76416&pitch=0&thumbfov=100"
            }
        ],
        "link": "https://www.google.com/maps/place/Umar+Masjid/data=!4m7!3m6!1s0x3bd25c5d9e45a7ff:0xd9937a4c4bfe8c53!8m2!3d19.6509166!4d78.5290486!16s%2Fg%2F11fx95lqmp!19sChIJ_6dFnl1c0jsRU4z-S0x6k9k?authuser=0&hl=en&rclk=1",
        "coordinates": {
            "latitude": 19.6509166,
            "longitude": 78.5290486
        }
    },
    {
        "name": "MOHAMMAD IS MASJID",
        "main_category": "Mosque",
        "address": "GHF6+VQ6 MOHAMMAD IS MASJID, Tosham, Telangana 504308",
        "detailed_address": {
            "ward": null,
            "street": "GHF6+VQ6",
            "city": "Tosham",
            "postal_code": "504308",
            "state": "Telangana",
            "country_code": "IN"
        },
        "images": [
            {
                "about": "All",
                "link": "https://streetviewpixels-pa.googleapis.com/v1/thumbnail?panoid=3hanlZKeEXtEez01i40Exg&cb_client=maps_sv.tactile.gps&w=224&h=298&yaw=150.16168&pitch=0&thumbfov=100"
            },
            {
                "about": "Street View & 360deg",
                "link": "https://streetviewpixels-pa.googleapis.com/v1/thumbnail?panoid=3hanlZKeEXtEez01i40Exg&cb_client=maps_sv.tactile.gps&w=224&h=298&yaw=150.16168&pitch=0&thumbfov=100"
            }
        ],
        "link": "https://www.google.com/maps/place/MOHAMMAD+IS+MASJID/data=!4m7!3m6!1s0x3bd267780b316d2b:0x43def7ea72223fa!8m2!3d19.5246611!4d78.5618857!16s%2Fg%2F11fjyxlpk6!19sChIJK20xC3hn0jsR-iMip37vPQQ?authuser=0&hl=en&rclk=1",
        "coordinates": {
            "latitude": 19.5246611,
            "longitude": 78.56188569999999
        }
    },
    {
        "name": "MASJID - E - WASIL",
        "main_category": "Mosque",
        "address": "9Q7C+W9C MASJID - E - WASIL, Utnur, Telangana 504311",
        "detailed_address": {
            "ward": null,
            "street": "9Q7C+W9C",
            "city": "Utnur",
            "postal_code": "504311",
            "state": "Telangana",
            "country_code": "IN"
        },
        "images": [
            {
                "about": "All",
                "link": "https://streetviewpixels-pa.googleapis.com/v1/thumbnail?panoid=fNt09RUbHhdpvJ5DR8frqw&cb_client=maps_sv.tactile.gps&w=224&h=298&yaw=153.74368&pitch=0&thumbfov=100"
            },
            {
                "about": "Street View & 360deg",
                "link": "https://streetviewpixels-pa.googleapis.com/v1/thumbnail?panoid=fNt09RUbHhdpvJ5DR8frqw&cb_client=maps_sv.tactile.gps&w=224&h=298&yaw=153.74368&pitch=0&thumbfov=100"
            }
        ],
        "link": "https://www.google.com/maps/place/MASJID+-+E+-+WASIL/data=!4m7!3m6!1s0x3bd285b568212b3b:0xd48a9da29da1160e!8m2!3d19.3648093!4d78.7708923!16s%2Fg%2F11g6q_z_ty!19sChIJOyshaLWF0jsRDhahnaKditQ?authuser=0&hl=en&rclk=1",
        "coordinates": {
            "latitude": 19.364809299999997,
            "longitude": 78.7708923
        }
    },
    {
        "name": "Masjid Mohammadia",
        "main_category": "Mosque",
        "address": "9QCG+VR7 Masjid Mohammadia, Utnoor Rd, Utnur, Telangana 504311",
        "detailed_address": {
            "ward": null,
            "street": "9QCG+VR7, Utnoor Rd",
            "city": "Utnur",
            "postal_code": "504311",
            "state": "Telangana",
            "country_code": "IN"
        },
        "images": [
            {
                "about": "All",
                "link": "https://streetviewpixels-pa.googleapis.com/v1/thumbnail?panoid=UTx5zHUs27dZJQMMQPMbhQ&cb_client=maps_sv.tactile.gps&w=224&h=298&yaw=140.78342&pitch=0&thumbfov=100"
            },
            {
                "about": "Street View & 360deg",
                "link": "https://streetviewpixels-pa.googleapis.com/v1/thumbnail?panoid=UTx5zHUs27dZJQMMQPMbhQ&cb_client=maps_sv.tactile.gps&w=224&h=298&yaw=140.78342&pitch=0&thumbfov=100"
            }
        ],
        "link": "https://www.google.com/maps/place/Masjid+Mohammadia/data=!4m7!3m6!1s0x3bd285b0dc0d26a7:0xf6fa3333ae2948b7!8m2!3d19.3721507!4d78.7770528!16s%2Fg%2F11c2p105cs!19sChIJpyYN3LCF0jsRt0gprjMz-vY?authuser=0&hl=en&rclk=1",
        "coordinates": {
            "latitude": 19.3721507,
            "longitude": 78.77705279999999
        }
    },
    {
        "name": "Masjid-E-Zohra",
        "main_category": "Mosque",
        "address": "Masjid-E-Zohra, Masjid-E- Zohra, Ambedkar Nagar, Khanapur, Telangana 504001",
        "detailed_address": {
            "ward": "Ambedkar Nagar",
            "street": "Masjid-E- Zohra",
            "city": "Khanapur",
            "postal_code": "504001",
            "state": "Telangana",
            "country_code": "IN"
        },
        "images": [
            {
                "about": "All",
                "link": "https://streetviewpixels-pa.googleapis.com/v1/thumbnail?panoid=cU37AtR5lklRE-7zqgIS3w&cb_client=maps_sv.tactile.gps&w=224&h=298&yaw=112.76119&pitch=0&thumbfov=100"
            },
            {
                "about": "Street View & 360deg",
                "link": "https://streetviewpixels-pa.googleapis.com/v1/thumbnail?panoid=cU37AtR5lklRE-7zqgIS3w&cb_client=maps_sv.tactile.gps&w=224&h=298&yaw=112.76119&pitch=0&thumbfov=100"
            }
        ],
        "link": "https://www.google.com/maps/place/Masjid-E-Zohra/data=!4m7!3m6!1s0x3bd25dbaced23b33:0xe16af2c30b24656!8m2!3d19.6729258!4d78.5447961!16s%2Fg%2F11j000cqb1!19sChIJMzvSzrpd0jsRVkayMCyvFg4?authuser=0&hl=en&rclk=1",
        "coordinates": {
            "latitude": 19.672925799999998,
            "longitude": 78.5447961
        }
    },
    {
        "name": "MASJID-E-AQSA",
        "main_category": "Mosque",
        "address": "9QCM+6FG MASJID-E-AQSA, Utnur, Telangana 504311",
        "detailed_address": {
            "ward": null,
            "street": "9QCM+6FG",
            "city": "Utnur",
            "postal_code": "504311",
            "state": "Telangana",
            "country_code": "IN"
        },
        "images": [
            {
                "about": "All",
                "link": "https://streetviewpixels-pa.googleapis.com/v1/thumbnail?panoid=IXgpgQlQerBMieYgcT3MTA&cb_client=maps_sv.tactile.gps&w=224&h=298&yaw=49.387844&pitch=0&thumbfov=100"
            },
            {
                "about": "Street View & 360deg",
                "link": "https://streetviewpixels-pa.googleapis.com/v1/thumbnail?panoid=IXgpgQlQerBMieYgcT3MTA&cb_client=maps_sv.tactile.gps&w=224&h=298&yaw=49.387844&pitch=0&thumbfov=100"
            },
            {
                "about": "Videos",
                "link": "https://lh5.googleusercontent.com/p/AF1QipNXZOmOS7xdqsOtOQPShgE-euof87yNF4cAGRyb=w529-h298-k-no"
            }
        ],
        "link": "https://www.google.com/maps/place/MASJID-E-AQSA/data=!4m7!3m6!1s0x3bd285ae68120e2d:0x511a2112271c67ab!8m2!3d19.3705709!4d78.7836997!16s%2Fg%2F11d_8_t86t!19sChIJLQ4SaK6F0jsRq2ccJxIhGlE?authuser=0&hl=en&rclk=1",
        "coordinates": {
            "latitude": 19.3705709,
            "longitude": 78.7836997
        }
    },
    {
        "name": "Madina Masjid",
        "main_category": "Mosque",
        "address": "FRXW+J8M Madina Masjid, Narnoor, Telangana 504311",
        "detailed_address": {
            "ward": null,
            "street": "FRXW+J8M",
            "city": "Narnoor",
            "postal_code": "504311",
            "state": "Telangana",
            "country_code": "IN"
        },
        "images": [],
        "link": "https://www.google.com/maps/place/Madina+Masjid/data=!4m7!3m6!1s0x3bd291fb09c29f61:0x3a9088300dabf574!8m2!3d19.4990794!4d78.8457857!16s%2Fg%2F11fy93lty3!19sChIJYZ_CCfuR0jsRdPWrDTCIkDo?authuser=0&hl=en&rclk=1",
        "coordinates": {
            "latitude": 19.4990794,
            "longitude": 78.8457857
        }
    },
    {
        "name": "Monammadia Masjid",
        "main_category": "Mosque",
        "address": "FMX7+QP5 Monammadia Masjid, HEERAPUR, Indervelly, Heerapur, Telangana 504346",
        "detailed_address": {
            "ward": "HEERAPUR",
            "street": "FMX7+QP5",
            "city": "Indervelly, Heerapur",
            "postal_code": null,
            "state": "Telangana",
            "country_code": "IN"
        },
        "images": [
            {
                "about": "All",
                "link": "https://lh5.googleusercontent.com/p/AF1QipMU-fF75yYVlSeJe1_biltForWudEP-8t7-WtA7=w298-h298-k-no"
            },
            {
                "about": "Street View & 360deg",
                "link": "https://streetviewpixels-pa.googleapis.com/v1/thumbnail?panoid=zBH75IaL-wlxdFFm4Phjgw&cb_client=maps_sv.tactile.gps&w=224&h=298&yaw=220.2503&pitch=0&thumbfov=100"
            }
        ],
        "link": "https://www.google.com/maps/place/Monammadia+Masjid/data=!4m7!3m6!1s0x3bd28b5088306d5f:0x145d9a5d18c98ff!8m2!3d19.4993952!4d78.6643571!16s%2Fg%2F11gr5_09c8!19sChIJX20wiFCL0jsR_5iM0aXZRQE?authuser=0&hl=en&rclk=1",
        "coordinates": {
            "latitude": 19.4993952,
            "longitude": 78.66435709999999
        }
    },
    {
        "name": "Masjid-e-Abdullah",
        "main_category": "Mosque",
        "address": "3XR2+J23 Masjid-e-Abdullah, Jannaram - Kalamadugu Rd, Kalmadagu, Telangana 504205",
        "detailed_address": {
            "ward": null,
            "street": "3XR2+J23, Jannaram - Kalamadugu Rd",
            "city": "Kalmadagu",
            "postal_code": "504205",
            "state": "Telangana",
            "country_code": "IN"
        },
        "images": [
            {
                "about": "All",
                "link": "https://lh5.googleusercontent.com/p/AF1QipOvo_w25BNUkR6QwLBoSQWlYLE-F8vV2JpFpqZH=w529-h298-k-no"
            },
            {
                "about": "Videos",
                "link": "https://lh5.googleusercontent.com/p/AF1QipMp4uSDSodWbXNP4k8QvYtA62lWwcbTMV1okx9r=w298-h298-k-no"
            }
        ],
        "link": "https://www.google.com/maps/place/Masjid-e-Abdullah/data=!4m7!3m6!1s0x3bcd6660227f8177:0xe67839b827ba0ea4!8m2!3d19.0915155!4d78.9500358!16s%2Fg%2F11hbc1vfry!19sChIJd4F_ImBmzTsRpA66J7g5eOY?authuser=0&hl=en&rclk=1",
        "coordinates": {
            "latitude": 19.0915155,
            "longitude": 78.9500358
        }
    },
    {
        "name": "Jama Masjid",
        "main_category": "Mosque",
        "address": "FFMW+HFQ Jama Masjid, Mannur, Telangana 504308",
        "detailed_address": {
            "ward": null,
            "street": "FFMW+HFQ",
            "city": "Mannur",
            "postal_code": null,
            "state": "Telangana",
            "country_code": "IN"
        },
        "images": [
            {
                "about": "All",
                "link": "https://lh5.googleusercontent.com/p/AF1QipMVshEfGoleN7CXFgBHCYO0POGM4rwfJJxScKsR=w224-h298-k-no"
            },
            {
                "about": "Street View & 360deg",
                "link": "https://streetviewpixels-pa.googleapis.com/v1/thumbnail?panoid=54Qq0U9MYHL2hSpvlIUl4g&cb_client=maps_sv.tactile.gps&w=224&h=298&yaw=344.66208&pitch=0&thumbfov=100"
            }
        ],
        "link": "https://www.google.com/maps/place/Jama+Masjid/data=!4m7!3m6!1s0x3bd265e0439525af:0xbcf454f7611c69b0!8m2!3d19.4839707!4d78.4962288!16s%2Fg%2F11gfn_jq8n!19sChIJryWVQ-Bl0jsRsGkcYfdU9Lw?authuser=0&hl=en&rclk=1",
        "coordinates": {
            "latitude": 19.4839707,
            "longitude": 78.4962288
        }
    },
    {
        "name": "MOSQUE",
        "main_category": "Mosque",
        "address": "FW74+MMH MOSQUE, Unnamed Road, Patnapur, Telangana 504311",
        "detailed_address": {
            "ward": null,
            "street": "FW74+MMH, Unnamed Road",
            "city": "Patnapur",
            "postal_code": "504311",
            "state": "Telangana",
            "country_code": "IN"
        },
        "images": [],
        "link": "https://www.google.com/maps/place/MOSQUE/data=!4m7!3m6!1s0x3bd29171978b6b7d:0xf6c2e30fdc4b6e09!8m2!3d19.464189!4d78.906724!16s%2Fg%2F11n_v2540n!19sChIJfWuLl3GR0jsRCW5L3A_jwvY?authuser=0&hl=en&rclk=1",
        "coordinates": {
            "latitude": 19.464188999999998,
            "longitude": 78.906724
        }
    },
    {
        "name": "JAMA MASJID Patnapur",
        "main_category": "Mosque",
        "address": "FV7X+CXQ JAMA MASJID Patnapur, Karimguda patnapur, distt, asifabad, Telangana",
        "detailed_address": {
            "ward": null,
            "street": "FV7X+CXQ, Karimguda patnapur, distt",
            "city": "asifabad, Nagolkonda",
            "postal_code": null,
            "state": "Telangana",
            "country_code": "IN"
        },
        "images": [
            {
                "about": "All",
                "link": "https://lh5.googleusercontent.com/p/AF1QipPya8Kzm8T8XMXInXS_bOX35nVFuUdg2RZnTGcf=w224-h298-k-no"
            }
        ],
        "link": "https://www.google.com/maps/place/JAMA+MASJID+Patnapur/data=!4m7!3m6!1s0x3bd291e86e1a7d69:0x9834c04e32b8b593!8m2!3d19.4635955!4d78.8999868!16s%2Fg%2F11s42vdj81!19sChIJaX0abuiR0jsRk7W4Mk7ANJg?authuser=0&hl=en&rclk=1",
        "coordinates": {
            "latitude": 19.4635955,
            "longitude": 78.8999868
        }
    },
    {
        "name": "Masjid e umar",
        "main_category": "Mosque",
        "address": "9W95+WC9 Masjid e umar, Jainoor, Telangana 504313",
        "detailed_address": {
            "ward": null,
            "street": "9W95+WC9",
            "city": "Jainoor",
            "postal_code": "504313",
            "state": "Telangana",
            "country_code": "IN"
        },
        "images": [
            {
                "about": "All",
                "link": "https://lh5.googleusercontent.com/p/AF1QipOhk43Dt8DWZ-qd8VCRH9KLa6-1vmaIrU-Gtbgb=w224-h398-k-no"
            },
            {
                "about": "Videos",
                "link": "https://lh5.googleusercontent.com/p/AF1QipP2VgtVhhKBGvocmZLYTj5XvXKopHNd17b5qI4D=w224-h407-k-no"
            }
        ],
        "link": "https://www.google.com/maps/place/Masjid+e+umar/data=!4m7!3m6!1s0x3bd29b093593e477:0xe65cd53a2848ead0!8m2!3d19.3700184!4d78.9089038!16s%2Fg%2F11t27x9_rj!19sChIJd-STNQmb0jsR0OpIKDrVXOY?authuser=0&hl=en&rclk=1",
        "coordinates": {
            "latitude": 19.3700184,
            "longitude": 78.90890379999999
        }
    },
    {
        "name": "Choti Masjid",
        "main_category": "Mosque",
        "address": "Choti Masjid, 1, Nirmal - Mancherial Rd, Jannaram, Telangana 504205",
        "detailed_address": {
            "ward": null,
            "street": "1, Nirmal - Mancherial Rd",
            "city": "Jannaram",
            "postal_code": "504205",
            "state": "Telangana",
            "country_code": "IN"
        },
        "images": [
            {
                "about": "All",
                "link": "https://streetviewpixels-pa.googleapis.com/v1/thumbnail?panoid=Idh00paMelYeBIsU85mM7w&cb_client=maps_sv.tactile.gps&w=224&h=298&yaw=214.03764&pitch=0&thumbfov=100"
            },
            {
                "about": "Street View & 360deg",
                "link": "https://streetviewpixels-pa.googleapis.com/v1/thumbnail?panoid=Idh00paMelYeBIsU85mM7w&cb_client=maps_sv.tactile.gps&w=224&h=298&yaw=214.03764&pitch=0&thumbfov=100"
            }
        ],
        "link": "https://www.google.com/maps/place/Choti+Masjid/data=!4m7!3m6!1s0x3bcd673e34ac2f77:0xc32f71faf30d7a5f!8m2!3d19.1184965!4d78.9931769!16s%2Fg%2F11bw5mbvt0!19sChIJdy-sND5nzTsRX3oN8_pxL8M?authuser=0&hl=en&rclk=1",
        "coordinates": {
            "latitude": 19.1184965,
            "longitude": 78.9931769
        }
    },
    {
        "name": "JAMA MASJID TOSHAM",
        "main_category": "Mosque",
        "address": "GHH7+PQH JAMA MASJID TOSHAM, Tosham, Telangana 504308",
        "detailed_address": {
            "ward": null,
            "street": "GHH7+PQH",
            "city": "Tosham",
            "postal_code": "504308",
            "state": "Telangana",
            "country_code": "IN"
        },
        "images": [
            {
                "about": "All",
                "link": "https://lh5.googleusercontent.com/p/AF1QipPK-Erpzu4Wpddk6muwvlexdYjqMJZBG6UE0XSz=w224-h337-k-no"
            }
        ],
        "link": "https://www.google.com/maps/place/JAMA+MASJID+TOSHAM/data=!4m7!3m6!1s0x3bd2679d129ca44d:0x37c41b1b017dded8!8m2!3d19.529309!4d78.5644921!16s%2Fg%2F11llhm5gzr!19sChIJTaScEp1n0jsR2N59ARsbxDc?authuser=0&hl=en&rclk=1",
        "coordinates": {
            "latitude": 19.529308999999998,
            "longitude": 78.5644921
        }
    },
    {
        "name": "Mohammadia Masjid",
        "main_category": "Mosque",
        "address": "GGG7+V2V Mohammadia Masjid, Gudihathinur, Telangana 504308",
        "detailed_address": {
            "ward": null,
            "street": "GGG7+V2V",
            "city": "Gudihathinur",
            "postal_code": null,
            "state": "Telangana",
            "country_code": "IN"
        },
        "images": [
            {
                "about": "All",
                "link": "https://streetviewpixels-pa.googleapis.com/v1/thumbnail?panoid=zQO2VBb52-Dfp3Epp93G6w&cb_client=maps_sv.tactile.gps&w=224&h=298&yaw=327.47607&pitch=0&thumbfov=100"
            },
            {
                "about": "Street View & 360deg",
                "link": "https://streetviewpixels-pa.googleapis.com/v1/thumbnail?panoid=zQO2VBb52-Dfp3Epp93G6w&cb_client=maps_sv.tactile.gps&w=224&h=298&yaw=327.47607&pitch=0&thumbfov=100"
            }
        ],
        "link": "https://www.google.com/maps/place/Mohammadia+Masjid/data=!4m7!3m6!1s0x3bd2672db3af8d75:0xa3d2136c5bb1609!8m2!3d19.5272339!4d78.5125611!16s%2Fg%2F11fljg89lb!19sChIJdY2vsy1n0jsRCRa7xTYhPQo?authuser=0&hl=en&rclk=1",
        "coordinates": {
            "latitude": 19.5272339,
            "longitude": 78.5125611
        }
    },
    {
        "name": "Masjid e Afsana",
        "main_category": "Mosque",
        "address": "JGRP+7WM Masjid e Afsana, KRK Rd, KRK Colony, Khoja Colony, Adilabad, Telangana 504001",
        "detailed_address": {
            "ward": "KRK Colony, Khoja Colony",
            "street": "JGRP+7WM, KRK Rd",
            "city": "Adilabad",
            "postal_code": "504001",
            "state": "Telangana",
            "country_code": "IN"
        },
        "images": [],
        "link": "https://www.google.com/maps/place/Masjid+e+Afsana/data=!4m7!3m6!1s0x3bd25d5d2e428473:0xd94d955bdaa63bd4!8m2!3d19.6407052!4d78.5372911!16s%2Fg%2F11t4wlk9cp!19sChIJc4RCLl1d0jsR1Dum2luVTdk?authuser=0&hl=en&rclk=1",
        "coordinates": {
            "latitude": 19.6407052,
            "longitude": 78.53729109999999
        }
    },
    {
        "name": "Jama masjid",
        "main_category": "Mosque",
        "address": "CQ8W+HQ Jama masjid, Hasnapur, Telangana 504311",
        "detailed_address": {
            "ward": null,
            "street": "CQ8W+HQ",
            "city": "Hasnapur",
            "postal_code": "504311",
            "state": "Telangana",
            "country_code": "IN"
        },
        "images": [
            {
                "about": "All",
                "link": "https://streetviewpixels-pa.googleapis.com/v1/thumbnail?panoid=AjhvCcUyVBZPM_pid53xJw&cb_client=maps_sv.tactile.gps&w=224&h=298&yaw=136.72385&pitch=0&thumbfov=100"
            },
            {
                "about": "Street View & 360deg",
                "link": "https://streetviewpixels-pa.googleapis.com/v1/thumbnail?panoid=AjhvCcUyVBZPM_pid53xJw&cb_client=maps_sv.tactile.gps&w=224&h=298&yaw=136.72385&pitch=0&thumbfov=100"
            }
        ],
        "link": "https://www.google.com/maps/place/Jama+masjid/data=!4m7!3m6!1s0x3bd28f3b13450bef:0x6a2f533252729bc0!8m2!3d19.4159327!4d78.7972924!16s%2Fg%2F11t2sb2b39!19sChIJ7wtFEzuP0jsRwJtyUjJTL2o?authuser=0&hl=en&rclk=1",
        "coordinates": {
            "latitude": 19.4159327,
            "longitude": 78.7972924
        }
    },
    {
        "name": "DARGAH HAZRATH SYED SADIQ PUNJABI R.A.",
        "main_category": "Mosque",
        "address": "9QFH+82V DARGAH HAZRATH SYED SADIQ PUNJABI R.A., Utnoor Rd, Utnur, Telangana 504311",
        "detailed_address": {
            "ward": null,
            "street": "9QFH+82V, Utnoor Rd",
            "city": "Utnur",
            "postal_code": null,
            "state": "Telangana",
            "country_code": "IN"
        },
        "images": [
            {
                "about": "All",
                "link": "https://streetviewpixels-pa.googleapis.com/v1/thumbnail?panoid=U__JQMLRSgnzV4oUYcj0-w&cb_client=maps_sv.tactile.gps&w=224&h=298&yaw=314.9625&pitch=0&thumbfov=100"
            },
            {
                "about": "Street View & 360deg",
                "link": "https://streetviewpixels-pa.googleapis.com/v1/thumbnail?panoid=U__JQMLRSgnzV4oUYcj0-w&cb_client=maps_sv.tactile.gps&w=224&h=298&yaw=314.9625&pitch=0&thumbfov=100"
            }
        ],
        "link": "https://www.google.com/maps/place/DARGAH+HAZRATH+SYED+SADIQ+PUNJABI+R.A./data=!4m7!3m6!1s0x3bd285e8982a5b59:0xa6f27cae7e3b2eb8!8m2!3d19.37336!4d78.7775539!16s%2Fg%2F11q3lkmfrb!19sChIJWVsqmOiF0jsRuC47fq588qY?authuser=0&hl=en&rclk=1",
        "coordinates": {
            "latitude": 19.373359999999998,
            "longitude": 78.7775539
        }
    },
    {
        "name": "Masjid",
        "main_category": "Mosque",
        "address": "CQ24+936 Masjid, X-Road, Nagapur, Telangana 504311",
        "detailed_address": {
            "ward": "X-Road",
            "street": "CQ24+936",
            "city": "Nagapur",
            "postal_code": "504311",
            "state": "Telangana",
            "country_code": "IN"
        },
        "images": [
            {
                "about": "All",
                "link": "https://lh5.googleusercontent.com/p/AF1QipP-HJ-SWwEPF0gg5wPLy1hw-bRGq38s_EaecECF=w224-h485-k-no"
            },
            {
                "about": "Street View & 360deg",
                "link": "https://streetviewpixels-pa.googleapis.com/v1/thumbnail?panoid=G4qocc19RwSyoA2hgClXMQ&cb_client=maps_sv.tactile.gps&w=224&h=298&yaw=58.483932&pitch=0&thumbfov=100"
            }
        ],
        "link": "https://www.google.com/maps/place/Masjid/data=!4m7!3m6!1s0x3bd28542302b9163:0x87197ab60c077a2c!8m2!3d19.4009106!4d78.7551464!16s%2Fg%2F11qnl8lv7j!19sChIJY5ErMEKF0jsRLHoHDLZ6GYc?authuser=0&hl=en&rclk=1",
        "coordinates": {
            "latitude": 19.4009106,
            "longitude": 78.7551464
        }
    },
    {
        "name": "Masjid-e-umarfarooq",
        "main_category": "Mosque",
        "address": "9QCH+PGP Masjid-e-umarfarooq, Rahmathpura, Utnur, Telangana 504311",
        "detailed_address": {
            "ward": "Rahmathpura",
            "street": "9QCH+PGP",
            "city": "Utnur",
            "postal_code": null,
            "state": "Telangana",
            "country_code": "IN"
        },
        "images": [
            {
                "about": "All",
                "link": "https://streetviewpixels-pa.googleapis.com/v1/thumbnail?panoid=20a8il2BU3LCzc2rlaxjAg&cb_client=maps_sv.tactile.gps&w=224&h=298&yaw=248.90999&pitch=0&thumbfov=100"
            },
            {
                "about": "Street View & 360deg",
                "link": "https://streetviewpixels-pa.googleapis.com/v1/thumbnail?panoid=20a8il2BU3LCzc2rlaxjAg&cb_client=maps_sv.tactile.gps&w=224&h=298&yaw=248.90999&pitch=0&thumbfov=100"
            }
        ],
        "link": "https://www.google.com/maps/place/Masjid-e-umarfarooq/data=!4m7!3m6!1s0x3bd2857a91093a6b:0x26c68fcbfbdadda6!8m2!3d19.3718367!4d78.7788405!16s%2Fg%2F11g1bbd1gd!19sChIJazoJkXqF0jsRpt3a-8uPxiY?authuser=0&hl=en&rclk=1",
        "coordinates": {
            "latitude": 19.3718367,
            "longitude": 78.7788405
        }
    },
    {
        "name": "JAMA MASJID",
        "main_category": "Mosque",
        "address": "GGJ7+3R2 JAMA MASJID, Bazar road, Gudihathinur, Telangana 504308",
        "detailed_address": {
            "ward": null,
            "street": "GGJ7+3R2, Bazar road",
            "city": "Gudihathinur",
            "postal_code": "504308",
            "state": "Telangana",
            "country_code": "IN"
        },
        "images": [
            {
                "about": "All",
                "link": "https://lh5.googleusercontent.com/p/AF1QipOGocZT42lZ5Lvp_nnbvWVFZgtJn-fj7IWNmzQV=w224-h398-k-no"
            },
            {
                "about": "Street View & 360deg",
                "link": "https://streetviewpixels-pa.googleapis.com/v1/thumbnail?panoid=1JD8eM0NHWZ8FjxzS3HtpQ&cb_client=maps_sv.tactile.gps&w=224&h=298&yaw=106.9343&pitch=0&thumbfov=100"
            }
        ],
        "link": "https://www.google.com/maps/place/JAMA+MASJID/data=!4m7!3m6!1s0x3bd2679cecb7be7b:0x2adf95c1083f777b!8m2!3d19.5301375!4d78.5145156!16s%2Fg%2F11sq265ndj!19sChIJe7637Jxn0jsRe3c_CMGV3yo?authuser=0&hl=en&rclk=1",
        "coordinates": {
            "latitude": 19.5301375,
            "longitude": 78.5145156
        }
    },
    {
        "name": "Masjid E Fatima Yousuf",
        "main_category": "Mosque",
        "address": "3WG8+XMP Masjid E Fatima Yousuf, Revojipet New, Revojipet (Old), Telangana 504202",
        "detailed_address": {
            "ward": null,
            "street": "3WG8+XMP",
            "city": "Revojipet New, Revojipet (Old)",
            "postal_code": "504202",
            "state": "Telangana",
            "country_code": "IN"
        },
        "images": [
            {
                "about": "All",
                "link": "https://lh5.googleusercontent.com/p/AF1QipN1p7OTMjxWJivvD3RWPioNyKiqrk_1CdlBVI5s=w529-h298-k-no"
            }
        ],
        "link": "https://www.google.com/maps/place/Masjid+E+Fatima+Yousuf/data=!4m7!3m6!1s0x3bcd6551fa8de007:0x1f6da9a6fdded8d8!8m2!3d19.0776595!4d78.9174451!16s%2Fg%2F11rmz_sv6c!19sChIJB-CN-lFlzTsR2Nje_aapbR8?authuser=0&hl=en&rclk=1",
        "coordinates": {
            "latitude": 19.0776595,
            "longitude": 78.9174451
        }
    },
    {
        "name": "Pangdi masjid",
        "main_category": "Mosque",
        "address": "9263+5W Pangdi masjid, Seetagondi, Telangana 504313",
        "detailed_address": {
            "ward": null,
            "street": "9263+5W",
            "city": "Seetagondi",
            "postal_code": null,
            "state": "Telangana",
            "country_code": "IN"
        },
        "images": [],
        "link": "https://www.google.com/maps/place/Pangdi+masjid/data=!4m7!3m6!1s0x3bd299407103a9bf:0xc33d1edde125fb60!8m2!3d19.3603172!4d79.0060313!16s%2Fg%2F11s57ytdlj!19sChIJv6kDcUCZ0jsRYPsl4d0ePcM?authuser=0&hl=en&rclk=1",
        "coordinates": {
            "latitude": 19.3603172,
            "longitude": 79.00603129999999
        }
    },
    {
        "name": "Masjid-E-Kausar",
        "main_category": "Mosque",
        "address": "MG8Q+6M8 Masjid-E-Kausar, Shanti Nagar, Adilabad, Telangana 504001",
        "detailed_address": {
            "ward": "Shanti Nagar",
            "street": "MG8Q+6M8",
            "city": "Adilabad",
            "postal_code": "504001",
            "state": "Telangana",
            "country_code": "IN"
        },
        "images": [
            {
                "about": "All",
                "link": "https://lh5.googleusercontent.com/p/AF1QipMu_hBLXfEJaMshLwRNSLhcAhS0GAp09HMIfTSl=w224-h497-k-no"
            },
            {
                "about": "Street View & 360deg",
                "link": "https://streetviewpixels-pa.googleapis.com/v1/thumbnail?panoid=msITvqvn7i8QMX0pUqt3mg&cb_client=maps_sv.tactile.gps&w=224&h=298&yaw=303.53305&pitch=0&thumbfov=100"
            }
        ],
        "link": "https://www.google.com/maps/place/Masjid-E-Kausar/data=!4m7!3m6!1s0x3bd25c726cbfffff:0xdcc8a30755b4260c!8m2!3d19.6655322!4d78.5391992!16s%2Fg%2F11txmzh9h_!19sChIJ__-_bHJc0jsRDCa0VQejyNw?authuser=0&hl=en&rclk=1",
        "coordinates": {
            "latitude": 19.665532199999998,
            "longitude": 78.5391992
        }
    },
    {
        "name": "Madina Masjid",
        "main_category": "Mosque",
        "address": "9Q7H+P3C Madina Masjid, Mominpura, Utnur, Telangana 504311",
        "detailed_address": {
            "ward": "Mominpura",
            "street": "9Q7H+P3C",
            "city": "Utnur",
            "postal_code": "504311",
            "state": "Telangana",
            "country_code": "IN"
        },
        "images": [
            {
                "about": "All",
                "link": "https://streetviewpixels-pa.googleapis.com/v1/thumbnail?panoid=_mtMQm8xAHvWJqn8OTUdKg&cb_client=maps_sv.tactile.gps&w=224&h=298&yaw=357.7412&pitch=0&thumbfov=100"
            },
            {
                "about": "Street View & 360deg",
                "link": "https://streetviewpixels-pa.googleapis.com/v1/thumbnail?panoid=_mtMQm8xAHvWJqn8OTUdKg&cb_client=maps_sv.tactile.gps&w=224&h=298&yaw=357.7412&pitch=0&thumbfov=100"
            }
        ],
        "link": "https://www.google.com/maps/place/Madina+Masjid/data=!4m7!3m6!1s0x3bd285b33e155555:0x13e010187828103f!8m2!3d19.3643116!4d78.777638!16s%2Fg%2F11txmzdqbx!19sChIJVVUVPrOF0jsRPxAoeBgQ4BM?authuser=0&hl=en&rclk=1",
        "coordinates": {
            "latitude": 19.3643116,
            "longitude": 78.777638
        }
    },
    {
        "name": "Jama-masjid",
        "main_category": "Mosque",
        "address": "8RG9+858 Jama-masjid, danthanpalli, Utnur, Danthanpalle, Telangana 504311",
        "detailed_address": {
            "ward": null,
            "street": "8RG9+858, danthanpalli",
            "city": "Utnur, Danthanpalle",
            "postal_code": "504311",
            "state": "Telangana",
            "country_code": "IN"
        },
        "images": [],
        "link": "https://www.google.com/maps/place/Jama-masjid/data=!4m7!3m6!1s0x3bd2854382fca6b1:0x7f6af6c9c5f66375!8m2!3d19.3257758!4d78.8177888!16s%2Fg%2F11t_m6qb3v!19sChIJsab8gkOF0jsRdWP2xcn2an8?authuser=0&hl=en&rclk=1",
        "coordinates": {
            "latitude": 19.3257758,
            "longitude": 78.8177888
        }
    },
    {
        "name": "Late Shakkar baap bhai's House",
        "main_category": "Mosque",
        "address": "9Q8G+XPH Late Shakkar baap bhai's House, Utnur, Telangana 504311",
        "detailed_address": {
            "ward": null,
            "street": "9Q8G+XPH",
            "city": "Utnur",
            "postal_code": null,
            "state": "Telangana",
            "country_code": "IN"
        },
        "images": [],
        "link": "https://www.google.com/maps/place/Late+Shakkar+baap+bhai%27s+House/data=!4m7!3m6!1s0x3bd28599f6383c27:0x19c105667d80cd2a!8m2!3d19.367426!4d78.7768553!16s%2Fg%2F11t7x70mz7!19sChIJJzw49pmF0jsRKs2AfWYFwRk?authuser=0&hl=en&rclk=1",
        "coordinates": {
            "latitude": 19.367426,
            "longitude": 78.7768553
        }
    },
    {
        "name": "MASJID SHANTAPUR",
        "main_category": "Mosque",
        "address": "FGFP+C5C MASJID SHANTAPUR, Gudihathnoor Mandal, Shantapur, Telangana 504308",
        "detailed_address": {
            "ward": null,
            "street": "FGFP+C5C Gudihathnoor Mandal",
            "city": "Shantapur",
            "postal_code": "504308",
            "state": "Telangana",
            "country_code": "IN"
        },
        "images": [],
        "link": "https://www.google.com/maps/place/MASJID+SHANTAPUR/data=!4m7!3m6!1s0x3bd2654db6a04cab:0xf7f3553ee06f6434!8m2!3d19.4739955!4d78.5351779!16s%2Fg%2F11tgc9r3cf!19sChIJq0ygtk1l0jsRNGRv4D5V8_c?authuser=0&hl=en&rclk=1",
        "coordinates": {
            "latitude": 19.473995499999997,
            "longitude": 78.5351779
        }
    },
    {
        "name": "Jama-masjid",
        "main_category": "Mosque",
        "address": "8RC9+GMX Jama-masjid, Danthanpalle, Telangana 504311",
        "detailed_address": {
            "ward": null,
            "street": "8RC9+GMX",
            "city": "Danthanpalle",
            "postal_code": "504311",
            "state": "Telangana",
            "country_code": "IN"
        },
        "images": [
            {
                "about": "All",
                "link": "https://streetviewpixels-pa.googleapis.com/v1/thumbnail?panoid=9CBQ63apH2ZSmnsB9MzKiA&cb_client=maps_sv.tactile.gps&w=224&h=298&yaw=67.555984&pitch=0&thumbfov=100"
            },
            {
                "about": "Street View & 360deg",
                "link": "https://streetviewpixels-pa.googleapis.com/v1/thumbnail?panoid=9CBQ63apH2ZSmnsB9MzKiA&cb_client=maps_sv.tactile.gps&w=224&h=298&yaw=67.555984&pitch=0&thumbfov=100"
            }
        ],
        "link": "https://www.google.com/maps/place/Jama-masjid/data=!4m7!3m6!1s0x3bd285b1acb03325:0xe09602827bfd9960!8m2!3d19.3213959!4d78.8191368!16s%2Fg%2F11t_k688fm!19sChIJJTOwrLGF0jsRYJn9e4ICluA?authuser=0&hl=en&rclk=1",
        "coordinates": {
            "latitude": 19.3213959,
            "longitude": 78.8191368
        }
    },
    {
        "name": "Abbubakar masjid",
        "main_category": "Mosque",
        "address": "9WG5+JJV Abbubakar masjid, Jainoor, Telangana 504313",
        "detailed_address": {
            "ward": null,
            "street": "9WG5+JJV",
            "city": "Jainoor",
            "postal_code": "504313",
            "state": "Telangana",
            "country_code": "IN"
        },
        "images": [],
        "link": "https://www.google.com/maps/place/Abbubakar+masjid/data=!4m7!3m6!1s0x3bd29bab25333f2b:0x3b3f437925c3c48c!8m2!3d19.3766247!4d78.909049!16s%2Fg%2F11rs2wxm5k!19sChIJKz8zJaub0jsRjMTDJXlDPzs?authuser=0&hl=en&rclk=1",
        "coordinates": {
            "latitude": 19.3766247,
            "longitude": 78.909049
        }
    },
    {
        "name": "JAMA MASJID NAGALKONDA",
        "main_category": "Place of worship",
        "address": "FV9F+MJ5 JAMA MASJID NAGALKONDA, Nagolkonda, Telangana 504311",
        "detailed_address": {
            "ward": null,
            "street": "FV9F+MJ5",
            "city": "Nagolkonda",
            "postal_code": null,
            "state": "Telangana",
            "country_code": "IN"
        },
        "images": [],
        "link": "https://www.google.com/maps/place/JAMA+MASJID+NAGALKONDA/data=!4m7!3m6!1s0x3bd291a2f4aca2af:0x753fee629972f001!8m2!3d19.4691403!4d78.8740939!16s%2Fg%2F11ft1zb_k0!19sChIJr6Ks9KKR0jsRAfBymWLuP3U?authuser=0&hl=en&rclk=1",
        "coordinates": {
            "latitude": 19.4691403,
            "longitude": 78.87409389999999
        }
    },
    {
        "name": "Masjid-e-Umar Faruq",
        "main_category": "Mosque",
        "address": "Masjid-e-Umar Faruq, 5-990, near Bhim Nagar, Indervelly, Telangana 504346",
        "detailed_address": {
            "ward": null,
            "street": "5-990, near Bhim Nagar",
            "city": "Indervelly",
            "postal_code": "504346",
            "state": "Telangana",
            "country_code": "IN"
        },
        "images": [
            {
                "about": "All",
                "link": "https://lh5.googleusercontent.com/p/AF1QipMnDf1Vch5E79dlmUKNqB1qKbl6KZ2hx3Omvb4v=w224-h398-k-no"
            }
        ],
        "link": "https://www.google.com/maps/place/Masjid-e-Umar+Faruq/data=!4m7!3m6!1s0x3bd28977e7eaf70d:0x8258704df043e015!8m2!3d19.4936269!4d78.6706737!16s%2Fg%2F11st_xzdb0!19sChIJDffq53eJ0jsRFeBD8E1wWII?authuser=0&hl=en&rclk=1",
        "coordinates": {
            "latitude": 19.4936269,
            "longitude": 78.6706737
        }
    },
    {
        "name": "MOHAMMADIA MASJID",
        "main_category": "Mosque",
        "address": "FMVC+JFR MOHAMMADIA MASJID, Heerapur, Indervelly, Telangana",
        "detailed_address": {
            "ward": null,
            "street": "FMVC+JFR, Heerapur",
            "city": "Indervelly",
            "postal_code": null,
            "state": "Telangana",
            "country_code": "IN"
        },
        "images": [
            {
                "about": "All",
                "link": "https://streetviewpixels-pa.googleapis.com/v1/thumbnail?panoid=KQjL-tV8jzx46dNvphQ1Nw&cb_client=maps_sv.tactile.gps&w=224&h=298&yaw=42.935627&pitch=0&thumbfov=100"
            },
            {
                "about": "Street View & 360deg",
                "link": "https://streetviewpixels-pa.googleapis.com/v1/thumbnail?panoid=KQjL-tV8jzx46dNvphQ1Nw&cb_client=maps_sv.tactile.gps&w=224&h=298&yaw=42.935627&pitch=0&thumbfov=100"
            }
        ],
        "link": "https://www.google.com/maps/place/MOHAMMADIA+MASJID/data=!4m7!3m6!1s0x3bd289c55f8ff47d:0x2d649ece3f38847e!8m2!3d19.494116!4d78.6711451!16s%2Fg%2F11fcnd7c7s!19sChIJffSPX8WJ0jsRfoQ4P86eZC0?authuser=0&hl=en&rclk=1",
        "coordinates": {
            "latitude": 19.494115999999998,
            "longitude": 78.67114509999999
        }
    },
    {
        "name": "BILALA MASJID",
        "main_category": "Mosque",
        "address": "9WF5+HJJ BILALA MASJID, Jainoor, Telangana 504313",
        "detailed_address": {
            "ward": null,
            "street": "9WF5+HJJ",
            "city": "Jainoor",
            "postal_code": "504313",
            "state": "Telangana",
            "country_code": "IN"
        },
        "images": [
            {
                "about": "All",
                "link": "https://lh5.googleusercontent.com/p/AF1QipN_PR4-OS9i6-PeL1j_gryG5-yWpH4rFAj4CuL9=w397-h298-k-no"
            }
        ],
        "link": "https://www.google.com/maps/place/BILALA+MASJID/data=!4m7!3m6!1s0x3bd29b2e07edb8d3:0xa2580038ac3fd778!8m2!3d19.3739522!4d78.9090191!16s%2Fg%2F11f77_fyxp!19sChIJ07jtBy6b0jsReNc_rDgAWKI?authuser=0&hl=en&rclk=1",
        "coordinates": {
            "latitude": 19.373952199999998,
            "longitude": 78.9090191
        }
    },
    {
        "name": "Jama e masjid",
        "main_category": "Mosque",
        "address": "CHP6+V5V Jama e masjid, Sirikonda, Telangana 504307",
        "detailed_address": {
            "ward": null,
            "street": "CHP6+V5V",
            "city": "Sirikonda",
            "postal_code": "504307",
            "state": "Telangana",
            "country_code": "IN"
        },
        "images": [
            {
                "about": "All",
                "link": "https://lh5.googleusercontent.com/p/AF1QipMGtr2sRBfSdTzeMJ82Z9IJOcY0uvu1dcZWnBRP=w224-h298-k-no"
            }
        ],
        "link": "https://www.google.com/maps/place/Jama+e+masjid/data=!4m7!3m6!1s0x3bd265a0c4b67e19:0xeef9904049bc52ba!8m2!3d19.4372379!4d78.5604069!16s%2Fg%2F11t6n00ddy!19sChIJGX62xKBl0jsRulK8SUCQ-e4?authuser=0&hl=en&rclk=1",
        "coordinates": {
            "latitude": 19.4372379,
            "longitude": 78.56040689999999
        }
    },
    {
        "name": "Jama masjid",
        "main_category": "Mosque",
        "address": "9XX2+F85 Jama masjid, Unnamed Road, Daboli, Telangana 504313",
        "detailed_address": {
            "ward": null,
            "street": "9XX2+F85, Unnamed Road",
            "city": "Daboli",
            "postal_code": "504313",
            "state": "Telangana",
            "country_code": "IN"
        },
        "images": [],
        "link": "https://www.google.com/maps/place/Jama+masjid/data=!4m7!3m6!1s0x3bd29962bbeafef3:0x74b0832244550441!8m2!3d19.3986432!4d78.9508508!16s%2Fg%2F11h4v7zns2!19sChIJ8_7qu2KZ0jsRQQRVRCKDsHQ?authuser=0&hl=en&rclk=1",
        "coordinates": {
            "latitude": 19.3986432,
            "longitude": 78.9508508
        }
    },
    {
        "name": "JAM-E-MASJID,MANNUR",
        "main_category": "Mosque",
        "address": "FFPW+29F JAM-E-MASJID,MANNUR, AH43, Mannur, Telangana 504308",
        "detailed_address": {
            "ward": null,
            "street": "FFPW+29F, AH43",
            "city": "Mannur",
            "postal_code": "504308",
            "state": "Telangana",
            "country_code": "IN"
        },
        "images": [],
        "link": "https://www.google.com/maps/place/JAM-E-MASJID,MANNUR/data=!4m7!3m6!1s0x3bd265bcb2478de3:0x3dc9202eefabe3bc!8m2!3d19.4850021!4d78.496046!16s%2Fg%2F11twqt17yj!19sChIJ441Hsrxl0jsRvOOr7y4gyT0?authuser=0&hl=en&rclk=1",
        "coordinates": {
            "latitude": 19.4850021,
            "longitude": 78.49604599999999
        }
    },
    {
        "name": "Jama masjid kawal",
        "main_category": "Mosque",
        "address": "5X97+M8M Jama masjid kawal, Kawal, Telangana 504205",
        "detailed_address": {
            "ward": null,
            "street": "5X97+M8M",
            "city": "Kawal",
            "postal_code": "504205",
            "state": "Telangana",
            "country_code": "IN"
        },
        "images": [
            {
                "about": "All",
                "link": "https://lh5.googleusercontent.com/p/AF1QipMXusNH4XCR44lGjxWf8tLh2J_r4oCcA5suEn3j=w224-h510-k-no"
            },
            {
                "about": "By owner",
                "link": "https://lh5.googleusercontent.com/p/AF1QipMXusNH4XCR44lGjxWf8tLh2J_r4oCcA5suEn3j=w224-h510-k-no"
            }
        ],
        "link": "https://www.google.com/maps/place/Jama+masjid+kawal/data=!4m7!3m6!1s0x3bcd61db9faed409:0xc8e57351b72be292!8m2!3d19.1707652!4d78.9627696!16s%2Fg%2F11tgfrbxkx!19sChIJCdSun9thzTsRkuIrt1Fz5cg?authuser=0&hl=en&rclk=1",
        "coordinates": {
            "latitude": 19.170765199999998,
            "longitude": 78.9627696
        }
    },
    {
        "name": "Dongargao eidgha",
        "main_category": "Mosque",
        "address": "GG95+FRR Dongargao eidgha, Dongargaon, Gudihathinur, Telangana 504308",
        "detailed_address": {
            "ward": null,
            "street": "GG95+FRR",
            "city": "Dongargaon, Gudihathinur",
            "postal_code": null,
            "state": "Telangana",
            "country_code": "IN"
        },
        "images": [
            {
                "about": "All",
                "link": "https://streetviewpixels-pa.googleapis.com/v1/thumbnail?panoid=kqdpP_FYv3aAibG5eqgAiw&cb_client=maps_sv.tactile.gps&w=224&h=298&yaw=264.94354&pitch=0&thumbfov=100"
            },
            {
                "about": "Street View & 360deg",
                "link": "https://streetviewpixels-pa.googleapis.com/v1/thumbnail?panoid=kqdpP_FYv3aAibG5eqgAiw&cb_client=maps_sv.tactile.gps&w=224&h=298&yaw=264.94354&pitch=0&thumbfov=100"
            }
        ],
        "link": "https://www.google.com/maps/place/Dongargao+eidgha/data=!4m7!3m6!1s0x3bd2672897490ae7:0x77f77cd4973b7dd8!8m2!3d19.5187376!4d78.5095172!16s%2Fg%2F11k46qqdyg!19sChIJ5wpJlyhn0jsR2H07l9R893c?authuser=0&hl=en&rclk=1",
        "coordinates": {
            "latitude": 19.518737599999998,
            "longitude": 78.50951719999999
        }
    },
    {
        "name": "Masjid e Abu Hurera",
        "main_category": "Mosque",
        "address": "MG3R+8F Masjid e Abu Hurera, Adilabad, Telangana 504001",
        "detailed_address": {
            "ward": null,
            "street": "MG3R+8F",
            "city": "Adilabad",
            "postal_code": null,
            "state": "Telangana",
            "country_code": "IN"
        },
        "images": [],
        "link": "https://www.google.com/maps/place/Masjid+e+Abu+Hurera/data=!4m7!3m6!1s0x3bd25d2ea7388ce5:0x955ec3718d1b00a1!8m2!3d19.6532544!4d78.5411588!16s%2Fg%2F11twgyhbqr!19sChIJ5Yw4py5d0jsRoQAbjXHDXpU?authuser=0&hl=en&rclk=1",
        "coordinates": {
            "latitude": 19.653254399999998,
            "longitude": 78.54115879999999
        }
    },
    {
        "name": "Masjid-e-afreen",
        "main_category": "Mosque",
        "address": "MGGF+4FV Masjid-e-afreen, khursheed Nagar, Adilabad, Telangana 504001",
        "detailed_address": {
            "ward": "khursheed Nagar",
            "street": "MGGF+4FV",
            "city": "Adilabad",
            "postal_code": "504001",
            "state": "Telangana",
            "country_code": "IN"
        },
        "images": [
            {
                "about": "All",
                "link": "https://streetviewpixels-pa.googleapis.com/v1/thumbnail?panoid=UjcV6GVNyYiubeX20YTkCA&cb_client=maps_sv.tactile.gps&w=224&h=298&yaw=4.0287304&pitch=0&thumbfov=100"
            },
            {
                "about": "Street View & 360deg",
                "link": "https://streetviewpixels-pa.googleapis.com/v1/thumbnail?panoid=UjcV6GVNyYiubeX20YTkCA&cb_client=maps_sv.tactile.gps&w=224&h=298&yaw=4.0287304&pitch=0&thumbfov=100"
            }
        ],
        "link": "https://www.google.com/maps/place/Masjid-e-afreen/data=!4m7!3m6!1s0x3bd25b038e0e96e3:0x1f892d183a40c1ab!8m2!3d19.6753577!4d78.5236845!16s%2Fg%2F11nn1rkr2z!19sChIJ45YOjgNb0jsRq8FAOhgtiR8?authuser=0&hl=en&rclk=1",
        "coordinates": {
            "latitude": 19.6753577,
            "longitude": 78.5236845
        }
    }
]