[
    {
        "name": "Bilal Masque",
        "main_category": "Mosque",
        "address": "GQJQ+536 Bilal Masque, Yarab Nagar, Denkanikottai, Tamil Nadu 635107",
        "detailed_address": {
            "ward": "Yarab Nagar",
            "street": "GQJQ+536",
            "city": "Denkanikottai",
            "postal_code": "635107",
            "state": "Tamil Nadu",
            "country_code": "IN"
        },
        "images": [
            {
                "about": "All",
                "link": "https://lh5.googleusercontent.com/p/AF1QipOq8Zx34oFs4Mm6MfeZXctzpEbJ3ZtyiucOfyBN=w397-h298-k-no"
            },
            {
                "about": "Dome",
                "link": "https://lh5.googleusercontent.com/p/AF1QipM1FJdNyNjKdHLmGAuvcQgxJPRA7EYnJKRuREWK=w646-h298-k-no"
            },
            {
                "about": "Street View & 360deg",
                "link": "https://streetviewpixels-pa.googleapis.com/v1/thumbnail?panoid=4jjlOBNL4AirApUqLZN0mg&cb_client=maps_sv.tactile.gps&w=224&h=298&yaw=236.07545&pitch=0&thumbfov=100"
            }
        ],
        "link": "https://www.google.com/maps/place/Bilal+Masque/data=!4m7!3m6!1s0x3bae7d7ed309550f:0x1bca3a2565064a67!8m2!3d12.5304165!4d77.7876376!16s%2Fg%2F11cn5x9v42!19sChIJD1UJ0359rjsRZ0oGZSU6yhs?authuser=0&hl=en&rclk=1",
        "coordinates": {
            "latitude": 12.5304165,
            "longitude": 77.7876376
        }
    },
    {
        "name": "Masjid E Azam",
        "main_category": "Mosque",
        "address": "Masjid E Azam, 42, Denkanikottai, Tamil Nadu 635107",
        "detailed_address": {
            "ward": null,
            "street": "42",
            "city": "Denkanikottai",
            "postal_code": "635107",
            "state": "Tamil Nadu",
            "country_code": "IN"
        },
        "images": [
            {
                "about": "All",
                "link": "https://lh5.googleusercontent.com/p/AF1QipOKdJV74gTpbDnAxHoVBb9kfs095xaLsag7CpUZ=w224-h398-k-no"
            },
            {
                "about": "Videos",
                "link": "https://lh5.googleusercontent.com/p/AF1QipM5IpSoMMu6YJlXha5f12nTxE6nZEgzeKJNOrOA=w224-h398-k-no"
            }
        ],
        "link": "https://www.google.com/maps/place/Masjid+E+Azam/data=!4m7!3m6!1s0x3bae7d81fb4ee71d:0xb112f3ccd85c7ce5!8m2!3d12.5300142!4d77.7913656!16s%2Fg%2F11ck8gkgmp!19sChIJHedO-4F9rjsR5Xxc2MzzErE?authuser=0&hl=en&rclk=1",
        "coordinates": {
            "latitude": 12.5300142,
            "longitude": 77.79136559999999
        }
    },
    {
        "name": "Jamiya Masjid",
        "main_category": "Mosque",
        "address": "GQHR+539 Jamiya Masjid, Denkanikottai, Tamil Nadu 635107",
        "detailed_address": {
            "ward": null,
            "street": "GQHR+539",
            "city": "Denkanikottai",
            "postal_code": "635107",
            "state": "Tamil Nadu",
            "country_code": "IN"
        },
        "images": [
            {
                "about": "All",
                "link": "https://lh5.googleusercontent.com/p/AF1QipOIdTWjunpArAho9Z9er7sMRz7P_Fvbggx_Tuk8=w224-h298-k-no"
            },
            {
                "about": "Videos",
                "link": "https://lh5.googleusercontent.com/p/AF1QipMPgSXZt0qq8RhL2MIQHwBkhv4Ha64pzPaqpHtK=w224-h398-k-no"
            }
        ],
        "link": "https://www.google.com/maps/place/Jamiya+Masjid/data=!4m7!3m6!1s0x3bae7d7f7788b83b:0x9ec13528f4d7c5f7!8m2!3d12.5279199!4d77.7902316!16s%2Fg%2F11cjg8tyky!19sChIJO7iId399rjsR98XX9Cg1wZ4?authuser=0&hl=en&rclk=1",
        "coordinates": {
            "latitude": 12.527919899999999,
            "longitude": 77.7902316
        }
    },
    {
        "name": "Masjid e Yusuf",
        "main_category": "Mosque",
        "address": "GQPQ+35C Masjid e Yusuf, Denkanikottai, Tamil Nadu 635107",
        "detailed_address": {
            "ward": null,
            "street": "GQPQ+35C",
            "city": "Denkanikottai",
            "postal_code": "635107",
            "state": "Tamil Nadu",
            "country_code": "IN"
        },
        "images": [
            {
                "about": "All",
                "link": "https://lh5.googleusercontent.com/p/AF1QipMYJH84s9DoAYDCQfTI7EDPaJNH0UpxqiJ8EdH0=w529-h298-k-no"
            },
            {
                "about": "Street View & 360deg",
                "link": "https://streetviewpixels-pa.googleapis.com/v1/thumbnail?panoid=NAncZJO3j-TG-MxCr297aA&cb_client=maps_sv.tactile.gps&w=224&h=298&yaw=146.34695&pitch=0&thumbfov=100"
            }
        ],
        "link": "https://www.google.com/maps/place/Masjid+e+Yusuf/data=!4m7!3m6!1s0x3bae7d3e049cfdd7:0x3124e8611cff8209!8m2!3d12.535181!4d77.787888!16s%2Fg%2F11gxmgzb72!19sChIJ1_2cBD59rjsRCYL_HGHoJDE?authuser=0&hl=en&rclk=1",
        "coordinates": {
            "latitude": 12.535181,
            "longitude": 77.787888
        }
    },
    {
        "name": "Masjid E Ansaar",
        "main_category": "Mosque",
        "address": "GQJQ+5X5 Masjid E Ansaar, Denkanikottai, Tamil Nadu 635107",
        "detailed_address": {
            "ward": null,
            "street": "GQJQ+5X5",
            "city": "Denkanikottai",
            "postal_code": "635107",
            "state": "Tamil Nadu",
            "country_code": "IN"
        },
        "images": [],
        "link": "https://www.google.com/maps/place/Masjid+E+Ansaar/data=!4m7!3m6!1s0x3bae7d7f4c1619b5:0xa96cef432deee152!8m2!3d12.5303848!4d77.7899921!16s%2Fg%2F11gbkrl_v7!19sChIJtRkWTH99rjsRUuHuLUPvbKk?authuser=0&hl=en&rclk=1",
        "coordinates": {
            "latitude": 12.5303848,
            "longitude": 77.78999209999999
        }
    },
    {
        "name": "Masjid e ammar",
        "main_category": "Mosque",
        "address": "GQHQ+99M Masjid e ammar, Yarab Nagar, Denkanikottai, Tamil Nadu 635107",
        "detailed_address": {
            "ward": "Yarab Nagar",
            "street": "GQHQ+99M",
            "city": "Denkanikottai",
            "postal_code": "635107",
            "state": "Tamil Nadu",
            "country_code": "IN"
        },
        "images": [
            {
                "about": "All",
                "link": "https://streetviewpixels-pa.googleapis.com/v1/thumbnail?panoid=-73xtyaz_yTnP4LVQYg3gA&cb_client=maps_sv.tactile.gps&w=224&h=298&yaw=359.10107&pitch=0&thumbfov=100"
            },
            {
                "about": "Street View & 360deg",
                "link": "https://streetviewpixels-pa.googleapis.com/v1/thumbnail?panoid=-73xtyaz_yTnP4LVQYg3gA&cb_client=maps_sv.tactile.gps&w=224&h=298&yaw=359.10107&pitch=0&thumbfov=100"
            }
        ],
        "link": "https://www.google.com/maps/place/Masjid+e+ammar/data=!4m7!3m6!1s0x3bae7db67ad54129:0x63bd81771ea2db7e!8m2!3d12.5284591!4d77.7884146!16s%2Fg%2F11h2flf919!19sChIJKUHVerZ9rjsRftuiHneBvWM?authuser=0&hl=en&rclk=1",
        "coordinates": {
            "latitude": 12.5284591,
            "longitude": 77.7884146
        }
    },
    {
        "name": "Masjid-e-noor",
        "main_category": "Mosque",
        "address": "GQ8W+HW2 Masjid-e-noor, Denkanikottai, Tamil Nadu 635107",
        "detailed_address": {
            "ward": null,
            "street": "GQ8W+HW2",
            "city": "Denkanikottai",
            "postal_code": "635107",
            "state": "Tamil Nadu",
            "country_code": "IN"
        },
        "images": [
            {
                "about": "All",
                "link": "https://lh5.googleusercontent.com/p/AF1QipP266N_nAUjTySH8lIsH8lL-8yspzln_abQWwqz=w397-h298-k-no"
            },
            {
                "about": "Street View & 360deg",
                "link": "https://streetviewpixels-pa.googleapis.com/v1/thumbnail?panoid=UKaPuVcHQQADiCP-zpEdfg&cb_client=maps_sv.tactile.gps&w=224&h=298&yaw=236.64197&pitch=0&thumbfov=100"
            }
        ],
        "link": "https://www.google.com/maps/place/Masjid-e-noor/data=!4m7!3m6!1s0x3bae877a2fad4c0f:0xc5fa200856719e86!8m2!3d12.5163883!4d77.7972736!16s%2Fg%2F11f_pkbz26!19sChIJD0ytL3qHrjsRhp5xVggg-sU?authuser=0&hl=en&rclk=1",
        "coordinates": {
            "latitude": 12.5163883,
            "longitude": 77.7972736
        }
    },
    {
        "name": "Jamiya masjid eid gha",
        "main_category": "Mosque",
        "address": "GQJM+VCR Jamiya masjid eid gha, Thally-Denkanikottai Road, Denkanikottai, Tamil Nadu 635107",
        "detailed_address": {
            "ward": null,
            "street": "GQJM+VCR, Thally-Denkanikottai Road",
            "city": "Denkanikottai",
            "postal_code": "635107",
            "state": "Tamil Nadu",
            "country_code": "IN"
        },
        "images": [
            {
                "about": "All",
                "link": "https://lh5.googleusercontent.com/p/AF1QipMagTuvxESsHQOq8v6j5tb2bu6aSGkplVTJ07Nx=w645-h298-k-no"
            },
            {
                "about": "Street View & 360deg",
                "link": "https://streetviewpixels-pa.googleapis.com/v1/thumbnail?panoid=2aYu81K6fhV49EbI1Xqprg&cb_client=maps_sv.tactile.gps&w=224&h=298&yaw=22.554092&pitch=0&thumbfov=100"
            }
        ],
        "link": "https://www.google.com/maps/place/Jamiya+masjid+eid+gha/data=!4m7!3m6!1s0x3bae7de71f4a2a71:0xa46c5c3bb314de43!8m2!3d12.5322431!4d77.7835236!16s%2Fg%2F11qg4j771z!19sChIJcSpKH-d9rjsRQ94UsztcbKQ?authuser=0&hl=en&rclk=1",
        "coordinates": {
            "latitude": 12.532243099999999,
            "longitude": 77.7835236
        }
    },
    {
        "name": "Masjid-e-Noor",
        "main_category": "Mosque",
        "address": "GQHP+3JH Masjid-e-Noor, Yarab Nagar, Denkanikottai, Tamil Nadu 635107",
        "detailed_address": {
            "ward": "Yarab Nagar",
            "street": "GQHP+3JH",
            "city": "Denkanikottai",
            "postal_code": "635107",
            "state": "Tamil Nadu",
            "country_code": "IN"
        },
        "images": [
            {
                "about": "All",
                "link": "https://streetviewpixels-pa.googleapis.com/v1/thumbnail?panoid=Vay_62NakxqoZin0_ddjcA&cb_client=maps_sv.tactile.gps&w=224&h=298&yaw=34.111042&pitch=0&thumbfov=100"
            },
            {
                "about": "Street View & 360deg",
                "link": "https://streetviewpixels-pa.googleapis.com/v1/thumbnail?panoid=Vay_62NakxqoZin0_ddjcA&cb_client=maps_sv.tactile.gps&w=224&h=298&yaw=34.111042&pitch=0&thumbfov=100"
            }
        ],
        "link": "https://www.google.com/maps/place/Masjid-e-Noor/data=!4m7!3m6!1s0x3bae7d820026fe99:0x23e73cf5d5f88ca5!8m2!3d12.5276899!4d77.7866185!16s%2Fg%2F11lm70tmbw!19sChIJmf4mAIJ9rjsRpYz41fU85yM?authuser=0&hl=en&rclk=1",
        "coordinates": {
            "latitude": 12.527689899999999,
            "longitude": 77.7866185
        }
    },
    {
        "name": "Masjid E Abdul Qadir",
        "main_category": "Mosque",
        "address": "GQWP+WFH Masjid E Abdul Qadir, Denkanikottai, Tamil Nadu 635107",
        "detailed_address": {
            "ward": null,
            "street": "GQWP+WFH",
            "city": "Denkanikottai",
            "postal_code": "635107",
            "state": "Tamil Nadu",
            "country_code": "IN"
        },
        "images": [
            {
                "about": "All",
                "link": "https://streetviewpixels-pa.googleapis.com/v1/thumbnail?panoid=GBgsAfoWFzCeb3siq5WpvA&cb_client=maps_sv.tactile.gps&w=224&h=298&yaw=218.43257&pitch=0&thumbfov=100"
            },
            {
                "about": "Street View & 360deg",
                "link": "https://streetviewpixels-pa.googleapis.com/v1/thumbnail?panoid=GBgsAfoWFzCeb3siq5WpvA&cb_client=maps_sv.tactile.gps&w=224&h=298&yaw=218.43257&pitch=0&thumbfov=100"
            }
        ],
        "link": "https://www.google.com/maps/place/Masjid+E+Abdul+Qadir/data=!4m7!3m6!1s0x3bae7d2200d9aad1:0x615802061399b30e!8m2!3d12.5473055!4d77.7862367!16s%2Fg%2F11ss5vh0sn!19sChIJ0arZACJ9rjsRDrOZEwYCWGE?authuser=0&hl=en&rclk=1",
        "coordinates": {
            "latitude": 12.5473055,
            "longitude": 77.7862367
        }
    }
]