[
    {
        "name": "Hashmi Pura Masjid",
        "main_category": "Mosque",
        "address": "5GCQ+C7C Hashmi Pura Masjid, Jarwal, Uttar Pradesh 271904",
        "detailed_address": {
            "ward": null,
            "street": "5GCQ+C7C",
            "city": "Jarwal",
            "postal_code": "271904",
            "state": "Uttar Pradesh",
            "country_code": "IN"
        },
        "images": [
            {
                "about": "All",
                "link": "https://lh5.googleusercontent.com/p/AF1QipPHwfYKxbV7tVwmTj-NooGtZoTCBa2LfhJA7v8z=w224-h472-k-no"
            }
        ],
        "link": "https://www.google.com/maps/place/Hashmi+Pura+Masjid/data=!4m7!3m6!1s0x39999dbe046ad2a5:0x10f7ef24c13e82b2!8m2!3d27.1710719!4d81.5381348!16s%2Fg%2F11gc64fk3z!19sChIJpdJqBL6dmTkRsoI-wSTv9xA?authuser=0&hl=en&rclk=1",
        "coordinates": {
            "latitude": 27.171071899999998,
            "longitude": 81.5381348
        }
    },
    {
        "name": "Paschim Masjid",
        "main_category": "Mosque",
        "address": "5GCP+46V Paschim Masjid, Jarwal, Uttar Pradesh 271904",
        "detailed_address": {
            "ward": null,
            "street": "5GCP+46V",
            "city": "Jarwal",
            "postal_code": "271904",
            "state": "Uttar Pradesh",
            "country_code": "IN"
        },
        "images": [
            {
                "about": "All",
                "link": "https://lh5.googleusercontent.com/p/AF1QipOVxlrYgM0iXArl42YbWSlmJFnPsismsj-R0v9j=w224-h398-k-no"
            }
        ],
        "link": "https://www.google.com/maps/place/Paschim+Masjid/data=!4m7!3m6!1s0x39999d54821996d1:0x3c3c6184b8a49efb!8m2!3d27.1703567!4d81.5355425!16s%2Fg%2F11gmzmptpm!19sChIJ0ZYZglSdmTkR-56kuIRhPDw?authuser=0&hl=en&rclk=1",
        "coordinates": {
            "latitude": 27.1703567,
            "longitude": 81.53554249999999
        }
    },
    {
        "name": "Haider Mehdi Masjid",
        "main_category": "Mosque",
        "address": "5G9P+PM8 Haider Mehdi Masjid, Jarwal, Uttar Pradesh 271904",
        "detailed_address": {
            "ward": null,
            "street": "5G9P+PM8",
            "city": "Jarwal",
            "postal_code": "271904",
            "state": "Uttar Pradesh",
            "country_code": "IN"
        },
        "images": [
            {
                "about": "All",
                "link": "https://lh5.googleusercontent.com/p/AF1QipMlZP7aDN7CoTtxEH5UTH7gFOZS9hER7WpIlybK=w397-h298-k-no"
            },
            {
                "about": "Dome",
                "link": "https://lh5.googleusercontent.com/p/AF1QipPUL6kHcR1R5kx03qlCbChL44J9R0Palw7v-b7i=w392-h298-k-no"
            },
            {
                "about": "Street View & 360deg",
                "link": "https://lh5.googleusercontent.com/p/AF1QipNM6I-cRgFs8JI45a9WYEesIVt_21o6PG4tTnco=w224-h298-k-no-pi-0-ya8.00001-ro-0-fo100"
            }
        ],
        "link": "https://www.google.com/maps/place/Haider+Mehdi+Masjid/data=!4m7!3m6!1s0x39999d96167c87a5:0xb67513cc6fe9167c!8m2!3d27.1692993!4d81.5367052!16s%2Fg%2F11g9qn49n7!19sChIJpYd8FpadmTkRfBbpb8wTdbY?authuser=0&hl=en&rclk=1",
        "coordinates": {
            "latitude": 27.1692993,
            "longitude": 81.5367052
        }
    },
    {
        "name": "Hira Masjid",
        "main_category": "Mosque",
        "address": "5G8Q+635 Hira Masjid, Jarwal, Uttar Pradesh 271904",
        "detailed_address": {
            "ward": null,
            "street": "5G8Q+635",
            "city": "Jarwal",
            "postal_code": "271904",
            "state": "Uttar Pradesh",
            "country_code": "IN"
        },
        "images": [
            {
                "about": "All",
                "link": "https://streetviewpixels-pa.googleapis.com/v1/thumbnail?panoid=igtKQPlS9kTnn2GTm-AwPQ&cb_client=maps_sv.tactile.gps&w=224&h=298&yaw=288.0861&pitch=0&thumbfov=100"
            },
            {
                "about": "Street View & 360deg",
                "link": "https://streetviewpixels-pa.googleapis.com/v1/thumbnail?panoid=igtKQPlS9kTnn2GTm-AwPQ&cb_client=maps_sv.tactile.gps&w=224&h=298&yaw=288.0861&pitch=0&thumbfov=100"
            }
        ],
        "link": "https://www.google.com/maps/place/Hira+Masjid/data=!4m7!3m6!1s0x39999dbd580a32f9:0x8559c5d7fab60202!8m2!3d27.1655017!4d81.5377365!16s%2Fg%2F11c53d7603!19sChIJ-TIKWL2dmTkRAgK2-tfFWYU?authuser=0&hl=en&rclk=1",
        "coordinates": {
            "latitude": 27.1655017,
            "longitude": 81.5377365
        }
    },
    {
        "name": "Jama Masjid",
        "main_category": "Mosque",
        "address": "5G8R+GM4 Jama Masjid, Jarwal, Uttar Pradesh 271904",
        "detailed_address": {
            "ward": null,
            "street": "5G8R+GM4",
            "city": "Jarwal",
            "postal_code": "271904",
            "state": "Uttar Pradesh",
            "country_code": "IN"
        },
        "images": [
            {
                "about": "All",
                "link": "https://lh5.googleusercontent.com/p/AF1QipPTT0iB2glNRwefhGDCAW-R4nprBrdTlRR0AwUq=w224-h298-k-no"
            },
            {
                "about": "Videos",
                "link": "https://lh5.googleusercontent.com/p/AF1QipPC1XmFZ6RRxdqWO_h4nLaVMdC3Z-nV7qMiZJQ_=w224-h398-k-no"
            }
        ],
        "link": "https://www.google.com/maps/place/Jama+Masjid/data=!4m7!3m6!1s0x39999dbcc0ea2ac9:0xee5d900af56c7af2!8m2!3d27.166259!4d81.541709!16s%2Fg%2F11c5_vyvlb!19sChIJySrqwLydmTkR8nps9QqQXe4?authuser=0&hl=en&rclk=1",
        "coordinates": {
            "latitude": 27.166259,
            "longitude": 81.541709
        }
    },
    {
        "name": "takiya masjid",
        "main_category": "Religious destination",
        "address": "5G6R+V8P takiya masjid, Jarwal, Uttar Pradesh 271904",
        "detailed_address": {
            "ward": null,
            "street": "5G6R+V8P",
            "city": "Jarwal",
            "postal_code": "271904",
            "state": "Uttar Pradesh",
            "country_code": "IN"
        },
        "images": [
            {
                "about": "All",
                "link": "https://lh5.googleusercontent.com/p/AF1QipP2BibmL5Mg16vrfq9DQnQ7MDke4H8frPHzD1Ky=w224-h298-k-no"
            },
            {
                "about": "Videos",
                "link": "https://lh5.googleusercontent.com/p/AF1QipP8zS6SyMp0DmUq1ksNwHvvuHnLwp53DIVuyNwo=w224-h398-k-no"
            }
        ],
        "link": "https://www.google.com/maps/place/takiya+masjid/data=!4m7!3m6!1s0x39999d7d42eebdd1:0x5da864282232e9f5!8m2!3d27.1622132!4d81.540813!16s%2Fg%2F11h7r07d15!19sChIJ0b3uQn2dmTkR9ekyIihkqF0?authuser=0&hl=en&rclk=1",
        "coordinates": {
            "latitude": 27.1622132,
            "longitude": 81.540813
        }
    },
    {
        "name": "Jamia masjid Thikreyal",
        "main_category": "Mosque",
        "address": "FRMM+494 Jamia masjid Thikreyal, Jarwal, Sialkot, Punjab, Pakistan",
        "detailed_address": {
            "ward": null,
            "street": "FRMM+494",
            "city": "Jarwal",
            "postal_code": null,
            "state": "Sialkot, Punjab",
            "country_code": "PK"
        },
        "images": [
            {
                "about": "All",
                "link": "https://lh5.googleusercontent.com/p/AF1QipONIzBRsP5g5bwDkJsW1Ri_0nVzGksbfcWiPbwJ=w520-h298-k-no"
            },
            {
                "about": "Latest",
                "link": "https://lh5.googleusercontent.com/p/AF1QipOPeGh93bU1dwWAsXa2l-BICB8zm3JDQAKqqORs=w224-h298-k-no"
            }
        ],
        "link": "https://www.google.com/maps/place/Jamia+masjid+Thikreyal/data=!4m7!3m6!1s0x391ea3610179b0f1:0xbe66dac462de67db!8m2!3d32.4827508!4d74.8334602!16s%2Fg%2F11fqhphdqg!19sChIJ8bB5AWGjHjkR22feYsTaZr4?authuser=0&hl=en&rclk=1",
        "coordinates": {
            "latitude": 32.4827508,
            "longitude": 74.83346019999999
        }
    },
    {
        "name": "Masjid E Yusuf",
        "main_category": "Mosque",
        "address": "5G9P+JX3 Masjid E Yusuf, Jarwal, Uttar Pradesh 271904",
        "detailed_address": {
            "ward": null,
            "street": "5G9P+JX3",
            "city": "Jarwal",
            "postal_code": "271904",
            "state": "Uttar Pradesh",
            "country_code": "IN"
        },
        "images": [
            {
                "about": "All",
                "link": "https://lh5.googleusercontent.com/p/AF1QipOHh6d_E5aJDWHUmgoJoI_2cmS-wfrrKSumPP-F=w529-h298-k-no"
            },
            {
                "about": "Videos",
                "link": "https://lh5.googleusercontent.com/p/AF1QipOp5vMyl2P4CgYtney2QmS2RtL2Ng40QB4ghLkl=w224-h398-k-no"
            }
        ],
        "link": "https://www.google.com/maps/place/Masjid+E+Yusuf/data=!4m7!3m6!1s0x39999d86398c308d:0x29f5e8f667071761!8m2!3d27.1688587!4d81.5377447!16s%2Fg%2F11s0ktpcvm!19sChIJjTCMOYadmTkRYRcHZ_bo9Sk?authuser=0&hl=en&rclk=1",
        "coordinates": {
            "latitude": 27.168858699999998,
            "longitude": 81.53774469999999
        }
    },
    {
        "name": "Masjid E Hafiz Sardar",
        "main_category": "Mosque",
        "address": "5G6V+QXH Masjid E Hafiz Sardar, Jarwal, Uttar Pradesh 271904",
        "detailed_address": {
            "ward": null,
            "street": "5G6V+QXH",
            "city": "Jarwal",
            "postal_code": "271904",
            "state": "Uttar Pradesh",
            "country_code": "IN"
        },
        "images": [],
        "link": "https://www.google.com/maps/place/Masjid+E+Hafiz+Sardar/data=!4m7!3m6!1s0x39999da45bf5e1ed:0x2b1fe5ecdafe5a18!8m2!3d27.1619356!4d81.5449952!16s%2Fg%2F11hbtp8lkl!19sChIJ7eH1W6SdmTkRGFr-2uzlHys?authuser=0&hl=en&rclk=1",
        "coordinates": {
            "latitude": 27.1619356,
            "longitude": 81.5449952
        }
    },
    {
        "name": "Ek Minara Masjid",
        "main_category": "Mosque",
        "address": "5G7Q+87X Ek Minara Masjid, Jarwal, Uttar Pradesh 271904",
        "detailed_address": {
            "ward": null,
            "street": "5G7Q+87X",
            "city": "Jarwal",
            "postal_code": "271904",
            "state": "Uttar Pradesh",
            "country_code": "IN"
        },
        "images": [],
        "link": "https://www.google.com/maps/place/Ek+Minara+Masjid/data=!4m7!3m6!1s0x39999da2987b1d0f:0x7f4540dc4709801a!8m2!3d27.1633561!4d81.5382473!16s%2Fg%2F11f5542nyx!19sChIJDx17mKKdmTkRGoAJR9xARX8?authuser=0&hl=en&rclk=1",
        "coordinates": {
            "latitude": 27.163356099999998,
            "longitude": 81.5382473
        }
    },
    {
        "name": "Ayyubiya Masjid",
        "main_category": "Mosque",
        "address": "5G6V+3P3 Ayyubiya Masjid, Jarwal, Uttar Pradesh 271904",
        "detailed_address": {
            "ward": null,
            "street": "5G6V+3P3",
            "city": "Jarwal",
            "postal_code": "271904",
            "state": "Uttar Pradesh",
            "country_code": "IN"
        },
        "images": [],
        "link": "https://www.google.com/maps/place/Ayyubiya+Masjid/data=!4m7!3m6!1s0x39999d8c1dee19e9:0xa04a7342a10dee59!8m2!3d27.1601368!4d81.5443039!16s%2Fg%2F11hdsp8bsx!19sChIJ6RnuHYydmTkRWe4NoUJzSqA?authuser=0&hl=en&rclk=1",
        "coordinates": {
            "latitude": 27.1601368,
            "longitude": 81.5443039
        }
    },
    {
        "name": "Jamia Masoodia Ahle Sunnat Islahul Muslimin",
        "main_category": "Mosque",
        "address": "5G7P+V6Q Jamia Masoodia Ahle Sunnat Islahul Muslimin, Jarwal, Uttar Pradesh 271904",
        "detailed_address": {
            "ward": null,
            "street": "5G7P+V6Q",
            "city": "Jarwal",
            "postal_code": "271904",
            "state": "Uttar Pradesh",
            "country_code": "IN"
        },
        "images": [
            {
                "about": "All",
                "link": "https://streetviewpixels-pa.googleapis.com/v1/thumbnail?panoid=2zdx7BAJ0-ESJoxowZ8Q4Q&cb_client=maps_sv.tactile.gps&w=224&h=298&yaw=42.37861&pitch=0&thumbfov=100"
            },
            {
                "about": "Street View & 360deg",
                "link": "https://streetviewpixels-pa.googleapis.com/v1/thumbnail?panoid=2zdx7BAJ0-ESJoxowZ8Q4Q&cb_client=maps_sv.tactile.gps&w=224&h=298&yaw=42.37861&pitch=0&thumbfov=100"
            }
        ],
        "link": "https://www.google.com/maps/place/Jamia+Masoodia+Ahle+Sunnat+Islahul+Muslimin/data=!4m7!3m6!1s0x39999d9787fa3c8d:0xc3649f57ec74bb29!8m2!3d27.1647196!4d81.5356075!16s%2Fg%2F11dyx7z7xs!19sChIJjTz6h5edmTkRKbt07FefZMM?authuser=0&hl=en&rclk=1",
        "coordinates": {
            "latitude": 27.164719599999998,
            "longitude": 81.5356075
        }
    },
    {
        "name": "Shia masjid Vairakazi",
        "main_category": "Mosque",
        "address": "5G7R+9RP Shia masjid Vairakazi, Jarwal, Uttar Pradesh 271904",
        "detailed_address": {
            "ward": null,
            "street": "5G7R+9RP",
            "city": "Jarwal",
            "postal_code": "271904",
            "state": "Uttar Pradesh",
            "country_code": "IN"
        },
        "images": [
            {
                "about": "All",
                "link": "https://lh5.googleusercontent.com/p/AF1QipPfVt_vuCRbOAvDlYVQm00LjOTN0hCdx8rkkAjS=w529-h298-k-no"
            }
        ],
        "link": "https://www.google.com/maps/place/Shia+masjid+Vairakazi/data=!4m7!3m6!1s0x39999dfcbe7e63d7:0x5d0362c20a47af80!8m2!3d27.1634594!4d81.5420902!16s%2Fg%2F11f7nldtx5!19sChIJ12N-vvydmTkRgK9HCsJiA10?authuser=0&hl=en&rclk=1",
        "coordinates": {
            "latitude": 27.163459399999997,
            "longitude": 81.54209019999999
        }
    },
    {
        "name": "Amina Kareem Masjid",
        "main_category": "Mosque",
        "address": "5G5R+V7R Amina Kareem Masjid, Jarwal Rd, Naya Purwa, Jarwal, Uttar Pradesh 271904",
        "detailed_address": {
            "ward": null,
            "street": "5G5R+V7R, Jarwal Rd",
            "city": "Naya Purwa, Jarwal",
            "postal_code": "271904",
            "state": "Uttar Pradesh",
            "country_code": "IN"
        },
        "images": [
            {
                "about": "All",
                "link": "https://lh5.googleusercontent.com/p/AF1QipN59IrrsS55Tk6qQ-2PNedrLhkLVsJRJtWg9F-1=w397-h298-k-no"
            }
        ],
        "link": "https://www.google.com/maps/place/Amina+Kareem+Masjid/data=!4m7!3m6!1s0x39999deb4e6bbe1b:0xed263e20d9044686!8m2!3d27.1597369!4d81.5406535!16s%2Fg%2F11r3hvbgsx!19sChIJG75rTuudmTkRhkYE2SA-Ju0?authuser=0&hl=en&rclk=1",
        "coordinates": {
            "latitude": 27.1597369,
            "longitude": 81.54065349999999
        }
    },
    {
        "name": "Masjid Of Madarsha Jaliliya Furqaniya",
        "main_category": "Mosque",
        "address": "5G8R+572 Masjid Of Madarsha Jaliliya Furqaniya, Jarwal, Uttar Pradesh 271904",
        "detailed_address": {
            "ward": null,
            "street": "5G8R+572",
            "city": "Jarwal",
            "postal_code": "271904",
            "state": "Uttar Pradesh",
            "country_code": "IN"
        },
        "images": [],
        "link": "https://www.google.com/maps/place/Masjid+Of+Madarsha+Jaliliya+Furqaniya/data=!4m7!3m6!1s0x39999dbcd6841453:0xe6ea4b77326a031a!8m2!3d27.1653902!4d81.5406417!16s%2Fg%2F11f3_x5s2_!19sChIJUxSE1rydmTkRGgNqMndL6uY?authuser=0&hl=en&rclk=1",
        "coordinates": {
            "latitude": 27.165390199999997,
            "longitude": 81.5406417
        }
    },
    {
        "name": "Ahmad Shah Masjid",
        "main_category": "Mosque",
        "address": "5G9Q+9Q7 Ahmad Shah Masjid, Jarwal, Uttar Pradesh 271904",
        "detailed_address": {
            "ward": null,
            "street": "5G9Q+9Q7",
            "city": "Jarwal",
            "postal_code": "271904",
            "state": "Uttar Pradesh",
            "country_code": "IN"
        },
        "images": [],
        "link": "https://www.google.com/maps/place/Ahmad+Shah+Masjid/data=!4m7!3m6!1s0x39999dbda37dc103:0x5a2c967e584c1645!8m2!3d27.1684166!4d81.5394095!16s%2Fg%2F11f3c_rf52!19sChIJA8F9o72dmTkRRRZMWH6WLFo?authuser=0&hl=en&rclk=1",
        "coordinates": {
            "latitude": 27.1684166,
            "longitude": 81.53940949999999
        }
    },
    {
        "name": "jama masjid shia ya husaain",
        "main_category": "Mosque",
        "address": "5G7R+PJ6 jama masjid shia ya husaain, Jarwal, Uttar Pradesh 271904",
        "detailed_address": {
            "ward": null,
            "street": "5G7R+PJ6",
            "city": "Jarwal",
            "postal_code": "271904",
            "state": "Uttar Pradesh",
            "country_code": "IN"
        },
        "images": [],
        "link": "https://www.google.com/maps/place/jama+masjid+shia+ya+husaain/data=!4m7!3m6!1s0x39999dda784ce2e9:0x9a2b1e6b3f6954f6!8m2!3d27.1642946!4d81.5415057!16s%2Fg%2F11gk91gs3p!19sChIJ6eJMeNqdmTkR9lRpP2seK5o?authuser=0&hl=en&rclk=1",
        "coordinates": {
            "latitude": 27.164294599999998,
            "longitude": 81.5415057
        }
    },
    {
        "name": "dafalipurwal masjid",
        "main_category": "Mosque",
        "address": "5G9R+23V dafalipurwal masjid, Bahraich Rd, Jarwal, Uttar Pradesh 271904",
        "detailed_address": {
            "ward": null,
            "street": "5G9R+23V, Bahraich Rd",
            "city": "Jarwal",
            "postal_code": "271904",
            "state": "Uttar Pradesh",
            "country_code": "IN"
        },
        "images": [
            {
                "about": "All",
                "link": "https://streetviewpixels-pa.googleapis.com/v1/thumbnail?panoid=LE36svIJACORbllBWZf2xg&cb_client=maps_sv.tactile.gps&w=224&h=298&yaw=357.036&pitch=0&thumbfov=100"
            },
            {
                "about": "Street View & 360deg",
                "link": "https://streetviewpixels-pa.googleapis.com/v1/thumbnail?panoid=LE36svIJACORbllBWZf2xg&cb_client=maps_sv.tactile.gps&w=224&h=298&yaw=357.036&pitch=0&thumbfov=100"
            }
        ],
        "link": "https://www.google.com/maps/place/dafalipurwal+masjid/data=!4m7!3m6!1s0x39999dbd013fa5bd:0xd23e9b61d3ccdb87!8m2!3d27.1676226!4d81.5401782!16s%2Fg%2F11g6rklf0y!19sChIJvaU_Ab2dmTkRh9vM02GbPtI?authuser=0&hl=en&rclk=1",
        "coordinates": {
            "latitude": 27.167622599999998,
            "longitude": 81.5401782
        }
    },
    {
        "name": "Eidgah",
        "main_category": "Mosque",
        "address": "5G8P+5PX Eidgah, Jarwal, Uttar Pradesh 271904",
        "detailed_address": {
            "ward": null,
            "street": "5G8P+5PX",
            "city": "Jarwal",
            "postal_code": "271904",
            "state": "Uttar Pradesh",
            "country_code": "IN"
        },
        "images": [],
        "link": "https://www.google.com/maps/place/Eidgah/data=!4m7!3m6!1s0x39999d97f0298cb5:0x9fc33d6709372079!8m2!3d27.1654934!4d81.5368671!16s%2Fg%2F11f2ckrhf4!19sChIJtYwp8JedmTkReSA3CWc9w58?authuser=0&hl=en&rclk=1",
        "coordinates": {
            "latitude": 27.1654934,
            "longitude": 81.5368671
        }
    },
    {
        "name": "Karbla Masjid Jarwal Kasba",
        "main_category": "Mosque",
        "address": "5GFP+JXF Karbla Masjid Jarwal Kasba, Surajana Jafar Mehadi, Uttar Pradesh 271904",
        "detailed_address": {
            "ward": null,
            "street": "5GFP+JXF",
            "city": "Surajana Jafar Mehadi",
            "postal_code": null,
            "state": "Uttar Pradesh",
            "country_code": "IN"
        },
        "images": [],
        "link": "https://www.google.com/maps/place/Karbla+Masjid+Jarwal+Kasba/data=!4m7!3m6!1s0x39999dafaef95511:0x5e93cd80fb286dc5!8m2!3d27.1740702!4d81.5374311!16s%2Fg%2F11sq5f8hrq!19sChIJEVX5rq-dmTkRxW0o-4DNk14?authuser=0&hl=en&rclk=1",
        "coordinates": {
            "latitude": 27.1740702,
            "longitude": 81.53743109999999
        }
    },
    {
        "name": "Masjid Al Bilal",
        "main_category": "Mosque",
        "address": "5G7Q+9JG Masjid Al Bilal, town, Jarwal, Uttar Pradesh 271904",
        "detailed_address": {
            "ward": null,
            "street": "5G7Q+9JG, town",
            "city": "Jarwal",
            "postal_code": null,
            "state": "Uttar Pradesh",
            "country_code": "IN"
        },
        "images": [
            {
                "about": "All",
                "link": "https://lh5.googleusercontent.com/p/AF1QipNlcIqNHz37KtvHN76DlCzEuwl2mpNUBSQ0rc0r=w529-h298-k-no"
            }
        ],
        "link": "https://www.google.com/maps/place/Masjid+Al+Bilal/data=!4m7!3m6!1s0x39999da8ee89ac57:0xc4be2a6f6807e2ab!8m2!3d27.1634436!4d81.5390728!16s%2Fg%2F11k1ls5dty!19sChIJV6yJ7qidmTkRq-IHaG8qvsQ?authuser=0&hl=en&rclk=1",
        "coordinates": {
            "latitude": 27.163443599999997,
            "longitude": 81.5390728
        }
    },
    {
        "name": "Hashmi Pura Masjid",
        "main_category": "Mosque",
        "address": "Hashmi Pura Masjid, Jarwal kasba dusre, Jarwal, Uttar Pradesh 271904",
        "detailed_address": {
            "ward": null,
            "street": "Jarwal kasba dusre",
            "city": "Jarwal",
            "postal_code": "271904",
            "state": "Uttar Pradesh",
            "country_code": "IN"
        },
        "images": [
            {
                "about": "All",
                "link": "https://lh5.googleusercontent.com/p/AF1QipN-of9veDNXZ2h7p3pJjg8y6HQw-crXxL7Asz3b=w224-h472-k-no"
            },
            {
                "about": "By owner",
                "link": "https://lh5.googleusercontent.com/p/AF1QipN-of9veDNXZ2h7p3pJjg8y6HQw-crXxL7Asz3b=w224-h472-k-no"
            }
        ],
        "link": "https://www.google.com/maps/place/Hashmi+Pura+Masjid/data=!4m7!3m6!1s0x39999df1b359d649:0x278cbb6f0c7649a2!8m2!3d27.1634436!4d81.5390728!16s%2Fg%2F11n0cl589n!19sChIJSdZZs_GdmTkRokl2DG-7jCc?authuser=0&hl=en&rclk=1",
        "coordinates": {
            "latitude": 27.163443599999997,
            "longitude": 81.5390728
        }
    },
    {
        "name": "Shia gahwara wali masjid labbaik ya hussain",
        "main_category": "Mosque",
        "address": "5G7R+H8R Shia gahwara wali masjid labbaik ya hussain, Jarwal, Uttar Pradesh 271904",
        "detailed_address": {
            "ward": null,
            "street": "5G7R+H8R",
            "city": "Jarwal",
            "postal_code": "271904",
            "state": "Uttar Pradesh",
            "country_code": "IN"
        },
        "images": [
            {
                "about": "All",
                "link": "https://lh5.googleusercontent.com/p/AF1QipOdVnOzNSPTdrdZWNc7i_OAcf5UXuK41mSnLmcx=w298-h298-k-no"
            }
        ],
        "link": "https://www.google.com/maps/place/Shia+gahwara+wali+masjid+labbaik+ya+hussain/data=!4m7!3m6!1s0x39999d561a7f9fd3:0xe7e6e3ba895b5ea!8m2!3d27.1639914!4d81.540774!16s%2Fg%2F11g2yy_l0h!19sChIJ059_GladmTkR6rWVqDtufg4?authuser=0&hl=en&rclk=1",
        "coordinates": {
            "latitude": 27.1639914,
            "longitude": 81.540774
        }
    }
]