[
    {
        "name": "Jama Masjid Shilphata",
        "main_category": "Mosque",
        "address": "Jama Masjid Shilphata, Yashwant Nagar, Khopoli, Maharashtra 410203",
        "detailed_address": {
            "ward": "Yashwant Nagar",
            "street": null,
            "city": "Khopoli",
            "postal_code": "410203",
            "state": "Maharashtra",
            "country_code": "IN"
        },
        "images": [
            {
                "about": "All",
                "link": "https://lh5.googleusercontent.com/p/AF1QipMK0DfzwwZSbpkmqw61-P9SphL0Kpmh1vYwxfyl=w397-h298-k-no"
            },
            {
                "about": "Dome",
                "link": "https://lh5.googleusercontent.com/p/AF1QipPADbkNzD7hqPFZWz-iNODYhsDLm7ksb3Wgb0Ip=w224-h448-k-no"
            },
            {
                "about": "Street View & 360deg",
                "link": "https://streetviewpixels-pa.googleapis.com/v1/thumbnail?panoid=YIY7Crs2wlRHypegT6b1Yw&cb_client=maps_sv.tactile.gps&w=224&h=298&yaw=154.13918&pitch=0&thumbfov=100"
            }
        ],
        "link": "https://www.google.com/maps/place/Jama+Masjid+Shilphata/data=!4m7!3m6!1s0x3be80781bd9cd7ab:0xa08acd2f81116bc0!8m2!3d18.800191!4d73.3216934!16s%2Fg%2F11bwrf98c0!19sChIJq9ecvYEH6DsRwGsRgS_NiqA?authuser=0&hl=en&rclk=1",
        "coordinates": {
            "latitude": 18.800190999999998,
            "longitude": 73.3216934
        }
    },
    {
        "name": "Jama Masjid Khopoli",
        "main_category": "Mosque",
        "address": "Q8QW+53C Jama Masjid Khopoli, Bazarpeth, Laxminagar, Khopoli, Maharashtra 410203",
        "detailed_address": {
            "ward": "Bazarpeth, Laxminagar",
            "street": "Q8QW+53C",
            "city": "Khopoli",
            "postal_code": "410203",
            "state": "Maharashtra",
            "country_code": "IN"
        },
        "images": [
            {
                "about": "All",
                "link": "https://lh5.googleusercontent.com/p/AF1QipMW_Sce6z36XvkzOo63LcdXmVJBFDeaLPXOOb0m=w224-h398-k-no"
            },
            {
                "about": "Street View & 360deg",
                "link": "https://streetviewpixels-pa.googleapis.com/v1/thumbnail?panoid=d1-HU_KGzIcSPbALxNcLhg&cb_client=maps_sv.tactile.gps&w=224&h=298&yaw=352.5776&pitch=0&thumbfov=100"
            },
            {
                "about": "Videos",
                "link": "https://lh5.googleusercontent.com/p/AF1QipPHcWDg-9OFEaAVx5L3E5Mvm798o-5nT6zuhkN7=w224-h398-k-no"
            }
        ],
        "link": "https://www.google.com/maps/place/Jama+Masjid+Khopoli/data=!4m7!3m6!1s0x3be8076a380f168d:0x54484787b653e348!8m2!3d18.7879289!4d73.3451329!16s%2Fg%2F11c42pkc6j!19sChIJjRYPOGoH6DsRSONTtodHSFQ?authuser=0&hl=en&rclk=1",
        "coordinates": {
            "latitude": 18.7879289,
            "longitude": 73.3451329
        }
    },
    {
        "name": "Masjid Anwar-E-madina",
        "main_category": "Mosque",
        "address": "Q8MR+PJM Masjid Anwar-E-madina, Veena Nagar, Sri Swami Samarth Nagar, Khopoli, Maharashtra 410203",
        "detailed_address": {
            "ward": "Veena Nagar, Sri Swami Samarth Nagar",
            "street": "Q8MR+PJM",
            "city": "Khopoli",
            "postal_code": "410203",
            "state": "Maharashtra",
            "country_code": "IN"
        },
        "images": [
            {
                "about": "All",
                "link": "https://streetviewpixels-pa.googleapis.com/v1/thumbnail?panoid=uQF3GiXObotgzbBFi53Dyw&cb_client=maps_sv.tactile.gps&w=224&h=298&yaw=153.29599&pitch=0&thumbfov=100"
            },
            {
                "about": "Street View & 360deg",
                "link": "https://streetviewpixels-pa.googleapis.com/v1/thumbnail?panoid=uQF3GiXObotgzbBFi53Dyw&cb_client=maps_sv.tactile.gps&w=224&h=298&yaw=153.29599&pitch=0&thumbfov=100"
            }
        ],
        "link": "https://www.google.com/maps/place/Masjid+Anwar-E-madina/data=!4m7!3m6!1s0x3be8076b58d481f1:0xcedb59f3f8647bb!8m2!3d18.7843269!4d73.3415535!16s%2Fg%2F11bw618mjy!19sChIJ8YHUWGsH6DsRu0eGP5-17Qw?authuser=0&hl=en&rclk=1",
        "coordinates": {
            "latitude": 18.7843269,
            "longitude": 73.3415535
        }
    },
    {
        "name": "Sunni Shafi Masjid",
        "main_category": "Mosque",
        "address": "Q8JV+MW8 Sunni Shafi Masjid, Bhanvaj Rd, Sri Swami Samarth Nagar, Khopoli, Maharashtra 410203",
        "detailed_address": {
            "ward": "Sri Swami Samarth Nagar",
            "street": "Q8JV+MW8, Bhanvaj Rd",
            "city": "Khopoli",
            "postal_code": "410203",
            "state": "Maharashtra",
            "country_code": "IN"
        },
        "images": [
            {
                "about": "All",
                "link": "https://lh5.googleusercontent.com/p/AF1QipNFjjy9T2lFYEFpNLG39Y4UigtU5TnJn-wGV7Sy=w224-h298-k-no"
            },
            {
                "about": "Videos",
                "link": "https://lh5.googleusercontent.com/p/AF1QipN1x3PMRxBE1KXDMAN2let6gYFQoHL6frzb2pIA=w224-h398-k-no"
            }
        ],
        "link": "https://www.google.com/maps/place/Sunni+Shafi+Masjid/data=!4m7!3m6!1s0x3be807150eb59377:0x84e857a60cf2e5f5!8m2!3d18.7816671!4d73.3448407!16s%2Fg%2F11c1rsl3fy!19sChIJd5O1DhUH6DsR9eXyDKZX6IQ?authuser=0&hl=en&rclk=1",
        "coordinates": {
            "latitude": 18.7816671,
            "longitude": 73.34484069999999
        }
    },
    {
        "name": "Jamaa Masjid Hall",
        "main_category": "Mosque",
        "address": "R868+6CR Jamaa Masjid Hall, Millat Nagar, Khopoli, Hal Kh., Maharashtra 410203",
        "detailed_address": {
            "ward": "Millat Nagar",
            "street": "R868+6CR",
            "city": "Khopoli, Hal Kh.",
            "postal_code": "410203",
            "state": "Maharashtra",
            "country_code": "IN"
        },
        "images": [
            {
                "about": "All",
                "link": "https://lh5.googleusercontent.com/p/AF1QipMI6eEGdP44pXtiSr4CbwLLhDbW_2gLYPsEWWoQ=w224-h398-k-no"
            },
            {
                "about": "Street View & 360deg",
                "link": "https://streetviewpixels-pa.googleapis.com/v1/thumbnail?panoid=GJ7-0BsMUpplS_Sva6XPJA&cb_client=maps_sv.tactile.gps&w=224&h=298&yaw=263.5097&pitch=0&thumbfov=100"
            },
            {
                "about": "Videos",
                "link": "https://lh5.googleusercontent.com/p/AF1QipNgiZbDdBv-FAaMyKo5SXLYKNROBlaiCAm_k0-e=w224-h398-k-no"
            }
        ],
        "link": "https://www.google.com/maps/place/Jamaa+Masjid+Hall/data=!4m7!3m6!1s0x3be7fd7b93cd9fd9:0xe8870969a8059304!8m2!3d18.8106042!4d73.3160209!16s%2Fg%2F11c3tblqs3!19sChIJ2Z_Nk3v95zsRBJMFqGkJh-g?authuser=0&hl=en&rclk=1",
        "coordinates": {
            "latitude": 18.8106042,
            "longitude": 73.3160209
        }
    },
    {
        "name": "Bhori Masjid Khopoli",
        "main_category": "Mosque",
        "address": "Q8QR+CJF Bhori Masjid Khopoli, Indira Nagar, Laxminagar, Khopoli, Maharashtra 410203",
        "detailed_address": {
            "ward": "Indira Nagar, Laxminagar",
            "street": "Q8QR+CJF",
            "city": "Khopoli",
            "postal_code": "410203",
            "state": "Maharashtra",
            "country_code": "IN"
        },
        "images": [],
        "link": "https://www.google.com/maps/place/Bhori+Masjid+Khopoli/data=!4m7!3m6!1s0x3be8076bf8dd9c85:0xec5d22f61081d77!8m2!3d18.788565!4d73.3415458!16s%2Fg%2F11f_101_z9!19sChIJhZzd-GsH6DsRdx0IYS_SxQ4?authuser=0&hl=en&rclk=1",
        "coordinates": {
            "latitude": 18.788565,
            "longitude": 73.34154579999999
        }
    },
    {
        "name": "Millat Nagar Masjid",
        "main_category": "Mosque",
        "address": "R859+P8F Millat Nagar Masjid, Millat Nagar, Khopoli, Maharashtra 410203",
        "detailed_address": {
            "ward": "Millat Nagar",
            "street": "R859+P8F",
            "city": "Khopoli",
            "postal_code": "410203",
            "state": "Maharashtra",
            "country_code": "IN"
        },
        "images": [
            {
                "about": "All",
                "link": "https://streetviewpixels-pa.googleapis.com/v1/thumbnail?panoid=3wH2ehrjOvk_z3BYV_HIOw&cb_client=maps_sv.tactile.gps&w=224&h=298&yaw=10.566627&pitch=0&thumbfov=100"
            },
            {
                "about": "Street View & 360deg",
                "link": "https://streetviewpixels-pa.googleapis.com/v1/thumbnail?panoid=3wH2ehrjOvk_z3BYV_HIOw&cb_client=maps_sv.tactile.gps&w=224&h=298&yaw=10.566627&pitch=0&thumbfov=100"
            }
        ],
        "link": "https://www.google.com/maps/place/Millat+Nagar+Masjid/data=!4m7!3m6!1s0x3be7fd7eaf1086a7:0x59afa120941ab260!8m2!3d18.8093197!4d73.3182882!16s%2Fg%2F11dxf1j1jw!19sChIJp4YQr3795zsRYLIalCChr1k?authuser=0&hl=en&rclk=1",
        "coordinates": {
            "latitude": 18.8093197,
            "longitude": 73.3182882
        }
    },
    {
        "name": "Noorani Masjid",
        "main_category": "Mosque",
        "address": "R83W+V2V Noorani Masjid, Subhash Nagar, Khopoli, Maharashtra 410203",
        "detailed_address": {
            "ward": "Subhash Nagar",
            "street": "R83W+V2V",
            "city": "Khopoli",
            "postal_code": "410203",
            "state": "Maharashtra",
            "country_code": "IN"
        },
        "images": [
            {
                "about": "All",
                "link": "https://lh5.googleusercontent.com/p/AF1QipNkHlex0hUJpBy4kVC1Rcjm-kMq6841ADC1tCGZ=w224-h398-k-no"
            }
        ],
        "link": "https://www.google.com/maps/place/Noorani+Masjid/data=!4m7!3m6!1s0x3be807604f5a46b3:0x53e0d33fb841d58!8m2!3d18.8047426!4d73.3450494!16s%2Fg%2F11fx96pr3b!19sChIJs0ZaT2AH6DsRWB2E-zMNPgU?authuser=0&hl=en&rclk=1",
        "coordinates": {
            "latitude": 18.8047426,
            "longitude": 73.3450494
        }
    },
    {
        "name": "Sunni Juma Masjid",
        "main_category": "Mosque",
        "address": "Sunni Juma Masjid, HAL KHURD TAL.KHALAPUR Opposite UK's resort KHALAPUR, Khopoli, Maharashtra 410203",
        "detailed_address": {
            "ward": null,
            "street": "HAL KHURD TAL.KHALAPUR Opposite UK's resort KHALAPUR",
            "city": "Khopoli, Hal Kh.",
            "postal_code": "410203",
            "state": "Maharashtra",
            "country_code": "IN"
        },
        "images": [
            {
                "about": "All",
                "link": "https://lh5.googleusercontent.com/p/AF1QipMjtkO1I73SVP2TevEm_tMZ3k850E8o2ZFI3aTs=w529-h298-k-no"
            }
        ],
        "link": "https://www.google.com/maps/place/Sunni+Juma+Masjid/data=!4m7!3m6!1s0x3be7fd692320e227:0x969d5332c7a92db1!8m2!3d18.818189!4d73.3057093!16s%2Fg%2F11gf9f61nv!19sChIJJ-IgI2n95zsRsS2pxzJTnZY?authuser=0&hl=en&rclk=1",
        "coordinates": {
            "latitude": 18.818189,
            "longitude": 73.3057093
        }
    },
    {
        "name": "KGN Shaafai Masjid",
        "main_category": "Mosque",
        "address": "Q8JV+MW8 KGN Shaafai Masjid, Bhanvaj Rd, Sri Swami Samarth Nagar, Khopoli, Maharashtra 410203",
        "detailed_address": {
            "ward": "Sri Swami Samarth Nagar",
            "street": "Q8JV+MW8, Bhanvaj Rd",
            "city": "Khopoli",
            "postal_code": "410203",
            "state": "Maharashtra",
            "country_code": "IN"
        },
        "images": [
            {
                "about": "All",
                "link": "https://lh5.googleusercontent.com/p/AF1QipOzN9x11rWOwP977giluLRInMjgoqaDHax6YVj_=w224-h298-k-no"
            },
            {
                "about": "Videos",
                "link": "https://lh5.googleusercontent.com/p/AF1QipNxlp3YeQkvN9-3fwgeVszfvkquW6JWv45GpC6e=w224-h398-k-no"
            }
        ],
        "link": "https://www.google.com/maps/place/KGN+Shaafai+Masjid/data=!4m7!3m6!1s0x3be8071251f47969:0x2570e8513dec89a3!8m2!3d18.7817456!4d73.3448509!16s%2Fg%2F11s_vw6jkp!19sChIJaXn0URIH6DsRo4nsPVHocCU?authuser=0&hl=en&rclk=1",
        "coordinates": {
            "latitude": 18.7817456,
            "longitude": 73.3448509
        }
    },
    {
        "name": "Husainniya Masjid",
        "main_category": "Mosque",
        "address": "R859+P7X Husainniya Masjid, Millat Nagar, Khopoli, Maharashtra 410203",
        "detailed_address": {
            "ward": "Millat Nagar",
            "street": "R859+P7X",
            "city": "Khopoli",
            "postal_code": "410203",
            "state": "Maharashtra",
            "country_code": "IN"
        },
        "images": [
            {
                "about": "All",
                "link": "https://streetviewpixels-pa.googleapis.com/v1/thumbnail?panoid=6GvLXPT6RKzMNHJ78Uwqqw&cb_client=maps_sv.tactile.gps&w=224&h=298&yaw=274.7489&pitch=0&thumbfov=100"
            },
            {
                "about": "Street View & 360deg",
                "link": "https://streetviewpixels-pa.googleapis.com/v1/thumbnail?panoid=6GvLXPT6RKzMNHJ78Uwqqw&cb_client=maps_sv.tactile.gps&w=224&h=298&yaw=274.7489&pitch=0&thumbfov=100"
            }
        ],
        "link": "https://www.google.com/maps/place/Husainniya+Masjid/data=!4m7!3m6!1s0x3be7fd7eaed7167d:0x6c48b9230382d861!8m2!3d18.8093718!4d73.3182193!16s%2Fg%2F11cls6g075!19sChIJfRbXrn795zsRYdiCAyO5SGw?authuser=0&hl=en&rclk=1",
        "coordinates": {
            "latitude": 18.809371799999997,
            "longitude": 73.3182193
        }
    },
    {
        "name": "BILAL MASJID",
        "main_category": "Place of worship",
        "address": "Q9R3+88M BILAL MASJID, Prakash Nagar, Siddhartha Nagar, Khopoli, Maharashtra 410204",
        "detailed_address": {
            "ward": "Prakash Nagar, Siddhartha Nagar",
            "street": "Q9R3+88M",
            "city": "Khopoli",
            "postal_code": "410204",
            "state": "Maharashtra",
            "country_code": "IN"
        },
        "images": [],
        "link": "https://www.google.com/maps/place/BILAL+MASJID/data=!4m7!3m6!1s0x3be80733faf328d3:0xce013caf48649133!8m2!3d18.7909886!4d73.3538853!16s%2Fg%2F11v9skcrk9!19sChIJ0yjz-jMH6DsRM5FkSK88Ac4?authuser=0&hl=en&rclk=1",
        "coordinates": {
            "latitude": 18.7909886,
            "longitude": 73.3538853
        }
    },
    {
        "name": "Khopoli Sunni Muslim Kabrastan",
        "main_category": "Mosque",
        "address": "R82F+R74 Khopoli Sunni Muslim Kabrastan, Shri Ram Nagar, Khopoli, Maharashtra 410203",
        "detailed_address": {
            "ward": "Shri Ram Nagar",
            "street": "R82F+R74",
            "city": "Khopoli",
            "postal_code": "410203",
            "state": "Maharashtra",
            "country_code": "IN"
        },
        "images": [
            {
                "about": "All",
                "link": "https://streetviewpixels-pa.googleapis.com/v1/thumbnail?panoid=phBLsdPvij_aHREh4sT_SA&cb_client=maps_sv.tactile.gps&w=224&h=298&yaw=30.08526&pitch=0&thumbfov=100"
            },
            {
                "about": "Street View & 360deg",
                "link": "https://streetviewpixels-pa.googleapis.com/v1/thumbnail?panoid=phBLsdPvij_aHREh4sT_SA&cb_client=maps_sv.tactile.gps&w=224&h=298&yaw=30.08526&pitch=0&thumbfov=100"
            }
        ],
        "link": "https://www.google.com/maps/place/Khopoli+Sunni+Muslim+Kabrastan/data=!4m7!3m6!1s0x3be807f883868915:0xe25b8455a7ed3b6d!8m2!3d18.8020111!4d73.3231983!16s%2Fg%2F11t2vh5fhh!19sChIJFYmGg_gH6DsRbTvtp1WEW-I?authuser=0&hl=en&rclk=1",
        "coordinates": {
            "latitude": 18.802011099999998,
            "longitude": 73.3231983
        }
    }
]