[
    {
        "name": "Konthalapalli Mosque and Darga",
        "main_category": "Mosque",
        "address": "VQCH+XXP Konthalapalli Mosque and Darga, Kalayanthani, Kerala 685588",
        "detailed_address": {
            "ward": null,
            "street": "VQCH+XXP",
            "city": "Kalayanthani",
            "postal_code": "685588",
            "state": "Kerala",
            "country_code": "IN"
        },
        "images": [
            {
                "about": "All",
                "link": "https://lh5.googleusercontent.com/p/AF1QipNR2JHF4k6oilPzhIpYRw_uLdB7j9cDts-pR1Km=w224-h299-k-no"
            },
            {
                "about": "Latest",
                "link": "https://lh5.googleusercontent.com/p/AF1QipOtXBb8grdRrz7Y3PJiUkMPnviCxKhUThaehBhk=w224-h398-k-no"
            },
            {
                "about": "Videos",
                "link": "https://lh5.googleusercontent.com/p/AF1QipN-QuVp7U0uXhGvC_n0ZootJka_CkPUdebCuvxU=w224-h398-k-no"
            },
            {
                "about": "Dome",
                "link": "https://lh5.googleusercontent.com/p/AF1QipMTqlKkKaV61mWv6PRdrMxuTwx1k8gwCCptYBbV=w224-h298-k-no"
            },
            {
                "about": "Street View & 360deg",
                "link": "https://lh5.googleusercontent.com/p/AF1QipOkSgpJMszmD7OVey4EZ3VbFNOVxAjQhCmdsh9Q=w224-h298-k-no-pi-0-ya1.9999883-ro-0-fo100"
            }
        ],
        "link": "https://www.google.com/maps/place/Konthalapalli+Mosque+and+Darga/data=!4m7!3m6!1s0x3b07c702a7254f77:0x31f36a30695492c1!8m2!3d9.8724614!4d76.779955!16s%2Fg%2F1hc1byhq0!19sChIJd08lpwLHBzsRwZJUaTBq8zE?authuser=0&hl=en&rclk=1",
        "coordinates": {
            "latitude": 9.872461399999999,
            "longitude": 76.779955
        }
    },
    {
        "name": "Jama Masjid kalakondapally",
        "main_category": "Mosque",
        "address": "MQ84+37F Jama Masjid kalakondapally, Kalukondahally, Tamil Nadu 635114",
        "detailed_address": {
            "ward": null,
            "street": "MQ84+37F",
            "city": "Kalukondahally",
            "postal_code": "635114",
            "state": "Tamil Nadu",
            "country_code": "IN"
        },
        "images": [
            {
                "about": "All",
                "link": "https://lh5.googleusercontent.com/p/AF1QipMrIhInAKsAu7IbokSdiC2eKt8SOAwlhWGNP8RK=w662-h298-k-no"
            },
            {
                "about": "Dome",
                "link": "https://lh5.googleusercontent.com/p/AF1QipNEeXGgnDoIzcW2zPm9qP20GC3u_BsKMvxKMiN_=w224-h497-k-no"
            },
            {
                "about": "Videos",
                "link": "https://lh5.googleusercontent.com/p/AF1QipNrNts4GPN4UwMR_I4yRPluykJfzxL7a1jUnkqH=w224-h398-k-no"
            }
        ],
        "link": "https://www.google.com/maps/place/Jama+Masjid+kalakondapally/data=!4m7!3m6!1s0x3bae7ad0ba49c2df:0x6b7cf23851614cbb!8m2!3d12.6651995!4d77.7556719!16s%2Fg%2F11cn7byszd!19sChIJ38JJutB6rjsRu0xhUTjyfGs?authuser=0&hl=en&rclk=1",
        "coordinates": {
            "latitude": 12.6651995,
            "longitude": 77.7556719
        }
    },
    {
        "name": "Jamia Masjid",
        "main_category": "Mosque",
        "address": "JG9R+HP3 Jamia Masjid, Karimikonda Balaji Rd, Kondapalli, Andhra Pradesh 521228",
        "detailed_address": {
            "ward": null,
            "street": "JG9R+HP3, Karimikonda Balaji Rd",
            "city": "Kondapalli",
            "postal_code": "521228",
            "state": "Andhra Pradesh",
            "country_code": "IN"
        },
        "images": [
            {
                "about": "All",
                "link": "https://lh5.googleusercontent.com/p/AF1QipOGTl6xVY5ghcC7_vcKPDW9ARnilban9gqQ6FPb=w224-h398-k-no"
            },
            {
                "about": "Street View & 360deg",
                "link": "https://streetviewpixels-pa.googleapis.com/v1/thumbnail?panoid=0Cz9w6AwVCIWwRuUVnAB0g&cb_client=maps_sv.tactile.gps&w=224&h=298&yaw=292.5824&pitch=0&thumbfov=100"
            }
        ],
        "link": "https://www.google.com/maps/place/Jamia+Masjid/data=!4m7!3m6!1s0x3a35ebe2259089b3:0x3e55d6d9ecd92728!8m2!3d16.6188805!4d80.5417928!16s%2Fg%2F1hjglk7jx!19sChIJs4mQJeLrNToRKCfZ7NnWVT4?authuser=0&hl=en&rclk=1",
        "coordinates": {
            "latitude": 16.6188805,
            "longitude": 80.5417928
        }
    },
    {
        "name": "Verlakonda Masjid",
        "main_category": "Mosque",
        "address": "JQQQ+2C2 Verlakonda Masjid, NH 44, Varlakonda, Karnataka 561207",
        "detailed_address": {
            "ward": null,
            "street": "JQQQ+2C2, NH 44",
            "city": "Varlakonda",
            "postal_code": "561207",
            "state": "Karnataka",
            "country_code": "IN"
        },
        "images": [
            {
                "about": "All",
                "link": "https://lh5.googleusercontent.com/p/AF1QipOTbyninUhxlzz7KlZ4VUMtLzz5wHBIOhICbDZx=w397-h298-k-no"
            },
            {
                "about": "Street View & 360deg",
                "link": "https://streetviewpixels-pa.googleapis.com/v1/thumbnail?panoid=Y-nD2LQgae3Tm-BzPV5Qgw&cb_client=maps_sv.tactile.gps&w=224&h=298&yaw=3.4529817&pitch=0&thumbfov=100"
            }
        ],
        "link": "https://www.google.com/maps/place/Verlakonda+Masjid/data=!4m7!3m6!1s0x3bb18d1e5136c83b:0xecf6a9d50217addb!8m2!3d13.637513!4d77.7885143!16s%2Fg%2F1q5gr68vf!19sChIJO8g2UR6NsTsR260XAtWp9uw?authuser=0&hl=en&rclk=1",
        "coordinates": {
            "latitude": 13.637513,
            "longitude": 77.7885143
        }
    },
    {
        "name": "Makka masjid, Dadepalli",
        "main_category": "Mosque",
        "address": "Makka masjid, Dadepalli, Choudepalli-Rayalapeta Road, Durgasamudram, Andhra Pradesh 517247",
        "detailed_address": {
            "ward": null,
            "street": "Choudepalli-Rayalapeta Road",
            "city": "Durgasamudram",
            "postal_code": "517247",
            "state": "Andhra Pradesh",
            "country_code": "IN"
        },
        "images": [
            {
                "about": "All",
                "link": "https://lh5.googleusercontent.com/p/AF1QipPBjbmo9Mo5MxDvXCIl8Vyaxz7GogB3lkOiOQEA=w397-h298-k-no"
            },
            {
                "about": "Street View & 360deg",
                "link": "https://streetviewpixels-pa.googleapis.com/v1/thumbnail?panoid=RFCGqQqSRmVoEpG_3l9E8A&cb_client=maps_sv.tactile.gps&w=224&h=298&yaw=7.19209&pitch=0&thumbfov=100"
            }
        ],
        "link": "https://www.google.com/maps/place/Makka+masjid,+Dadepalli/data=!4m7!3m6!1s0x3bb287cadd0c7b0b:0x1c28f45fffcc7d57!8m2!3d13.3823221!4d78.6944208!16s%2Fg%2F11h_17fjmv!19sChIJC3sM3cqHsjsRV33M_1_0KBw?authuser=0&hl=en&rclk=1",
        "coordinates": {
            "latitude": 13.3823221,
            "longitude": 78.6944208
        }
    },
    {
        "name": "Kanumalo palle Masjid",
        "main_category": "Mosque",
        "address": "CWM9+JVF Kanumalo palle Masjid, Kanumalapalle, Andhra Pradesh 516237",
        "detailed_address": {
            "ward": null,
            "street": "CWM9+JVF",
            "city": "Kanumalapalle",
            "postal_code": null,
            "state": "Andhra Pradesh",
            "country_code": "IN"
        },
        "images": [
            {
                "about": "All",
                "link": "https://lh5.googleusercontent.com/p/AF1QipPott1D6hhhIbuXEozlyO4v5B82K6Kb8b82r-PU=w596-h298-k-no"
            }
        ],
        "link": "https://www.google.com/maps/place/Kanumalo+palle+Masjid/data=!4m7!3m6!1s0x3bb36c850649b56b:0xc382504e06b0fd13!8m2!3d14.4340696!4d78.9196862!16s%2Fg%2F11gg9bzg2w!19sChIJa7VJBoVsszsRE_2wBk5QgsM?authuser=0&hl=en&rclk=1",
        "coordinates": {
            "latitude": 14.434069599999999,
            "longitude": 78.9196862
        }
    },
    {
        "name": "Bilal Masjid",
        "main_category": "Mosque",
        "address": "H6FH+H33 Bilal Masjid, Peddathanapalli, Tamil Nadu 635002",
        "detailed_address": {
            "ward": null,
            "street": "H6FH+H33",
            "city": "Peddathanapalli",
            "postal_code": null,
            "state": "Tamil Nadu",
            "country_code": "IN"
        },
        "images": [],
        "link": "https://www.google.com/maps/place/Bilal+Masjid/data=!4m7!3m6!1s0x3badcbf3621157a9:0x10cdd26683f422dd!8m2!3d12.5738777!4d78.2276794!16s%2Fg%2F11g2sxxmsm!19sChIJqVcRYvPLrTsR3SL0g2bSzRA?authuser=0&hl=en&rclk=1",
        "coordinates": {
            "latitude": 12.573877699999999,
            "longitude": 78.2276794
        }
    },
    {
        "name": "Mosque",
        "main_category": "Mosque",
        "address": "94FC+J2P Mosque, Kothapalle, Telangana 501203",
        "detailed_address": {
            "ward": null,
            "street": "94FC+J2P",
            "city": "Kothapalle",
            "postal_code": "501203",
            "state": "Telangana",
            "country_code": "IN"
        },
        "images": [
            {
                "about": "All",
                "link": "https://streetviewpixels-pa.googleapis.com/v1/thumbnail?panoid=_AGCpHcT8KaGtvYkpkp8Ig&cb_client=maps_sv.tactile.gps&w=224&h=298&yaw=146.64496&pitch=0&thumbfov=100"
            },
            {
                "about": "Street View & 360deg",
                "link": "https://streetviewpixels-pa.googleapis.com/v1/thumbnail?panoid=_AGCpHcT8KaGtvYkpkp8Ig&cb_client=maps_sv.tactile.gps&w=224&h=298&yaw=146.64496&pitch=0&thumbfov=100"
            }
        ],
        "link": "https://www.google.com/maps/place/Mosque/data=!4m7!3m6!1s0x3bcbe9575f15ee3f:0xdaf9221d22169767!8m2!3d17.3740844!4d78.1200695!16s%2Fg%2F11ghfdmlff!19sChIJP-4VX1fpyzsRZ5cWIh0i-do?authuser=0&hl=en&rclk=1",
        "coordinates": {
            "latitude": 17.3740844,
            "longitude": 78.1200695
        }
    },
    {
        "name": "MASJID-E-FATIMA",
        "main_category": "Mosque",
        "address": "QHMR+F28 MASJID-E-FATIMA, Gurram Konda, Andhra Pradesh 517297",
        "detailed_address": {
            "ward": null,
            "street": "QHMR+F28",
            "city": "Gurram Konda",
            "postal_code": "517297",
            "state": "Andhra Pradesh",
            "country_code": "IN"
        },
        "images": [
            {
                "about": "All",
                "link": "https://streetviewpixels-pa.googleapis.com/v1/thumbnail?panoid=cjdZgAWJSP7KYiej3vStfQ&cb_client=maps_sv.tactile.gps&w=224&h=298&yaw=291.44363&pitch=0&thumbfov=100"
            },
            {
                "about": "Street View & 360deg",
                "link": "https://streetviewpixels-pa.googleapis.com/v1/thumbnail?panoid=cjdZgAWJSP7KYiej3vStfQ&cb_client=maps_sv.tactile.gps&w=224&h=298&yaw=291.44363&pitch=0&thumbfov=100"
            }
        ],
        "link": "https://www.google.com/maps/place/MASJID-E-FATIMA/data=!4m7!3m6!1s0x3bb2590b205b1d17:0x6d95f38b9c13b1ed!8m2!3d13.7836552!4d78.5900733!16s%2Fg%2F11g6htdkmw!19sChIJFx1bIAtZsjsR7bETnIvzlW0?authuser=0&hl=en&rclk=1",
        "coordinates": {
            "latitude": 13.7836552,
            "longitude": 78.5900733
        }
    },
    {
        "name": "Masjid-E-Aqsa",
        "main_category": "Mosque",
        "address": "JGCQ+WHR Masjid-E-Aqsa, Kondapalli, Andhra Pradesh 521228",
        "detailed_address": {
            "ward": null,
            "street": "JGCQ+WHR",
            "city": "Kondapalli",
            "postal_code": null,
            "state": "Andhra Pradesh",
            "country_code": "IN"
        },
        "images": [
            {
                "about": "All",
                "link": "https://lh5.googleusercontent.com/p/AF1QipMiJXvb9g_Il62xZOmkSR8sabvPTp6vluep2jWo=w397-h298-k-no"
            },
            {
                "about": "Street View & 360deg",
                "link": "https://streetviewpixels-pa.googleapis.com/v1/thumbnail?panoid=iXGaqJIRGummfUNsft2zPw&cb_client=maps_sv.tactile.gps&w=224&h=298&yaw=350.6417&pitch=0&thumbfov=100"
            }
        ],
        "link": "https://www.google.com/maps/place/Masjid-E-Aqsa/data=!4m7!3m6!1s0x3a35ebffee1ca5bb:0x5101aeb96427c280!8m2!3d16.6223683!4d80.5388889!16s%2Fg%2F11hdvmkjdv!19sChIJu6Uc7v_rNToRgMInZLmuAVE?authuser=0&hl=en&rclk=1",
        "coordinates": {
            "latitude": 16.622368299999998,
            "longitude": 80.5388889
        }
    },
    {
        "name": "Masjid Govindapalli",
        "main_category": "Mosque",
        "address": "RF74+CGR Masjid Govindapalli, SH 431, Govindapalle, Andhra Pradesh 517425",
        "detailed_address": {
            "ward": null,
            "street": "RF74+CGR, SH 431",
            "city": "Govindapalle",
            "postal_code": "517425",
            "state": "Andhra Pradesh",
            "country_code": "IN"
        },
        "images": [
            {
                "about": "All",
                "link": "https://lh5.googleusercontent.com/p/AF1QipOugVyI9ANOqRugqW_rRovLUQSX36dnDjDIM4Go=w397-h298-k-no"
            },
            {
                "about": "Street View & 360deg",
                "link": "https://streetviewpixels-pa.googleapis.com/v1/thumbnail?panoid=S3lSWADtASSXpSap_UfNhw&cb_client=maps_sv.tactile.gps&w=224&h=298&yaw=101.490776&pitch=0&thumbfov=100"
            }
        ],
        "link": "https://www.google.com/maps/place/Masjid+Govindapalli/data=!4m7!3m6!1s0x3badbb789558b21d:0x13affdb7cb3abc4a!8m2!3d12.813611!4d78.4562707!16s%2Fg%2F11h2hn9g77!19sChIJHbJYlXi7rTsRSrw6y7f9rxM?authuser=0&hl=en&rclk=1",
        "coordinates": {
            "latitude": 12.813611,
            "longitude": 78.45627069999999
        }
    },
    {
        "name": "jamia masjid, kondakmarla",
        "main_category": "Mosque",
        "address": "3X94+V4F jamia masjid, kondakmarla, Kondakomarla, Andhra Pradesh 515531",
        "detailed_address": {
            "ward": null,
            "street": "3X94+V4F",
            "city": "Kondakomarla",
            "postal_code": "515531",
            "state": "Andhra Pradesh",
            "country_code": "IN"
        },
        "images": [],
        "link": "https://www.google.com/maps/place/jamia+masjid,+kondakmarla/data=!4m7!3m6!1s0x3bb3d5dea01af241:0xa38d760edf75236e!8m2!3d14.0696934!4d77.9552976!16s%2Fg%2F11df0ql3jr!19sChIJQfIaoN7VszsRbiN13w52jaM?authuser=0&hl=en&rclk=1",
        "coordinates": {
            "latitude": 14.0696934,
            "longitude": 77.9552976
        }
    },
    {
        "name": "NAYANTIMARPALLI MECCA MASJID",
        "main_category": "Mosque",
        "address": "CFQ9+WXC NAYANTIMARPALLI MECCA MASJID, Yerraguntla Vempalli Rd, Southpalagiri, Andhra Pradesh 516321",
        "detailed_address": {
            "ward": null,
            "street": "CFQ9+WXC, Yerraguntla Vempalli Rd",
            "city": "Southpalagiri",
            "postal_code": "516321",
            "state": "Andhra Pradesh",
            "country_code": "IN"
        },
        "images": [
            {
                "about": "All",
                "link": "https://lh5.googleusercontent.com/p/AF1QipOQq6aA1edpvpl2pEaE8swfUVmgxg1ZoAx12XoE=w662-h298-k-no"
            },
            {
                "about": "Videos",
                "link": "https://lh5.googleusercontent.com/p/AF1QipPm1MZPzUNa6FRB_VGF3Ffno-70BZoVt2mzuFk=w224-h407-k-no"
            }
        ],
        "link": "https://www.google.com/maps/place/NAYANTIMARPALLI+MECCA+MASJID/data=!4m7!3m6!1s0x3bb397ce1c983183:0xaf885caf8991623a!8m2!3d14.4398106!4d78.4699044!16s%2Fg%2F11h11klg_8!19sChIJgzGYHM6XszsROmKRia9ciK8?authuser=0&hl=en&rclk=1",
        "coordinates": {
            "latitude": 14.4398106,
            "longitude": 78.46990439999999
        }
    },
    {
        "name": "Gollapalli Mecca Masjid gollplli mkkaa mjjiid",
        "main_category": "Mosque",
        "address": "7475+6VC Gollapalli Mecca Masjid gollplli mkkaa mjjiid, Gollapalli, Andhra Pradesh 516150",
        "detailed_address": {
            "ward": null,
            "street": "7475+6VC",
            "city": "Gollapalli",
            "postal_code": "516150",
            "state": "Andhra Pradesh",
            "country_code": "IN"
        },
        "images": [
            {
                "about": "All",
                "link": "https://lh5.googleusercontent.com/p/AF1QipNveT0DrMrpt2Js6rBIKSxR2hJt9XNPfC94U0ma=w224-h298-k-no"
            }
        ],
        "link": "https://www.google.com/maps/place/Gollapalli+Mecca+Masjid+%E0%B0%97%E0%B1%8A%E0%B0%B2%E0%B1%8D%E0%B0%B2%E0%B0%AA%E0%B0%B2%E0%B1%8D%E0%B0%B2%E0%B0%BF+%E0%B0%AE%E0%B0%95%E0%B1%8D%E0%B0%95%E0%B0%BE+%E0%B0%AE%E0%B0%9C%E0%B1%8D%E0%B0%9C%E0%B1%80%E0%B0%A6%E0%B1%8D/data=!4m7!3m6!1s0x3bb33d72714de42b:0xa1469586c0e636e6!8m2!3d14.2630658!4d79.1096437!16s%2Fg%2F11h64v2h58!19sChIJK-RNcXI9szsR5jbmwIaVRqE?authuser=0&hl=en&rclk=1",
        "coordinates": {
            "latitude": 14.2630658,
            "longitude": 79.10964369999999
        }
    },
    {
        "name": "Masjid- E- Umar Bin Khatab",
        "main_category": "Mosque",
        "address": "WR4J+JGM Masjid- E- Umar Bin Khatab, Kondaparva, Andhra Pradesh 521213",
        "detailed_address": {
            "ward": null,
            "street": "WR4J+JGM",
            "city": "Kondaparva",
            "postal_code": null,
            "state": "Andhra Pradesh",
            "country_code": "IN"
        },
        "images": [
            {
                "about": "All",
                "link": "https://lh5.googleusercontent.com/p/AF1QipMF4Hqx5A5_un5VFMPe-oims9c9DdOHxRSJ-wfU=w397-h298-k-no"
            },
            {
                "about": "Street View & 360deg",
                "link": "https://streetviewpixels-pa.googleapis.com/v1/thumbnail?panoid=QIfdfzyeDckb_tTPhELOCw&cb_client=maps_sv.tactile.gps&w=224&h=298&yaw=120.29692&pitch=0&thumbfov=100"
            }
        ],
        "link": "https://www.google.com/maps/place/Masjid-+E-+Umar+Bin+Khatab/data=!4m7!3m6!1s0x3a3678181c72b1c1:0x1d84a9b208ba13ce!8m2!3d16.906585!4d80.831293!16s%2Fg%2F11f3qxt26k!19sChIJwbFyHBh4NjoRzhO6CLKphB0?authuser=0&hl=en&rclk=1",
        "coordinates": {
            "latitude": 16.906585,
            "longitude": 80.831293
        }
    },
    {
        "name": "MASJID THALAKONDAPALLY",
        "main_category": "Mosque",
        "address": "VCP9+J6R MASJID THALAKONDAPALLY, Thallakondapalli Main Rd, Talakondapalle, Telangana 509321",
        "detailed_address": {
            "ward": null,
            "street": "VCP9+J6R, Thallakondapalli Main Rd",
            "city": "Talakondapalle",
            "postal_code": "509321",
            "state": "Telangana",
            "country_code": "IN"
        },
        "images": [
            {
                "about": "All",
                "link": "https://streetviewpixels-pa.googleapis.com/v1/thumbnail?panoid=pvU6KJUhwWBdtWJnm5Xq9g&cb_client=maps_sv.tactile.gps&w=224&h=298&yaw=172.2868&pitch=0&thumbfov=100"
            },
            {
                "about": "Street View & 360deg",
                "link": "https://streetviewpixels-pa.googleapis.com/v1/thumbnail?panoid=pvU6KJUhwWBdtWJnm5Xq9g&cb_client=maps_sv.tactile.gps&w=224&h=298&yaw=172.2868&pitch=0&thumbfov=100"
            }
        ],
        "link": "https://www.google.com/maps/place/MASJID+THALAKONDAPALLY/data=!4m7!3m6!1s0x3bca4d15b1ac1ce9:0x4e191083d81e2c62!8m2!3d16.8866037!4d78.4180292!16s%2Fg%2F11h289mp1c!19sChIJ6RyssRVNyjsRYiwe2IMQGU4?authuser=0&hl=en&rclk=1",
        "coordinates": {
            "latitude": 16.8866037,
            "longitude": 78.41802919999999
        }
    },
    {
        "name": "Masjid e Ali",
        "main_category": "Mosque",
        "address": "7744+Q79 Masjid e Ali, Kondaveedu, Andhra Pradesh 522549",
        "detailed_address": {
            "ward": null,
            "street": "7744+Q79",
            "city": "Kondaveedu",
            "postal_code": null,
            "state": "Andhra Pradesh",
            "country_code": "IN"
        },
        "images": [
            {
                "about": "All",
                "link": "https://streetviewpixels-pa.googleapis.com/v1/thumbnail?panoid=FknOjLummMqBo6rIj9kCdg&cb_client=maps_sv.tactile.gps&w=224&h=298&yaw=112.05621&pitch=0&thumbfov=100"
            },
            {
                "about": "Street View & 360deg",
                "link": "https://streetviewpixels-pa.googleapis.com/v1/thumbnail?panoid=FknOjLummMqBo6rIj9kCdg&cb_client=maps_sv.tactile.gps&w=224&h=298&yaw=112.05621&pitch=0&thumbfov=100"
            }
        ],
        "link": "https://www.google.com/maps/place/Masjid+e+Ali/data=!4m7!3m6!1s0x3a4a79d49a856557:0x7f09f59115300686!8m2!3d16.2569156!4d80.255722!16s%2Fg%2F11hssk9sgj!19sChIJV2WFmtR5SjoRhgYwFZH1CX8?authuser=0&hl=en&rclk=1",
        "coordinates": {
            "latitude": 16.2569156,
            "longitude": 80.25572199999999
        }
    },
    {
        "name": "Jamia Masjid",
        "main_category": "Mosque",
        "address": "Jamia Masjid, Bus Stop, Pedda Guvala Palli, Venkatapuram-Roddam Rd, Andhra Pradesh 515123",
        "detailed_address": {
            "ward": null,
            "street": "Bus Stop, Pedda Guvala Palli, Venkatapuram-Roddam Rd",
            "city": "Pedda Guvala Palli",
            "postal_code": "515123",
            "state": "Andhra Pradesh",
            "country_code": "IN"
        },
        "images": [
            {
                "about": "All",
                "link": "https://lh5.googleusercontent.com/p/AF1QipNCE3RMJIUJkkCPcym1kpbDryaRhi8q3Aoz2_9Z=w395-h298-k-no"
            },
            {
                "about": "Dome",
                "link": "https://lh5.googleusercontent.com/p/AF1QipNrDQlr0uJJsSQwNoi3Q_RYrSX5kYT-mD2vjn6s=w529-h298-k-no"
            }
        ],
        "link": "https://www.google.com/maps/place/Jamia+Masjid/data=!4m7!3m6!1s0x3bb10f7c685aaec9:0x912ea51ab6d17303!8m2!3d14.069784!4d77.3901308!16s%2Fg%2F11h3ggzzkc!19sChIJya5aaHwPsTsRA3PRthqlLpE?authuser=0&hl=en&rclk=1",
        "coordinates": {
            "latitude": 14.069783999999999,
            "longitude": 77.3901308
        }
    },
    {
        "name": "Masjid - D- Mashaiq",
        "main_category": "Mosque",
        "address": "JG7Q+HV2 Masjid - D- Mashaiq, B\" Colony centre, Kondapalli",
        "detailed_address": {
            "ward": "New B'colony",
            "street": "JG7Q+HV2, B\" Colony centre",
            "city": "Kondapalli",
            "postal_code": null,
            "state": "Andhra Pradesh",
            "country_code": "IN"
        },
        "images": [
            {
                "about": "All",
                "link": "https://lh5.googleusercontent.com/p/AF1QipORmMyhthtX0QU9z_WC93WuMrUhpFjjv-BQ5Fmx=w224-h298-k-no"
            },
            {
                "about": "Street View & 360deg",
                "link": "https://streetviewpixels-pa.googleapis.com/v1/thumbnail?panoid=mmS-46oGIRFcmEYaCWU9kg&cb_client=maps_sv.tactile.gps&w=224&h=298&yaw=278.1471&pitch=0&thumbfov=100"
            }
        ],
        "link": "https://www.google.com/maps/place/Masjid+-+D-+Mashaiq/data=!4m7!3m6!1s0x3a35eb40b477db25:0x50d0543744764ade!8m2!3d16.6138838!4d80.5396541!16s%2Fg%2F11fn4c_81y!19sChIJJdt3tEDrNToR3kp2RDdU0FA?authuser=0&hl=en&rclk=1",
        "coordinates": {
            "latitude": 16.6138838,
            "longitude": 80.53965409999999
        }
    },
    {
        "name": "Mohammadia masjid lokojipalle",
        "main_category": "Place of worship",
        "address": "V3FP+CP3 Mohammadia masjid lokojipalle, Lokojipalle, Andhra Pradesh 515556",
        "detailed_address": {
            "ward": null,
            "street": "V3FP+CP3",
            "city": "Lokojipalle",
            "postal_code": "515556",
            "state": "Andhra Pradesh",
            "country_code": "IN"
        },
        "images": [
            {
                "about": "All",
                "link": "https://lh5.googleusercontent.com/p/AF1QipNYTIg4XABWh4AHDIj2V9saaTDcTmUVcBbPiyZP=w529-h298-k-no"
            },
            {
                "about": "Videos",
                "link": "https://lh5.googleusercontent.com/p/AF1QipNYTIg4XABWh4AHDIj2V9saaTDcTmUVcBbPiyZP=w529-h298-k-no"
            }
        ],
        "link": "https://www.google.com/maps/place/Mohammadia+masjid+lokojipalle/data=!4m7!3m6!1s0x3bb22f1cf85fa81f:0x411e53d4e75314a1!8m2!3d13.8735128!4d78.0868835!16s%2Fg%2F11twz_mdhz!19sChIJH6hf-BwvsjsRoRRT59RTHkE?authuser=0&hl=en&rclk=1",
        "coordinates": {
            "latitude": 13.873512799999999,
            "longitude": 78.0868835
        }
    },
    {
        "name": "Eidgah E Noorani Masjid. Amral, idgaa msiidu i nuuraani amraal",
        "main_category": "Mosque",
        "address": "HP2C+QR2 Eidgah E Noorani Masjid. Amral, idgaa msiidu i nuuraani amraal, Edgah of Masjid E Noorani Amral, Sakibandavari Palli, Vengamvari Palli, NImmanapalli, 517280",
        "detailed_address": {
            "ward": null,
            "street": "HP2C+QR2, Edgah of Masjid E Noorani Amral, Sakibandavari Palli, Vengamvari Palli",
            "city": "NImmanapalli, Vengamvaripalle",
            "postal_code": "517280",
            "state": "Andhra Pradesh",
            "country_code": "IN"
        },
        "images": [
            {
                "about": "All",
                "link": "https://streetviewpixels-pa.googleapis.com/v1/thumbnail?panoid=DzvODX7rzQq80heZKWty3A&cb_client=maps_sv.tactile.gps&w=224&h=298&yaw=217.08125&pitch=0&thumbfov=100"
            },
            {
                "about": "Street View & 360deg",
                "link": "https://streetviewpixels-pa.googleapis.com/v1/thumbnail?panoid=DzvODX7rzQq80heZKWty3A&cb_client=maps_sv.tactile.gps&w=224&h=298&yaw=217.08125&pitch=0&thumbfov=100"
            }
        ],
        "link": "https://www.google.com/maps/place/Eidgah+E+Noorani+Masjid.+Amral,+%E0%B0%87%E0%B0%A6%E0%B1%8D%E0%B0%97%E0%B0%BE+%E0%B0%AE%E0%B0%B8%E0%B1%80%E0%B0%A6%E0%B1%81+%E0%B0%87+%E0%B0%A8%E0%B1%82%E0%B0%B0%E0%B0%BE%E0%B0%A8%E0%B0%BF+%E0%B0%85%E0%B0%AE%E0%B0%B0%E0%B0%BE%E0%B0%B2%E0%B1%8D/data=!4m7!3m6!1s0x3bb289e4872710bb:0x62db808522855bd6!8m2!3d13.5518784!4d78.722021!16s%2Fg%2F11rglt_1hh!19sChIJuxAnh-SJsjsR1luFIoWA22I?authuser=0&hl=en&rclk=1",
        "coordinates": {
            "latitude": 13.5518784,
            "longitude": 78.722021
        }
    },
    {
        "name": "Jagirdars Masjid",
        "main_category": "Mosque",
        "address": "JGCR+6F Jagirdars Masjid, Kondapalli, Andhra Pradesh 521228",
        "detailed_address": {
            "ward": null,
            "street": "JGCR+6F",
            "city": "Kondapalli",
            "postal_code": null,
            "state": "Andhra Pradesh",
            "country_code": "IN"
        },
        "images": [
            {
                "about": "All",
                "link": "https://streetviewpixels-pa.googleapis.com/v1/thumbnail?panoid=cLbUrNJoWpxH5FLfaeaoxA&cb_client=maps_sv.tactile.gps&w=224&h=298&yaw=356.52075&pitch=0&thumbfov=100"
            },
            {
                "about": "Street View & 360deg",
                "link": "https://streetviewpixels-pa.googleapis.com/v1/thumbnail?panoid=cLbUrNJoWpxH5FLfaeaoxA&cb_client=maps_sv.tactile.gps&w=224&h=298&yaw=356.52075&pitch=0&thumbfov=100"
            }
        ],
        "link": "https://www.google.com/maps/place/Jagirdars+Masjid/data=!4m7!3m6!1s0x3a35eb05c6d8ff77:0x9a2d4648715807dc!8m2!3d16.6206843!4d80.5411232!16s%2Fg%2F11swh_z4tp!19sChIJd__YxgXrNToR3AdYcUhGLZo?authuser=0&hl=en&rclk=1",
        "coordinates": {
            "latitude": 16.6206843,
            "longitude": 80.5411232
        }
    },
    {
        "name": "Masjid E Younus",
        "main_category": "Mosque",
        "address": "PX6J+RQ2 Masjid E Younus, Mallepalli, Konda Mallepally, Telangana 508243",
        "detailed_address": {
            "ward": null,
            "street": "PX6J+RQ2",
            "city": "Mallepalli, Konda Mallepally",
            "postal_code": "508243",
            "state": "Telangana",
            "country_code": "IN"
        },
        "images": [
            {
                "about": "All",
                "link": "https://lh5.googleusercontent.com/p/AF1QipMInejJJTsz9A5QY8uaTz7ajFZDrcn24b2_93I3=w646-h298-k-no"
            },
            {
                "about": "Street View & 360deg",
                "link": "https://streetviewpixels-pa.googleapis.com/v1/thumbnail?panoid=mZMluX5LVsIks7mdZI5EVg&cb_client=maps_sv.tactile.gps&w=224&h=298&yaw=334.7135&pitch=0&thumbfov=100"
            }
        ],
        "link": "https://www.google.com/maps/place/Masjid+E+Younus/data=!4m7!3m6!1s0x3bcae9a4775260ab:0xc9670aed4a549a29!8m2!3d16.7120186!4d78.9818813!16s%2Fg%2F11fs_htvh0!19sChIJq2BSd6TpyjsRKZpUSu0KZ8k?authuser=0&hl=en&rclk=1",
        "coordinates": {
            "latitude": 16.7120186,
            "longitude": 78.9818813
        }
    },
    {
        "name": "Jamia Masjid KONDASHETTAHALLI",
        "main_category": "Mosque",
        "address": "X3X3+XVP Jamia Masjid KONDASHETTAHALLI, Kondashettihalli, Karnataka 563137",
        "detailed_address": {
            "ward": null,
            "street": "X3X3+XVP",
            "city": "Kondashettihalli",
            "postal_code": "563137",
            "state": "Karnataka",
            "country_code": "IN"
        },
        "images": [
            {
                "about": "All",
                "link": "https://lh5.googleusercontent.com/p/AF1QipNWIsiETVCDiwp4UgfJJVP8-e7zzhJQEr4EAz4q=w224-h298-k-no"
            },
            {
                "about": "Latest",
                "link": "https://lh5.googleusercontent.com/p/AF1QipPX47Yx_r1c_7tIT2lLqlx93dYj--kiTfDYbkk7=w224-h398-k-no"
            },
            {
                "about": "Videos",
                "link": "https://lh5.googleusercontent.com/p/AF1QipNnDT3zOGZmMQcMPpf9A6Ltko1apqw4R0iwSMQ8=w224-h398-k-no"
            },
            {
                "about": "Street View & 360deg",
                "link": "https://streetviewpixels-pa.googleapis.com/v1/thumbnail?panoid=yc-EN0Dm7YqNHcjgoa_WxA&cb_client=maps_sv.tactile.gps&w=224&h=298&yaw=171.93279&pitch=0&thumbfov=100"
            }
        ],
        "link": "https://www.google.com/maps/place/Jamia+Masjid+KONDASHETTAHALLI/data=!4m7!3m6!1s0x3bade56bc3d21181:0xf6d81dff80e72fda!8m2!3d12.999961!4d78.054703!16s%2Fg%2F11lq0dm3y8!19sChIJgRHSw2vlrTsR2i_ngP8d2PY?authuser=0&hl=en&rclk=1",
        "coordinates": {
            "latitude": 12.999960999999999,
            "longitude": 78.054703
        }
    },
    {
        "name": "JAMIA Masjid",
        "main_category": "Mosque",
        "address": "7JCG+FH3 JAMIA Masjid, JAMIA Masjid Chennekothapalli Nymadla, Road, Andhra Pradesh",
        "detailed_address": {
            "ward": null,
            "street": "7JCG+FH3, JAMIA Masjid Chennekothapalli Nymadla, Road",
            "city": "Chennekothapalli",
            "postal_code": null,
            "state": "Andhra Pradesh",
            "country_code": "IN"
        },
        "images": [
            {
                "about": "All",
                "link": "https://lh5.googleusercontent.com/p/AF1QipPK8vxmWEsBfw_iGOQVks93RlgTMvCvRdjUQx0H=w224-h398-k-no"
            },
            {
                "about": "Latest",
                "link": "https://lh5.googleusercontent.com/p/AF1QipOwX3KgZSsbTdgIlOeNa1ZzPWhBl5j2-yydWX9-=w224-h398-k-no"
            }
        ],
        "link": "https://www.google.com/maps/place/JAMIA+Masjid/data=!4m7!3m6!1s0x3bb16bdaced61a55:0xa1cd00a1bed4cba9!8m2!3d14.2711451!4d77.6264285!16s%2Fg%2F11kqc49fgn!19sChIJVRrWztprsTsRqcvUvqEAzaE?authuser=0&hl=en&rclk=1",
        "coordinates": {
            "latitude": 14.2711451,
            "longitude": 77.6264285
        }
    },
    {
        "name": "Jamia Masjid kothapalli",
        "main_category": "Mosque",
        "address": "RG3J+CFG Jamia Masjid kothapalli, Sreekanthapuram Rural, Andhra Pradesh 515201",
        "detailed_address": {
            "ward": null,
            "street": "RG3J+CFG",
            "city": "Sreekanthapuram Rural",
            "postal_code": null,
            "state": "Andhra Pradesh",
            "country_code": "IN"
        },
        "images": [
            {
                "about": "All",
                "link": "https://lh5.googleusercontent.com/p/AF1QipO20HCuJNy0xcFVaiScdM6DIHysPHbFG--gdOYs=w531-h298-k-no"
            }
        ],
        "link": "https://www.google.com/maps/place/Jamia+Masjid+kothapalli/data=!4m7!3m6!1s0x3bb1a32bebb565eb:0xd48766595f771206!8m2!3d13.8035676!4d77.5312071!16s%2Fg%2F11j94d3fxl!19sChIJ62W16yujsTsRBhJ3X1lmh9Q?authuser=0&hl=en&rclk=1",
        "coordinates": {
            "latitude": 13.8035676,
            "longitude": 77.5312071
        }
    },
    {
        "name": "Masjid Epilavankapalli",
        "main_category": "Mosque",
        "address": "2J8X+8W9 Masjid Epilavankapalli, Epilavankapalli, Andhra Pradesh 516269",
        "detailed_address": {
            "ward": null,
            "street": "2J8X+8W9",
            "city": "Epilavankapalli",
            "postal_code": "516269",
            "state": "Andhra Pradesh",
            "country_code": "IN"
        },
        "images": [
            {
                "about": "All",
                "link": "https://lh5.googleusercontent.com/p/AF1QipP-MW_pOtgTxVw5uDoTyEdyjByONTY9N7QAD9_K=w397-h298-k-no"
            },
            {
                "about": "Videos",
                "link": "https://lh5.googleusercontent.com/p/AF1QipNjfmtQMOyDzab4s43I0c8n6-Rba7TfTk3AlpJP=w224-h398-k-no"
            }
        ],
        "link": "https://www.google.com/maps/place/Masjid+Epilavankapalli/data=!4m7!3m6!1s0x3bb255894e1f42af:0x495b20921af40480!8m2!3d14.0157997!4d78.6498667!16s%2Fg%2F11hz19nrd8!19sChIJr0IfTolVsjsRgAT0GpIgW0k?authuser=0&hl=en&rclk=1",
        "coordinates": {
            "latitude": 14.015799699999999,
            "longitude": 78.64986669999999
        }
    },
    {
        "name": "Masjid e madeena",
        "main_category": "Mosque",
        "address": "CJ28+4R6 Masjid e madeena, Gajulapalli, Andhra Pradesh 518583",
        "detailed_address": {
            "ward": null,
            "street": "CJ28+4R6",
            "city": "Gajulapalli",
            "postal_code": null,
            "state": "Andhra Pradesh",
            "country_code": "IN"
        },
        "images": [
            {
                "about": "All",
                "link": "https://lh5.googleusercontent.com/p/AF1QipNQuqI6PF6d8qVfTWb3_88pvktH00C932TxxX0=w529-h298-k-no"
            }
        ],
        "link": "https://www.google.com/maps/place/Masjid+e+madeena/data=!4m7!3m6!1s0x3bb4551f04eae045:0x3a5a989e84e4293b!8m2!3d15.400276!4d78.6170117!16s%2Fg%2F11szbq2084!19sChIJReDqBB9VtDsROynkhJ6YWjo?authuser=0&hl=en&rclk=1",
        "coordinates": {
            "latitude": 15.400276,
            "longitude": 78.61701169999999
        }
    },
    {
        "name": "Nandipalli Masjid",
        "main_category": "Mosque",
        "address": "9CF4+XFJ Nandipalli Masjid, Andhra Pradesh 516350",
        "detailed_address": {
            "ward": null,
            "street": "9CF4+XFJ",
            "city": null,
            "postal_code": "516350",
            "state": "Andhra Pradesh",
            "country_code": "IN"
        },
        "images": [
            {
                "about": "All",
                "link": "https://lh5.googleusercontent.com/p/AF1QipPiHz4VsW4TEg8NW-zqRLqfPtcG2dx80N2ySpia=w395-h298-k-no"
            },
            {
                "about": "Videos",
                "link": "https://lh5.googleusercontent.com/p/AF1QipOrb4mjNWJPsPo_C6VlNRM_mwhz9vgqOL1San40=w224-h398-k-no"
            }
        ],
        "link": "https://www.google.com/maps/place/Nandipalli+Masjid/data=!4m7!3m6!1s0x3bb397b62ef6408d:0xb5dc48e74829b51e!8m2!3d14.3749633!4d78.4061314!16s%2Fg%2F11qpz4fq6m!19sChIJjUD2LraXszsRHrUpSOdI3LU?authuser=0&hl=en&rclk=1",
        "coordinates": {
            "latitude": 14.3749633,
            "longitude": 78.40613139999999
        }
    },
    {
        "name": "MASJID",
        "main_category": "Mosque",
        "address": "HVC8+J4H MASJID, Brahmanapalli Regulagadda Rd, Machavaram, Andhra Pradesh 522435",
        "detailed_address": {
            "ward": null,
            "street": "HVC8+J4H, Brahmanapalli Regulagadda Rd",
            "city": "Machavaram",
            "postal_code": "522435",
            "state": "Andhra Pradesh",
            "country_code": "IN"
        },
        "images": [
            {
                "about": "All",
                "link": "https://lh5.googleusercontent.com/p/AF1QipNW9dssA56GuXp64OROPlV3IAVJf6Mv-8LGDRxZ=w224-h398-k-no"
            },
            {
                "about": "Street View & 360deg",
                "link": "https://streetviewpixels-pa.googleapis.com/v1/thumbnail?panoid=WFZuubAcUbRGy7rhGzTdIA&cb_client=maps_sv.tactile.gps&w=224&h=298&yaw=79.64815&pitch=0&thumbfov=100"
            }
        ],
        "link": "https://www.google.com/maps/place/MASJID/data=!4m7!3m6!1s0x3a356de84dd656f1:0xbe1a13f111b97b62!8m2!3d16.5715541!4d79.8653724!16s%2Fg%2F11lm78sfbq!19sChIJ8VbWTehtNToRYnu5EfETGr4?authuser=0&hl=en&rclk=1",
        "coordinates": {
            "latitude": 16.5715541,
            "longitude": 79.8653724
        }
    },
    {
        "name": "Kondazhi Mosque-Niskara Palli",
        "main_category": "Mosque",
        "address": "PC54+5G8 Kondazhi Mosque-Niskara Palli, Kondazhi Mayannoor Rd, Kondazhy, Kerala 680587",
        "detailed_address": {
            "ward": null,
            "street": "PC54+5G8, Kondazhi Mayannoor Rd",
            "city": "Kondazhy",
            "postal_code": "680587",
            "state": "Kerala",
            "country_code": "IN"
        },
        "images": [],
        "link": "https://www.google.com/maps/place/Kondazhi+Mosque-Niskara+Palli/data=!4m7!3m6!1s0x3ba7dfca6d6b7e35:0x557146badfc8a87a!8m2!3d10.7081517!4d76.406739!16s%2Fg%2F11stwpf0sk!19sChIJNX5rbcrfpzsReqjI37pGcVU?authuser=0&hl=en&rclk=1",
        "coordinates": {
            "latitude": 10.7081517,
            "longitude": 76.406739
        }
    },
    {
        "name": "JAMIA MASJID",
        "main_category": "Mosque",
        "address": "458C+GRH JAMIA MASJID, Ambavaram (V) GIDDALUR (M, Kothapalli, Andhra Pradesh",
        "detailed_address": {
            "ward": null,
            "street": "458C+GRH, Ambavaram (V) GIDDALUR (M",
            "city": "Kothapalli",
            "postal_code": null,
            "state": "Andhra Pradesh",
            "country_code": "IN"
        },
        "images": [],
        "link": "https://www.google.com/maps/place/JAMIA+MASJID/data=!4m7!3m6!1s0x3bb4b9bea99711c1:0xd4596e6dd23ea625!8m2!3d15.116316!4d79.1720983!16s%2Fg%2F11j0h8s162!19sChIJwRGXqb65tDsRJaY-0m1uWdQ?authuser=0&hl=en&rclk=1",
        "coordinates": {
            "latitude": 15.116316,
            "longitude": 79.1720983
        }
    },
    {
        "name": "Masjid kothapalli",
        "main_category": "Mosque",
        "address": "Masjid kothapalli, Peddareddipalle, Andhra Pradesh 524236",
        "detailed_address": {
            "ward": null,
            "street": "Masjid kothapalli",
            "city": "Peddareddipalle",
            "postal_code": "524236",
            "state": "Andhra Pradesh",
            "country_code": "IN"
        },
        "images": [],
        "link": "https://www.google.com/maps/place/Masjid+kothapalli/data=!4m7!3m6!1s0x3bb4b7edfbf0f515:0xbe941160d291e97c!8m2!3d15.0622101!4d79.2858683!16s%2Fg%2F11pv29lxn_!19sChIJFfXw--23tDsRfOmR0mARlL4?authuser=0&hl=en&rclk=1",
        "coordinates": {
            "latitude": 15.0622101,
            "longitude": 79.28586829999999
        }
    },
    {
        "name": "Jamia masjid lakkanapalli",
        "main_category": "Mosque",
        "address": "4HMV+WVM Jamia masjid lakkanapalli, Devadoddi - Lakkannapalli Rd, Ramana Palli, lakkanapalli, Andhra Pradesh 517415",
        "detailed_address": {
            "ward": null,
            "street": "4HMV+WVM, Devadoddi - Lakkannapalli Rd",
            "city": "Ramana Palli, lakkanapalli",
            "postal_code": "517415",
            "state": "Andhra Pradesh",
            "country_code": "IN"
        },
        "images": [],
        "link": "https://www.google.com/maps/place/Jamia+masjid+lakkanapalli/data=!4m7!3m6!1s0x3bad832dc1550747:0xf45bec8f6385c91f!8m2!3d13.1348411!4d78.5946622!16s%2Fg%2F11hdvl38pn!19sChIJRwdVwS2DrTsRH8mFY4_sW_Q?authuser=0&hl=en&rclk=1",
        "coordinates": {
            "latitude": 13.1348411,
            "longitude": 78.5946622
        }
    },
    {
        "name": "chellavari palliEidgah - E - Noorani Masjid, Amral",
        "main_category": "Mosque",
        "address": "chellavari palliEidgah - E - Noorani Masjid, Amral, Eidgah E, Noorani Masjid, Amral, Sakibandavari Palli, NImmanapalli, Mustoor, Andhra Pradesh 517280",
        "detailed_address": {
            "ward": "Amral, Sakibandavari Palli",
            "street": "Eidgah E, Noorani Masjid",
            "city": "NImmanapalli, Mustoor",
            "postal_code": "517280",
            "state": "Andhra Pradesh",
            "country_code": "IN"
        },
        "images": [],
        "link": "https://www.google.com/maps/place/chellavari+palliEidgah+-+E+-+Noorani+Masjid,+Amral/data=!4m7!3m6!1s0x3bb26375d476a99b:0x593eca6372ddf36d!8m2!3d13.5378946!4d78.6341996!16s%2Fg%2F11rgnqcqbh!19sChIJm6l21HVjsjsRbfPdcmPKPlk?authuser=0&hl=en&rclk=1",
        "coordinates": {
            "latitude": 13.5378946,
            "longitude": 78.6341996
        }
    },
    {
        "name": "Masjid cheemana palli",
        "main_category": "Mosque",
        "address": "8H6J+2R9 Masjid cheemana palli, Unnamed Road, Karasanapalle, Andhra Pradesh 517247",
        "detailed_address": {
            "ward": null,
            "street": "8H6J+2R9, Unnamed Road",
            "city": "Karasanapalle",
            "postal_code": "517247",
            "state": "Andhra Pradesh",
            "country_code": "IN"
        },
        "images": [
            {
                "about": "All",
                "link": "https://streetviewpixels-pa.googleapis.com/v1/thumbnail?panoid=pMi1iH1FsmrbZ5njX8tFhQ&cb_client=maps_sv.tactile.gps&w=224&h=298&yaw=269.31018&pitch=0&thumbfov=100"
            },
            {
                "about": "Street View & 360deg",
                "link": "https://streetviewpixels-pa.googleapis.com/v1/thumbnail?panoid=pMi1iH1FsmrbZ5njX8tFhQ&cb_client=maps_sv.tactile.gps&w=224&h=298&yaw=269.31018&pitch=0&thumbfov=100"
            }
        ],
        "link": "https://www.google.com/maps/place/Masjid+cheemana+palli/data=!4m7!3m6!1s0x3bb27f68bf9811a1:0x66d9504e4e02eadd!8m2!3d13.3100269!4d78.5820998!16s%2Fg%2F11h59svfhw!19sChIJoRGYv2h_sjsR3eoCTk5Q2WY?authuser=0&hl=en&rclk=1",
        "coordinates": {
            "latitude": 13.310026899999999,
            "longitude": 78.5820998
        }
    },
    {
        "name": "Gollapalli Masjid",
        "main_category": "Mosque",
        "address": "465W+RWP Gollapalli Masjid, Katarupalli, Andhra Pradesh 515521",
        "detailed_address": {
            "ward": null,
            "street": "465W+RWP",
            "city": "Katarupalli",
            "postal_code": "515521",
            "state": "Andhra Pradesh",
            "country_code": "IN"
        },
        "images": [],
        "link": "https://www.google.com/maps/place/Gollapalli+Masjid/data=!4m7!3m6!1s0x3bb3c9ebefed8367:0xc05e38e42dda007a!8m2!3d14.1095941!4d78.2473346!16s%2Fg%2F11ppyy2s5g!19sChIJZ4Pt7-vJszsRegDaLeQ4XsA?authuser=0&hl=en&rclk=1",
        "coordinates": {
            "latitude": 14.109594099999999,
            "longitude": 78.2473346
        }
    }
]