[
    {
        "name": "Zahida Qadri Masjid",
        "main_category": "Mosque",
        "address": "Zahida Qadri Masjid, Tehsil, Ghosi, National Highway 29, Kasba Khas, Uttar Pradesh 275304",
        "detailed_address": {
            "ward": null,
            "street": "Tehsil, Ghosi, National Highway 29",
            "city": "Kasba Khas",
            "postal_code": "275304",
            "state": "Uttar Pradesh",
            "country_code": "IN"
        },
        "images": [
            {
                "about": "All",
                "link": "https://lh5.googleusercontent.com/p/AF1QipPhTPBeISJmQm7x_tGGL12R-AkafPBXzkXz1zb9=w529-h298-k-no"
            },
            {
                "about": "Videos",
                "link": "https://lh5.googleusercontent.com/p/AF1QipMIyeO0YZw7UuePrYgcGMeUJE5jUNNgRSIzVagh=w224-h398-k-no"
            }
        ],
        "link": "https://www.google.com/maps/place/Zahida+Qadri+Masjid/data=!4m7!3m6!1s0x39918639e3e7c141:0x76612ef72aa3f768!8m2!3d26.1047949!4d83.5387761!16s%2Fg%2F11c5260gmf!19sChIJQcHn4zmGkTkRaPejKvcuYXY?authuser=0&hl=en&rclk=1",
        "coordinates": {
            "latitude": 26.104794899999998,
            "longitude": 83.53877609999999
        }
    },
    {
        "name": "Masjid Badagaon",
        "main_category": "Mosque",
        "address": "4GGW+65X Masjid Badagaon, Badagaon, Ghosi, Uttar Pradesh 275304",
        "detailed_address": {
            "ward": "Jamalpur",
            "street": "4GGW+65X, Badagaon",
            "city": "Ghosi",
            "postal_code": "275304",
            "state": "Uttar Pradesh",
            "country_code": "IN"
        },
        "images": [
            {
                "about": "All",
                "link": "https://lh5.googleusercontent.com/p/AF1QipOi388bAjSU_hC8NN9nGthBtIVkmfLIezG1v31L=w224-h298-k-no"
            }
        ],
        "link": "https://www.google.com/maps/place/Masjid+Badagaon/data=!4m7!3m6!1s0x39918653c4a962a5:0x966657297745d23f!8m2!3d26.1256049!4d83.5454809!16s%2Fg%2F11c2npkxks!19sChIJpWKpxFOGkTkRP9JFdylXZpY?authuser=0&hl=en&rclk=1",
        "coordinates": {
            "latitude": 26.1256049,
            "longitude": 83.5454809
        }
    },
    {
        "name": "Amjadi Razvi Mosque",
        "main_category": "Mosque",
        "address": "4HF2+H75 Amjadi Razvi Mosque, Jamalpur, Ghosi, Uttar Pradesh 275304",
        "detailed_address": {
            "ward": "Jamalpur",
            "street": "4HF2+H75",
            "city": "Ghosi",
            "postal_code": "275304",
            "state": "Uttar Pradesh",
            "country_code": "IN"
        },
        "images": [
            {
                "about": "All",
                "link": "https://lh5.googleusercontent.com/p/AF1QipO7QAY0f4ydVkyBZ2xgIbPP3CfcXkhVcTzc6R4l=w397-h298-k-no"
            },
            {
                "about": "Dome",
                "link": "https://lh5.googleusercontent.com/p/AF1QipMeV4N-rTz1blcQYiY7vbA-DGdhkKzqwv9Oii0v=w224-h460-k-no"
            },
            {
                "about": "Videos",
                "link": "https://lh5.googleusercontent.com/p/AF1QipP3OesvzcDBAN6O2gGTAIKq-iYrhBs-tUNsoRQ=w224-h398-k-no"
            }
        ],
        "link": "https://www.google.com/maps/place/Amjadi+Razvi+Mosque/data=!4m7!3m6!1s0x399187ad3cf22f91:0x156ba5de3bac13a0!8m2!3d26.1238846!4d83.5507412!16s%2Fg%2F11ckr7qblv!19sChIJkS_yPK2HkTkRoBOsO96laxU?authuser=0&hl=en&rclk=1",
        "coordinates": {
            "latitude": 26.1238846,
            "longitude": 83.55074119999999
        }
    },
    {
        "name": "Bazar Masjid",
        "main_category": "Mosque",
        "address": "4G8V+2VF Bazar Masjid, Ghosi, Uttar Pradesh 275304",
        "detailed_address": {
            "ward": null,
            "street": "4G8V+2VF",
            "city": "Ghosi",
            "postal_code": "275304",
            "state": "Uttar Pradesh",
            "country_code": "IN"
        },
        "images": [
            {
                "about": "All",
                "link": "https://lh5.googleusercontent.com/p/AF1QipNw6nAxNmRunCyM-sR-IEgok99qtIpiKppUbGJd=w224-h398-k-no"
            },
            {
                "about": "Street View & 360deg",
                "link": "https://streetviewpixels-pa.googleapis.com/v1/thumbnail?panoid=TuNFQ1kCBiWNCFJLNJVaCw&cb_client=maps_sv.tactile.gps&w=224&h=298&yaw=295.37418&pitch=0&thumbfov=100"
            },
            {
                "about": "Videos",
                "link": "https://lh5.googleusercontent.com/p/AF1QipNw6nAxNmRunCyM-sR-IEgok99qtIpiKppUbGJd=w224-h398-k-no"
            }
        ],
        "link": "https://www.google.com/maps/place/Bazar+Masjid/data=!4m7!3m6!1s0x3991864c00000001:0x88826bf242367791!8m2!3d26.1150732!4d83.5446725!16s%2Fg%2F11c2np3fn4!19sChIJAQAAAEyGkTkRkXc2QvJrgog?authuser=0&hl=en&rclk=1",
        "coordinates": {
            "latitude": 26.115073199999998,
            "longitude": 83.54467249999999
        }
    },
    {
        "name": "Aamena Masjid",
        "main_category": "Mosque",
        "address": "Aamena Masjid, Karimuddin Pur Baag, Ghosi Mau, Karimuddinpur, Ghosi, Uttar Pradesh 275304",
        "detailed_address": {
            "ward": "Karimuddinpur",
            "street": "Karimuddin Pur Baag, Ghosi Mau",
            "city": "Ghosi",
            "postal_code": "275304",
            "state": "Uttar Pradesh",
            "country_code": "IN"
        },
        "images": [
            {
                "about": "All",
                "link": "https://lh5.googleusercontent.com/p/AF1QipPXdEE95JlBwaivCv3FIELCQr4HisXeoOBlJD7l=w224-h298-k-no"
            },
            {
                "about": "Street View & 360deg",
                "link": "https://lh5.googleusercontent.com/p/AF1QipMbIw5--sA1Llx9f8uC9Y6W6eWzty6Cuy9oBF_G=w224-h298-k-no-pi0-ya267-ro-0-fo100"
            }
        ],
        "link": "https://www.google.com/maps/place/Aamena+Masjid/data=!4m7!3m6!1s0x3991865291e6db61:0x7a178d8b61a15954!8m2!3d26.1227236!4d83.5476245!16s%2Fg%2F11c4sm3hn4!19sChIJYdvmkVKGkTkRVFmhYYuNF3o?authuser=0&hl=en&rclk=1",
        "coordinates": {
            "latitude": 26.1227236,
            "longitude": 83.5476245
        }
    },
    {
        "name": "Jama Masjid",
        "main_category": "Mosque",
        "address": "4GFW+2GV Jama Masjid, Karimuddinpur, Ghosi, Uttar Pradesh 275304",
        "detailed_address": {
            "ward": "Karimuddinpur",
            "street": "4GFW+2GV",
            "city": "Ghosi",
            "postal_code": "275304",
            "state": "Uttar Pradesh",
            "country_code": "IN"
        },
        "images": [
            {
                "about": "All",
                "link": "https://lh5.googleusercontent.com/p/AF1QipPSbPb2UM2Qp5csh4kSaJV1BlNORvih-g0ptryI=w224-h398-k-no"
            },
            {
                "about": "Dome",
                "link": "https://lh5.googleusercontent.com/p/AF1QipMvMiFmhVemu7D5IPuw55cCasjUtL2wE48v5rQE=w224-h298-k-no"
            }
        ],
        "link": "https://www.google.com/maps/place/Jama+Masjid/data=!4m7!3m6!1s0x399186526f6304af:0x410dd58acd06f482!8m2!3d26.1226067!4d83.5462907!16s%2Fg%2F11b6hy4c_w!19sChIJrwRjb1KGkTkRgvQGzYrVDUE?authuser=0&hl=en&rclk=1",
        "coordinates": {
            "latitude": 26.1226067,
            "longitude": 83.5462907
        }
    },
    {
        "name": "Jama Masjid Milak Malpur jaamaa msjid milk maalpur",
        "main_category": "Mosque",
        "address": "RJ4G+926 Jama Masjid Milak Malpur jaamaa msjid milk maalpur, Milak, Malpur, Palupura Ghosi, Uttar Pradesh 244102",
        "detailed_address": {
            "ward": "Milak",
            "street": "RJ4G+926",
            "city": "Malpur, Palupura Ghosi",
            "postal_code": "244102",
            "state": "Uttar Pradesh",
            "country_code": "IN"
        },
        "images": [
            {
                "about": "All",
                "link": "https://lh5.googleusercontent.com/p/AF1QipNXNhykg31D8ePwIOWTgLGzqpWZWuNWkH_QQOTq=w224-h400-k-no"
            },
            {
                "about": "Dome",
                "link": "https://lh5.googleusercontent.com/p/AF1QipO3lcI3wb6RpZVngsk10GahM1dF9WCOrDL3f1hg=w532-h298-k-no"
            },
            {
                "about": "Videos",
                "link": "https://lh5.googleusercontent.com/p/AF1QipOp0n2teClht-MIlzsRdfOt6THU9NMVLQkyCvT5=w224-h398-k-no"
            }
        ],
        "link": "https://www.google.com/maps/place/Jama+Masjid+Milak+Malpur+%E0%A4%9C%E0%A4%BE%E0%A4%AE%E0%A4%BE+%E0%A4%AE%E0%A4%B8%E0%A5%8D%E0%A4%9C%E0%A4%BF%E0%A4%A6+%E0%A4%AE%E0%A4%BF%E0%A4%B2%E0%A4%95+%E0%A4%AE%E0%A4%BE%E0%A4%B2%E0%A4%AA%E0%A5%81%E0%A4%B0/data=!4m7!3m6!1s0x390b025ae6074821:0xdc14392ae208534!8m2!3d28.8059247!4d78.625003!16s%2Fg%2F11gdzjx1hz!19sChIJIUgH5loCCzkRNIUgrpJDwQ0?authuser=0&hl=en&rclk=1",
        "coordinates": {
            "latitude": 28.8059247,
            "longitude": 78.62500299999999
        }
    },
    {
        "name": "Jama Masjid",
        "main_category": "Mosque",
        "address": "4H2V+53M Jama Masjid, Ghosi Rd, Raghawali, Uttar Pradesh 275105",
        "detailed_address": {
            "ward": null,
            "street": "4H2V+53M, Ghosi Rd",
            "city": "Raghawali",
            "postal_code": "275105",
            "state": "Uttar Pradesh",
            "country_code": "IN"
        },
        "images": [
            {
                "about": "All",
                "link": "https://lh5.googleusercontent.com/p/AF1QipN3Hwu3qUVRX4A-mhX2EIvguCvsHKqUhEGpd_SH=w224-h398-k-no"
            }
        ],
        "link": "https://www.google.com/maps/place/Jama+Masjid/data=!4m7!3m6!1s0x3992281d53e942e1:0xe78143ffe195b77e!8m2!3d26.1004654!4d83.592664!16s%2Fg%2F1hhhsg9v9!19sChIJ4ULpUx0okjkRfreV4f9Dgec?authuser=0&hl=en&rclk=1",
        "coordinates": {
            "latitude": 26.100465399999997,
            "longitude": 83.592664
        }
    },
    {
        "name": "Ghosia Masjid",
        "main_category": "Mosque",
        "address": "Ghosia Masjid, 244241, Bawan Kheri, Bamhori Renguwan, Madhya Pradesh",
        "detailed_address": {
            "ward": "Bawan Kheri",
            "street": "244241",
            "city": "Bamhori Renguwan, Hajipur Bhoor",
            "postal_code": null,
            "state": "Madhya Pradesh",
            "country_code": "IN"
        },
        "images": [
            {
                "about": "All",
                "link": "https://lh5.googleusercontent.com/p/AF1QipMC6fDLuLY5bI4nraHqmup0ftY9BKcAMVzd20bU=w224-h298-k-no"
            },
            {
                "about": "Videos",
                "link": "https://lh5.googleusercontent.com/p/AF1QipOBcIlQrE_FsYy2wF7Z5y9xLn3vkhY_6424UopM=w224-h398-k-no"
            }
        ],
        "link": "https://www.google.com/maps/place/Ghosia+Masjid/data=!4m7!3m6!1s0x390b0d0525769c0b:0xe36d637b635a6482!8m2!3d28.7614877!4d78.3280994!16s%2Fg%2F11cs5v_lg_!19sChIJC5x2JQUNCzkRgmRaY3tjbeM?authuser=0&hl=en&rclk=1",
        "coordinates": {
            "latitude": 28.7614877,
            "longitude": 78.3280994
        }
    },
    {
        "name": "Ashrafi Jama Masjid",
        "main_category": "Mosque",
        "address": "4GCX+J7R Ashrafi Jama Masjid, Karimuddinpur, Ghosi, Uttar Pradesh 275304",
        "detailed_address": {
            "ward": "Karimuddinpur",
            "street": "4GCX+J7R",
            "city": "Ghosi",
            "postal_code": "275304",
            "state": "Uttar Pradesh",
            "country_code": "IN"
        },
        "images": [
            {
                "about": "All",
                "link": "https://lh5.googleusercontent.com/p/AF1QipMPx-80Ni4VeUd-_rh7s7_ySW0TDG7N-HjOmy8m=w397-h298-k-no"
            },
            {
                "about": "Dome",
                "link": "https://lh5.googleusercontent.com/p/AF1QipNxlsXF6yp7Uph2XD6f1E90VJg0xdb63cvDpdQ=w397-h298-k-no"
            },
            {
                "about": "Videos",
                "link": "https://lh5.googleusercontent.com/p/AF1QipNrbNxt1iGbeH6V5F1ByWPyzpqJ_4DlXt4_hgo=w224-h398-k-no"
            }
        ],
        "link": "https://www.google.com/maps/place/Ashrafi+Jama+Masjid/data=!4m7!3m6!1s0x3991864d61c9ce3d:0xb09f5a2c5fefe7c4!8m2!3d26.1216232!4d83.5481286!16s%2Fg%2F11bw66s372!19sChIJPc7JYU2GkTkRxOfvXyxan7A?authuser=0&hl=en&rclk=1",
        "coordinates": {
            "latitude": 26.1216232,
            "longitude": 83.5481286
        }
    },
    {
        "name": "Noori Masjid Karimuddin Pur",
        "main_category": "Mosque",
        "address": "4HF2+2QG Noori Masjid Karimuddin Pur, Unnamed Road,, Jamalpur, Ghosi, Uttar Pradesh 275304",
        "detailed_address": {
            "ward": "Jamalpur",
            "street": "4HF2+2QG, Unnamed Road,",
            "city": "Ghosi",
            "postal_code": "275304",
            "state": "Uttar Pradesh",
            "country_code": "IN"
        },
        "images": [
            {
                "about": "All",
                "link": "https://lh5.googleusercontent.com/p/AF1QipNtx4Af3zqNrWr7fMzwuvoT_qf27JCC70DtJcQ=w224-h298-k-no"
            }
        ],
        "link": "https://www.google.com/maps/place/Noori+Masjid+Karimuddin+Pur/data=!4m7!3m6!1s0x399187ad7a10a7fd:0x47f6c918428e7e71!8m2!3d26.1225519!4d83.5519457!16s%2Fg%2F11c1w_2xq2!19sChIJ_acQeq2HkTkRcX6OQhjJ9kc?authuser=0&hl=en&rclk=1",
        "coordinates": {
            "latitude": 26.122551899999998,
            "longitude": 83.55194569999999
        }
    },
    {
        "name": "Bhatauli Malik Jama, Masjid",
        "main_category": "Mosque",
        "address": "4H74+WQ7 Bhatauli Malik Jama, Masjid, Bhatauli Malik,, Ghosi, Uttar Pradesh 275304",
        "detailed_address": {
            "ward": null,
            "street": "4H74+WQ7, Bhatauli Malik,",
            "city": "Ghosi, Rasulpur Taluka Kasim",
            "postal_code": "275304",
            "state": "Uttar Pradesh",
            "country_code": "IN"
        },
        "images": [
            {
                "about": "All",
                "link": "https://lh5.googleusercontent.com/p/AF1QipNIkd7wuNjoht6ju8pmMDdSQX-ZZPs7tZZ1vTs1=w397-h298-k-no"
            }
        ],
        "link": "https://www.google.com/maps/place/Bhatauli+Malik+Jama,+Masjid/data=!4m7!3m6!1s0x399187b6dde183e1:0xa28ab48443037e36!8m2!3d26.1147889!4d83.5569278!16s%2Fg%2F11clvtn6tx!19sChIJ4YPh3baHkTkRNn4DQ4S0iqI?authuser=0&hl=en&rclk=1",
        "coordinates": {
            "latitude": 26.114788899999997,
            "longitude": 83.5569278
        }
    },
    {
        "name": "Shamsul Oloom Mosque",
        "main_category": "Mosque",
        "address": "Shamsul Oloom Mosque, Ghosi, Uttar Pradesh 275304",
        "detailed_address": {
            "ward": "Jamalpur",
            "street": "Shamsul Oloom Mosque",
            "city": "Ghosi",
            "postal_code": "275304",
            "state": "Uttar Pradesh",
            "country_code": "IN"
        },
        "images": [
            {
                "about": "All",
                "link": "https://lh5.googleusercontent.com/p/AF1QipNPFATTqyIOxM-M28IdF88RDXZb10IFA1sN8xg_=w660-h298-k-no"
            },
            {
                "about": "Street View & 360deg",
                "link": "https://streetviewpixels-pa.googleapis.com/v1/thumbnail?panoid=gVs0T4eK6y4EKm7U2lRC_g&cb_client=maps_sv.tactile.gps&w=224&h=298&yaw=325.25305&pitch=0&thumbfov=100"
            }
        ],
        "link": "https://www.google.com/maps/place/Shamsul+Oloom+Mosque/data=!4m7!3m6!1s0x399186520500e43f:0xdaf10162d48adf6!8m2!3d26.1221563!4d83.544745!16s%2Fg%2F11bzs28v36!19sChIJP-QABVKGkTkR9q1ILRYQrw0?authuser=0&hl=en&rclk=1",
        "coordinates": {
            "latitude": 26.1221563,
            "longitude": 83.54474499999999
        }
    },
    {
        "name": "Hazrat Khawja Mahmood Bahrang Bilali",
        "main_category": "Mosque",
        "address": "4G3R+3PM Hazrat Khawja Mahmood Bahrang Bilali, Ghosi, Uttar Pradesh 275304",
        "detailed_address": {
            "ward": null,
            "street": "4G3R+3PM",
            "city": "Ghosi",
            "postal_code": "275304",
            "state": "Uttar Pradesh",
            "country_code": "IN"
        },
        "images": [
            {
                "about": "All",
                "link": "https://lh5.googleusercontent.com/p/AF1QipPDvoyf9ZH_Z5Jf2eThyL-hSBL_fv-XMsZeEl_J=w224-h298-k-no"
            },
            {
                "about": "Dome",
                "link": "https://lh5.googleusercontent.com/p/AF1QipPLlAxpGSQdZJfzzkko12Tf-3l33e-HNYO4A8wV=w224-h298-k-no"
            }
        ],
        "link": "https://www.google.com/maps/place/Hazrat+Khawja+Mahmood+Bahrang+Bilali/data=!4m7!3m6!1s0x39918631272f4635:0x686dd4056e0785e0!8m2!3d26.102719!4d83.5418073!16s%2Fg%2F11fxzkfx5b!19sChIJNUYvJzGGkTkR4IUHbgXUbWg?authuser=0&hl=en&rclk=1",
        "coordinates": {
            "latitude": 26.102719,
            "longitude": 83.5418073
        }
    },
    {
        "name": "Jafri Masjid",
        "main_category": "Mosque",
        "address": "4GGV+HX4 Jafri Masjid, Jafri Campus, Baragaon,, Ghosi, Uttar Pradesh 275304",
        "detailed_address": {
            "ward": "Jamalpur",
            "street": "4GGV+HX4, Jafri Campus, Baragaon,",
            "city": "Ghosi, Somaridih",
            "postal_code": "275304",
            "state": "Uttar Pradesh",
            "country_code": "IN"
        },
        "images": [
            {
                "about": "All",
                "link": "https://lh5.googleusercontent.com/p/AF1QipMnXbuZEb3CVAiN-agBQJWVjMtvC08WvZRx99tI=w529-h298-k-no"
            },
            {
                "about": "Videos",
                "link": "https://lh5.googleusercontent.com/p/AF1QipM8IA1UqtrS2ae2dU_7KfastDgQs3SalxhaYTO3=w529-h298-k-no"
            }
        ],
        "link": "https://www.google.com/maps/place/Jafri+Masjid/data=!4m7!3m6!1s0x39918653e5e57b65:0x9bd93c732193da63!8m2!3d26.1263935!4d83.5449448!16s%2Fg%2F11c43x8kbj!19sChIJZXvl5VOGkTkRY9qTIXM82Zs?authuser=0&hl=en&rclk=1",
        "coordinates": {
            "latitude": 26.1263935,
            "longitude": 83.5449448
        }
    },
    {
        "name": "Jama masjid",
        "main_category": "Mosque",
        "address": "4G7P+CW6 Jama masjid, Mau, Uttar Pradesh 275304",
        "detailed_address": {
            "ward": null,
            "street": "4G7P+CW6",
            "city": "Mau",
            "postal_code": "275304",
            "state": "Uttar Pradesh",
            "country_code": "IN"
        },
        "images": [
            {
                "about": "All",
                "link": "https://lh5.googleusercontent.com/p/AF1QipOUPnqzPiT2o7ywC87Ey-Wu-XgD0rlIfzsW8o-j=w647-h298-k-no"
            }
        ],
        "link": "https://www.google.com/maps/place/Jama+masjid/data=!4m7!3m6!1s0x399186464385a0e9:0xe361c32010d15f08!8m2!3d26.1135368!4d83.5372536!16s%2Fg%2F11c1w0w5sk!19sChIJ6aCFQ0aGkTkRCF_RECDDYeM?authuser=0&hl=en&rclk=1",
        "coordinates": {
            "latitude": 26.1135368,
            "longitude": 83.5372536
        }
    },
    {
        "name": "Noori Masjid",
        "main_category": "Mosque",
        "address": "4GFW+QGP Noori Masjid, Mau-Gorakhpur Rd, Karimuddinpur, Uttar Pradesh 275304",
        "detailed_address": {
            "ward": "Karimuddinpur",
            "street": "4GFW+QGP, Mau-Gorakhpur Rd",
            "city": null,
            "postal_code": "275304",
            "state": "Uttar Pradesh",
            "country_code": "IN"
        },
        "images": [
            {
                "about": "All",
                "link": "https://lh5.googleusercontent.com/p/AF1QipO9SQBK0ZkAkLqS0A3QfZvPtbwYQ3nUmvcXoFwm=w224-h485-k-no"
            }
        ],
        "link": "https://www.google.com/maps/place/Noori+Masjid/data=!4m7!3m6!1s0x399186524d877bd3:0x55d347e9c713d4c9!8m2!3d26.1244628!4d83.5463348!16s%2Fg%2F11c6rjvw8h!19sChIJ03uHTVKGkTkRydQTx-lH01U?authuser=0&hl=en&rclk=1",
        "coordinates": {
            "latitude": 26.1244628,
            "longitude": 83.5463348
        }
    },
    {
        "name": "Ghosiyan Masjid",
        "main_category": "Mosque",
        "address": "J6XF+928 Ghosiyan Masjid, Garstin Baston Rd, Gali Sakko Wali, Shah Ganj, Old Delhi, New Delhi, Delhi, 110006",
        "detailed_address": {
            "ward": "Gali Sakko Wali, Shah Ganj, Old Delhi",
            "street": "J6XF+928, Garstin Baston Rd",
            "city": "New Delhi, Delhi",
            "postal_code": "110006",
            "state": "Delhi",
            "country_code": "IN"
        },
        "images": [
            {
                "about": "All",
                "link": "https://streetviewpixels-pa.googleapis.com/v1/thumbnail?panoid=n6XUN93Dy1k6XWA-yx_QfA&cb_client=maps_sv.tactile.gps&w=224&h=298&yaw=77.41904&pitch=0&thumbfov=100"
            },
            {
                "about": "Street View & 360deg",
                "link": "https://streetviewpixels-pa.googleapis.com/v1/thumbnail?panoid=n6XUN93Dy1k6XWA-yx_QfA&cb_client=maps_sv.tactile.gps&w=224&h=298&yaw=77.41904&pitch=0&thumbfov=100"
            }
        ],
        "link": "https://www.google.com/maps/place/Ghosiyan+Masjid/data=!4m7!3m6!1s0x390cfd19cb4fdef5:0x5a233f6c05fd37ea!8m2!3d28.6484192!4d77.2225897!16s%2Fg%2F11g6bkbkd_!19sChIJ9d5Pyxn9DDkR6jf9BWw_I1o?authuser=0&hl=en&rclk=1",
        "coordinates": {
            "latitude": 28.6484192,
            "longitude": 77.2225897
        }
    },
    {
        "name": "Chaman Masjid Milak Malpur cmn msjid milk maalpur",
        "main_category": "Mosque",
        "address": "RJ4F+2M7 Chaman Masjid Milak Malpur cmn msjid milk maalpur, Asmoli Madhan Rd, Palupura Ghosi, Uttar Pradesh 244102",
        "detailed_address": {
            "ward": null,
            "street": "RJ4F+2M7, Asmoli Madhan Rd",
            "city": "Palupura Ghosi",
            "postal_code": "244102",
            "state": "Uttar Pradesh",
            "country_code": "IN"
        },
        "images": [
            {
                "about": "All",
                "link": "https://lh5.googleusercontent.com/p/AF1QipPPskqlmfE753kVzzeEWZip5f7fvK6pzdk1QSc0=w224-h398-k-no"
            },
            {
                "about": "Videos",
                "link": "https://lh5.googleusercontent.com/p/AF1QipNSiDi9H9i6QMBW2obUgCdwQq1nvUqnJCKuF6O7=w224-h389-k-no"
            }
        ],
        "link": "https://www.google.com/maps/place/Chaman+Masjid+Milak+Malpur+%E0%A4%9A%E0%A4%AE%E0%A4%A8+%E0%A4%AE%E0%A4%B8%E0%A5%8D%E0%A4%9C%E0%A4%BF%E0%A4%A6+%E0%A4%AE%E0%A4%BF%E0%A4%B2%E0%A4%95+%E0%A4%AE%E0%A4%BE%E0%A4%B2%E0%A4%AA%E0%A5%81%E0%A4%B0/data=!4m7!3m6!1s0x390b03162d98a423:0xf2fa217d6c572759!8m2!3d28.8050412!4d78.6241873!16s%2Fg%2F11fjbknjqq!19sChIJI6SYLRYDCzkRWSdXbH0h-vI?authuser=0&hl=en&rclk=1",
        "coordinates": {
            "latitude": 28.805041199999998,
            "longitude": 78.6241873
        }
    },
    {
        "name": "Maina Masjid",
        "main_category": "Mosque",
        "address": "4GFW+G96 Maina Masjid, Karimuddinpur, Ghosi, Uttar Pradesh 275304",
        "detailed_address": {
            "ward": "Karimuddinpur",
            "street": "4GFW+G96",
            "city": "Ghosi",
            "postal_code": "275304",
            "state": "Uttar Pradesh",
            "country_code": "IN"
        },
        "images": [
            {
                "about": "All",
                "link": "https://lh5.googleusercontent.com/p/AF1QipNeV4ccOroJOwgc7uEkrJMVB4s7VL364PVIc4yE=w629-h298-k-no"
            },
            {
                "about": "Videos",
                "link": "https://lh5.googleusercontent.com/p/AF1QipMp3ybZs62I6cdVdyQBLb_D2kLMe_eDegRWQmEo=w224-h398-k-no"
            }
        ],
        "link": "https://www.google.com/maps/place/Maina+Masjid/data=!4m7!3m6!1s0x39918652460b2c1b:0xdd4371e04f8228e1!8m2!3d26.1237846!4d83.545893!16s%2Fg%2F11csbr7w7t!19sChIJGywLRlKGkTkR4SiCT-BxQ90?authuser=0&hl=en&rclk=1",
        "coordinates": {
            "latitude": 26.1237846,
            "longitude": 83.54589299999999
        }
    },
    {
        "name": "Ghani Masjid",
        "main_category": "Mosque",
        "address": "4G9X+V96 Ghani Masjid, Karimuddinpur, Ghosi, Uttar Pradesh 275304",
        "detailed_address": {
            "ward": "Karimuddinpur",
            "street": "4G9X+V96",
            "city": "Ghosi",
            "postal_code": "275304",
            "state": "Uttar Pradesh",
            "country_code": "IN"
        },
        "images": [
            {
                "about": "All",
                "link": "https://lh5.googleusercontent.com/p/AF1QipMBypp2ky9bB6NyKvAIzc3Ck8uVL9CO3RkPr82u=w224-h298-k-no"
            }
        ],
        "link": "https://www.google.com/maps/place/Ghani+Masjid/data=!4m7!3m6!1s0x3991864d472e5cf9:0x356cdbe9c830e5c!8m2!3d26.1196676!4d83.548392!16s%2Fg%2F11c49ycm87!19sChIJ-VwuR02GkTkRXA6DnL7NVgM?authuser=0&hl=en&rclk=1",
        "coordinates": {
            "latitude": 26.1196676,
            "longitude": 83.54839199999999
        }
    },
    {
        "name": "Shia Jama Masjid",
        "main_category": "Mosque",
        "address": "4GGV+R65 Shia Jama Masjid, Bara Gaon, Mau-Gorakhpur Rd, Ghosi, Uttar Pradesh 275304",
        "detailed_address": {
            "ward": "Jamalpur",
            "street": "4GGV+R65, Bara Gaon, Mau-Gorakhpur Rd",
            "city": "Ghosi, Somaridih",
            "postal_code": "275304",
            "state": "Uttar Pradesh",
            "country_code": "IN"
        },
        "images": [
            {
                "about": "All",
                "link": "https://lh5.googleusercontent.com/p/AF1QipP5JgSeSl3jV8AztWZ4c_aEyhe6WOMEJESWd2ut=w397-h298-k-no"
            }
        ],
        "link": "https://www.google.com/maps/place/Shia+Jama+Masjid/data=!4m7!3m6!1s0x399186514a27fed1:0xeed05dcf2d931399!8m2!3d26.1270037!4d83.5431203!16s%2Fg%2F11c2ph_3kr!19sChIJ0f4nSlGGkTkRmROTLc9d0O4?authuser=0&hl=en&rclk=1",
        "coordinates": {
            "latitude": 26.1270037,
            "longitude": 83.5431203
        }
    },
    {
        "name": "IDGAH",
        "main_category": "Mosque",
        "address": "4G5R+H3J IDGAH, Dak Bungalow Rd, Ghosi, Uttar Pradesh 275304",
        "detailed_address": {
            "ward": null,
            "street": "4G5R+H3J, Dak Bungalow Rd",
            "city": "Ghosi",
            "postal_code": "275304",
            "state": "Uttar Pradesh",
            "country_code": "IN"
        },
        "images": [
            {
                "about": "All",
                "link": "https://lh5.googleusercontent.com/p/AF1QipNSHvuIkPgfqBv6wvoDA3WTl7afWQ4eLnMc3wSX=w613-h298-k-no"
            },
            {
                "about": "Videos",
                "link": "https://lh5.googleusercontent.com/p/AF1QipOw-BBmjFCfia3JALwOEMgx40H2QNa7XN-lLDhg=w224-h395-k-no"
            }
        ],
        "link": "https://www.google.com/maps/place/IDGAH/data=!4m7!3m6!1s0x39918637e9274161:0x2b6e372a7bb7be31!8m2!3d26.1089722!4d83.5401547!16s%2Fg%2F11gdgxjcgq!19sChIJYUEn6TeGkTkRMb63eyo3bis?authuser=0&hl=en&rclk=1",
        "coordinates": {
            "latitude": 26.1089722,
            "longitude": 83.5401547
        }
    },
    {
        "name": "Masjid-e-Ekram",
        "main_category": "Mosque",
        "address": "4G7V+5PX Masjid-e-Ekram, Ghosi, Uttar Pradesh 275304",
        "detailed_address": {
            "ward": null,
            "street": "4G7V+5PX",
            "city": "Ghosi",
            "postal_code": "275304",
            "state": "Uttar Pradesh",
            "country_code": "IN"
        },
        "images": [],
        "link": "https://www.google.com/maps/place/Masjid-e-Ekram/data=!4m7!3m6!1s0x3991864bd58b9cb9:0x4cb1522820676857!8m2!3d26.112982!4d83.5443467!16s%2Fg%2F11bwkxpzl2!19sChIJuZyL1UuGkTkRV2hnIChSsUw?authuser=0&hl=en&rclk=1",
        "coordinates": {
            "latitude": 26.112982,
            "longitude": 83.54434669999999
        }
    },
    {
        "name": "Ghosi Jama Masjid",
        "main_category": "Mosque",
        "address": "CX9C+F96 Ghosi Jama Masjid, Jahangir Ganj, Uttar Pradesh 224147",
        "detailed_address": {
            "ward": null,
            "street": "CX9C+F96",
            "city": "Jahangir Ganj",
            "postal_code": "224147",
            "state": "Uttar Pradesh",
            "country_code": "IN"
        },
        "images": [
            {
                "about": "All",
                "link": "https://lh5.googleusercontent.com/p/AF1QipPbBsW1wpHWPOva42zQ-J6ZkvFo5RigkuvOhoUv=w224-h298-k-no"
            }
        ],
        "link": "https://www.google.com/maps/place/Ghosi+Jama+Masjid/data=!4m7!3m6!1s0x39910321bba46057:0xbcad2c2484d5ae2a!8m2!3d26.4186673!4d82.9708941!16s%2Fg%2F11h27xg9mj!19sChIJV2CkuyEDkTkRKq7VhCQsrbw?authuser=0&hl=en&rclk=1",
        "coordinates": {
            "latitude": 26.4186673,
            "longitude": 82.9708941
        }
    },
    {
        "name": "Belal Masjid",
        "main_category": "Mosque",
        "address": "4HG3+692 Belal Masjid, Maduban Road, Manikpur Asna, Ghosi, Uttar Pradesh",
        "detailed_address": {
            "ward": null,
            "street": "4HG3+692, Maduban Road, Manikpur Asna",
            "city": "Ghosi",
            "postal_code": null,
            "state": "Uttar Pradesh",
            "country_code": "IN"
        },
        "images": [
            {
                "about": "All",
                "link": "https://lh5.googleusercontent.com/p/AF1QipMZFGFwJ2R8t1pr-DLpEd-ip7TX_RErGssPSguP=w298-h298-k-no"
            },
            {
                "about": "Street View & 360deg",
                "link": "https://streetviewpixels-pa.googleapis.com/v1/thumbnail?panoid=qPzpJhPLX30zhI2g4HKSog&cb_client=maps_sv.tactile.gps&w=224&h=298&yaw=277.09866&pitch=0&thumbfov=100"
            }
        ],
        "link": "https://www.google.com/maps/place/Belal+Masjid/data=!4m7!3m6!1s0x399187bbe4d8c7e7:0x7fa4f1016efb331a!8m2!3d26.1255215!4d83.5533954!16s%2Fg%2F11nms4275f!19sChIJ58fY5LuHkTkRGjP7bgHxpH8?authuser=0&hl=en&rclk=1",
        "coordinates": {
            "latitude": 26.125521499999998,
            "longitude": 83.5533954
        }
    },
    {
        "name": "Masjid Imam Zainul Abedeen (A.S)",
        "main_category": "Mosque",
        "address": "4GGV+JP3 Masjid Imam Zainul Abedeen (A.S), Bara Gaon, Neem Tal, Ghosi, Uttar Pradesh 275304",
        "detailed_address": {
            "ward": "Jamalpur",
            "street": "4GGV+JP3, Bara Gaon, Neem Tal",
            "city": "Ghosi, Somaridih",
            "postal_code": "275304",
            "state": "Uttar Pradesh",
            "country_code": "IN"
        },
        "images": [
            {
                "about": "All",
                "link": "https://lh5.googleusercontent.com/p/AF1QipO9dDscHQBGzsKcCgWOJWGva8FjLFbpWO6Uy1oS=w224-h298-k-no"
            }
        ],
        "link": "https://www.google.com/maps/place/Masjid+Imam+Zainul+Abedeen+%28A.S%29/data=!4m7!3m6!1s0x399187475d3014c7:0x7445eeaa74afbdbd!8m2!3d26.1265034!4d83.5442917!16s%2Fg%2F11jnybq9l7!19sChIJxxQwXUeHkTkRvb2vdKruRXQ?authuser=0&hl=en&rclk=1",
        "coordinates": {
            "latitude": 26.126503399999997,
            "longitude": 83.5442917
        }
    },
    {
        "name": "Haideri Masjid",
        "main_category": "Mosque",
        "address": "4GHV+2W6 Haideri Masjid, Baragaon, National Highway 29, Jamalpur, Ghosi, Uttar Pradesh 275304",
        "detailed_address": {
            "ward": "Jamalpur",
            "street": "4GHV+2W6, Baragaon, National Highway 29",
            "city": "Ghosi, Somaridih",
            "postal_code": "275304",
            "state": "Uttar Pradesh",
            "country_code": "IN"
        },
        "images": [
            {
                "about": "All",
                "link": "https://lh5.googleusercontent.com/p/AF1QipM09419Te5tyu8VUGDtQ6cqqf3IkrWzrclaB2KJ=w224-h398-k-no"
            }
        ],
        "link": "https://www.google.com/maps/place/Haideri+Masjid/data=!4m7!3m6!1s0x399187191882e11f:0x839096509311dff1!8m2!3d26.1275293!4d83.54478!16s%2Fg%2F11jcj5240r!19sChIJH-GCGBmHkTkR8d8Rk1CWkIM?authuser=0&hl=en&rclk=1",
        "coordinates": {
            "latitude": 26.1275293,
            "longitude": 83.54478
        }
    },
    {
        "name": "Gausiya Masjid",
        "main_category": "Mosque",
        "address": "4HH3+WVX Gausiya Masjid, Manikpur Asana, Uttar Pradesh 275304",
        "detailed_address": {
            "ward": null,
            "street": "4HH3+WVX",
            "city": "Manikpur Asana",
            "postal_code": "275304",
            "state": "Uttar Pradesh",
            "country_code": "IN"
        },
        "images": [],
        "link": "https://www.google.com/maps/place/Gausiya+Masjid/data=!4m7!3m6!1s0x399187f64f0984ed:0x93a6a1803dacaa7d!8m2!3d26.129863!4d83.5547473!16s%2Fg%2F11h8w_5388!19sChIJ7YQJT_aHkTkRfaqsPYChppM?authuser=0&hl=en&rclk=1",
        "coordinates": {
            "latitude": 26.129863,
            "longitude": 83.5547473
        }
    },
    {
        "name": "Jama Masjid",
        "main_category": "Mosque",
        "address": "Jama Masjid, Md Azharudd, Mau-Gorakhpur Rd, Jamalpur, Uttar Pradesh 275304",
        "detailed_address": {
            "ward": "Jamalpur",
            "street": "Md Azharudd, Mau-Gorakhpur Rd",
            "city": null,
            "postal_code": "275304",
            "state": "Uttar Pradesh",
            "country_code": "IN"
        },
        "images": [
            {
                "about": "All",
                "link": "https://lh5.googleusercontent.com/p/AF1QipNlJ2Fk9mKV6uQaFSTcfpefTuLYh1JnbHaOh8OB=w224-h473-k-no"
            }
        ],
        "link": "https://www.google.com/maps/place/Jama+Masjid/data=!4m7!3m6!1s0x399186516bf0e337:0xb1af8f3c2ea747f6!8m2!3d26.1255775!4d83.5432274!16s%2Fg%2F11dxjw4r79!19sChIJN-Pwa1GGkTkR9kenLjyPr7E?authuser=0&hl=en&rclk=1",
        "coordinates": {
            "latitude": 26.1255775,
            "longitude": 83.54322739999999
        }
    },
    {
        "name": "Ghosi wali masjid",
        "main_category": "Mosque",
        "address": "7XR5+85 Ghosi wali masjid, Miranpur, Uttar Pradesh 251315",
        "detailed_address": {
            "ward": null,
            "street": "7XR5+85",
            "city": "Miranpur",
            "postal_code": null,
            "state": "Uttar Pradesh",
            "country_code": "IN"
        },
        "images": [
            {
                "about": "All",
                "link": "https://lh5.googleusercontent.com/p/AF1QipP3F-DO6ENbJaiH8LasuX3e4QkWweDx9LwM5Kc=w224-h298-k-no"
            },
            {
                "about": "Dome",
                "link": "https://lh5.googleusercontent.com/p/AF1QipM06WcenMadJOfW7Mxo4LgliwbBzU_YWvXpwxE=w224-h298-k-no"
            },
            {
                "about": "Videos",
                "link": "https://lh5.googleusercontent.com/p/AF1QipO2CazXKfFL8r30cvAOc-fNb2_ZZ0obv3p9oDk=w224-h398-k-no"
            }
        ],
        "link": "https://www.google.com/maps/place/Ghosi+wali+masjid/data=!4m7!3m6!1s0x390bf5d288eaf2df:0x3c7d5e0f24389a57!8m2!3d29.2908746!4d77.9579547!16s%2Fg%2F11s3zrym9n!19sChIJ3_LqiNL1CzkRV5o4JA9efTw?authuser=0&hl=en&rclk=1",
        "coordinates": {
            "latitude": 29.2908746,
            "longitude": 77.9579547
        }
    },
    {
        "name": "Ghosiyon Wali Masjid",
        "main_category": "Mosque",
        "address": "2P26+2XH Ghosiyon Wali Masjid, Jawahar Nagar, Meerut, Uttar Pradesh 250001",
        "detailed_address": {
            "ward": "Jawahar Nagar",
            "street": "2P26+2XH",
            "city": "Meerut",
            "postal_code": "250001",
            "state": "Uttar Pradesh",
            "country_code": "IN"
        },
        "images": [],
        "link": "https://www.google.com/maps/place/Ghosiyon+Wali+Masjid/data=!4m7!3m6!1s0x390c655dee81c3b1:0x2ec27446d258b30b!8m2!3d29.0000734!4d77.7124773!16s%2Fg%2F11h0vsvpws!19sChIJscOB7l1lDDkRC7NY0kZ0wi4?authuser=0&hl=en&rclk=1",
        "coordinates": {
            "latitude": 29.000073399999998,
            "longitude": 77.7124773
        }
    },
    {
        "name": "Husaini masjid",
        "main_category": "Mosque",
        "address": "4GGV+G6H Husaini masjid, Badagaon, Mau-Gorakhpur Rd, near Husaini Masjiid, Baragaon, Ghosi, Uttar Pradesh 275304",
        "detailed_address": {
            "ward": "Jamalpur",
            "street": "4GGV+G6H, Badagaon, Mau-Gorakhpur Rd, near Husaini Masjiid, Baragaon",
            "city": "Ghosi, Somaridih",
            "postal_code": "275304",
            "state": "Uttar Pradesh",
            "country_code": "IN"
        },
        "images": [],
        "link": "https://www.google.com/maps/place/Husaini+masjid/data=!4m7!3m6!1s0x39918651473e80d3:0x9725f4ab7f9a484f!8m2!3d26.1263197!4d83.5430977!16s%2Fg%2F11g6tysmh0!19sChIJ04A-R1GGkTkRT0iaf6v0JZc?authuser=0&hl=en&rclk=1",
        "coordinates": {
            "latitude": 26.1263197,
            "longitude": 83.54309769999999
        }
    },
    {
        "name": "Masjid_E_Ilahi",
        "main_category": "Mosque",
        "address": "4G7R+X95 Masjid_E_Ilahi, Ghosi, Uttar Pradesh 275304",
        "detailed_address": {
            "ward": null,
            "street": "4G7R+X95",
            "city": "Ghosi",
            "postal_code": "275304",
            "state": "Uttar Pradesh",
            "country_code": "IN"
        },
        "images": [
            {
                "about": "All",
                "link": "https://lh5.googleusercontent.com/p/AF1QipP490BT17AkVKbInCLXe2neg-sv8o7h0rrJOXiA=w224-h398-k-no"
            }
        ],
        "link": "https://www.google.com/maps/place/Masjid_E_Ilahi/data=!4m7!3m6!1s0x399187272d5d3c69:0x34c1e3ebc97bc04a!8m2!3d26.1148841!4d83.5409792!16s%2Fg%2F11j_nl7hw7!19sChIJaTxdLSeHkTkRSsB7yevjwTQ?authuser=0&hl=en&rclk=1",
        "coordinates": {
            "latitude": 26.114884099999998,
            "longitude": 83.5409792
        }
    },
    {
        "name": "Noorani Masjid",
        "main_category": "Mosque",
        "address": "4G7V+7F7 Noorani Masjid, Ghosi, Uttar Pradesh 275304",
        "detailed_address": {
            "ward": null,
            "street": "4G7V+7F7",
            "city": "Ghosi",
            "postal_code": "275304",
            "state": "Uttar Pradesh",
            "country_code": "IN"
        },
        "images": [
            {
                "about": "All",
                "link": "https://lh5.googleusercontent.com/p/AF1QipM-P5DrdfFPI-MBC3JSnjpXbdCXuXC7srE8rE5T=w224-h398-k-no"
            },
            {
                "about": "Dome",
                "link": "https://lh5.googleusercontent.com/p/AF1QipM-P5DrdfFPI-MBC3JSnjpXbdCXuXC7srE8rE5T=w224-h398-k-no"
            }
        ],
        "link": "https://www.google.com/maps/place/Noorani+Masjid/data=!4m7!3m6!1s0x39918649709fcb61:0xf8d5c14244bb9d3!8m2!3d26.1131588!4d83.5436587!16s%2Fg%2F11f1270cx2!19sChIJYcufcEmGkTkR07lLJBRcjQ8?authuser=0&hl=en&rclk=1",
        "coordinates": {
            "latitude": 26.113158799999997,
            "longitude": 83.5436587
        }
    },
    {
        "name": "Masjid-e Usman Gani",
        "main_category": "Mosque",
        "address": "4HF2+6HR Masjid-e Usman Gani, Manikpur Asna, Ghosi, Uttar Pradesh 275304",
        "detailed_address": {
            "ward": "Jamalpur",
            "street": "4HF2+6HR, Manikpur Asna",
            "city": "Ghosi",
            "postal_code": "275304",
            "state": "Uttar Pradesh",
            "country_code": "IN"
        },
        "images": [],
        "link": "https://www.google.com/maps/place/Masjid-e+Usman+Gani/data=!4m7!3m6!1s0x39918735668add9d:0xe91f1887ce177bb1!8m2!3d26.123101!4d83.5514002!16s%2Fg%2F11qjx0bpcs!19sChIJnd2KZjWHkTkRsXsXzocYH-k?authuser=0&hl=en&rclk=1",
        "coordinates": {
            "latitude": 26.123101,
            "longitude": 83.55140019999999
        }
    },
    {
        "name": "Rabbani Masjid Qazipura",
        "main_category": "Mosque",
        "address": "4G7P+HC7 Rabbani Masjid Qazipura, Qazipura Rd, Ghosi, Maidapur Samastpur, Uttar Pradesh 275304",
        "detailed_address": {
            "ward": null,
            "street": "4G7P+HC7, Qazipura Rd",
            "city": "Ghosi, Maidapur Samastpur",
            "postal_code": "275304",
            "state": "Uttar Pradesh",
            "country_code": "IN"
        },
        "images": [],
        "link": "https://www.google.com/maps/place/Rabbani+Masjid+Qazipura/data=!4m7!3m6!1s0x39918767ddacd857:0x3fed22c8b3267bbd!8m2!3d26.1139051!4d83.5360567!16s%2Fg%2F11h_k35tm4!19sChIJV9is3WeHkTkRvXsms8gi7T8?authuser=0&hl=en&rclk=1",
        "coordinates": {
            "latitude": 26.1139051,
            "longitude": 83.5360567
        }
    },
    {
        "name": "Masjid e Askari",
        "main_category": "Mosque",
        "address": "4GHV+477 Masjid e Askari, Bandh Rd, Jamalpur, Baragaon, Mau, Uttar Pradesh 275304",
        "detailed_address": {
            "ward": "Jamalpur",
            "street": "4GHV+477, Bandh Rd",
            "city": "Baragaon, Mau",
            "postal_code": "275304",
            "state": "Uttar Pradesh",
            "country_code": "IN"
        },
        "images": [],
        "link": "https://www.google.com/maps/place/Masjid+e+Askari/data=!4m7!3m6!1s0x39918656b689fe05:0x6ac70e587ed4df65!8m2!3d26.1277986!4d83.5431611!16s%2Fg%2F11df06cv3f!19sChIJBf6JtlaGkTkRZd_UflgOx2o?authuser=0&hl=en&rclk=1",
        "coordinates": {
            "latitude": 26.1277986,
            "longitude": 83.54316109999999
        }
    },
    {
        "name": "Nizami masjid",
        "main_category": "Mosque",
        "address": "4HJ3+63P Nizami masjid, Ghosi, Uttar Pradesh 275304",
        "detailed_address": {
            "ward": null,
            "street": "4HJ3+63P",
            "city": "Ghosi",
            "postal_code": "275304",
            "state": "Uttar Pradesh",
            "country_code": "IN"
        },
        "images": [
            {
                "about": "All",
                "link": "https://lh5.googleusercontent.com/p/AF1QipPuKgakjqWtAwWgPp4oDzY7gkftJFsMDfDstW91=w447-h298-k-no"
            }
        ],
        "link": "https://www.google.com/maps/place/Nizami+masjid/data=!4m7!3m6!1s0x399187f0920dafe3:0x651b2e72e94b2e57!8m2!3d26.1305794!4d83.5527031!16s%2Fg%2F11j1yb6y0s!19sChIJ468NkvCHkTkRVy5L6XIuG2U?authuser=0&hl=en&rclk=1",
        "coordinates": {
            "latitude": 26.1305794,
            "longitude": 83.5527031
        }
    },
    {
        "name": "Masjid e Abutalib (a.s.)",
        "main_category": "Mosque",
        "address": "4GGR+PQF Masjid e Abutalib (a.s.), Baragaon, Ghosi, Uttar Pradesh 275304",
        "detailed_address": {
            "ward": "Jamalpur",
            "street": "4GGR+PQF, Baragaon",
            "city": "Ghosi, Somaridih",
            "postal_code": "275304",
            "state": "Uttar Pradesh",
            "country_code": "IN"
        },
        "images": [
            {
                "about": "All",
                "link": "https://streetviewpixels-pa.googleapis.com/v1/thumbnail?panoid=V2gZIKZcNB85k7SJyLHryg&cb_client=maps_sv.tactile.gps&w=224&h=298&yaw=260.42108&pitch=0&thumbfov=100"
            },
            {
                "about": "Street View & 360deg",
                "link": "https://streetviewpixels-pa.googleapis.com/v1/thumbnail?panoid=V2gZIKZcNB85k7SJyLHryg&cb_client=maps_sv.tactile.gps&w=224&h=298&yaw=260.42108&pitch=0&thumbfov=100"
            }
        ],
        "link": "https://www.google.com/maps/place/Masjid+e+Abutalib+%28a.s.%29/data=!4m7!3m6!1s0x399187a70f3f7c73:0x7b0c3c9ee5a459e4!8m2!3d26.1268228!4d83.5419216!16s%2Fg%2F11gnpxsm_q!19sChIJc3w_D6eHkTkR5Fmk5Z48DHs?authuser=0&hl=en&rclk=1",
        "coordinates": {
            "latitude": 26.1268228,
            "longitude": 83.5419216
        }
    },
    {
        "name": "Abu Bakr Siddique Masjid",
        "main_category": "Mosque",
        "address": "5H8G+Q9Q Abu Bakr Siddique Masjid, Haji Abdul Jabbar Market, Sultanpur, Ghosi, Uttar Pradesh 275304",
        "detailed_address": {
            "ward": null,
            "street": "5H8G+Q9Q, Haji Abdul Jabbar Market, Sultanpur, Ghosi",
            "city": "Sultanpur",
            "postal_code": "275304",
            "state": "Uttar Pradesh",
            "country_code": "IN"
        },
        "images": [
            {
                "about": "All",
                "link": "https://lh5.googleusercontent.com/p/AF1QipOj3Ygq8RHnhEdVR6qSrk_Fd0PFnRyC69fhFvU=w224-h298-k-no"
            }
        ],
        "link": "https://www.google.com/maps/place/Abu+Bakr+Siddique+Masjid/data=!4m7!3m6!1s0x399187906216d045:0xc7fbab8a1436bcee!8m2!3d26.1669741!4d83.575987!16s%2Fg%2F11ll28ky4_!19sChIJRdAWYpCHkTkR7rw2FIqr-8c?authuser=0&hl=en&rclk=1",
        "coordinates": {
            "latitude": 26.166974099999997,
            "longitude": 83.575987
        }
    },
    {
        "name": "Ghos ghosi Madhuban road karimuddinpur jama masjid ke passi tahashil awadh hospital",
        "main_category": null,
        "address": "4G7W+G35 Ghos ghosi Madhuban road karimuddinpur jama masjid ke passi tahashil awadh hospital, Ghosi, Uttar Pradesh 275304",
        "detailed_address": {
            "ward": null,
            "street": "4G7W+G35",
            "city": "Ghosi",
            "postal_code": "275304",
            "state": "Uttar Pradesh",
            "country_code": "IN"
        },
        "images": [
            {
                "about": "All",
                "link": "https://streetviewpixels-pa.googleapis.com/v1/thumbnail?panoid=WYSyLdQLK_tV5IGxcENXng&cb_client=maps_sv.tactile.gps&w=224&h=298&yaw=67.65783&pitch=0&thumbfov=100"
            },
            {
                "about": "Street View & 360deg",
                "link": "https://streetviewpixels-pa.googleapis.com/v1/thumbnail?panoid=WYSyLdQLK_tV5IGxcENXng&cb_client=maps_sv.tactile.gps&w=224&h=298&yaw=67.65783&pitch=0&thumbfov=100"
            }
        ],
        "link": "https://www.google.com/maps/place/Ghos+ghosi+Madhuban+road+karimuddinpur+jama+masjid+ke+passi+tahashil+awadh+hospital/data=!4m7!3m6!1s0x3991879bca3a72b3:0x3574bb0d771f4013!8m2!3d26.1137702!4d83.5452197!16s%2Fg%2F11p5g9ffvb!19sChIJs3I6ypuHkTkRE0Afdw27dDU?authuser=0&hl=en&rclk=1",
        "coordinates": {
            "latitude": 26.113770199999998,
            "longitude": 83.54521969999999
        }
    },
    {
        "name": "Ghosiyo Wali Masjid",
        "main_category": "Mosque",
        "address": "RQQ9+7QW Ghosiyo Wali Masjid, Station Rd, Pat Pat Sarai, Moradabad, Uttar Pradesh 244001",
        "detailed_address": {
            "ward": "Pat Pat Sarai",
            "street": "RQQ9+7QW, Station Rd",
            "city": "Moradabad",
            "postal_code": "244001",
            "state": "Uttar Pradesh",
            "country_code": "IN"
        },
        "images": [
            {
                "about": "All",
                "link": "https://streetviewpixels-pa.googleapis.com/v1/thumbnail?panoid=LH1G-CtjZbHSiDUNnD9YzQ&cb_client=maps_sv.tactile.gps&w=224&h=298&yaw=295.88318&pitch=0&thumbfov=100"
            },
            {
                "about": "Street View & 360deg",
                "link": "https://streetviewpixels-pa.googleapis.com/v1/thumbnail?panoid=LH1G-CtjZbHSiDUNnD9YzQ&cb_client=maps_sv.tactile.gps&w=224&h=298&yaw=295.88318&pitch=0&thumbfov=100"
            }
        ],
        "link": "https://www.google.com/maps/place/Ghosiyo+Wali+Masjid/data=!4m7!3m6!1s0x390afb2e19da8da5:0x4930b74728a388d2!8m2!3d28.8381797!4d78.7692495!16s%2Fg%2F11t53grk00!19sChIJpY3aGS77CjkR0oijKEe3MEk?authuser=0&hl=en&rclk=1",
        "coordinates": {
            "latitude": 28.838179699999998,
            "longitude": 78.7692495
        }
    },
    {
        "name": "Jamia masjid ghosi",
        "main_category": "Mosque",
        "address": "67C4+6CG Jamia masjid ghosi, Raja Jang, Kasur, Punjab, Pakistan",
        "detailed_address": {
            "ward": null,
            "street": "67C4+6CG",
            "city": "Raja Jang",
            "postal_code": null,
            "state": "Kasur, Punjab",
            "country_code": "PK"
        },
        "images": [],
        "link": "https://www.google.com/maps/place/Jamia+masjid+ghosi/data=!4m7!3m6!1s0x3919ad9b6e48f5df:0xab3ae0d0f049d956!8m2!3d31.2205548!4d74.2560806!16s%2Fg%2F11jgd1vfcs!19sChIJ3_VIbputGTkRVtlJ8NDgOqs?authuser=0&hl=en&rclk=1",
        "coordinates": {
            "latitude": 31.2205548,
            "longitude": 74.25608059999999
        }
    },
    {
        "name": "mohmmdii jaamaa msjid husain pur",
        "main_category": "Mosque",
        "address": "4G7R+GMG mohmmdii jaamaa msjid husain pur, Ghosi, Uttar Pradesh 275304",
        "detailed_address": {
            "ward": null,
            "street": "4G7R+GMG",
            "city": "Ghosi",
            "postal_code": "275304",
            "state": "Uttar Pradesh",
            "country_code": "IN"
        },
        "images": [],
        "link": "https://www.google.com/maps/place/%E0%A4%AE%E0%A5%8B%E0%A4%B9%E0%A4%AE%E0%A5%8D%E0%A4%AE%E0%A4%A6%E0%A5%80+%E0%A4%9C%E0%A4%BE%E0%A4%AE%E0%A4%BE+%E0%A4%AE%E0%A4%B8%E0%A5%8D%E0%A4%9C%E0%A4%BF%E0%A4%A6+%E0%A4%B9%E0%A5%81%E0%A4%B8%E0%A5%88%E0%A4%A8+%E0%A4%AA%E0%A5%81%E0%A4%B0/data=!4m7!3m6!1s0x399187cb06acafd7:0xd5f45bdba6271b0b!8m2!3d26.1138235!4d83.5416973!16s%2Fg%2F11p15qh68p!19sChIJ16-sBsuHkTkRCxsnpttb9NU?authuser=0&hl=en&rclk=1",
        "coordinates": {
            "latitude": 26.1138235,
            "longitude": 83.5416973
        }
    },
    {
        "name": "Masjid kothi madapur ghosi msjid kotthii mdaapur ghosii",
        "main_category": "Mosque",
        "address": "4G7R+4V6 Masjid kothi madapur ghosi msjid kotthii mdaapur ghosii, Madapur samaspur, kothi, Ghosi, Uttar Pradesh",
        "detailed_address": {
            "ward": "kothi",
            "street": "4G7R+4V6, Madapur samaspur",
            "city": "Ghosi",
            "postal_code": null,
            "state": "Uttar Pradesh",
            "country_code": "IN"
        },
        "images": [],
        "link": "https://www.google.com/maps/place/Masjid+kothi+madapur+ghosi+%E0%A4%AE%E0%A4%B8%E0%A5%8D%E0%A4%9C%E0%A4%BF%E0%A4%A6+%E0%A4%95%E0%A5%8B%E0%A4%A0%E0%A5%80+%E0%A4%AE%E0%A4%A6%E0%A4%BE%E0%A4%AA%E0%A5%81%E0%A4%B0+%E0%A4%98%E0%A5%8B%E0%A4%B8%E0%A5%80/data=!4m7!3m6!1s0x399187217b976cc1:0x2dcbb82ca713aac3!8m2!3d26.1127957!4d83.5421396!16s%2Fg%2F11tf892lzw!19sChIJwWyXeyGHkTkRw6oTpyy4yy0?authuser=0&hl=en&rclk=1",
        "coordinates": {
            "latitude": 26.1127957,
            "longitude": 83.5421396
        }
    },
    {
        "name": "Raza Masjid",
        "main_category": "Mosque",
        "address": "4GFX+F47 Raza Masjid, Karimuddinpur, Ghosi, Uttar Pradesh 275304",
        "detailed_address": {
            "ward": "Karimuddinpur",
            "street": "4GFX+F47",
            "city": "Ghosi",
            "postal_code": "275304",
            "state": "Uttar Pradesh",
            "country_code": "IN"
        },
        "images": [
            {
                "about": "All",
                "link": "https://lh5.googleusercontent.com/p/AF1QipOBH2DejhqatyiJs2y3ZMuX41HVM5PM80cujDMH=w224-h398-k-no"
            },
            {
                "about": "Videos",
                "link": "https://lh5.googleusercontent.com/p/AF1QipOBH2DejhqatyiJs2y3ZMuX41HVM5PM80cujDMH=w224-h398-k-no"
            }
        ],
        "link": "https://www.google.com/maps/place/Raza+Masjid/data=!4m7!3m6!1s0x39918652ee5b410f:0xb4bc528603fa803d!8m2!3d26.1236548!4d83.547788!16s%2Fg%2F11c6z1w15t!19sChIJD0Fb7lKGkTkRPYD6A4ZSvLQ?authuser=0&hl=en&rclk=1",
        "coordinates": {
            "latitude": 26.123654799999997,
            "longitude": 83.547788
        }
    },
    {
        "name": "Rahmani (Hatiyah) Masjid",
        "main_category": "Mosque",
        "address": "4GFW+9VV Rahmani (Hatiyah) Masjid, Karimuddinpur, Ghosi, Uttar Pradesh 275304",
        "detailed_address": {
            "ward": "Karimuddinpur",
            "street": "4GFW+9VV",
            "city": "Ghosi",
            "postal_code": "275304",
            "state": "Uttar Pradesh",
            "country_code": "IN"
        },
        "images": [],
        "link": "https://www.google.com/maps/place/Rahmani+%28Hatiyah%29+Masjid/data=!4m7!3m6!1s0x39918798388d3323:0x1bc6a0f5f9ff03e4!8m2!3d26.1234842!4d83.5471802!16s%2Fg%2F11q1vt0hpf!19sChIJIzONOJiHkTkR5AP_-fWgxhs?authuser=0&hl=en&rclk=1",
        "coordinates": {
            "latitude": 26.1234842,
            "longitude": 83.5471802
        }
    },
    {
        "name": "Umer Farooque masjid",
        "main_category": "Mosque",
        "address": "4GGW+4RR Umer Farooque masjid, Bada Gaon, Ghosi, Uttar Pradesh 275304",
        "detailed_address": {
            "ward": "Bada Gaon",
            "street": "4GGW+4RR",
            "city": "Ghosi",
            "postal_code": null,
            "state": "Uttar Pradesh",
            "country_code": "IN"
        },
        "images": [],
        "link": "https://www.google.com/maps/place/Umer+Farooque+masjid/data=!4m7!3m6!1s0x3991872303915afb:0x16e125a0db61fb65!8m2!3d26.1253502!4d83.5470021!16s%2Fg%2F11frslt2dz!19sChIJ-1qRAyOHkTkRZfth26Al4RY?authuser=0&hl=en&rclk=1",
        "coordinates": {
            "latitude": 26.1253502,
            "longitude": 83.5470021
        }
    },
    {
        "name": "mzr syWd shhyd, bb",
        "main_category": "Mosque",
        "address": "4GCW+8PJ mzr syWd shhyd, bb, Karimuddinpur, Ghosi, Uttar Pradesh 275304",
        "detailed_address": {
            "ward": "Karimuddinpur",
            "street": "4GCW+8PJ",
            "city": "Ghosi",
            "postal_code": "275304",
            "state": "Uttar Pradesh",
            "country_code": "IN"
        },
        "images": [],
        "link": "https://www.google.com/maps/place/%D9%85%D8%B2%D8%A7%D8%B1+%D8%B3%DB%8C%D9%91%D8%AF+%D8%B4%DB%81%DB%8C%D8%AF%D8%8C+%D8%A8%D8%A7%D8%A8%D8%A7%E2%80%AD/data=!4m7!3m6!1s0x399187a3b681248d:0x1d353b32554c2364!8m2!3d26.1208339!4d83.546761!16s%2Fg%2F11rv360pvz!19sChIJjSSBtqOHkTkRZCNMVTI7NR0?authuser=0&hl=en&rclk=1",
        "coordinates": {
            "latitude": 26.120833899999997,
            "longitude": 83.54676099999999
        }
    },
    {
        "name": "Khawaja Gareeb Nawaz Masjid",
        "main_category": "Mosque",
        "address": "4HG2+684 Khawaja Gareeb Nawaz Masjid, Jahan Nagar, Jamalpur, Ghosi, Uttar Pradesh 275304",
        "detailed_address": {
            "ward": "Jamalpur",
            "street": "4HG2+684, Jahan Nagar",
            "city": "Ghosi",
            "postal_code": "275304",
            "state": "Uttar Pradesh",
            "country_code": "IN"
        },
        "images": [],
        "link": "https://www.google.com/maps/place/Khawaja+Gareeb+Nawaz+Masjid/data=!4m7!3m6!1s0x39918738922f309b:0xdbe6fd372c7c2496!8m2!3d26.1255233!4d83.5508148!16s%2Fg%2F11svw0byvl!19sChIJmzAvkjiHkTkRliR8LDf95ts?authuser=0&hl=en&rclk=1",
        "coordinates": {
            "latitude": 26.125523299999998,
            "longitude": 83.5508148
        }
    },
    {
        "name": "noori jama masjid",
        "main_category": "Mosque",
        "address": "4GFM+25X noori jama masjid, Mau, Uttar Pradesh 275304",
        "detailed_address": {
            "ward": null,
            "street": "4GFM+25X",
            "city": "Mau",
            "postal_code": null,
            "state": "Uttar Pradesh",
            "country_code": "IN"
        },
        "images": [],
        "link": "https://www.google.com/maps/place/noori+jama+masjid/data=!4m7!3m6!1s0x3991870faa191609:0xf771155a583eac10!8m2!3d26.1226157!4d83.532991!16s%2Fg%2F11mbvgqg36!19sChIJCRYZqg-HkTkREKw-WFoVcfc?authuser=0&hl=en&rclk=1",
        "coordinates": {
            "latitude": 26.122615699999997,
            "longitude": 83.532991
        }
    }
]