[
    {
        "name": "Amroli Masjid",
        "main_category": "Mosque",
        "address": "6VM2+H56 Amroli Masjid, Main Road, Angreji Faliyu, Amroli, Surat, Gujarat 394107",
        "detailed_address": {
            "ward": "Angreji Faliyu, Amroli",
            "street": "6VM2+H56, Main Road",
            "city": "Surat",
            "postal_code": "394107",
            "state": "Gujarat",
            "country_code": "IN"
        },
        "images": [
            {
                "about": "All",
                "link": "https://lh5.googleusercontent.com/p/AF1QipOWx7RX3IIGJj8mqF0_JYG4-Gt9IHP_C5Nboqz3=w224-h298-k-no"
            },
            {
                "about": "Street View & 360deg",
                "link": "https://streetviewpixels-pa.googleapis.com/v1/thumbnail?panoid=yWFJXSa-Do717qGTELUg2w&cb_client=maps_sv.tactile.gps&w=224&h=298&yaw=265.87204&pitch=0&thumbfov=100"
            }
        ],
        "link": "https://www.google.com/maps/place/Amroli+Masjid/data=!4m7!3m6!1s0x3be04f277adadc99:0xf404ba170c0982c1!8m2!3d21.2339039!4d72.850376!16s%2Fg%2F1q62fnnrr!19sChIJmdzaeidP4DsRwYIJDBe6BPQ?authuser=0&hl=en&rclk=1",
        "coordinates": {
            "latitude": 21.233903899999998,
            "longitude": 72.850376
        }
    },
    {
        "name": "Madina Masjid",
        "main_category": "Mosque",
        "address": "Madina Masjid, 141, opp. Buliding, SMC Twp, Kosad Tenaments, Surat, Gujarat 394107",
        "detailed_address": {
            "ward": "SMC Township, Kosad Tenaments",
            "street": "141, opp. Buliding",
            "city": "Surat",
            "postal_code": "394107",
            "state": "Gujarat",
            "country_code": "IN"
        },
        "images": [],
        "link": "https://www.google.com/maps/place/Madina+Masjid/data=!4m7!3m6!1s0x3be049bb50779e4f:0x1752741df6293102!8m2!3d21.2540999!4d72.8540238!16s%2Fg%2F11gj73qh6b!19sChIJT553ULtJ4DsRAjEp9h10Uhc?authuser=0&hl=en&rclk=1",
        "coordinates": {
            "latitude": 21.2540999,
            "longitude": 72.8540238
        }
    },
    {
        "name": "Makka Masjid H1 Awas",
        "main_category": "Mosque",
        "address": "Makka Masjid H1 Awas, H1 kosad awas, SMC Twp, Kosad Tenaments, Surat, Gujarat 394107",
        "detailed_address": {
            "ward": "SMC Township, Kosad Tenaments",
            "street": "H1 kosad awas",
            "city": "Surat",
            "postal_code": "394107",
            "state": "Gujarat",
            "country_code": "IN"
        },
        "images": [
            {
                "about": "All",
                "link": "https://lh5.googleusercontent.com/p/AF1QipMQ0whxuM-zE1Wv9zOPVfzPMrkBX6BudTLMDQlx=w397-h298-k-no"
            }
        ],
        "link": "https://www.google.com/maps/place/Makka+Masjid+H1+Awas/data=!4m7!3m6!1s0x3be048d62e88953f:0xcd2430a19abdc691!8m2!3d21.25648!4d72.8520849!16s%2Fg%2F11f4059w4g!19sChIJP5WILtZI4DsRkca9mqEwJM0?authuser=0&hl=en&rclk=1",
        "coordinates": {
            "latitude": 21.25648,
            "longitude": 72.8520849
        }
    },
    {
        "name": "Mohammadi Masjid (Sunni)",
        "main_category": "Mosque",
        "address": "No, Mohammadi Masjid (Sunni), 141, opp. Buliding, SMC Twp, Kosad Tenaments, Surat, Gujarat 394107",
        "detailed_address": {
            "ward": "SMC Township, Kosad Tenaments",
            "street": "No, 141, opp. Buliding",
            "city": "Surat",
            "postal_code": "394107",
            "state": "Gujarat",
            "country_code": "IN"
        },
        "images": [
            {
                "about": "All",
                "link": "https://lh5.googleusercontent.com/p/AF1QipPa3bpoQttj5-TGBDoB3C_LTWVtZAx_--1XuUTT=w662-h298-k-no"
            }
        ],
        "link": "https://www.google.com/maps/place/Mohammadi+Masjid+%28Sunni%29/data=!4m7!3m6!1s0x3be0494b24d1a0e1:0x38634b1eddcb278f!8m2!3d21.2541578!4d72.8541153!16s%2Fg%2F11h_wjqf1b!19sChIJ4aDRJEtJ4DsRjyfL3R5LYzg?authuser=0&hl=en&rclk=1",
        "coordinates": {
            "latitude": 21.254157799999998,
            "longitude": 72.8541153
        }
    },
    {
        "name": "Husaini Masjid",
        "main_category": "Mosque",
        "address": "Building No.405, Husaini Masjid, H/5 Kosad Avash, Amroli, Surat, Gujarat 394107",
        "detailed_address": {
            "ward": "SMC Township, Amroli",
            "street": "Building No.405, H/5 Kosad Avash",
            "city": "Surat",
            "postal_code": "394107",
            "state": "Gujarat",
            "country_code": "IN"
        },
        "images": [
            {
                "about": "All",
                "link": "https://lh5.googleusercontent.com/p/AF1QipPJ729ycH8OMkiv0Ao5QeX6oh4M5h5BU-oyofVj=w397-h298-k-no"
            }
        ],
        "link": "https://www.google.com/maps/place/Husaini+Masjid/data=!4m7!3m6!1s0x3be04f51ba478a87:0xeabf87157247f2de!8m2!3d21.2445947!4d72.8525669!16s%2Fg%2F11sm__fywy!19sChIJh4pHulFP4DsR3vJHchWHv-o?authuser=0&hl=en&rclk=1",
        "coordinates": {
            "latitude": 21.2445947,
            "longitude": 72.8525669
        }
    },
    {
        "name": "Masjid E Gaushiya H3 Building No 237 Kosad Avas",
        "main_category": "Mosque",
        "address": "Gaushiya, Building No, Masjid E Gaushiya H3 Building No 237 Kosad Avas, 237 Awas, Masjid E, Kosad Tenaments, Surat, Gujarat 394107",
        "detailed_address": {
            "ward": "Kosad Navi Vasahat, Kosad Tenaments",
            "street": "Gaushiya, Building No, 237 Awas, Masjid E",
            "city": "Surat",
            "postal_code": "394107",
            "state": "Gujarat",
            "country_code": "IN"
        },
        "images": [
            {
                "about": "All",
                "link": "https://lh5.googleusercontent.com/p/AF1QipNy6biPsF3ZGzXXgukZUh1Wc8fU0-sPjlZX96_M=w529-h298-k-no"
            }
        ],
        "link": "https://www.google.com/maps/place/Masjid+E+Gaushiya+H3+Building+No+237+Kosad+Avas/data=!4m7!3m6!1s0x3be049e03b7aaab5:0x3b2e6ce0ed5040ba!8m2!3d21.2513417!4d72.853425!16s%2Fg%2F11p5clnsmb!19sChIJtap6O-BJ4DsRukBQ7eBsLjs?authuser=0&hl=en&rclk=1",
        "coordinates": {
            "latitude": 21.251341699999998,
            "longitude": 72.853425
        }
    }
]