[
    {
        "name": "Shahi Jama Masjid",
        "main_category": "Mosque",
        "address": "Shahi Jama Masjid, sabji mandi, Chatta Bazar, Chowk Bazar, Mathura, Uttar Pradesh 281001",
        "detailed_address": {
            "ward": "Chowk Bazar",
            "street": "sabji mandi, Chatta Bazar",
            "city": "Mathura",
            "postal_code": "281001",
            "state": "Uttar Pradesh",
            "country_code": "IN"
        },
        "images": [
            {
                "about": "All",
                "link": "https://lh5.googleusercontent.com/p/AF1QipMHk3MElBEbSWGaTBtbcCggJVYuHh6LUbFAMPTn=w529-h298-k-no"
            },
            {
                "about": "Latest",
                "link": "https://lh5.googleusercontent.com/p/AF1QipNT5VRgrHAfQzP7RPdJF0w-ig2EfbVYgZomV6FD=w224-h298-k-no"
            },
            {
                "about": "Videos",
                "link": "https://lh5.googleusercontent.com/p/AF1QipMAlQQVBGkXgoeyvcQdFX_VfagLFcz1cGLo9VTM=w529-h298-k-no"
            },
            {
                "about": "Dome",
                "link": "https://lh5.googleusercontent.com/p/AF1QipODHekF5nMqOEqx36BV694_beFJX1DTR7ISqnFL=w645-h298-k-no"
            }
        ],
        "link": "https://www.google.com/maps/place/Shahi+Jama+Masjid/data=!4m7!3m6!1s0x3973710c533be3e3:0x178280cdaf91949f!8m2!3d27.5063027!4d77.6798177!16s%2Fm%2F0gkxdbh!19sChIJ4-M7UwxxczkRn5SRr82Aghc?authuser=0&hl=en&rclk=1",
        "coordinates": {
            "latitude": 27.5063027,
            "longitude": 77.6798177
        }
    },
    {
        "name": "Shahi Mosque Eidgah",
        "main_category": "Mosque",
        "address": "Shahi Mosque Eidgah, Geet Gate, Deeg Marg, Janam Bhumi, Mathura, Uttar Pradesh 281001",
        "detailed_address": {
            "ward": "Janam Bhumi",
            "street": "Geet Gate, Deeg Marg",
            "city": "Mathura",
            "postal_code": "281001",
            "state": "Uttar Pradesh",
            "country_code": "IN"
        },
        "images": [
            {
                "about": "All",
                "link": "https://lh5.googleusercontent.com/p/AF1QipOlGtbNeZOC0N3JS3BRyTsLAXNAEKZyW1zGA12_=w611-h298-k-no"
            },
            {
                "about": "Dome",
                "link": "https://lh5.googleusercontent.com/p/AF1QipNrtRcDHSVrmOkczmbKCZXXeeUZbjW_FUB7Uchu=w224-h298-k-no"
            }
        ],
        "link": "https://www.google.com/maps/place/Shahi+Mosque+Eidgah/data=!4m7!3m6!1s0x39737171779e4f25:0x7494a8006c455bb9!8m2!3d27.505507!4d77.6700572!16s%2Fg%2F1tq4phls!19sChIJJU-ed3FxczkRuVtFbAColHQ?authuser=0&hl=en&rclk=1",
        "coordinates": {
            "latitude": 27.505506999999998,
            "longitude": 77.6700572
        }
    },
    {
        "name": "Aurangabad Mosque",
        "main_category": "Mosque",
        "address": "CPR3+WGH Aurangabad Mosque, Agra Rd, Aurangabad, Mathura, Uttar Pradesh 281006",
        "detailed_address": {
            "ward": "Aurangabad",
            "street": "CPR3+WGH, Agra Rd",
            "city": "Mathura",
            "postal_code": "281006",
            "state": "Uttar Pradesh",
            "country_code": "IN"
        },
        "images": [
            {
                "about": "All",
                "link": "https://lh5.googleusercontent.com/p/AF1QipObEIFcl0h5X6z3JeztlIA3P5vGD63iCniQPUOB=w397-h298-k-no"
            },
            {
                "about": "Street View & 360deg",
                "link": "https://streetviewpixels-pa.googleapis.com/v1/thumbnail?panoid=XZ55SYr7w8S_Dc3bqM7X9g&cb_client=maps_sv.tactile.gps&w=224&h=298&yaw=287.37387&pitch=0&thumbfov=100"
            },
            {
                "about": "Videos",
                "link": "https://lh5.googleusercontent.com/p/AF1QipMCZXeYOKfAzEofyJdy36V9Wtg3QNJOcNbPUM3f=w224-h442-k-no"
            }
        ],
        "link": "https://www.google.com/maps/place/Aurangabad+Mosque/data=!4m7!3m6!1s0x3973771c1d09540b:0x7c6b004199a2b04b!8m2!3d27.4418323!4d77.7045567!16s%2Fg%2F124ylh3l8!19sChIJC1QJHRx3czkRS7CimUEAa3w?authuser=0&hl=en&rclk=1",
        "coordinates": {
            "latitude": 27.441832299999998,
            "longitude": 77.7045567
        }
    },
    {
        "name": "Zeba Masjid",
        "main_category": "Mosque",
        "address": "Zeba Masjid, Bharatpur Gate, Manoharpura, Mathura, Uttar Pradesh 281001",
        "detailed_address": {
            "ward": "Manoharpura",
            "street": "Bharatpur Gate",
            "city": "Mathura",
            "postal_code": "281001",
            "state": "Uttar Pradesh",
            "country_code": "IN"
        },
        "images": [
            {
                "about": "All",
                "link": "https://lh5.googleusercontent.com/p/AF1QipOIKM9KDUJtLBtptdeqtbfv-gFpwMZWMuCGODPv=w224-h298-k-no"
            },
            {
                "about": "Latest",
                "link": "https://lh5.googleusercontent.com/p/AF1QipOZ6pYIuUabY8OylotrQWqhIvrgAaqS5DMtA7ZY=w224-h398-k-no"
            },
            {
                "about": "Videos",
                "link": "https://lh5.googleusercontent.com/p/AF1QipOYj1G2ciBxmZI9MnNdehaq_ribR1MWfUcdbLfI=w529-h298-k-no"
            },
            {
                "about": "Dome",
                "link": "https://lh5.googleusercontent.com/p/AF1QipPpk8Mo8A_EDiWBcMMKBsq7kW0isLZqEyNQG5J0=w529-h298-k-no"
            }
        ],
        "link": "https://www.google.com/maps/place/Zeba+Masjid/data=!4m7!3m6!1s0x39737112af3ab4e1:0xd6dda51107819c9d!8m2!3d27.5026679!4d77.6771432!16s%2Fg%2F11d_z8bdys!19sChIJ4bQ6rxJxczkRnZyBBxGl3dY?authuser=0&hl=en&rclk=1",
        "coordinates": {
            "latitude": 27.5026679,
            "longitude": 77.6771432
        }
    },
    {
        "name": "Mecca mosque",
        "main_category": "Mosque",
        "address": "FMX9+CHW Mecca mosque, Bhuteshwar Rd, Azad Nagar, Mathura, Uttar Pradesh 281001",
        "detailed_address": {
            "ward": "Azad Nagar",
            "street": "FMX9+CHW, Bhuteshwar Rd",
            "city": "Mathura",
            "postal_code": "281001",
            "state": "Uttar Pradesh",
            "country_code": "IN"
        },
        "images": [
            {
                "about": "All",
                "link": "https://lh5.googleusercontent.com/p/AF1QipO1cHbxCz8rSE-FSXQseTJyV8d4n8EzgcOmnh4w=w529-h298-k-no"
            }
        ],
        "link": "https://www.google.com/maps/place/Mecca+mosque/data=!4m7!3m6!1s0x3973716eede39f5b:0x3d54c448123d48f1!8m2!3d27.4986133!4d77.6689392!16s%2Fg%2F11d_925ph8!19sChIJW5_j7W5xczkR8Ug9EkjEVD0?authuser=0&hl=en&rclk=1",
        "coordinates": {
            "latitude": 27.4986133,
            "longitude": 77.6689392
        }
    },
    {
        "name": "Masjid Markaz",
        "main_category": "Mosque",
        "address": "GM2F+MXF Masjid Markaz, Manoharpura, Mathura, Uttar Pradesh 281001",
        "detailed_address": {
            "ward": "Manoharpura",
            "street": "GM2F+MXF",
            "city": "Mathura",
            "postal_code": "281001",
            "state": "Uttar Pradesh",
            "country_code": "IN"
        },
        "images": [
            {
                "about": "All",
                "link": "https://lh5.googleusercontent.com/p/AF1QipNUqRY5SXIbjYpQKaTEgkNTTOrVYfR6KbxBzO5u=w224-h298-k-no"
            },
            {
                "about": "Latest",
                "link": "https://lh5.googleusercontent.com/p/AF1QipOsCx-0qUPaRVT5sL-A6sWnzWIurNBN5QJp71mc=w529-h298-k-no"
            },
            {
                "about": "Videos",
                "link": "https://lh5.googleusercontent.com/p/AF1QipNgUqn9RAhREaAxuF_u8xwulkapC9rXy3LZUK9w=w529-h298-k-no"
            }
        ],
        "link": "https://www.google.com/maps/place/Masjid+Markaz/data=!4m7!3m6!1s0x3973716d6a1f4573:0x2217d16b98d84d8e!8m2!3d27.5016951!4d77.6749303!16s%2Fg%2F11g6rkklg1!19sChIJc0Ufam1xczkRjk3YmGvRFyI?authuser=0&hl=en&rclk=1",
        "coordinates": {
            "latitude": 27.5016951,
            "longitude": 77.6749303
        }
    },
    {
        "name": "Masjid",
        "main_category": "Mosque",
        "address": "GM2F+CCQ Masjid, Manoharpura, Mathura, Uttar Pradesh 281001",
        "detailed_address": {
            "ward": "Manoharpura",
            "street": "GM2F+CCQ",
            "city": "Mathura",
            "postal_code": "281001",
            "state": "Uttar Pradesh",
            "country_code": "IN"
        },
        "images": [
            {
                "about": "All",
                "link": "https://lh5.googleusercontent.com/p/AF1QipP35Jy5xS_iEuBnteZouNWjCNfjxoYu-S4_zXxK=w224-h298-k-no"
            },
            {
                "about": "Videos",
                "link": "https://lh5.googleusercontent.com/p/AF1QipPW2F9dkw09LdzFhx7p6v8MV3K6tRaMX7SZntB5=w224-h398-k-no"
            }
        ],
        "link": "https://www.google.com/maps/place/Masjid/data=!4m7!3m6!1s0x3973716da0823113:0x2239ba1b4e5b9192!8m2!3d27.5010947!4d77.6736228!16s%2Fg%2F1pyqmvyrd!19sChIJEzGCoG1xczkRkpFbThu6OSI?authuser=0&hl=en&rclk=1",
        "coordinates": {
            "latitude": 27.5010947,
            "longitude": 77.67362279999999
        }
    },
    {
        "name": "Masjid Tripuda",
        "main_category": "Mosque",
        "address": "FMXJ+3RV Masjid Tripuda, Choubey Para, Mathura, Uttar Pradesh 281001",
        "detailed_address": {
            "ward": "Choubey Para",
            "street": "FMXJ+3RV",
            "city": "Mathura",
            "postal_code": "281001",
            "state": "Uttar Pradesh",
            "country_code": "IN"
        },
        "images": [
            {
                "about": "All",
                "link": "https://lh5.googleusercontent.com/p/AF1QipMNj5yR-UpzAeJcRhlFIzGH_8sCSq4MbtvksSAx=w529-h298-k-no"
            }
        ],
        "link": "https://www.google.com/maps/place/Masjid+Tripuda/data=!4m7!3m6!1s0x39737113ff62b153:0xd8e487dfbec38ac6!8m2!3d27.4977424!4d77.6820375!16s%2Fg%2F1pyqk246j!19sChIJU7Fi_xNxczkRxorDvt-H5Ng?authuser=0&hl=en&rclk=1",
        "coordinates": {
            "latitude": 27.4977424,
            "longitude": 77.68203749999999
        }
    },
    {
        "name": "Raza Masajid",
        "main_category": "Mosque",
        "address": "GM3F+784 Raza Masajid, near hotel, badri nagar, nai basti, Mathura, Uttar Pradesh 281001",
        "detailed_address": {
            "ward": "badri nagar, nai basti",
            "street": "GM3F+784, near hotel",
            "city": "Mathura",
            "postal_code": null,
            "state": "Uttar Pradesh",
            "country_code": "IN"
        },
        "images": [
            {
                "about": "All",
                "link": "https://lh5.googleusercontent.com/p/AF1QipNECipNUsyeOgKrMjr2SfeXt0KSX-2RAC1rHhFd=w238-h298-k-no"
            }
        ],
        "link": "https://www.google.com/maps/place/Raza+Masajid/data=!4m7!3m6!1s0x397371727bfeeea7:0xa54f74efd7cde182!8m2!3d27.5031297!4d77.673324!16s%2Fg%2F11fxdyktx0!19sChIJp-7-e3JxczkRguHN1-90T6U?authuser=0&hl=en&rclk=1",
        "coordinates": {
            "latitude": 27.5031297,
            "longitude": 77.673324
        }
    },
    {
        "name": "Savri Masjid",
        "main_category": "Mosque",
        "address": "FMW5+QXQ Savri Masjid, Sonkh Rd, Krishna Nagar, Mathura, Uttar Pradesh 281001",
        "detailed_address": {
            "ward": "Krishna Nagar",
            "street": "FMW5+QXQ, Sonkh Rd",
            "city": "Mathura",
            "postal_code": "281001",
            "state": "Uttar Pradesh",
            "country_code": "IN"
        },
        "images": [
            {
                "about": "All",
                "link": "https://lh5.googleusercontent.com/p/AF1QipOooGDGrdXjMpPPBNb0paE6fUhqoIysasZWAiDD=w529-h298-k-no"
            }
        ],
        "link": "https://www.google.com/maps/place/Savri+Masjid/data=!4m7!3m6!1s0x3973710433c3d40f:0x24604c4d3c93b48c!8m2!3d27.4969678!4d77.6599851!16s%2Fg%2F11h0y8k5s_!19sChIJD9TDMwRxczkRjLSTPE1MYCQ?authuser=0&hl=en&rclk=1",
        "coordinates": {
            "latitude": 27.4969678,
            "longitude": 77.6599851
        }
    },
    {
        "name": "Paith wali Masjid yamuna par mathura",
        "main_category": "Mosque",
        "address": "GM3G+Q64 Paith wali Masjid yamuna par mathura, Chowk Bazar, Mathura, Uttar Pradesh 281001",
        "detailed_address": {
            "ward": "Chowk Bazar",
            "street": "GM3G+Q64",
            "city": "Mathura",
            "postal_code": "281001",
            "state": "Uttar Pradesh",
            "country_code": "IN"
        },
        "images": [
            {
                "about": "All",
                "link": "https://lh5.googleusercontent.com/p/AF1QipNYoDuvM3U1tAcP1Dqd02i1bmLvWeYjatJJzBjw=w224-h298-k-no"
            },
            {
                "about": "Latest",
                "link": "https://lh5.googleusercontent.com/p/AF1QipNYoDuvM3U1tAcP1Dqd02i1bmLvWeYjatJJzBjw=w224-h298-k-no"
            }
        ],
        "link": "https://www.google.com/maps/place/Paith+wali+Masjid+yamuna+par+mathura/data=!4m7!3m6!1s0x39737172b879906d:0x4ce89f73a0ff0d30!8m2!3d27.5043773!4d77.6755828!16s%2Fg%2F11g5_d_vsr!19sChIJbZB5uHJxczkRMA3_oHOf6Ew?authuser=0&hl=en&rclk=1",
        "coordinates": {
            "latitude": 27.504377299999998,
            "longitude": 77.6755828
        }
    },
    {
        "name": "Masjid",
        "main_category": "Mosque",
        "address": "CMJC+6M7 Masjid, Muslim Area, Aduki, Bad, Uttar Pradesh 281006",
        "detailed_address": {
            "ward": "Muslim Area",
            "street": "CMJC+6M7",
            "city": "Aduki, Bad",
            "postal_code": "281006",
            "state": "Uttar Pradesh",
            "country_code": "IN"
        },
        "images": [
            {
                "about": "All",
                "link": "https://lh5.googleusercontent.com/p/AF1QipOJtLUA69gq7m8eNxj8eI2ywi_L42nFo0CD2kT9=w224-h477-k-no"
            },
            {
                "about": "Street View & 360deg",
                "link": "https://streetviewpixels-pa.googleapis.com/v1/thumbnail?panoid=OQw2DHxomFvPpSvk2RiUEg&cb_client=maps_sv.tactile.gps&w=224&h=298&yaw=319.4885&pitch=0&thumbfov=100"
            },
            {
                "about": "Videos",
                "link": "https://lh5.googleusercontent.com/p/AF1QipMhurScO6BcuLmRgk0qrLrrVaBkzJQcilqzU-FD=w224-h407-k-no"
            }
        ],
        "link": "https://www.google.com/maps/place/Masjid/data=!4m7!3m6!1s0x3973768dcd1b33cd:0xee73b8491e123634!8m2!3d27.4305273!4d77.6716651!16s%2Fg%2F11gc_2mwbv!19sChIJzTMbzY12czkRNDYSHkm4c-4?authuser=0&hl=en&rclk=1",
        "coordinates": {
            "latitude": 27.430527299999998,
            "longitude": 77.6716651
        }
    },
    {
        "name": "Masjid",
        "main_category": "Mosque",
        "address": "FMRW+953 Masjid, Sadar Bazar, Mathura, Uttar Pradesh 281001",
        "detailed_address": {
            "ward": "Sadar Bazar",
            "street": "FMRW+953",
            "city": "Mathura",
            "postal_code": "281001",
            "state": "Uttar Pradesh",
            "country_code": "IN"
        },
        "images": [
            {
                "about": "All",
                "link": "https://lh5.googleusercontent.com/p/AF1QipMfdWCqA-LUR1ZQAUoSOvmGh-uES_f6sEduIwla=w224-h298-k-no"
            },
            {
                "about": "Videos",
                "link": "https://lh5.googleusercontent.com/p/AF1QipMfdWCqA-LUR1ZQAUoSOvmGh-uES_f6sEduIwla=w224-h298-k-no"
            }
        ],
        "link": "https://www.google.com/maps/place/Masjid/data=!4m7!3m6!1s0x39737121bcefb639:0x2f755b636580fd57!8m2!3d27.4908786!4d77.6954295!16s%2Fg%2F1pyqnmc4d!19sChIJObbvvCFxczkRV_2AZWNbdS8?authuser=0&hl=en&rclk=1",
        "coordinates": {
            "latitude": 27.4908786,
            "longitude": 77.6954295
        }
    },
    {
        "name": "Sunni Noorani Masjid",
        "main_category": "Mosque",
        "address": "FMQM+C77 Sunni Noorani Masjid, Maghora, Dampier Nagar, Mathura, Uttar Pradesh 281001",
        "detailed_address": {
            "ward": "Maghora, Dampier Nagar",
            "street": "FMQM+C77",
            "city": "Mathura",
            "postal_code": "281001",
            "state": "Uttar Pradesh",
            "country_code": "IN"
        },
        "images": [
            {
                "about": "All",
                "link": "https://lh5.googleusercontent.com/p/AF1QipPUu0Y_oFYCGEvIKy7g7FeqzpdkWWmKUsjN32ik=w397-h298-k-no"
            }
        ],
        "link": "https://www.google.com/maps/place/Sunni+Noorani+Masjid/data=!4m7!3m6!1s0x3973713c30fc3d55:0x57f3c0f5aadaf6fe!8m2!3d27.4885462!4d77.6831667!16s%2Fg%2F1pyqf6m9b!19sChIJVT38MDxxczkR_vbaqvXA81c?authuser=0&hl=en&rclk=1",
        "coordinates": {
            "latitude": 27.4885462,
            "longitude": 77.6831667
        }
    },
    {
        "name": "Nurani Masjid",
        "main_category": "Mosque",
        "address": "FM6H+666 Nurani Masjid, Chandanvan Phase 1, Mathura, Uttar Pradesh 281001",
        "detailed_address": {
            "ward": "Chandanvan Phase 1",
            "street": "FM6H+666",
            "city": "Mathura",
            "postal_code": "281001",
            "state": "Uttar Pradesh",
            "country_code": "IN"
        },
        "images": [
            {
                "about": "All",
                "link": "https://lh5.googleusercontent.com/p/AF1QipOnt_dF66WerZaub91iu7Z0oo-BYg_NnhXr3rtg=w224-h398-k-no"
            },
            {
                "about": "Videos",
                "link": "https://lh5.googleusercontent.com/p/AF1QipNbKuxEFitgUk2NkH6PcSbppKB8wcURji4i2Tlk=w224-h398-k-no"
            }
        ],
        "link": "https://www.google.com/maps/place/Nurani+Masjid/data=!4m7!3m6!1s0x3973778415ee0e99:0xb4fa842c99b2b477!8m2!3d27.46054!4d77.6780067!16s%2Fg%2F11f6cskh6z!19sChIJmQ7uFYR3czkRd7SymSyE-rQ?authuser=0&hl=en&rclk=1",
        "coordinates": {
            "latitude": 27.460539999999998,
            "longitude": 77.6780067
        }
    },
    {
        "name": "Dawat E Islami Masajid Gausiya",
        "main_category": "Mosque",
        "address": "GM2F+CFR Dawat E Islami Masajid Gausiya, Unnamed Road, Manoharpura, Mathura, Uttar Pradesh 281001",
        "detailed_address": {
            "ward": "Manoharpura",
            "street": "GM2F+CFR, Unnamed Road",
            "city": "Mathura",
            "postal_code": "281001",
            "state": "Uttar Pradesh",
            "country_code": "IN"
        },
        "images": [],
        "link": "https://www.google.com/maps/place/Dawat+E+Islami+Masajid+Gausiya/data=!4m7!3m6!1s0x3973716d0a78d38d:0x70ef913d4ab0e5ce!8m2!3d27.5011188!4d77.6736345!16s%2Fg%2F11g71d7_0x!19sChIJjdN4Cm1xczkRzuWwSj2R73A?authuser=0&hl=en&rclk=1",
        "coordinates": {
            "latitude": 27.5011188,
            "longitude": 77.67363449999999
        }
    },
    {
        "name": "Masjid Shahdulla",
        "main_category": "Mosque",
        "address": "FMQW+MHW Masjid Shahdulla, Sadar Bazar, Mathura, Uttar Pradesh 281001",
        "detailed_address": {
            "ward": "Sadar Bazar",
            "street": "FMQW+MHW",
            "city": "Mathura",
            "postal_code": "281001",
            "state": "Uttar Pradesh",
            "country_code": "IN"
        },
        "images": [
            {
                "about": "All",
                "link": "//lh4.googleusercontent.com/r0_WO-9Za9O-A3UbMl7nNOG7zKb0YEfgpvfHgiql91MXnEd8W-E8AUe_I9Dn3ksP=w529-h298-k-no"
            },
            {
                "about": "Street View & 360deg",
                "link": "https://streetviewpixels-pa.googleapis.com/v1/thumbnail?panoid=cJiCo8JAky0YH-Y4Zs6yrg&cb_client=maps_sv.tactile.gps&w=224&h=298&yaw=9.188076&pitch=0&thumbfov=100"
            },
            {
                "about": "Videos",
                "link": "https://lh5.googleusercontent.com/p/AF1QipPedYe-ZL-HibKsEomzCYP3VW0Fc-lw8R33bpvR=w224-h398-k-no"
            }
        ],
        "link": "https://www.google.com/maps/place/Masjid+Shahdulla/data=!4m7!3m6!1s0x397371211e7b16eb:0xfbf9ccd0153dedbd!8m2!3d27.4892499!4d77.6964562!16s%2Fg%2F11g02qzq_x!19sChIJ6xZ7HiFxczkRve09FdDM-fs?authuser=0&hl=en&rclk=1",
        "coordinates": {
            "latitude": 27.489249899999997,
            "longitude": 77.6964562
        }
    },
    {
        "name": "Masjid",
        "main_category": "Mosque",
        "address": "Masjid, 210, Kotwali Rd, Choubey Para, Mathura, Uttar Pradesh 281001",
        "detailed_address": {
            "ward": "Choubey Para",
            "street": "210, Kotwali Rd",
            "city": "Mathura",
            "postal_code": "281001",
            "state": "Uttar Pradesh",
            "country_code": "IN"
        },
        "images": [],
        "link": "https://www.google.com/maps/place/Masjid/data=!4m7!3m6!1s0x397371116e403c83:0xe64dbe40fbe71932!8m2!3d27.5001012!4d77.6825231!16s%2Fg%2F1pyqmrwrd!19sChIJgzxAbhFxczkRMhnn-0C-TeY?authuser=0&hl=en&rclk=1",
        "coordinates": {
            "latitude": 27.5001012,
            "longitude": 77.6825231
        }
    },
    {
        "name": "mdrsaa yuusuph'iiyh mthuraa",
        "main_category": "Mosque",
        "address": "FMPC+R4R mdrsaa yuusuph'iiyh mthuraa, Teachers Colony, Shanti Nagar, Mathura, Uttar Pradesh 281001",
        "detailed_address": {
            "ward": "Teachers Colony, Shanti Nagar",
            "street": "FMPC+R4R",
            "city": "Mathura",
            "postal_code": "281001",
            "state": "Uttar Pradesh",
            "country_code": "IN"
        },
        "images": [
            {
                "about": "All",
                "link": "https://lh5.googleusercontent.com/p/AF1QipOmlyMCHB-N-RXtKSMclUl1nB12QETA9KEG6cCB=w224-h298-k-no"
            }
        ],
        "link": "https://www.google.com/maps/place/%E0%A4%AE%E0%A4%A6%E0%A5%8D%E0%A4%B0%E0%A4%B8%E0%A4%BE+%E0%A4%AF%E0%A5%82%E0%A4%B8%E0%A5%81%E0%A4%AB%E0%A4%BC%E0%A5%80%E0%A4%AF%E0%A4%B9+%E0%A4%AE%E0%A4%A5%E0%A5%81%E0%A4%B0%E0%A4%BE/data=!4m7!3m6!1s0x397371b866cbc981:0x6009bf9fad2d3972!8m2!3d27.487111!4d77.670254!16s%2Fg%2F11h6npzkdf!19sChIJgcnLZrhxczkRcjktrZ-_CWA?authuser=0&hl=en&rclk=1",
        "coordinates": {
            "latitude": 27.487111,
            "longitude": 77.670254
        }
    },
    {
        "name": "Fatakwali Musjid",
        "main_category": "Mosque",
        "address": "GM3C+J9X Fatakwali Musjid, Janam Bhumi, Mathura, Uttar Pradesh 281001",
        "detailed_address": {
            "ward": "Janam Bhumi",
            "street": "GM3C+J9X",
            "city": "Mathura",
            "postal_code": "281001",
            "state": "Uttar Pradesh",
            "country_code": "IN"
        },
        "images": [
            {
                "about": "All",
                "link": "https://streetviewpixels-pa.googleapis.com/v1/thumbnail?panoid=Berz6TsY1lFdc2B2l2qaRA&cb_client=maps_sv.tactile.gps&w=224&h=298&yaw=290.70306&pitch=0&thumbfov=100"
            },
            {
                "about": "Street View & 360deg",
                "link": "https://streetviewpixels-pa.googleapis.com/v1/thumbnail?panoid=Berz6TsY1lFdc2B2l2qaRA&cb_client=maps_sv.tactile.gps&w=224&h=298&yaw=290.70306&pitch=0&thumbfov=100"
            }
        ],
        "link": "https://www.google.com/maps/place/Fatakwali+Musjid/data=!4m7!3m6!1s0x3973716241c5e79d:0xf847b2f5ffd7ef1d!8m2!3d27.5041139!4d77.6709763!16s%2Fg%2F11gmyt1ydp!19sChIJnefFQWJxczkRHe_X__WyR_g?authuser=0&hl=en&rclk=1",
        "coordinates": {
            "latitude": 27.5041139,
            "longitude": 77.67097629999999
        }
    },
    {
        "name": "Madarsa - Hanfiya - Qadariya Masjid",
        "main_category": "Mosque",
        "address": "GM3H+CXW Madarsa - Hanfiya - Qadariya Masjid, Bariya Wali masjid, Ghiya Mandi Rd, Chowk Bazar, Mathura, Uttar Pradesh 281001",
        "detailed_address": {
            "ward": "Chowk Bazar",
            "street": "GM3H+CXW Bariya Wali masjid, Ghiya Mandi Rd",
            "city": "Mathura",
            "postal_code": "281001",
            "state": "Uttar Pradesh",
            "country_code": "IN"
        },
        "images": [],
        "link": "https://www.google.com/maps/place/Madarsa+-+Hanfiya+-+Qadariya+Masjid/data=!4m7!3m6!1s0x3973710d866659ab:0xc4769f92d1ccbe3e!8m2!3d27.5036011!4d77.6799524!16s%2Fg%2F11g01_vgh6!19sChIJq1lmhg1xczkRPr7M0ZKfdsQ?authuser=0&hl=en&rclk=1",
        "coordinates": {
            "latitude": 27.503601099999997,
            "longitude": 77.67995239999999
        }
    },
    {
        "name": "Jama masjid",
        "main_category": "Mosque",
        "address": "CPJW+J2R Jama masjid, Mahaaban, Mahaban Bangar, Uttar Pradesh 281305",
        "detailed_address": {
            "ward": "Mahaaban",
            "street": "CPJW+J2R",
            "city": "Mahaban Bangar",
            "postal_code": "281305",
            "state": "Uttar Pradesh",
            "country_code": "IN"
        },
        "images": [
            {
                "about": "All",
                "link": "https://lh5.googleusercontent.com/p/AF1QipP4bXQsT_bITdxme6DTDxnNyNQyj-m4zEChbMYS=w224-h398-k-no"
            },
            {
                "about": "Dome",
                "link": "https://lh5.googleusercontent.com/p/AF1QipOMqatkRwmAkCvolXJiLCVCHEsUsVkPJCi-3Nnk=w224-h398-k-no"
            },
            {
                "about": "Street View & 360deg",
                "link": "https://streetviewpixels-pa.googleapis.com/v1/thumbnail?panoid=20WtLRlVaC03Rm13UsreXA&cb_client=maps_sv.tactile.gps&w=224&h=298&yaw=64.88049&pitch=0&thumbfov=100"
            }
        ],
        "link": "https://www.google.com/maps/place/Jama+masjid/data=!4m7!3m6!1s0x39737752ab70ed23:0x6d6a25188fa19a75!8m2!3d27.4316038!4d77.7450056!16s%2Fg%2F11q96lkh66!19sChIJI-1wq1J3czkRdZqhjxglam0?authuser=0&hl=en&rclk=1",
        "coordinates": {
            "latitude": 27.431603799999998,
            "longitude": 77.7450056
        }
    },
    {
        "name": "Jeevan Wali Masjid",
        "main_category": "Mosque",
        "address": "GM3H+7GH Jeevan Wali Masjid, Unnamed Road, Chowk Bazar, Mathura, Uttar Pradesh 281001",
        "detailed_address": {
            "ward": "Chowk Bazar",
            "street": "GM3H+7GH, Unnamed Road",
            "city": "Mathura",
            "postal_code": "281001",
            "state": "Uttar Pradesh",
            "country_code": "IN"
        },
        "images": [
            {
                "about": "All",
                "link": "https://lh5.googleusercontent.com/p/AF1QipOE3PHu0bac3BpCaAj3bXgZL7LkNbn3glPSmAC6=w224-h298-k-no"
            }
        ],
        "link": "https://www.google.com/maps/place/Jeevan+Wali+Masjid/data=!4m7!3m6!1s0x397371b1ec189365:0x23f5d412c01d5c56!8m2!3d27.5031883!4d77.6788702!16s%2Fg%2F11gj3b3vrc!19sChIJZZMY7LFxczkRVlwdwBLU9SM?authuser=0&hl=en&rclk=1",
        "coordinates": {
            "latitude": 27.503188299999998,
            "longitude": 77.67887019999999
        }
    },
    {
        "name": "Qabristaan Wali Masjid",
        "main_category": "Mosque",
        "address": "GM7C+X4V Qabristaan Wali Masjid, Masani Rd, Mathura, Uttar Pradesh 281003",
        "detailed_address": {
            "ward": null,
            "street": "GM7C+X4V, Masani Rd",
            "city": "Mathura",
            "postal_code": "281003",
            "state": "Uttar Pradesh",
            "country_code": "IN"
        },
        "images": [
            {
                "about": "All",
                "link": "https://lh5.googleusercontent.com/p/AF1QipPzsQq_Hoa43aFvDRLKETk1UyPEmxoHtrOPX__P=w529-h298-k-no"
            },
            {
                "about": "Street View & 360deg",
                "link": "https://streetviewpixels-pa.googleapis.com/v1/thumbnail?panoid=u5P77wqeWGzJwXJeUyUX0g&cb_client=maps_sv.tactile.gps&w=224&h=298&yaw=178.1132&pitch=0&thumbfov=100"
            }
        ],
        "link": "https://www.google.com/maps/place/Qabristaan+Wali+Masjid/data=!4m7!3m6!1s0x397371fe0dbcf067:0x29b4b2e39b1b254a!8m2!3d27.514993!4d77.6703002!16s%2Fg%2F11gn1_2x6l!19sChIJZ_C8Df5xczkRSiUbm-OytCk?authuser=0&hl=en&rclk=1",
        "coordinates": {
            "latitude": 27.514993,
            "longitude": 77.6703002
        }
    },
    {
        "name": "Dola Mola Mosque",
        "main_category": "Mosque",
        "address": "GM5M+36 Dola Mola Mosque, Chowk Bazar, Mathura, Uttar Pradesh 281001",
        "detailed_address": {
            "ward": "Chowk Bazar",
            "street": "GM5M+36",
            "city": "Mathura",
            "postal_code": null,
            "state": "Uttar Pradesh",
            "country_code": "IN"
        },
        "images": [
            {
                "about": "All",
                "link": "https://lh5.googleusercontent.com/p/AF1QipMm2eHtCk56AyOGP-GOtXHqFlfVVlK2BXiWtVQB=w224-h338-k-no"
            },
            {
                "about": "Dome",
                "link": "https://lh5.googleusercontent.com/p/AF1QipNz6VBG2bGwYrceUSnu5P5K_GbN5la75sOX_QYH=w529-h298-k-no"
            }
        ],
        "link": "https://www.google.com/maps/place/Dola+Mola+Mosque/data=!4m7!3m6!1s0x397371717bccdcdf:0x7f355bf7f4d94d2e!8m2!3d27.5076492!4d77.6830405!16s%2Fg%2F11rj4xd8pb!19sChIJ39zMe3FxczkRLk3Z9PdbNX8?authuser=0&hl=en&rclk=1",
        "coordinates": {
            "latitude": 27.5076492,
            "longitude": 77.68304049999999
        }
    },
    {
        "name": "Medan wali masjid",
        "main_category": "Mosque",
        "address": "Medan wali masjid, 38. Matiya gate, Chowk Bazar, Mathura, Uttar Pradesh 281001",
        "detailed_address": {
            "ward": "Chowk Bazar",
            "street": "38. Matiya gate",
            "city": "Mathura",
            "postal_code": "281001",
            "state": "Uttar Pradesh",
            "country_code": "IN"
        },
        "images": [
            {
                "about": "All",
                "link": "https://lh5.googleusercontent.com/p/AF1QipNhH1OILlu7MifkH8ztwE1vCjdxvzSoMKJuxM9_=w224-h398-k-no"
            },
            {
                "about": "Videos",
                "link": "https://lh5.googleusercontent.com/p/AF1QipMvzEyvLia3jpCZ6iuVrGxTivZcVIg_05lIikJW=w224-h398-k-no"
            }
        ],
        "link": "https://www.google.com/maps/place/Medan+wali+masjid/data=!4m7!3m6!1s0x39737158bd6732fb:0x89058c90d476739f!8m2!3d27.5048742!4d77.6764529!16s%2Fg%2F11sh49894c!19sChIJ-zJnvVhxczkRn3N21JCMBYk?authuser=0&hl=en&rclk=1",
        "coordinates": {
            "latitude": 27.5048742,
            "longitude": 77.6764529
        }
    },
    {
        "name": "Masjid ahlehadees kazi para",
        "main_category": "Mosque",
        "address": "Masjid ahlehadees kazi para, Dwarka Dish Mandir, 1, Chowk Bazar, Mathura, Uttar Pradesh 281001",
        "detailed_address": {
            "ward": "Chowk Bazar",
            "street": "Dwarka Dish Mandir, 1",
            "city": "Mathura",
            "postal_code": "281001",
            "state": "Uttar Pradesh",
            "country_code": "IN"
        },
        "images": [
            {
                "about": "All",
                "link": "https://lh5.googleusercontent.com/p/AF1QipM3dqNhduG0Vvoj5NcdqCIRNMLnZ1IqR00FYPA=w224-h398-k-no"
            }
        ],
        "link": "https://www.google.com/maps/place/Masjid+ahlehadees+kazi+para/data=!4m7!3m6!1s0x3973714c8a12d9b9:0xddf28e2e76d00709!8m2!3d27.5056416!4d77.6837895!16s%2Fg%2F11v1120skm!19sChIJudkSikxxczkRCQfQdi6O8t0?authuser=0&hl=en&rclk=1",
        "coordinates": {
            "latitude": 27.505641599999997,
            "longitude": 77.6837895
        }
    },
    {
        "name": "Muhammadi masjid",
        "main_category": "Mosque",
        "address": "FMV6+FVH Muhammadi masjid, Bakalpur, Mathura, Uttar Pradesh 281001",
        "detailed_address": {
            "ward": "Bakalpur",
            "street": "FMV6+FVH",
            "city": "Mathura",
            "postal_code": "281001",
            "state": "Uttar Pradesh",
            "country_code": "IN"
        },
        "images": [
            {
                "about": "All",
                "link": "https://lh5.googleusercontent.com/p/AF1QipMcLr60M2bdNSoqctnE1192Dk_5aUIapHolbsk1=w224-h398-k-no"
            },
            {
                "about": "Videos",
                "link": "https://lh5.googleusercontent.com/p/AF1QipPP0cfoEthImOve5yDJ9PqaC-RQFyFyAp6IHzuG=w224-h442-k-no"
            }
        ],
        "link": "https://www.google.com/maps/place/Muhammadi+masjid/data=!4m7!3m6!1s0x397371e4605e197b:0x2d65333e12f66a36!8m2!3d27.4936896!4d77.6622234!16s%2Fg%2F11r96vqlpp!19sChIJexleYORxczkRNmr2Ej4zZS0?authuser=0&hl=en&rclk=1",
        "coordinates": {
            "latitude": 27.4936896,
            "longitude": 77.6622234
        }
    },
    {
        "name": "Army Mosque",
        "main_category": "Mosque",
        "address": "Army Mosque, Yodha Circle-NH2 Road, Mathura Cantonment, Mathura, Uttar Pradesh 281001",
        "detailed_address": {
            "ward": "Mathura Cantonment",
            "street": "Yodha Circle-NH2 Road, Mathura Cantonment",
            "city": "Mathura",
            "postal_code": "281001",
            "state": "Uttar Pradesh",
            "country_code": "IN"
        },
        "images": [],
        "link": "https://www.google.com/maps/place/Army+Mosque/data=!4m7!3m6!1s0x39737125ce6c1223:0x8fbaf678663b2d75!8m2!3d27.4838474!4d77.6928998!16s%2Fg%2F1tffsb7d!19sChIJIxJsziVxczkRdS07Znj2uo8?authuser=0&hl=en&rclk=1",
        "coordinates": {
            "latitude": 27.4838474,
            "longitude": 77.69289979999999
        }
    },
    {
        "name": "Sadar Eidgah",
        "main_category": "Mosque",
        "address": "FMMR+RGQ Sadar Eidgah, Mathura Cantonment, Mathura, Uttar Pradesh 281001",
        "detailed_address": {
            "ward": "Mathura Cantonment",
            "street": "FMMR+RGQ",
            "city": "Mathura",
            "postal_code": "281001",
            "state": "Uttar Pradesh",
            "country_code": "IN"
        },
        "images": [],
        "link": "https://www.google.com/maps/place/Sadar+Eidgah/data=!4m7!3m6!1s0x397371558d0b5819:0xd21488d02455f8aa!8m2!3d27.4845766!4d77.6913579!16s%2Fg%2F11h7rqxxdj!19sChIJGVgLjVVxczkRqvhVJNCIFNI?authuser=0&hl=en&rclk=1",
        "coordinates": {
            "latitude": 27.4845766,
            "longitude": 77.6913579
        }
    },
    {
        "name": "Islami Masjid",
        "main_category": "Mosque",
        "address": "GMCF+H9J Islami Masjid, Masani, Mathura, Uttar Pradesh 281003",
        "detailed_address": {
            "ward": "Masani",
            "street": "GMCF+H9J",
            "city": "Mathura",
            "postal_code": "281003",
            "state": "Uttar Pradesh",
            "country_code": "IN"
        },
        "images": [],
        "link": "https://www.google.com/maps/place/Islami+Masjid/data=!4m7!3m6!1s0x39737111bfc5b94d:0x357dbf34613afcdb!8m2!3d27.521473!4d77.6733821!16s%2Fg%2F11flf1rnht!19sChIJTbnFvxFxczkR2_w6YTS_fTU?authuser=0&hl=en&rclk=1",
        "coordinates": {
            "latitude": 27.521473,
            "longitude": 77.6733821
        }
    },
    {
        "name": "dolaa maulaa msj'id",
        "main_category": "Mosque",
        "address": "GM4J+PWG dolaa maulaa msj'id, Kushak Gali, Ratankund, Chowk Bazar, Mathura, Uttar Pradesh 281001",
        "detailed_address": {
            "ward": "Ratankund, Chowk Bazar",
            "street": "GM4J+PWG, Kushak Gali",
            "city": "Mathura",
            "postal_code": "281001",
            "state": "Uttar Pradesh",
            "country_code": "IN"
        },
        "images": [
            {
                "about": "All",
                "link": "https://lh5.googleusercontent.com/p/AF1QipPcm4zsv5CePJySaLp3loz96dXFvfqkgAbwTNIV=w397-h298-k-no"
            },
            {
                "about": "Dome",
                "link": "https://lh5.googleusercontent.com/p/AF1QipPcm4zsv5CePJySaLp3loz96dXFvfqkgAbwTNIV=w397-h298-k-no"
            }
        ],
        "link": "https://www.google.com/maps/place/%E0%A4%A6%E0%A5%8B%E0%A4%B2%E0%A4%BE+%E0%A4%AE%E0%A5%8C%E0%A4%B2%E0%A4%BE+%E0%A4%AE%E0%A4%B8%E0%A5%8D%E0%A4%9C%E0%A4%BC%E0%A4%BF%E0%A4%A6/data=!4m7!3m6!1s0x39737175f3c8ee23:0x55580791475efdf6!8m2!3d27.5068015!4d77.6823434!16s%2Fg%2F11t5tygmrs!19sChIJI-7I83VxczkR9v1eR5EHWFU?authuser=0&hl=en&rclk=1",
        "coordinates": {
            "latitude": 27.506801499999998,
            "longitude": 77.6823434
        }
    },
    {
        "name": "Shabina masjid",
        "main_category": "Mosque",
        "address": "Shabina masjid, Dori Bazar, Chowk, Vishram Bazar, Mathura, Uttar Pradesh 281001",
        "detailed_address": {
            "ward": "Lal Darwaza, Chowk Bazar",
            "street": "Dori Bazar, Chowk, Vishram Bazar",
            "city": "Mathura",
            "postal_code": "281001",
            "state": "Uttar Pradesh",
            "country_code": "IN"
        },
        "images": [],
        "link": "https://www.google.com/maps/place/Shabina+masjid/data=!4m7!3m6!1s0x397371c7e51d1ed7:0x612b3456e876de67!8m2!3d27.5072517!4d77.6812788!16s%2Fg%2F11sgd0mgv2!19sChIJ1x4d5cdxczkRZ9526FY0K2E?authuser=0&hl=en&rclk=1",
        "coordinates": {
            "latitude": 27.507251699999998,
            "longitude": 77.6812788
        }
    },
    {
        "name": "Ali Masjid",
        "main_category": "Mosque",
        "address": "Ali Masjid, Bharatpur Gate, Kotwali Rd, Chowk Bazar, Mathura, Uttar Pradesh 281001",
        "detailed_address": {
            "ward": "Chowk Bazar",
            "street": "Bharatpur Gate, Kotwali Rd",
            "city": "Mathura",
            "postal_code": "281001",
            "state": "Uttar Pradesh",
            "country_code": "IN"
        },
        "images": [],
        "link": "https://www.google.com/maps/place/Ali+Masjid/data=!4m7!3m6!1s0x3973713f2a64803d:0x291123316c499b44!8m2!3d27.5020107!4d77.6793047!16s%2Fg%2F11jh1ktjhf!19sChIJPYBkKj9xczkRRJtJbDEjESk?authuser=0&hl=en&rclk=1",
        "coordinates": {
            "latitude": 27.5020107,
            "longitude": 77.6793047
        }
    },
    {
        "name": "msj'id-e-teliyaan",
        "main_category": "Mosque",
        "address": "FMXM+X83 msj'id-e-teliyaan, Kotwali Rd, near Teli Wali Masjid, Choubey Para, Mathura, Uttar Pradesh 281001",
        "detailed_address": {
            "ward": "Choubey Para",
            "street": "FMXM+X83, Kotwali Rd, near Teli Wali Masjid",
            "city": "Mathura",
            "postal_code": "281001",
            "state": "Uttar Pradesh",
            "country_code": "IN"
        },
        "images": [
            {
                "about": "All",
                "link": "https://lh5.googleusercontent.com/p/AF1QipP_PJ7Kn6-o6cp1ptQJy8KOaTwS6nd9TGxOofWY=w397-h298-k-no"
            },
            {
                "about": "Latest",
                "link": "https://lh5.googleusercontent.com/p/AF1QipN7C-38NcRUb0HEHaEfZ1dt373fnc7rkBwQntxR=w224-h398-k-no"
            }
        ],
        "link": "https://www.google.com/maps/place/%E0%A4%AE%E0%A4%B8%E0%A5%8D%E0%A4%9C%E0%A4%BC%E0%A4%BF%E0%A4%A6-%E0%A4%8F-%E0%A4%A4%E0%A5%87%E0%A4%B2%E0%A4%BF%E0%A4%AF%E0%A4%BE%E0%A4%A8/data=!4m7!3m6!1s0x397371282f1506af:0x68e9548765257d8d!8m2!3d27.4999037!4d77.6833358!16s%2Fg%2F11l70skwm8!19sChIJrwYVLyhxczkRjX0lZYdU6Wg?authuser=0&hl=en&rclk=1",
        "coordinates": {
            "latitude": 27.499903699999997,
            "longitude": 77.6833358
        }
    },
    {
        "name": "Mosque",
        "main_category": "Place of worship",
        "address": "FMPC+54Q Mosque, Dev Nagar, Teachers Colony, Shanti Nagar, Mathura, Uttar Pradesh 281001",
        "detailed_address": {
            "ward": "Dev Nagar, Teachers Colony, Shanti Nagar",
            "street": "FMPC+54Q",
            "city": "Mathura",
            "postal_code": "281001",
            "state": "Uttar Pradesh",
            "country_code": "IN"
        },
        "images": [
            {
                "about": "All",
                "link": "https://lh5.googleusercontent.com/p/AF1QipPC1VG1e0T0ihZ7DZiiCzR7r8Yll_JcAw-zWeXk=w224-h298-k-no"
            },
            {
                "about": "Street View & 360deg",
                "link": "https://streetviewpixels-pa.googleapis.com/v1/thumbnail?panoid=nk0H8Hrha7SqjLikw5VpHQ&cb_client=maps_sv.tactile.gps&w=224&h=298&yaw=100.3885&pitch=0&thumbfov=100"
            }
        ],
        "link": "https://www.google.com/maps/place/Mosque/data=!4m7!3m6!1s0x39737143fbdebfc5:0x41e954dcf38b254d!8m2!3d27.4854609!4d77.6703542!16s%2Fg%2F1pyqgcf5s!19sChIJxb_e-0NxczkRTSWL89xU6UE?authuser=0&hl=en&rclk=1",
        "coordinates": {
            "latitude": 27.4854609,
            "longitude": 77.67035419999999
        }
    },
    {
        "name": "Nadeem Hasan",
        "main_category": "Mosque",
        "address": "GM3F+5W5 Nadeem Hasan, Daresi Rd, Manoharpura, Mathura, Uttar Pradesh 281001",
        "detailed_address": {
            "ward": "Manoharpura",
            "street": "GM3F+5W5, Daresi Rd",
            "city": "Mathura",
            "postal_code": "281001",
            "state": "Uttar Pradesh",
            "country_code": "IN"
        },
        "images": [],
        "link": "https://www.google.com/maps/place/Nadeem+Hasan/data=!4m7!3m6!1s0x3973719c71d0a6b3:0x2492c702f36abd6a!8m2!3d27.5028853!4d77.6748471!16s%2Fg%2F11lgtf3f49!19sChIJs6bQcZxxczkRar1q8wLHkiQ?authuser=0&hl=en&rclk=1",
        "coordinates": {
            "latitude": 27.5028853,
            "longitude": 77.6748471
        }
    },
    {
        "name": "Historic Mosque",
        "main_category": "Historical landmark",
        "address": "GM4M+FX3 Historic Mosque, Gopal Market, Swami Ghat, 31/7, Dori Bazar Rd, Chowk Bazar, Mathura, Uttar Pradesh 281001",
        "detailed_address": {
            "ward": "Chowk Bazar",
            "street": "GM4M+FX3 Gopal Market, Swami Ghat, 31/7, Dori Bazar Rd",
            "city": "Mathura",
            "postal_code": "281001",
            "state": "Uttar Pradesh",
            "country_code": "IN"
        },
        "images": [
            {
                "about": "All",
                "link": "https://lh5.googleusercontent.com/p/AF1QipNy2DpBc9qk22pLeVY9g8IPIYlxN2MCUYOD33wI=w397-h298-k-no"
            }
        ],
        "link": "https://www.google.com/maps/place/Historic+Mosque/data=!4m7!3m6!1s0x39737128233cfe25:0xb1341b127a0230cc!8m2!3d27.5061798!4d77.6846035!16s%2Fg%2F11smyn5yll!19sChIJJf48IyhxczkRzDACehIbNLE?authuser=0&hl=en&rclk=1",
        "coordinates": {
            "latitude": 27.506179799999998,
            "longitude": 77.6846035
        }
    },
    {
        "name": "Meena Masjid",
        "main_category": "Place of worship",
        "address": "FMR6+VCW Meena Masjid, BSA Rd, Prabhat Nagar, Mathura, Uttar Pradesh 281001",
        "detailed_address": {
            "ward": "Prabhat Nagar",
            "street": "FMR6+VCW, BSA Rd",
            "city": "Mathura",
            "postal_code": "281001",
            "state": "Uttar Pradesh",
            "country_code": "IN"
        },
        "images": [
            {
                "about": "All",
                "link": "https://lh5.googleusercontent.com/p/AF1QipMyEbnmo78ID_Jmix1tKCfYQAW5IEYzWEOTqXpe=w224-h482-k-no"
            }
        ],
        "link": "https://www.google.com/maps/place/Meena+Masjid/data=!4m7!3m6!1s0x3973717da0afeabd:0xf7296aca281e0a2d!8m2!3d27.4922333!4d77.6610781!16s%2Fg%2F11v00cw904!19sChIJveqvoH1xczkRLQoeKMpqKfc?authuser=0&hl=en&rclk=1",
        "coordinates": {
            "latitude": 27.4922333,
            "longitude": 77.6610781
        }
    },
    {
        "name": "Madina Masjid",
        "main_category": "Mosque",
        "address": "GM2F+F27 Madina Masjid, Manoharpura, Mathura, Uttar Pradesh 281001",
        "detailed_address": {
            "ward": "Manoharpura",
            "street": "GM2F+F27",
            "city": "Mathura",
            "postal_code": "281001",
            "state": "Uttar Pradesh",
            "country_code": "IN"
        },
        "images": [],
        "link": "https://www.google.com/maps/place/Madina+Masjid/data=!4m7!3m6!1s0x397371a56731968b:0x68841c824c5d351a!8m2!3d27.5011524!4d77.6725498!16s%2Fg%2F11sxwsx_l_!19sChIJi5YxZ6VxczkRGjVdTIIchGg?authuser=0&hl=en&rclk=1",
        "coordinates": {
            "latitude": 27.5011524,
            "longitude": 77.6725498
        }
    },
    {
        "name": "Sahni masjid",
        "main_category": "Mosque",
        "address": "Sahni masjid, 14/8, Civil Lines, Mathura Cantonment, Mathura, Uttar Pradesh 281001",
        "detailed_address": {
            "ward": "Civil Lines, Mathura Cantonment",
            "street": "14/8",
            "city": "Mathura",
            "postal_code": "281001",
            "state": "Uttar Pradesh",
            "country_code": "IN"
        },
        "images": [],
        "link": "https://www.google.com/maps/place/Sahni+masjid/data=!4m7!3m6!1s0x3973719b81e0d685:0x6ef99deebb28ad89!8m2!3d27.4803265!4d77.6985254!16s%2Fg%2F11kjmywrzh!19sChIJhdbggZtxczkRia0ou-6d-W4?authuser=0&hl=en&rclk=1",
        "coordinates": {
            "latitude": 27.4803265,
            "longitude": 77.6985254
        }
    },
    {
        "name": "Masjid ahlehadees",
        "main_category": "Mosque",
        "address": "GM3F+MMX Masjid ahlehadees, Deeg Gate Rd, Chowk Bazar, Mathura, Uttar Pradesh 281001",
        "detailed_address": {
            "ward": "Chowk Bazar",
            "street": "GM3F+MMX, Deeg Gate Rd",
            "city": "Mathura",
            "postal_code": "281001",
            "state": "Uttar Pradesh",
            "country_code": "IN"
        },
        "images": [
            {
                "about": "All",
                "link": "https://lh5.googleusercontent.com/p/AF1QipMYZtGimOYdDns0v12e9BngfY0wvU8jFa1Dt5k=w224-h398-k-no"
            }
        ],
        "link": "https://www.google.com/maps/place/Masjid+ahlehadees/data=!4m7!3m6!1s0x3973716e98fa3a07:0x40ce47ffd93109a9!8m2!3d27.5042488!4d77.6742257!16s%2Fg%2F11v0_jl7k9!19sChIJBzr6mG5xczkRqQkx2f9HzkA?authuser=0&hl=en&rclk=1",
        "coordinates": {
            "latitude": 27.5042488,
            "longitude": 77.6742257
        }
    },
    {
        "name": "Masjid",
        "main_category": "Mosque",
        "address": "GM5X+PHM Masjid, Laxmi Nagar, Mathura, Uttar Pradesh 281204",
        "detailed_address": {
            "ward": "Laxmi Nagar",
            "street": "GM5X+PHM",
            "city": "Mathura",
            "postal_code": "281204",
            "state": "Uttar Pradesh",
            "country_code": "IN"
        },
        "images": [],
        "link": "https://www.google.com/maps/place/Masjid/data=!4m7!3m6!1s0x3973713005f54571:0xced38ea424ac6ebe!8m2!3d27.5094244!4d77.6989565!16s%2Fg%2F11v4j7nyj3!19sChIJcUX1BTBxczkRvm6sJKSO084?authuser=0&hl=en&rclk=1",
        "coordinates": {
            "latitude": 27.5094244,
            "longitude": 77.6989565
        }
    },
    {
        "name": "Badi Minar , Ali Masjid",
        "main_category": "Mosque",
        "address": "GM2H+MPV Badi Minar , Ali Masjid, Ghiya Mandi Rd, Chowk Bazar, Mathura, Uttar Pradesh 281001",
        "detailed_address": {
            "ward": "Chowk Bazar",
            "street": "GM2H+MPV, Ghiya Mandi Rd",
            "city": "Mathura",
            "postal_code": "281001",
            "state": "Uttar Pradesh",
            "country_code": "IN"
        },
        "images": [
            {
                "about": "All",
                "link": "https://streetviewpixels-pa.googleapis.com/v1/thumbnail?panoid=jkSkRbhTOqBfEbNtvmEztw&cb_client=maps_sv.tactile.gps&w=224&h=298&yaw=98.98575&pitch=0&thumbfov=100"
            },
            {
                "about": "Street View & 360deg",
                "link": "https://streetviewpixels-pa.googleapis.com/v1/thumbnail?panoid=jkSkRbhTOqBfEbNtvmEztw&cb_client=maps_sv.tactile.gps&w=224&h=298&yaw=98.98575&pitch=0&thumbfov=100"
            }
        ],
        "link": "https://www.google.com/maps/place/Badi+Minar+,+Ali+Masjid/data=!4m7!3m6!1s0x397371b3887221bf:0xce182ef171bbbfa4!8m2!3d27.5017457!4d77.6793045!16s%2Fg%2F11jmxc303z!19sChIJvyFyiLNxczkRpL-7cfEuGM4?authuser=0&hl=en&rclk=1",
        "coordinates": {
            "latitude": 27.501745699999997,
            "longitude": 77.6793045
        }
    },
    {
        "name": "Masjid Ameer Hamza Dholi Pyau",
        "main_category": "Mosque",
        "address": "Masjid Ameer Hamza Dholi Pyau, 439, Natwar Nagar, Hanuman Nagar, Mathura, Uttar Pradesh 281001",
        "detailed_address": {
            "ward": "Natwar Nagar, Hanuman Nagar",
            "street": "439",
            "city": "Mathura",
            "postal_code": "281001",
            "state": "Uttar Pradesh",
            "country_code": "IN"
        },
        "images": [
            {
                "about": "All",
                "link": "https://lh5.googleusercontent.com/p/AF1QipPSWQNaJVss0y54MotGtpXfHgp8156-LNlTViiW=w224-h298-k-no"
            }
        ],
        "link": "https://www.google.com/maps/place/Masjid+Ameer+Hamza+Dholi+Pyau/data=!4m7!3m6!1s0x3973716a1ccd9703:0x4c491926f9649163!8m2!3d27.4761219!4d77.676209!16s%2Fg%2F11sshyprn3!19sChIJA5fNHGpxczkRY5Fk-SYZSUw?authuser=0&hl=en&rclk=1",
        "coordinates": {
            "latitude": 27.4761219,
            "longitude": 77.676209
        }
    },
    {
        "name": "Faiz E Aam Mosque",
        "main_category": "Mosque",
        "address": "FMJX+3CW Faiz E Aam Mosque, Civil Lines, Mathura Cantonment, Mathura, Uttar Pradesh 281001",
        "detailed_address": {
            "ward": "Civil Lines, Mathura Cantonment",
            "street": "FMJX+3CW",
            "city": "Mathura",
            "postal_code": "281001",
            "state": "Uttar Pradesh",
            "country_code": "IN"
        },
        "images": [],
        "link": "https://www.google.com/maps/place/Faiz+E+Aam+Mosque/data=!4m7!3m6!1s0x397371f7c02f4127:0xc6a7b69a0328d91b!8m2!3d27.4802462!4d77.6985647!16s%2Fg%2F11y1m0j1g0!19sChIJJ0EvwPdxczkRG9koA5q2p8Y?authuser=0&hl=en&rclk=1",
        "coordinates": {
            "latitude": 27.4802462,
            "longitude": 77.69856469999999
        }
    },
    {
        "name": "msj'id-e-ahmd",
        "main_category": "Mosque",
        "address": "GM9G+G24 msj'id-e-ahmd, Masani, Mathura, Uttar Pradesh 281003",
        "detailed_address": {
            "ward": "Masani",
            "street": "GM9G+G24",
            "city": "Mathura",
            "postal_code": "281003",
            "state": "Uttar Pradesh",
            "country_code": "IN"
        },
        "images": [
            {
                "about": "All",
                "link": "https://lh5.googleusercontent.com/p/AF1QipMR7n95T7_OUrZ3WxwcpAYqIyyOSr4DnQLm9veh=w397-h298-k-no"
            },
            {
                "about": "Latest",
                "link": "https://lh5.googleusercontent.com/p/AF1QipN0XNiF9aRmkfk7AAvMZVqbtdfdlL6-lGgns8kL=w224-h298-k-no"
            }
        ],
        "link": "https://www.google.com/maps/place/%E0%A4%AE%E0%A4%B8%E0%A5%8D%E0%A4%9C%E0%A4%BC%E0%A4%BF%E0%A4%A6-%E0%A4%8F-%E0%A4%85%E0%A4%B9%E0%A4%AE%E0%A4%A6/data=!4m7!3m6!1s0x39737119176ed0ff:0x629b94b30853ede!8m2!3d27.5187674!4d77.6750869!16s%2Fg%2F11y1ykpf17!19sChIJ_9BuFxlxczkR3j6FMEu5KQY?authuser=0&hl=en&rclk=1",
        "coordinates": {
            "latitude": 27.518767399999998,
            "longitude": 77.6750869
        }
    },
    {
        "name": "Hazrat Ali Sher pahelvaan Baba. Dargah",
        "main_category": "Mosque",
        "address": "FMGV+C7X Hazrat Ali Sher pahelvaan Baba. Dargah, Agra Rd, Civil Lines, Mathura Cantonment, Mathura, Uttar Pradesh 281001",
        "detailed_address": {
            "ward": "Civil Lines, Mathura Cantonment",
            "street": "FMGV+C7X, Agra Rd",
            "city": "Mathura",
            "postal_code": null,
            "state": "Uttar Pradesh",
            "country_code": "IN"
        },
        "images": [
            {
                "about": "All",
                "link": "https://streetviewpixels-pa.googleapis.com/v1/thumbnail?panoid=I7OwxeYoqXT2hZJ92LpvYg&cb_client=maps_sv.tactile.gps&w=224&h=298&yaw=344.67978&pitch=0&thumbfov=100"
            },
            {
                "about": "Street View & 360deg",
                "link": "https://streetviewpixels-pa.googleapis.com/v1/thumbnail?panoid=I7OwxeYoqXT2hZJ92LpvYg&cb_client=maps_sv.tactile.gps&w=224&h=298&yaw=344.67978&pitch=0&thumbfov=100"
            }
        ],
        "link": "https://www.google.com/maps/place/Hazrat+Ali+Sher+pahelvaan+Baba.+Dargah/data=!4m7!3m6!1s0x3973719a7f4633df:0xd75eaf18416c6bf0!8m2!3d27.4761238!4d77.6932245!16s%2Fg%2F11st_0997g!19sChIJ3zNGf5pxczkR8GtsQRivXtc?authuser=0&hl=en&rclk=1",
        "coordinates": {
            "latitude": 27.4761238,
            "longitude": 77.6932245
        }
    },
    {
        "name": "Naya nagla gali no 5 dampier nagar mathura",
        "main_category": "Mosque",
        "address": "Naya nagla gali no 5 dampier nagar mathura, 5, Dampier Nagar, Mathura, Uttar Pradesh 281001",
        "detailed_address": {
            "ward": "Dampier Nagar",
            "street": "5",
            "city": "Mathura",
            "postal_code": "281001",
            "state": "Uttar Pradesh",
            "country_code": "IN"
        },
        "images": [],
        "link": "https://www.google.com/maps/place/Naya+nagla+gali+no+5+dampier+nagar+mathura/data=!4m7!3m6!1s0x397371c78b9d8a87:0xcabdbf74b1bcb5f8!8m2!3d27.4943031!4d77.682703!16s%2Fg%2F11vbqs38v_!19sChIJh4qdi8dxczkR-LW8sXS_vco?authuser=0&hl=en&rclk=1",
        "coordinates": {
            "latitude": 27.4943031,
            "longitude": 77.68270299999999
        }
    }
]