[
    {
        "name": "Jama Masjid",
        "main_category": "Mosque",
        "address": "2GVR+HRQ Jama Masjid, Thana Rd, Gumla, Jharkhand 835207",
        "detailed_address": {
            "ward": null,
            "street": "2GVR+HRQ, Thana Rd",
            "city": "Gumla",
            "postal_code": "835207",
            "state": "Jharkhand",
            "country_code": "IN"
        },
        "images": [
            {
                "about": "All",
                "link": "https://lh5.googleusercontent.com/p/AF1QipOotnDgEx5OkopjdKpmpW44es759ZP7E6ktpEjb=w397-h298-k-no"
            },
            {
                "about": "Street View & 360deg",
                "link": "https://streetviewpixels-pa.googleapis.com/v1/thumbnail?panoid=I4Yo6JEULnIHdbhE7_MkIA&cb_client=maps_sv.tactile.gps&w=224&h=298&yaw=242.7622&pitch=0&thumbfov=100"
            },
            {
                "about": "Videos",
                "link": "https://lh5.googleusercontent.com/p/AF1QipOHBo6tufpcV6lNOA9QO0iTkftpYbuscR7vl6VY=w529-h298-k-no"
            }
        ],
        "link": "https://www.google.com/maps/place/Jama+Masjid/data=!4m7!3m6!1s0x398ae9221c4e8d0f:0x1c1eae6fec9c298!8m2!3d23.0439681!4d84.5421102!16s%2Fg%2F11cjnp7pk2!19sChIJD41OHCLpijkRmMLJ_ubqwQE?authuser=0&hl=en&rclk=1",
        "coordinates": {
            "latitude": 23.0439681,
            "longitude": 84.5421102
        }
    },
    {
        "name": "SHAHAB WOOLEN WHOLESALE",
        "main_category": "Mosque",
        "address": "SHAHAB WOOLEN WHOLESALE, near Madina Masjid, Azad Basti, Gumla, Jharkhand 835207",
        "detailed_address": {
            "ward": "Azad Basti",
            "street": "near Madina Masjid",
            "city": "Gumla",
            "postal_code": "835207",
            "state": "Jharkhand",
            "country_code": "IN"
        },
        "images": [
            {
                "about": "All",
                "link": "https://lh5.googleusercontent.com/p/AF1QipMDTNN7LkpeY8vwKDhRJmSnHLLXQjNCH9PYQQrs=w529-h298-k-no"
            },
            {
                "about": "Dome",
                "link": "https://lh5.googleusercontent.com/p/AF1QipPHLzuuJG-Y82GvJBpQI-n7SrcX1_dZxTSbUuOs=w397-h298-k-no"
            },
            {
                "about": "Videos",
                "link": "https://lh5.googleusercontent.com/p/AF1QipMXE_olu8eHB7tNy_jn71hrOM3L_WkMLZ_yooTs=w529-h298-k-no"
            },
            {
                "about": "By owner",
                "link": "https://lh5.googleusercontent.com/p/AF1QipN65rGJOXZMeH45sgDM-gzzoZ7GRcDWrT1M_sYs=w298-h298-k-no"
            }
        ],
        "link": "https://www.google.com/maps/place/SHAHAB+WOOLEN+WHOLESALE/data=!4m7!3m6!1s0x398ae91f03ca54db:0xf95bd546b2df7f58!8m2!3d23.0471724!4d84.5437311!16s%2Fg%2F11cpfwtgj_!19sChIJ21TKAx_pijkRWH_fskbVW_k?authuser=0&hl=en&rclk=1",
        "coordinates": {
            "latitude": 23.047172399999997,
            "longitude": 84.5437311
        }
    },
    {
        "name": "Masjid-e-Zainab",
        "main_category": "Mosque",
        "address": "2GXV+3C2 Masjid-e-Zainab, Gumla, Jharkhand 835207",
        "detailed_address": {
            "ward": null,
            "street": "2GXV+3C2",
            "city": "Gumla",
            "postal_code": "835207",
            "state": "Jharkhand",
            "country_code": "IN"
        },
        "images": [
            {
                "about": "All",
                "link": "https://lh5.googleusercontent.com/p/AF1QipO26dnhQs_Gv1XCs1R-K9pg3HPCGieDpmwvPDHd=w224-h398-k-no"
            }
        ],
        "link": "https://www.google.com/maps/place/Masjid-e-Zainab/data=!4m7!3m6!1s0x398ae91f83e1e435:0x74ccd24289d281d0!8m2!3d23.0476336!4d84.5435254!16s%2Fg%2F11c135k46d!19sChIJNeThgx_pijkR0IHSiULSzHQ?authuser=0&hl=en&rclk=1",
        "coordinates": {
            "latitude": 23.047633599999998,
            "longitude": 84.5435254
        }
    },
    {
        "name": "FAIZAN E MADINA (MASJID FAIZAN E RAZA)",
        "main_category": "Mosque",
        "address": "2GXV+Q9F FAIZAN E MADINA (MASJID FAIZAN E RAZA), Gumla, Jharkhand 835207",
        "detailed_address": {
            "ward": null,
            "street": "2GXV+Q9F",
            "city": "Gumla",
            "postal_code": "835207",
            "state": "Jharkhand",
            "country_code": "IN"
        },
        "images": [
            {
                "about": "All",
                "link": "https://lh5.googleusercontent.com/p/AF1QipNAgYTOCZQeg_phYR7gQ5e0r_83pEqvurCfef0=w447-h298-k-no"
            },
            {
                "about": "Videos",
                "link": "https://lh5.googleusercontent.com/p/AF1QipPox2DEm_0coHalStAQS69dbp48CDoFYZ3szR85=w518-h298-k-no"
            }
        ],
        "link": "https://www.google.com/maps/place/FAIZAN+E+MADINA+%28MASJID+FAIZAN+E+RAZA%29/data=!4m7!3m6!1s0x398ae91ff76a8299:0xb808b382f133b9d0!8m2!3d23.0494299!4d84.5434323!16s%2Fg%2F11bzr_rctg!19sChIJmYJq9x_pijkR0Lkz8YKzCLg?authuser=0&hl=en&rclk=1",
        "coordinates": {
            "latitude": 23.0494299,
            "longitude": 84.54343229999999
        }
    },
    {
        "name": "Mecca Masjid",
        "main_category": "Mosque",
        "address": "2GRX+VJM Mecca Masjid, Gumla, Jharkhand 835207",
        "detailed_address": {
            "ward": null,
            "street": "2GRX+VJM",
            "city": "Gumla",
            "postal_code": "835207",
            "state": "Jharkhand",
            "country_code": "IN"
        },
        "images": [
            {
                "about": "All",
                "link": "https://lh5.googleusercontent.com/p/AF1QipMeuiHKpw7LFdWGTGOR-EkOsB2JerX2S9Q9V81d=w224-h298-k-no"
            },
            {
                "about": "Street View & 360deg",
                "link": "https://streetviewpixels-pa.googleapis.com/v1/thumbnail?panoid=0SJNcIEguxpKT3BZmvphVw&cb_client=maps_sv.tactile.gps&w=224&h=298&yaw=73.19217&pitch=0&thumbfov=100"
            }
        ],
        "link": "https://www.google.com/maps/place/Mecca+Masjid/data=!4m7!3m6!1s0x398ae91bd019668f:0xdfce6b2addc0675!8m2!3d23.0422137!4d84.5490559!16s%2Fg%2F11gd7z5bpx!19sChIJj2YZ0BvpijkRdQbcrbLm_A0?authuser=0&hl=en&rclk=1",
        "coordinates": {
            "latitude": 23.042213699999998,
            "longitude": 84.5490559
        }
    },
    {
        "name": "Ghousia Moti Masjid",
        "main_category": "Mosque",
        "address": "2GVW+73F Ghousia Moti Masjid, Gumla, Jharkhand 835207",
        "detailed_address": {
            "ward": null,
            "street": "2GVW+73F",
            "city": "Gumla",
            "postal_code": "835207",
            "state": "Jharkhand",
            "country_code": "IN"
        },
        "images": [
            {
                "about": "All",
                "link": "https://lh5.googleusercontent.com/p/AF1QipMNrk7yIjC5hPiFg7sF37WkwI-5Uk0w5fJa5Etp=w529-h298-k-no"
            },
            {
                "about": "Videos",
                "link": "https://lh5.googleusercontent.com/p/AF1QipOwLRZGi8Va4P4KQueICfpn4EFHl2aCXYM9HPgj=w224-h398-k-no"
            }
        ],
        "link": "https://www.google.com/maps/place/Ghousia+Moti+Masjid/data=!4m7!3m6!1s0x398ae918dcb67121:0xdcf2a163d7d3529c!8m2!3d23.0431893!4d84.5451768!16s%2Fg%2F11c0v_xr7k!19sChIJIXG23BjpijkRnFLT12Oh8tw?authuser=0&hl=en&rclk=1",
        "coordinates": {
            "latitude": 23.043189299999998,
            "longitude": 84.5451768
        }
    },
    {
        "name": "Markaz madina masjid",
        "main_category": "Mosque",
        "address": "2GWW+R64 Markaz madina masjid, near masjid e jainab, Gumla, Jharkhand 835207",
        "detailed_address": {
            "ward": null,
            "street": "2GWW+R64, near masjid e jainab",
            "city": "Gumla",
            "postal_code": "835207",
            "state": "Jharkhand",
            "country_code": "IN"
        },
        "images": [
            {
                "about": "All",
                "link": "https://lh5.googleusercontent.com/p/AF1QipN6t4ghEGH7UlujbcGFy8r-91weRk8xk598jcYS=w531-h298-k-no"
            },
            {
                "about": "Dome",
                "link": "https://lh5.googleusercontent.com/p/AF1QipNwEQrEDgo4UdkRsZMv4VHf4wxH9w4vB7MdoQtl=w593-h298-k-no"
            },
            {
                "about": "Videos",
                "link": "https://lh5.googleusercontent.com/p/AF1QipOSzh_VzgnLKnaUBRZEleRb-rBLw9M_kPVNdZJb=w224-h398-k-no"
            }
        ],
        "link": "https://www.google.com/maps/place/Markaz+madina+masjid/data=!4m7!3m6!1s0x398ae9985cfe90f3:0x6200abb6ec05e2f!8m2!3d23.047007!4d84.5455894!16s%2Fg%2F11lgtp2xbg!19sChIJ85D-XJjpijkRL17AbrsKIAY?authuser=0&hl=en&rclk=1",
        "coordinates": {
            "latitude": 23.047007,
            "longitude": 84.5455894
        }
    },
    {
        "name": "Masjid-e-Gause Azam",
        "main_category": "Mosque",
        "address": "2GWW+H57 Masjid-e-Gause Azam, Gumla, Jharkhand 835207",
        "detailed_address": {
            "ward": null,
            "street": "2GWW+H57",
            "city": "Gumla",
            "postal_code": "835207",
            "state": "Jharkhand",
            "country_code": "IN"
        },
        "images": [
            {
                "about": "All",
                "link": "https://lh5.googleusercontent.com/p/AF1QipOF0MwGfWXB97_DSUcU5jZ5aJpnNMy0FoMqq1dt=w224-h298-k-no"
            },
            {
                "about": "Videos",
                "link": "https://lh5.googleusercontent.com/p/AF1QipMB3nKf54rgFJ8wVu3X12RrtQVHuMCjmFt29ioX=w224-h398-k-no"
            }
        ],
        "link": "https://www.google.com/maps/place/Masjid-e-Gause+Azam/data=!4m7!3m6!1s0x398ae91f1bbe7beb:0x319e1f583b066889!8m2!3d23.0464001!4d84.5454097!16s%2Fg%2F11hdb179gp!19sChIJ63u-Gx_pijkRiWgGO1gfnjE?authuser=0&hl=en&rclk=1",
        "coordinates": {
            "latitude": 23.0464001,
            "longitude": 84.5454097
        }
    },
    {
        "name": "Masjidul Huda",
        "main_category": "Mosque",
        "address": "3G2W+6V7 Masjidul Huda, Hussein nagar, Gumla, Jharkhand",
        "detailed_address": {
            "ward": null,
            "street": "3G2W+6V7, Hussein nagar",
            "city": "Gumla",
            "postal_code": null,
            "state": "Jharkhand",
            "country_code": "IN"
        },
        "images": [
            {
                "about": "All",
                "link": "https://lh5.googleusercontent.com/p/AF1QipNIRA2hy9huD0Hn3ycn_fTdK1aWvE_EnSSuGqIu=w529-h298-k-no"
            },
            {
                "about": "Dome",
                "link": "https://lh5.googleusercontent.com/p/AF1QipOZoA6vAY90LjyuxPLZplzz5MfQrzCOZZtPK7RL=w395-h298-k-no"
            }
        ],
        "link": "https://www.google.com/maps/place/Masjidul+Huda/data=!4m7!3m6!1s0x398ae932d8a1aebf:0xb5464f6dcd2a8f2b!8m2!3d23.0505498!4d84.5471619!16s%2Fg%2F11fmqk77jp!19sChIJv66h2DLpijkRK48qzW1PRrU?authuser=0&hl=en&rclk=1",
        "coordinates": {
            "latitude": 23.0505498,
            "longitude": 84.54716189999999
        }
    },
    {
        "name": "Qadria masjid",
        "main_category": "Mosque",
        "address": "2GVX+J8W Qadria masjid, Gandhi nagar, Gumla, Jharkhand 835207",
        "detailed_address": {
            "ward": "Gandhi nagar",
            "street": "2GVX+J8W",
            "city": "Gumla",
            "postal_code": "835207",
            "state": "Jharkhand",
            "country_code": "IN"
        },
        "images": [],
        "link": "https://www.google.com/maps/place/Qadria+masjid/data=!4m7!3m6!1s0x398ae90a340fdb4b:0x7e8d12e16b4cb2ca!8m2!3d23.0441031!4d84.5483391!16s%2Fg%2F11h52n6q1q!19sChIJS9sPNArpijkRyrJMa-ESjX4?authuser=0&hl=en&rclk=1",
        "coordinates": {
            "latitude": 23.044103099999997,
            "longitude": 84.54833909999999
        }
    }
]