[
    {
        "name": "Mohidheen Aandavar Pallivaasal- shia muslim",
        "main_category": "Mosque",
        "address": "28JR+Q69 Mohidheen Aandavar Pallivaasal- shia muslim, periyakadai veedhi, dt,, Melur, Tamil Nadu 625106",
        "detailed_address": {
            "ward": null,
            "street": "28JR+Q69, periyakadai veedhi, dt,",
            "city": "Melur",
            "postal_code": "625106",
            "state": "Tamil Nadu",
            "country_code": "IN"
        },
        "images": [
            {
                "about": "All",
                "link": "https://lh5.googleusercontent.com/p/AF1QipPhZYcf7xpI7YgQ_QO3rwUxeLkcrGI3DcDA7EmX=w224-h298-k-no"
            },
            {
                "about": "Street View & 360deg",
                "link": "https://streetviewpixels-pa.googleapis.com/v1/thumbnail?panoid=h2s_8NngObxF2sLQl92mAA&cb_client=maps_sv.tactile.gps&w=224&h=298&yaw=348.5152&pitch=0&thumbfov=100"
            }
        ],
        "link": "https://www.google.com/maps/place/Mohidheen+Aandavar+Pallivaasal-+shia+muslim/data=!4m7!3m6!1s0x3b00eb2038a93ee5:0x443311d912975f29!8m2!3d10.0319152!4d78.3406021!16s%2Fg%2F11b726t2yw!19sChIJ5T6pOCDrADsRKV-XEtkRM0Q?authuser=0&hl=en&rclk=1",
        "coordinates": {
            "latitude": 10.0319152,
            "longitude": 78.3406021
        }
    },
    {
        "name": "Masjid Noorul Haq",
        "main_category": "Mosque",
        "address": "28QV+G47 Masjid Noorul Haq, Melur, Tamil Nadu 625106",
        "detailed_address": {
            "ward": null,
            "street": "28QV+G47",
            "city": "Melur",
            "postal_code": "625106",
            "state": "Tamil Nadu",
            "country_code": "IN"
        },
        "images": [
            {
                "about": "All",
                "link": "https://lh5.googleusercontent.com/p/AF1QipOm3LTD_4-pNJBNmgDe-hGn0_StxMqZF7tH_h-l=w224-h398-k-no"
            },
            {
                "about": "Street View & 360deg",
                "link": "https://streetviewpixels-pa.googleapis.com/v1/thumbnail?panoid=3bu57775JwNR0-u2l036pg&cb_client=maps_sv.tactile.gps&w=224&h=298&yaw=191.1128&pitch=0&thumbfov=100"
            },
            {
                "about": "Videos",
                "link": "https://lh5.googleusercontent.com/p/AF1QipM0H_-2lPpxDSgdTGKCX0t8d9XsVaHIZuPhqpOs=w529-h298-k-no"
            }
        ],
        "link": "https://www.google.com/maps/place/Masjid+Noorul+Haq/data=!4m7!3m6!1s0x3b00eb26f4f79a53:0xd1f8886f3bd558b9!8m2!3d10.0387838!4d78.3428058!16s%2Fg%2F11g8ygxn7v!19sChIJU5r39CbrADsRuVjVO2-I-NE?authuser=0&hl=en&rclk=1",
        "coordinates": {
            "latitude": 10.0387838,
            "longitude": 78.3428058
        }
    },
    {
        "name": "Market Pallivasal",
        "main_category": "Mosque",
        "address": "28HQ+X5G Market Pallivasal, Melur, Tamil Nadu 625106",
        "detailed_address": {
            "ward": null,
            "street": "28HQ+X5G",
            "city": "Melur",
            "postal_code": "625106",
            "state": "Tamil Nadu",
            "country_code": "IN"
        },
        "images": [
            {
                "about": "All",
                "link": "https://lh5.googleusercontent.com/p/AF1QipNOMc-vyTDzD8qMAvXlNu0O9m1FnOKsLtWi2eO-=w397-h298-k-no"
            }
        ],
        "link": "https://www.google.com/maps/place/Market+Pallivasal/data=!4m7!3m6!1s0x3b00eae00fe51a93:0x51369e0c24fd0253!8m2!3d10.0299295!4d78.337943!16s%2Fg%2F11c1_vqm6x!19sChIJkxrlD-DqADsRUwL9JAyeNlE?authuser=0&hl=en&rclk=1",
        "coordinates": {
            "latitude": 10.0299295,
            "longitude": 78.337943
        }
    },
    {
        "name": "Madhina Masjid",
        "main_category": "Mosque",
        "address": "28PX+736 Madhina Masjid, Melur, Tamil Nadu 625106",
        "detailed_address": {
            "ward": null,
            "street": "28PX+736",
            "city": "Melur",
            "postal_code": "625106",
            "state": "Tamil Nadu",
            "country_code": "IN"
        },
        "images": [
            {
                "about": "All",
                "link": "https://lh5.googleusercontent.com/p/AF1QipMCwsWlg7mYXN3_9EUyo9Mj9Q6rszx5eck8HZ3J=w224-h298-k-no"
            },
            {
                "about": "Street View & 360deg",
                "link": "https://streetviewpixels-pa.googleapis.com/v1/thumbnail?panoid=op14YAbF8Gwnwlb3xzy-xQ&cb_client=maps_sv.tactile.gps&w=224&h=298&yaw=107.72219&pitch=0&thumbfov=100"
            }
        ],
        "link": "https://www.google.com/maps/place/Madhina+Masjid/data=!4m7!3m6!1s0x3b00eb2370b762ed:0x89264beee305e956!8m2!3d10.0356646!4d78.3476422!16s%2Fg%2F11cks90bhl!19sChIJ7WK3cCPrADsRVukF4-5LJok?authuser=0&hl=en&rclk=1",
        "coordinates": {
            "latitude": 10.035664599999999,
            "longitude": 78.3476422
        }
    },
    {
        "name": "Thaqwa Masjid",
        "main_category": "Mosque",
        "address": "28MQ+F2F Thaqwa Masjid, Melur, Tamil Nadu 625106",
        "detailed_address": {
            "ward": null,
            "street": "28MQ+F2F",
            "city": "Melur",
            "postal_code": "625106",
            "state": "Tamil Nadu",
            "country_code": "IN"
        },
        "images": [
            {
                "about": "All",
                "link": "https://lh5.googleusercontent.com/p/AF1QipNFQGfkVae8GgWZT9RKStcYcN4bsG2Jm8d_ErL7=w224-h475-k-no"
            }
        ],
        "link": "https://www.google.com/maps/place/Thaqwa+Masjid/data=!4m7!3m6!1s0x3b00eadf73f04e39:0x38f54bfed6be2f39!8m2!3d10.033698!4d78.3375454!16s%2Fg%2F11d_8rd9m6!19sChIJOU7wc9_qADsROS--1v5L9Tg?authuser=0&hl=en&rclk=1",
        "coordinates": {
            "latitude": 10.033698,
            "longitude": 78.3375454
        }
    },
    {
        "name": "Al Masjidul Jamiu Muhyud Deen",
        "main_category": "Mosque",
        "address": "28JR+R68 Al Masjidul Jamiu Muhyud Deen, Trichy Main Rd, Melur, Madurai, Tamil Nadu 625106",
        "detailed_address": {
            "ward": "Melur",
            "street": "28JR+R68, Trichy Main Rd",
            "city": "Madurai",
            "postal_code": "625106",
            "state": "Tamil Nadu",
            "country_code": "IN"
        },
        "images": [
            {
                "about": "All",
                "link": "https://lh5.googleusercontent.com/p/AF1QipPWf4Zo2P_RIlIt--77ZLRt-UPj8NgkkNmmMBg=w224-h367-k-no"
            },
            {
                "about": "Dome",
                "link": "https://lh5.googleusercontent.com/p/AF1QipNp98Av3rOcEEtIZr7Pe9U3Euf0b2dLjnDcI7n3=w224-h336-k-no"
            },
            {
                "about": "Street View & 360deg",
                "link": "https://streetviewpixels-pa.googleapis.com/v1/thumbnail?panoid=h2s_8NngObxF2sLQl92mAA&cb_client=maps_sv.tactile.gps&w=224&h=298&yaw=348.18796&pitch=0&thumbfov=100"
            }
        ],
        "link": "https://www.google.com/maps/place/Al+Masjidul+Jamiu+Muhyud+Deen/data=!4m7!3m6!1s0x3b00eb20389f679d:0x6318c04167bcdc02!8m2!3d10.032034!4d78.340576!16s%2Fg%2F11b806wbhp!19sChIJnWefOCDrADsRAty8Z0HAGGM?authuser=0&hl=en&rclk=1",
        "coordinates": {
            "latitude": 10.032034,
            "longitude": 78.340576
        }
    },
    {
        "name": "Koofha Jumma Mosque",
        "main_category": "Mosque",
        "address": "28RP+QJC Koofha Jumma Mosque, Melur, Tamil Nadu 625106",
        "detailed_address": {
            "ward": null,
            "street": "28RP+QJC",
            "city": "Melur",
            "postal_code": "625106",
            "state": "Tamil Nadu",
            "country_code": "IN"
        },
        "images": [],
        "link": "https://www.google.com/maps/place/Koofha+Jumma+Mosque/data=!4m7!3m6!1s0x3b00ead785eeeded:0x5cd40cb524a0014d!8m2!3d10.0419493!4d78.3365159!16s%2Fg%2F11hbn72y6w!19sChIJ7e3uhdfqADsRTQGgJLUM1Fw?authuser=0&hl=en&rclk=1",
        "coordinates": {
            "latitude": 10.041949299999999,
            "longitude": 78.3365159
        }
    },
    {
        "name": "RAHMANIYA MAJID",
        "main_category": "Mosque",
        "address": "28MV+F86 RAHMANIYA MAJID, Trichy - Melur Rd, Melur, Tamil Nadu 625106",
        "detailed_address": {
            "ward": null,
            "street": "28MV+F86, Trichy - Melur Rd",
            "city": "Melur",
            "postal_code": "625106",
            "state": "Tamil Nadu",
            "country_code": "IN"
        },
        "images": [
            {
                "about": "All",
                "link": "https://streetviewpixels-pa.googleapis.com/v1/thumbnail?panoid=K5miM_HcM8Ipymlb9TdSJQ&cb_client=maps_sv.tactile.gps&w=224&h=298&yaw=133.9967&pitch=0&thumbfov=100"
            },
            {
                "about": "Street View & 360deg",
                "link": "https://streetviewpixels-pa.googleapis.com/v1/thumbnail?panoid=K5miM_HcM8Ipymlb9TdSJQ&cb_client=maps_sv.tactile.gps&w=224&h=298&yaw=133.9967&pitch=0&thumbfov=100"
            }
        ],
        "link": "https://www.google.com/maps/place/RAHMANIYA+MAJID/data=!4m7!3m6!1s0x3b00ebe3294141e3:0xc57f87e5f7946b25!8m2!3d10.0336625!4d78.3432718!16s%2Fg%2F11r9bl5876!19sChIJ40FBKePrADsRJWuU9-WHf8U?authuser=0&hl=en&rclk=1",
        "coordinates": {
            "latitude": 10.0336625,
            "longitude": 78.3432718
        }
    },
    {
        "name": "Masjid",
        "main_category": "Mosque",
        "address": "28JQ+G78 Masjid, Melur, Tamil Nadu 625106",
        "detailed_address": {
            "ward": null,
            "street": "28JQ+G78",
            "city": "Melur",
            "postal_code": "625106",
            "state": "Tamil Nadu",
            "country_code": "IN"
        },
        "images": [
            {
                "about": "All",
                "link": "https://streetviewpixels-pa.googleapis.com/v1/thumbnail?panoid=l5RdLEUWgiGAaCMyhvxLSw&cb_client=maps_sv.tactile.gps&w=224&h=298&yaw=339.4604&pitch=0&thumbfov=100"
            },
            {
                "about": "Street View & 360deg",
                "link": "https://streetviewpixels-pa.googleapis.com/v1/thumbnail?panoid=l5RdLEUWgiGAaCMyhvxLSw&cb_client=maps_sv.tactile.gps&w=224&h=298&yaw=339.4604&pitch=0&thumbfov=100"
            }
        ],
        "link": "https://www.google.com/maps/place/Masjid/data=!4m7!3m6!1s0x3b00ebf857ae2a73:0x5df1bb0f0b36672b!8m2!3d10.0312879!4d78.3382117!16s%2Fg%2F11v10h_zcl!19sChIJcyquV_jrADsRK2c2Cw-78V0?authuser=0&hl=en&rclk=1",
        "coordinates": {
            "latitude": 10.031287899999999,
            "longitude": 78.3382117
        }
    },
    {
        "name": "TNTJ Margas",
        "main_category": "Mosque",
        "address": "TNTJ Margas, 8/9, Trichy Main Rd, Melur, Tamil Nadu 625106",
        "detailed_address": {
            "ward": null,
            "street": "8/9, Trichy Main Rd",
            "city": "Melur",
            "postal_code": "625106",
            "state": "Tamil Nadu",
            "country_code": "IN"
        },
        "images": [
            {
                "about": "All",
                "link": "https://streetviewpixels-pa.googleapis.com/v1/thumbnail?panoid=rNjmIDafWwN2GXIEjzW-8w&cb_client=maps_sv.tactile.gps&w=224&h=298&yaw=59.33461&pitch=0&thumbfov=100"
            },
            {
                "about": "Street View & 360deg",
                "link": "https://streetviewpixels-pa.googleapis.com/v1/thumbnail?panoid=rNjmIDafWwN2GXIEjzW-8w&cb_client=maps_sv.tactile.gps&w=224&h=298&yaw=59.33461&pitch=0&thumbfov=100"
            }
        ],
        "link": "https://www.google.com/maps/place/TNTJ+Margas/data=!4m7!3m6!1s0x3b00ebb8d19efa39:0x9a0da4b9cb859c97!8m2!3d10.0315024!4d78.3428189!16s%2Fg%2F11qzcc9dgf!19sChIJOfqe0bjrADsRl5yFy7mkDZo?authuser=0&hl=en&rclk=1",
        "coordinates": {
            "latitude": 10.031502399999999,
            "longitude": 78.3428189
        }
    }
]