[
    {
        "name": "Jama Masjid",
        "main_category": "Mosque",
        "address": "Jama Masjid, Old Delhi, Delhi, 110006",
        "detailed_address": {
            "ward": "Jama Masjid, Old Delhi",
            "street": null,
            "city": "Delhi",
            "postal_code": "110006",
            "state": "Delhi",
            "country_code": "IN"
        },
        "images": [
            {
                "about": "All",
                "link": "https://lh5.googleusercontent.com/p/AF1QipMak1D51ms3fAec8Hv85TWzznlDqiSG6WVzH1oo=w447-h298-k-no"
            },
            {
                "about": "Latest",
                "link": "https://lh5.googleusercontent.com/p/AF1QipNNRpm0-dXpgV9oJsKWwcImDfg9o81awCWu2hlm=w224-h398-k-no"
            },
            {
                "about": "Videos",
                "link": "https://lh5.googleusercontent.com/p/AF1QipMlxs5wfHk0o905fntq2LudrTJLkjZky0yCrLHV=w529-h298-k-no"
            },
            {
                "about": "National Boot House",
                "link": "https://lh5.googleusercontent.com/p/AF1QipM5PMl5iJ13XFmdtykdBe9uqqkRj7XNcGjDk_Gd=w529-h298-k-no"
            },
            {
                "about": "Dome",
                "link": "https://lh5.googleusercontent.com/p/AF1QipN2U6zM28o9erhatzJ_mJpeLOkFiGCQiEtj0B9g=w274-h298-k-no"
            },
            {
                "about": "Street View & 360deg",
                "link": "https://lh5.googleusercontent.com/p/AF1QipPz_Omqh6xT1_brAdCRe0ER_BM8EZGxJGXxUSA=w224-h298-k-no-pi-30.000002-ya291.3302-ro-0-fo100"
            }
        ],
        "link": "https://www.google.com/maps/place/Jama+Masjid/data=!4m7!3m6!1s0x390cfd18df89b215:0xdd57369e29bf9d96!8m2!3d28.6506792!4d77.2334421!16zL20vMDR5emo1!19sChIJFbKJ3xj9DDkRlp2_KZ42V90?authuser=0&hl=en&rclk=1",
        "coordinates": {
            "latitude": 28.6506792,
            "longitude": 77.23344209999999
        }
    },
    {
        "name": "Jama Masjid Pahad Wali",
        "main_category": "Mosque",
        "address": "6254+5RH Jama Masjid Pahad Wali, Dhulawat, Haryana 122103",
        "detailed_address": {
            "ward": null,
            "street": "6254+5RH",
            "city": "Dhulawat",
            "postal_code": "122103",
            "state": "Haryana",
            "country_code": "IN"
        },
        "images": [
            {
                "about": "All",
                "link": "https://lh5.googleusercontent.com/p/AF1QipMem-Ad1mfxTDr7sEqU-jFipVsG6XXVctMOMsrh=w298-h298-k-no"
            },
            {
                "about": "Videos",
                "link": "https://lh5.googleusercontent.com/p/AF1QipMW6vVn0624Gu_UYc9iDOOC5s5jl0Q9qLPQ4PPJ=w224-h398-k-no"
            }
        ],
        "link": "https://www.google.com/maps/place/Jama+Masjid+Pahad+Wali/data=!4m7!3m6!1s0x390d31c853dbb6c7:0x99d544c1db6ccdd9!8m2!3d28.2079354!4d77.0071247!16s%2Fg%2F11gslvf4_z!19sChIJx7bbU8gxDTkR2c1s28FE1Zk?authuser=0&hl=en&rclk=1",
        "coordinates": {
            "latitude": 28.2079354,
            "longitude": 77.00712469999999
        }
    },
    {
        "name": "jaamaa msjid",
        "main_category": "Mosque",
        "address": "78QM+33R jaamaa msjid, Harpalpur, Madhya Pradesh 471111",
        "detailed_address": {
            "ward": null,
            "street": "78QM+33R",
            "city": "Harpalpur",
            "postal_code": null,
            "state": "Madhya Pradesh",
            "country_code": "IN"
        },
        "images": [],
        "link": "https://www.google.com/maps/place/%E0%A4%9C%E0%A4%BE%E0%A4%AE%E0%A4%BE+%E0%A4%AE%E0%A4%B8%E0%A5%8D%E0%A4%9C%E0%A4%BF%E0%A4%A6/data=!4m7!3m6!1s0x3977ff779c2d61e9:0xee22fd32fd41aa91!8m2!3d25.2877464!4d79.3326506!16s%2Fg%2F11hbpps5z8!19sChIJ6WEtnHf_dzkRkapB_TL9Iu4?authuser=0&hl=en&rclk=1",
        "coordinates": {
            "latitude": 25.2877464,
            "longitude": 79.3326506
        }
    },
    {
        "name": "Noori masjid",
        "main_category": "Place of worship",
        "address": "Noori masjid, Unnamed Road, Harpalpur, Madhya Pradesh 471111",
        "detailed_address": {
            "ward": null,
            "street": "Unnamed Road",
            "city": "Harpalpur",
            "postal_code": "471111",
            "state": "Madhya Pradesh",
            "country_code": "IN"
        },
        "images": [
            {
                "about": "All",
                "link": "https://lh5.googleusercontent.com/p/AF1QipNVxqVm8C3D-mH_iwkmCbm_LDIZdheSYnZUcYR1=w224-h480-k-no"
            },
            {
                "about": "Videos",
                "link": "https://lh5.googleusercontent.com/p/AF1QipNVxqVm8C3D-mH_iwkmCbm_LDIZdheSYnZUcYR1=w224-h480-k-no"
            }
        ],
        "link": "https://www.google.com/maps/place/Noori+masjid/data=!4m7!3m6!1s0x3977ff5f6ab23415:0x680969cb8dc5f975!8m2!3d25.2859168!4d79.3312318!16s%2Fg%2F11r52qw80m!19sChIJFTSyal__dzkRdfnFjctpCWg?authuser=0&hl=en&rclk=1",
        "coordinates": {
            "latitude": 25.2859168,
            "longitude": 79.3312318
        }
    },
    {
        "name": "Idgah Masjid Alipura",
        "main_category": "Mosque",
        "address": "58CW+8WX Idgah Masjid Alipura, Unnamed Road, Harpalpur, Madhya Pradesh 471111",
        "detailed_address": {
            "ward": null,
            "street": "58CW+8WX, Unnamed Road",
            "city": "Harpalpur",
            "postal_code": "471111",
            "state": "Madhya Pradesh",
            "country_code": "IN"
        },
        "images": [
            {
                "about": "All",
                "link": "https://lh5.googleusercontent.com/p/AF1QipM9RDy-TWgObbumRytajsfMAwS_1B0ocrmQymNr=w529-h298-k-no"
            }
        ],
        "link": "https://www.google.com/maps/place/Idgah+Masjid+Alipura/data=!4m7!3m6!1s0x39780706afd5558f:0x651b089263882528!8m2!3d25.1708551!4d79.3473714!16s%2Fg%2F11g_zqbrcl!19sChIJj1XVrwYHeDkRKCWIY5IIG2U?authuser=0&hl=en&rclk=1",
        "coordinates": {
            "latitude": 25.170855099999997,
            "longitude": 79.3473714
        }
    },
    {
        "name": "masjid",
        "main_category": "Mosque",
        "address": "8RFR+84P masjid, Harpalpur, Uttar Pradesh 241402",
        "detailed_address": {
            "ward": null,
            "street": "8RFR+84P",
            "city": "Harpalpur",
            "postal_code": "241402",
            "state": "Uttar Pradesh",
            "country_code": "IN"
        },
        "images": [
            {
                "about": "All",
                "link": "https://lh5.googleusercontent.com/p/AF1QipMnQluGVx3qmbM_iwH4obYFFnDb1rnEfAgvki6e=w224-h298-k-no"
            },
            {
                "about": "Dome",
                "link": "https://lh5.googleusercontent.com/p/AF1QipNsgo1w9f_BS0oD-wo0DHP0mhgkVoFz8N9iYv7z=w523-h298-k-no"
            }
        ],
        "link": "https://www.google.com/maps/place/masjid/data=!4m7!3m6!1s0x399e45d271a83e43:0x986def8d23cdaf58!8m2!3d27.323326!4d79.8403324!16s%2Fg%2F11g0217twz!19sChIJQz6ocdJFnjkRWK_NI43vbZg?authuser=0&hl=en&rclk=1",
        "coordinates": {
            "latitude": 27.323325999999998,
            "longitude": 79.8403324
        }
    },
    {
        "name": "Fatima masjid",
        "main_category": "Religious destination",
        "address": "8QXP+H3V Fatima masjid, Village khasaura, Harpalpur, Uttar Pradesh",
        "detailed_address": {
            "ward": null,
            "street": "8QXP+H3V, Village khasaura",
            "city": "Harpalpur, Khasaura",
            "postal_code": null,
            "state": "Uttar Pradesh",
            "country_code": "IN"
        },
        "images": [],
        "link": "https://www.google.com/maps/place/Fatima+masjid/data=!4m7!3m6!1s0x399e4739db5cf499:0xab51c5f219f114e7!8m2!3d27.3489965!4d79.785164!16s%2Fg%2F11mvsgvrcx!19sChIJmfRc2zlHnjkR5xTxGfLFUas?authuser=0&hl=en&rclk=1",
        "coordinates": {
            "latitude": 27.3489965,
            "longitude": 79.785164
        }
    },
    {
        "name": "Noorie Masjid",
        "main_category": "Mosque",
        "address": "379X+H2J Noorie Masjid, Harpalpur, Bihar 841231",
        "detailed_address": {
            "ward": null,
            "street": "379X+H2J",
            "city": "Harpalpur",
            "postal_code": "841231",
            "state": "Bihar",
            "country_code": "IN"
        },
        "images": [],
        "link": "https://www.google.com/maps/place/Noorie+Masjid/data=!4m7!3m6!1s0x3992f7b9df5ef2eb:0x4b144936712eb9f9!8m2!3d26.0689679!4d84.2975271!16s%2Fg%2F11q35qfsbb!19sChIJ6_Je37n3kjkR-bkucTZJFEs?authuser=0&hl=en&rclk=1",
        "coordinates": {
            "latitude": 26.0689679,
            "longitude": 84.2975271
        }
    },
    {
        "name": "Lodhi Era mosque",
        "main_category": "Mosque",
        "address": "G5GW+FHF Lodhi Era mosque, Bandalo Wala Mohalla, Lado Sarai, New Delhi, Delhi 110030",
        "detailed_address": {
            "ward": "Bandalo Wala Mohalla, Lado Sarai",
            "street": "G5GW+FHF",
            "city": "New Delhi",
            "postal_code": "110030",
            "state": "Delhi",
            "country_code": "IN"
        },
        "images": [
            {
                "about": "All",
                "link": "https://streetviewpixels-pa.googleapis.com/v1/thumbnail?panoid=dOu_Nk93oEUXoCorclQlDQ&cb_client=maps_sv.tactile.gps&w=224&h=298&yaw=242.42598&pitch=0&thumbfov=100"
            },
            {
                "about": "Dome",
                "link": "https://lh5.googleusercontent.com/p/AF1QipPvg-z11KDReuJRRcP7R2gUbYbmLzAQkEEXF14=w397-h298-k-no"
            },
            {
                "about": "Street View & 360deg",
                "link": "https://streetviewpixels-pa.googleapis.com/v1/thumbnail?panoid=dOu_Nk93oEUXoCorclQlDQ&cb_client=maps_sv.tactile.gps&w=224&h=298&yaw=242.42598&pitch=0&thumbfov=100"
            }
        ],
        "link": "https://www.google.com/maps/place/Lodhi+Era+mosque/data=!4m7!3m6!1s0x390ce15c919419c7:0x12fdbeabf2c0cb07!8m2!3d28.5261877!4d77.1964331!16s%2Fg%2F11fwzh6x3s!19sChIJxxmUkVzhDDkRB8vA8qu-_RI?authuser=0&hl=en&rclk=1",
        "coordinates": {
            "latitude": 28.526187699999998,
            "longitude": 77.1964331
        }
    }
]