[
    {
        "name": "jm` msjd hl snt w jm`t",
        "main_category": "Mosque",
        "address": "57QG+79F jm` msjd hl snt w jm`t, Jeweelery Lane, Baniya Para, Durg, Chhattisgarh 491001",
        "detailed_address": {
            "ward": "Baniya Para",
            "street": "57QG+79F, Jeweelery Lane",
            "city": "Durg",
            "postal_code": "491001",
            "state": "Chhattisgarh",
            "country_code": "IN"
        },
        "images": [
            {
                "about": "All",
                "link": "https://streetviewpixels-pa.googleapis.com/v1/thumbnail?panoid=gOUPZuhwQzYxlxwRFWnUKw&cb_client=maps_sv.tactile.gps&w=224&h=298&yaw=349.28464&pitch=0&thumbfov=100"
            },
            {
                "about": "Street View & 360deg",
                "link": "https://streetviewpixels-pa.googleapis.com/v1/thumbnail?panoid=gOUPZuhwQzYxlxwRFWnUKw&cb_client=maps_sv.tactile.gps&w=224&h=298&yaw=349.28464&pitch=0&thumbfov=100"
            }
        ],
        "link": "https://www.google.com/maps/place/%D8%AC%D8%A7%D9%85%D8%B9+%D9%85%D8%B3%D8%AC%D8%AF+%D8%A7%DA%BE%D9%84+%D8%B3%D9%86%D8%AA+%D9%88+%D8%AC%D9%85%D8%A7%D8%B9%D8%AA%E2%80%AD/data=!4m7!3m6!1s0x3a293c47b9ef8155:0xed74399496b8818f!8m2!3d21.1881938!4d81.2759274!16s%2Fg%2F1tj9rrzr!19sChIJVYHvuUc8KToRj4G4lpQ5dO0?authuser=0&hl=en&rclk=1",
        "coordinates": {
            "latitude": 21.1881938,
            "longitude": 81.2759274
        }
    },
    {
        "name": "jaamaa msjid",
        "main_category": "Mosque",
        "address": "57QG+78Q jaamaa msjid, Baniya Para, Durg, Chhattisgarh 491001",
        "detailed_address": {
            "ward": "Baniya Para",
            "street": "57QG+78Q",
            "city": "Durg",
            "postal_code": "491001",
            "state": "Chhattisgarh",
            "country_code": "IN"
        },
        "images": [
            {
                "about": "All",
                "link": "https://lh5.googleusercontent.com/p/AF1QipNHTwByw34IbzoA5Cmp-UkXkFvQFjNdP4Quw3Tt=w224-h336-k-no"
            },
            {
                "about": "Dome",
                "link": "https://lh5.googleusercontent.com/p/AF1QipP9WnSLn2AWBpoDMNDdmdr73ckD7pzc21qPZ4AP=w224-h298-k-no"
            },
            {
                "about": "Videos",
                "link": "https://lh5.googleusercontent.com/p/AF1QipNvryPkcCWpkMqbwfcdZ6EYHNIrhOsrFIXA_0IE=w224-h398-k-no"
            },
            {
                "about": "Street View & 360deg",
                "link": "https://streetviewpixels-pa.googleapis.com/v1/thumbnail?panoid=L9MCSVcPgsa04X3qbIspnQ&cb_client=maps_sv.tactile.gps&w=224&h=298&yaw=352.53146&pitch=0&thumbfov=100"
            }
        ],
        "link": "https://www.google.com/maps/place/%E0%A4%9C%E0%A4%BE%E0%A4%AE%E0%A4%BE+%E0%A4%AE%E0%A4%B8%E0%A5%8D%E0%A4%9C%E0%A4%BF%E0%A4%A6/data=!4m7!3m6!1s0x3a293c47b9977a9f:0x9c32339f94821580!8m2!3d21.1882116!4d81.2758453!16s%2Fg%2F11c2l9_gzc!19sChIJn3qXuUc8KToRgBWClJ8zMpw?authuser=0&hl=en&rclk=1",
        "coordinates": {
            "latitude": 21.1882116,
            "longitude": 81.2758453
        }
    },
    {
        "name": "Noori Masjid Kelabadi",
        "main_category": "Mosque",
        "address": "Noori Masjid Kelabadi, Noori Masjid, Mazar Road, Kelabadi, Durg, Chhattisgarh 491001, Kelabedi, Chhattisgarh 491001",
        "detailed_address": {
            "ward": null,
            "street": "Noori Masjid, Mazar Road, Kelabadi, Durg, Chhattisgarh 491001",
            "city": "Kelabedi, Durg",
            "postal_code": "491001",
            "state": "Chhattisgarh",
            "country_code": "IN"
        },
        "images": [
            {
                "about": "All",
                "link": "https://lh5.googleusercontent.com/p/AF1QipPJlizn2IqjDe41VFEUBpw7QyJfnsy1wk_Agv_-=w224-h398-k-no"
            },
            {
                "about": "Dome",
                "link": "https://lh5.googleusercontent.com/p/AF1QipNHeavCISealULxqOJeHBW95fXh3XhlQCGAiQfq=w224-h298-k-no"
            },
            {
                "about": "Videos",
                "link": "https://lh5.googleusercontent.com/p/AF1QipPDbFvFYqXE79EihjouqYa5t7AW6uW9hZ51ULzh=w224-h395-k-no"
            },
            {
                "about": "Street View & 360deg",
                "link": "https://streetviewpixels-pa.googleapis.com/v1/thumbnail?panoid=C2FKxUGRC9xgyHfsD5QCrg&cb_client=maps_sv.tactile.gps&w=224&h=298&yaw=282.36838&pitch=0&thumbfov=100"
            }
        ],
        "link": "https://www.google.com/maps/place/Noori+Masjid+Kelabadi/data=!4m7!3m6!1s0x3a293c5d30534393:0x842aa442ade49ae7!8m2!3d21.1800625!4d81.2853487!16s%2Fg%2F11c5439_gb!19sChIJk0NTMF08KToR55rkrUKkKoQ?authuser=0&hl=en&rclk=1",
        "coordinates": {
            "latitude": 21.1800625,
            "longitude": 81.2853487
        }
    },
    {
        "name": "MASJID KHAIRUL ANAAM",
        "main_category": "Mosque",
        "address": "57GP+C22 MASJID KHAIRUL ANAAM, Subhash Nagar,, Kelabedi, Chhattisgarh 491001",
        "detailed_address": {
            "ward": null,
            "street": "57GP+C22, Subhash Nagar,",
            "city": "Kelabedi, Subhash Nagar",
            "postal_code": "491001",
            "state": "Chhattisgarh",
            "country_code": "IN"
        },
        "images": [
            {
                "about": "All",
                "link": "https://lh5.googleusercontent.com/p/AF1QipN_fsmzjAyckBJp-7VJTCC0ed5-mLggzjqvoqsL=w528-h298-k-no"
            },
            {
                "about": "Street View & 360deg",
                "link": "https://streetviewpixels-pa.googleapis.com/v1/thumbnail?panoid=Hgr2MXE-NmLsJ21VI4Lsfw&cb_client=maps_sv.tactile.gps&w=224&h=298&yaw=137.7563&pitch=0&thumbfov=100"
            }
        ],
        "link": "https://www.google.com/maps/place/MASJID+KHAIRUL+ANAAM/data=!4m7!3m6!1s0x3a293c67d5fbd145:0x49c166ef7f38198e!8m2!3d21.1760051!4d81.2850047!16s%2Fg%2F11c5t0816z!19sChIJRdH71Wc8KToRjhk4f-9mwUk?authuser=0&hl=en&rclk=1",
        "coordinates": {
            "latitude": 21.176005099999998,
            "longitude": 81.2850047
        }
    },
    {
        "name": "HUDCO Masjid",
        "main_category": "Mosque",
        "address": "58V5+J43 HUDCO Masjid, Hudco Colony, Hudco, Bhilai, Chhattisgarh 490009",
        "detailed_address": {
            "ward": "Hudco Colony, Hudco",
            "street": "58V5+J43",
            "city": "Bhilai",
            "postal_code": "490009",
            "state": "Chhattisgarh",
            "country_code": "IN"
        },
        "images": [
            {
                "about": "All",
                "link": "https://streetviewpixels-pa.googleapis.com/v1/thumbnail?panoid=PS12sq3Y41sZfhjXaU_QOw&cb_client=maps_sv.tactile.gps&w=224&h=298&yaw=345.52142&pitch=0&thumbfov=100"
            },
            {
                "about": "Street View & 360deg",
                "link": "https://streetviewpixels-pa.googleapis.com/v1/thumbnail?panoid=PS12sq3Y41sZfhjXaU_QOw&cb_client=maps_sv.tactile.gps&w=224&h=298&yaw=345.52142&pitch=0&thumbfov=100"
            }
        ],
        "link": "https://www.google.com/maps/place/HUDCO+Masjid/data=!4m7!3m6!1s0x3a293ce52502f881:0x5d2a89a44b973e4!8m2!3d21.194!4d81.3077979!16s%2Fg%2F1tglfr5g!19sChIJgfgCJeU8KToR5HO5RJqo0gU?authuser=0&hl=en&rclk=1",
        "coordinates": {
            "latitude": 21.194,
            "longitude": 81.3077979
        }
    },
    {
        "name": "Masjid Abu Bakar Markaj takiya para durg",
        "main_category": "Mosque",
        "address": "57VH+2W6 Masjid Abu Bakar Markaj takiya para durg, Takiya Para, Durg, Chhattisgarh 491001",
        "detailed_address": {
            "ward": "Takiya Para",
            "street": "57VH+2W6",
            "city": "Durg",
            "postal_code": "491001",
            "state": "Chhattisgarh",
            "country_code": "IN"
        },
        "images": [
            {
                "about": "All",
                "link": "https://lh5.googleusercontent.com/p/AF1QipO2k2qAZlOs_VqH_AZNSRE-Uvnyjm7b5eGSg6pa=w397-h298-k-no"
            },
            {
                "about": "Videos",
                "link": "https://lh5.googleusercontent.com/p/AF1QipN1quqM4rNjN-dGXGUuXmnYmPeTh-W0ihUZPgT3=w224-h398-k-no"
            }
        ],
        "link": "https://www.google.com/maps/place/Masjid+Abu+Bakar+Markaj+takiya+para+durg/data=!4m7!3m6!1s0x3a293c4f2e7f2379:0x6ebc13dc2ffd95b!8m2!3d21.1925313!4d81.2797606!16s%2Fg%2F11df3wvgsj!19sChIJeSN_Lk88KToRW9n_wj3B6wY?authuser=0&hl=en&rclk=1",
        "coordinates": {
            "latitude": 21.1925313,
            "longitude": 81.2797606
        }
    },
    {
        "name": "Aqsa Masjid",
        "main_category": "Mosque",
        "address": "57VJ+277 Aqsa Masjid, Takiya Para, Durg, Chhattisgarh 491001",
        "detailed_address": {
            "ward": "Takiya Para",
            "street": "57VJ+277",
            "city": "Durg",
            "postal_code": "491001",
            "state": "Chhattisgarh",
            "country_code": "IN"
        },
        "images": [],
        "link": "https://www.google.com/maps/place/Aqsa+Masjid/data=!4m7!3m6!1s0x3a293c4f30c65897:0xd2a8e4cbed0d0fa!8m2!3d21.1925349!4d81.2806591!16s%2Fg%2F1pyqjs52k!19sChIJl1jGME88KToR-tDQvkyOKg0?authuser=0&hl=en&rclk=1",
        "coordinates": {
            "latitude": 21.1925349,
            "longitude": 81.2806591
        }
    },
    {
        "name": "Madina Masjid",
        "main_category": "Mosque",
        "address": "57XW+RR5 Madina Masjid, Katulbod, Durg, Chhattisgarh 491001",
        "detailed_address": {
            "ward": "Katulbod",
            "street": "57XW+RR5",
            "city": "Durg",
            "postal_code": "491001",
            "state": "Chhattisgarh",
            "country_code": "IN"
        },
        "images": [
            {
                "about": "All",
                "link": "https://streetviewpixels-pa.googleapis.com/v1/thumbnail?panoid=T9l1NsRZphYR3Inl-8Bx4g&cb_client=maps_sv.tactile.gps&w=224&h=298&yaw=261.57397&pitch=0&thumbfov=100"
            },
            {
                "about": "Street View & 360deg",
                "link": "https://streetviewpixels-pa.googleapis.com/v1/thumbnail?panoid=T9l1NsRZphYR3Inl-8Bx4g&cb_client=maps_sv.tactile.gps&w=224&h=298&yaw=261.57397&pitch=0&thumbfov=100"
            }
        ],
        "link": "https://www.google.com/maps/place/Madina+Masjid/data=!4m7!3m6!1s0x3a293cff738ffe73:0xf84fea6053e1f2d6!8m2!3d21.1995124!4d81.2971207!16s%2Fg%2F1hm5b4d7p!19sChIJc_6Pc_88KToR1vLhU2DqT_g?authuser=0&hl=en&rclk=1",
        "coordinates": {
            "latitude": 21.1995124,
            "longitude": 81.2971207
        }
    },
    {
        "name": "Masjid Mohammadi",
        "main_category": "Mosque",
        "address": "57JR+H2X Masjid Mohammadi, Durg,, Padmanabhpur, Chhattisgarh 491001",
        "detailed_address": {
            "ward": null,
            "street": "57JR+H2X, Durg,",
            "city": "Padmanabhpur, Durg",
            "postal_code": "491001",
            "state": "Chhattisgarh",
            "country_code": "IN"
        },
        "images": [
            {
                "about": "All",
                "link": "https://lh5.googleusercontent.com/p/AF1QipPmuTAeYJzQVOc5EYd6Qeo-4CDhqTH-81eCrJK9=w397-h298-k-no"
            }
        ],
        "link": "https://www.google.com/maps/place/Masjid+Mohammadi/data=!4m7!3m6!1s0x3a293c5dd40538e5:0xf9845a1107a5138b!8m2!3d21.1814828!4d81.2901115!16s%2Fg%2F11c2qtx70q!19sChIJ5TgF1F08KToRixOlBxFahPk?authuser=0&hl=en&rclk=1",
        "coordinates": {
            "latitude": 21.181482799999998,
            "longitude": 81.2901115
        }
    },
    {
        "name": "masjid",
        "main_category": "Mosque",
        "address": "675M+PP4 masjid, Jayanti Nagar, Sikola Bhata, Durg, Chhattisgarh 491001",
        "detailed_address": {
            "ward": "Jayanti Nagar",
            "street": "675M+PP4",
            "city": "Sikola Bhata, Durg",
            "postal_code": "491001",
            "state": "Chhattisgarh",
            "country_code": "IN"
        },
        "images": [
            {
                "about": "All",
                "link": "https://streetviewpixels-pa.googleapis.com/v1/thumbnail?panoid=P0QLud7ZUBN-TSppQqL3wg&cb_client=maps_sv.tactile.gps&w=224&h=298&yaw=264.29565&pitch=0&thumbfov=100"
            },
            {
                "about": "Street View & 360deg",
                "link": "https://streetviewpixels-pa.googleapis.com/v1/thumbnail?panoid=P0QLud7ZUBN-TSppQqL3wg&cb_client=maps_sv.tactile.gps&w=224&h=298&yaw=264.29565&pitch=0&thumbfov=100"
            }
        ],
        "link": "https://www.google.com/maps/place/masjid/data=!4m7!3m6!1s0x3a293d0920fdbeed:0x2c8a3a4aed4a6214!8m2!3d21.2092557!4d81.2843202!16s%2Fg%2F11g0h_0ysy!19sChIJ7b79IAk9KToRFGJK7Uo6iiw?authuser=0&hl=en&rclk=1",
        "coordinates": {
            "latitude": 21.2092557,
            "longitude": 81.2843202
        }
    },
    {
        "name": "Madina Masjid",
        "main_category": "Mosque",
        "address": "672X+WH3 Madina Masjid, Titurdiha Durg, Durg, Chhattisgarh 491001",
        "detailed_address": {
            "ward": null,
            "street": "672X+WH3",
            "city": "Titurdiha Durg, Durg",
            "postal_code": "491001",
            "state": "Chhattisgarh",
            "country_code": "IN"
        },
        "images": [],
        "link": "https://www.google.com/maps/place/Madina+Masjid/data=!4m7!3m6!1s0x3a293cfe2d8a6b35:0x399c46b98b096b49!8m2!3d21.2022609!4d81.2989186!16s%2Fg%2F11g6b32s0s!19sChIJNWuKLf48KToRSWsJi7lGnDk?authuser=0&hl=en&rclk=1",
        "coordinates": {
            "latitude": 21.2022609,
            "longitude": 81.2989186
        }
    },
    {
        "name": "Hazrat Bilal Masjid",
        "main_category": "Mosque",
        "address": "58V4+XVR Hazrat Bilal Masjid, Hudco Colony, Hudco, Titurdiha, Bhilai, Chhattisgarh 491001",
        "detailed_address": {
            "ward": "Hudco Colony, Hudco",
            "street": "58V4+XVR",
            "city": "Titurdiha, Bhilai",
            "postal_code": "491001",
            "state": "Chhattisgarh",
            "country_code": "IN"
        },
        "images": [
            {
                "about": "All",
                "link": "https://lh5.googleusercontent.com/p/AF1QipNKqlnxO66htoQXTd9kKpACJMmdJG1I2V2BiuU_=w529-h298-k-no"
            },
            {
                "about": "Street View & 360deg",
                "link": "https://streetviewpixels-pa.googleapis.com/v1/thumbnail?panoid=kUMUjtNnFNhm5cs9nTIc-A&cb_client=maps_sv.tactile.gps&w=224&h=298&yaw=212.35085&pitch=0&thumbfov=100"
            }
        ],
        "link": "https://www.google.com/maps/place/Hazrat+Bilal+Masjid/data=!4m7!3m6!1s0x3a293dd3fe1274a5:0xf06c168f66325baa!8m2!3d21.1949851!4d81.3071379!16s%2Fg%2F11ghpzhss8!19sChIJpXQS_tM9KToRqlsyZo8WbPA?authuser=0&hl=en&rclk=1",
        "coordinates": {
            "latitude": 21.1949851,
            "longitude": 81.3071379
        }
    },
    {
        "name": "Masjid-E-Gausulwara",
        "main_category": "Mosque",
        "address": "577R+64H Masjid-E-Gausulwara, Durg, Chhattisgarh 491001",
        "detailed_address": {
            "ward": null,
            "street": "577R+64H",
            "city": "Durg",
            "postal_code": "491001",
            "state": "Chhattisgarh",
            "country_code": "IN"
        },
        "images": [
            {
                "about": "All",
                "link": "https://lh5.googleusercontent.com/p/AF1QipNDADfpDH9hhaYL8hyDKjFTa2V2jpoRTzA_rpp6=w397-h298-k-no"
            }
        ],
        "link": "https://www.google.com/maps/place/Masjid-E-Gausulwara/data=!4m7!3m6!1s0x3a293de65a44e5e5:0x1a491842e7859ea1!8m2!3d21.1630703!4d81.290345!16s%2Fg%2F11rl8yvrgl!19sChIJ5eVEWuY9KToRoZ6F50IYSRo?authuser=0&hl=en&rclk=1",
        "coordinates": {
            "latitude": 21.163070299999998,
            "longitude": 81.290345
        }
    },
    {
        "name": "Aksha masjid",
        "main_category": "Mosque",
        "address": "57RJ+X5Q Aksha masjid, Takiya Para, Durg, Chhattisgarh 491001",
        "detailed_address": {
            "ward": "Takiya Para",
            "street": "57RJ+X5Q",
            "city": "Durg",
            "postal_code": "491001",
            "state": "Chhattisgarh",
            "country_code": "IN"
        },
        "images": [
            {
                "about": "All",
                "link": "https://lh5.googleusercontent.com/p/AF1QipPUuYitQvr5Gi4LDYiM96tos5NAhIbsUYJZ05nM=w224-h497-k-no"
            },
            {
                "about": "Dome",
                "link": "https://lh5.googleusercontent.com/p/AF1QipOjT4TkF0U5yfhxfyWorMxlcL4EEtvq4bifpLEl=w224-h398-k-no"
            }
        ],
        "link": "https://www.google.com/maps/place/Aksha+masjid/data=!4m7!3m6!1s0x3a293d5ba1ef60f7:0xec3aa94946515cb5!8m2!3d21.1924702!4d81.2804798!16s%2Fg%2F11fmzsmm57!19sChIJ92DvoVs9KToRtVxRRkmpOuw?authuser=0&hl=en&rclk=1",
        "coordinates": {
            "latitude": 21.1924702,
            "longitude": 81.2804798
        }
    },
    {
        "name": "Hazrat Jalaluddin kutub sarkaar durg",
        "main_category": "Mosque",
        "address": "Hazrat Jalaluddin kutub sarkaar durg, Gandhi Chowk, Shanichari Bazar, Durg, Chhattisgarh 491001",
        "detailed_address": {
            "ward": "Shanichari Bazar",
            "street": "Gandhi Chowk",
            "city": "Durg",
            "postal_code": "491001",
            "state": "Chhattisgarh",
            "country_code": "IN"
        },
        "images": [
            {
                "about": "All",
                "link": "https://lh5.googleusercontent.com/p/AF1QipNyxgkZe8NzFWdEr3Y4BXseuLLpVHDOuWXDTKJr=w224-h497-k-no"
            },
            {
                "about": "Street View & 360deg",
                "link": "https://streetviewpixels-pa.googleapis.com/v1/thumbnail?panoid=ZtwmOoUiui3rYksrHqh_ew&cb_client=maps_sv.tactile.gps&w=224&h=298&yaw=133.1889&pitch=0&thumbfov=100"
            }
        ],
        "link": "https://www.google.com/maps/place/Hazrat+Jalaluddin+kutub+sarkaar+durg/data=!4m7!3m6!1s0x3a293d41105647d5:0x2418607a821661e8!8m2!3d21.1888013!4d81.2746589!16s%2Fg%2F11rd9grgc0!19sChIJ1UdWEEE9KToR6GEWgnpgGCQ?authuser=0&hl=en&rclk=1",
        "coordinates": {
            "latitude": 21.188801299999998,
            "longitude": 81.27465889999999
        }
    },
    {
        "name": "GATE FOR DARGAH",
        "main_category": "Mosque",
        "address": "57PG+9GW GATE FOR DARGAH, Station Road, Shanichari Bazar, Durg, Chhattisgarh 491001",
        "detailed_address": {
            "ward": "Shanichari Bazar",
            "street": "57PG+9GW, Station Road",
            "city": "Durg",
            "postal_code": "491001",
            "state": "Chhattisgarh",
            "country_code": "IN"
        },
        "images": [
            {
                "about": "All",
                "link": "https://lh5.googleusercontent.com/p/AF1QipPoweMM03RaXiTUB-lXS7vZjMokIUHHw83m-4r2=w239-h298-k-no"
            },
            {
                "about": "Dome",
                "link": "https://lh5.googleusercontent.com/p/AF1QipNwih-AxV8I6iWFYijxMpMKE8u1kR4_5_iwzlQl=w541-h298-k-no"
            },
            {
                "about": "Videos",
                "link": "https://lh5.googleusercontent.com/p/AF1QipMt-rrF54XX1SgMIGvqeSTgM5FFh0L2OC2JtNZv=w224-h315-k-no"
            },
            {
                "about": "Street View & 360deg",
                "link": "https://streetviewpixels-pa.googleapis.com/v1/thumbnail?panoid=9XIo3RvhqRznC7OIg3wCIQ&cb_client=maps_sv.tactile.gps&w=224&h=298&yaw=331.90527&pitch=0&thumbfov=100"
            }
        ],
        "link": "https://www.google.com/maps/place/GATE+FOR+DARGAH/data=!4m7!3m6!1s0x3a293d8266e8b21d:0xe6bded7ad0fc5edc!8m2!3d21.1859968!4d81.2763377!16s%2Fg%2F11r9tkk4bz!19sChIJHbLoZoI9KToR3F780HrtveY?authuser=0&hl=en&rclk=1",
        "coordinates": {
            "latitude": 21.185996799999998,
            "longitude": 81.2763377
        }
    },
    {
        "name": "Abubakar siddiq razi tala anu",
        "main_category": "Mosque",
        "address": "57VH+2R6 Abubakar siddiq razi tala anu, Takiya Para, Durg, Chhattisgarh 491001",
        "detailed_address": {
            "ward": "Takiya Para",
            "street": "57VH+2R6",
            "city": "Durg",
            "postal_code": "491001",
            "state": "Chhattisgarh",
            "country_code": "IN"
        },
        "images": [
            {
                "about": "All",
                "link": "https://lh5.googleusercontent.com/p/AF1QipNymb2bmvnYt3Q0QkndK5qoaDFNzlHz58XceyMP=w224-h298-k-no"
            }
        ],
        "link": "https://www.google.com/maps/place/Abubakar+siddiq+razi+tala+anu/data=!4m7!3m6!1s0x3a293d52f492f90f:0x5b2acfd9d10574eb!8m2!3d21.1925487!4d81.2795142!16s%2Fg%2F11fm5yn98n!19sChIJD_mS9FI9KToR63QF0dnPKls?authuser=0&hl=en&rclk=1",
        "coordinates": {
            "latitude": 21.1925487,
            "longitude": 81.2795142
        }
    },
    {
        "name": "Sanjari Madarsa Masjid",
        "main_category": "Religious institution",
        "address": "675M+MPW Sanjari Madarsa Masjid, Jayanti Nagar, Durg, Chhattisgarh 491001",
        "detailed_address": {
            "ward": "Jayanti Nagar",
            "street": "675M+MPW",
            "city": "Durg",
            "postal_code": "491001",
            "state": "Chhattisgarh",
            "country_code": "IN"
        },
        "images": [
            {
                "about": "All",
                "link": "https://streetviewpixels-pa.googleapis.com/v1/thumbnail?panoid=P0QLud7ZUBN-TSppQqL3wg&cb_client=maps_sv.tactile.gps&w=224&h=298&yaw=255.43697&pitch=0&thumbfov=100"
            },
            {
                "about": "Street View & 360deg",
                "link": "https://streetviewpixels-pa.googleapis.com/v1/thumbnail?panoid=P0QLud7ZUBN-TSppQqL3wg&cb_client=maps_sv.tactile.gps&w=224&h=298&yaw=255.43697&pitch=0&thumbfov=100"
            }
        ],
        "link": "https://www.google.com/maps/place/Sanjari+Madarsa+Masjid/data=!4m7!3m6!1s0x3a293da1742498b7:0xe0cac554de18b22f!8m2!3d21.2092343!4d81.2843265!16s%2Fg%2F11s3gt1392!19sChIJt5gkdKE9KToRL7IY3lTFyuA?authuser=0&hl=en&rclk=1",
        "coordinates": {
            "latitude": 21.2092343,
            "longitude": 81.28432649999999
        }
    }
]