[
    {
        "name": "Kamra Nawaban Madarsa Masjid",
        "main_category": "Mosque",
        "address": "4JX3+VM5 Kamra Nawaban Madarsa Masjid, Sardhana, Uttar Pradesh 250342",
        "detailed_address": {
            "ward": null,
            "street": "4JX3+VM5",
            "city": "Sardhana",
            "postal_code": "250342",
            "state": "Uttar Pradesh",
            "country_code": "IN"
        },
        "images": [
            {
                "about": "All",
                "link": "https://lh5.googleusercontent.com/p/AF1QipMB3LrWe920ja4MONlAKv4oatHkx5G--sh8mWe-=w397-h298-k-no"
            },
            {
                "about": "Videos",
                "link": "https://lh5.googleusercontent.com/p/AF1QipOj5Kvaok0oJ7cAlPkwNcdbr0QFiIX9y_Gy7_Pa=w224-h398-k-no"
            }
        ],
        "link": "https://www.google.com/maps/place/Kamra+Nawaban+Madarsa+Masjid/data=!4m7!3m6!1s0x390c6a4c52ac72df:0xf975fe65bc047d75!8m2!3d29.1496447!4d77.6042301!16s%2Fg%2F11c2j8fgtv!19sChIJ33KsUkxqDDkRdX0EvGX-dfk?authuser=0&hl=en&rclk=1",
        "coordinates": {
            "latitude": 29.1496447,
            "longitude": 77.6042301
        }
    },
    {
        "name": "Tehsil Wali Masjid",
        "main_category": "Mosque",
        "address": "4JW9+PQ2 Tehsil Wali Masjid, Sardhana, Uttar Pradesh 250342",
        "detailed_address": {
            "ward": null,
            "street": "4JW9+PQ2",
            "city": "Sardhana",
            "postal_code": "250342",
            "state": "Uttar Pradesh",
            "country_code": "IN"
        },
        "images": [
            {
                "about": "All",
                "link": "https://streetviewpixels-pa.googleapis.com/v1/thumbnail?panoid=NlbvWfL1jUtjOxcNwBq-KA&cb_client=maps_sv.tactile.gps&w=224&h=298&yaw=41.95977&pitch=0&thumbfov=100"
            },
            {
                "about": "Street View & 360deg",
                "link": "https://streetviewpixels-pa.googleapis.com/v1/thumbnail?panoid=NlbvWfL1jUtjOxcNwBq-KA&cb_client=maps_sv.tactile.gps&w=224&h=298&yaw=41.95977&pitch=0&thumbfov=100"
            }
        ],
        "link": "https://www.google.com/maps/place/Tehsil+Wali+Masjid/data=!4m7!3m6!1s0x390c6bb9e00fb617:0x998796437fa405d5!8m2!3d29.1467595!4d77.61938!16s%2Fg%2F11g9q1q7x7!19sChIJF7YP4LlrDDkR1QWkf0OWh5k?authuser=0&hl=en&rclk=1",
        "coordinates": {
            "latitude": 29.146759499999998,
            "longitude": 77.61937999999999
        }
    },
    {
        "name": "Masjid Oqba",
        "main_category": "Mosque",
        "address": "4JX7+53W Masjid Oqba, Mohalla Jogiyan, Sardhana, Uttar Pradesh 250342",
        "detailed_address": {
            "ward": "Mohalla Jogiyan",
            "street": "4JX7+53W",
            "city": "Sardhana",
            "postal_code": "250342",
            "state": "Uttar Pradesh",
            "country_code": "IN"
        },
        "images": [
            {
                "about": "All",
                "link": "https://lh5.googleusercontent.com/p/AF1QipP0dLa_OpODyN2SDcZVUBP3nXDPgthGp4Sh2hGy=w224-h298-k-no"
            },
            {
                "about": "Dome",
                "link": "https://lh5.googleusercontent.com/p/AF1QipMZPi3wY8a8PQGuS2uca_ymDd_3zV6YwF2MNRkw=w224-h298-k-no"
            }
        ],
        "link": "https://www.google.com/maps/place/Masjid+Oqba/data=!4m7!3m6!1s0x390c6bb3f0b81dbf:0x76d70c36b85a05bd!8m2!3d29.147996!4d77.6127139!16s%2Fg%2F11ddyk3lhj!19sChIJvx248LNrDDkRvQVauDYM13Y?authuser=0&hl=en&rclk=1",
        "coordinates": {
            "latitude": 29.147996,
            "longitude": 77.6127139
        }
    },
    {
        "name": "Noor Masjid Kila",
        "main_category": "Mosque",
        "address": "4JX6+87R Noor Masjid Kila, Mohalla Kila khewan, Sardhana, Uttar Pradesh 250342",
        "detailed_address": {
            "ward": null,
            "street": "4JX6+87R, Mohalla Kila khewan",
            "city": "Sardhana",
            "postal_code": "250342",
            "state": "Uttar Pradesh",
            "country_code": "IN"
        },
        "images": [
            {
                "about": "All",
                "link": "https://lh5.googleusercontent.com/p/AF1QipO72s5qyvZRQH90UwOYHaqlhWxkrR2YabmCr_3l=w224-h298-k-no"
            }
        ],
        "link": "https://www.google.com/maps/place/Noor+Masjid+Kila/data=!4m7!3m6!1s0x390c6bb37621487b:0x20caa6f8ebb6f362!8m2!3d29.1483626!4d77.6106338!16s%2Fg%2F11g9q_tvx3!19sChIJe0ghdrNrDDkRYvO26_imyiA?authuser=0&hl=en&rclk=1",
        "coordinates": {
            "latitude": 29.1483626,
            "longitude": 77.6106338
        }
    },
    {
        "name": "Masjid Abu Ayyub Ansari, Takiya kait",
        "main_category": "Mosque",
        "address": "4JV7+2R2 Masjid Abu Ayyub Ansari, Takiya kait, Sardhana, Uttar Pradesh 250342",
        "detailed_address": {
            "ward": null,
            "street": "4JV7+2R2",
            "city": "Sardhana",
            "postal_code": "250342",
            "state": "Uttar Pradesh",
            "country_code": "IN"
        },
        "images": [
            {
                "about": "All",
                "link": "https://lh5.googleusercontent.com/p/AF1QipOrurI0ILM-3ymaE8ufzgIEZ-2jQcLoKgh1WPpG=w224-h497-k-no"
            },
            {
                "about": "Dome",
                "link": "https://lh5.googleusercontent.com/p/AF1QipM6zxyMBY84IiMhkn5q4pdHjQfLYQkj_3fHUmlq=w224-h298-k-no"
            },
            {
                "about": "Videos",
                "link": "https://lh5.googleusercontent.com/p/AF1QipNn0RRv3_e5CVWziWAws_fh29DSKBrj_pJ9iy5k=w224-h398-k-no"
            },
            {
                "about": "Street View & 360deg",
                "link": "https://streetviewpixels-pa.googleapis.com/v1/thumbnail?panoid=akxSBx9IOHDJcDVTeZey_w&cb_client=maps_sv.tactile.gps&w=224&h=298&yaw=289.29404&pitch=0&thumbfov=100"
            }
        ],
        "link": "https://www.google.com/maps/place/Masjid+Abu+Ayyub+Ansari,+Takiya+kait/data=!4m7!3m6!1s0x390c6bb61bc42697:0x5390e33d69c500d2!8m2!3d29.1425173!4d77.614524!16s%2Fg%2F11c5zv62j3!19sChIJlybEG7ZrDDkR0gDFaT3jkFM?authuser=0&hl=en&rclk=1",
        "coordinates": {
            "latitude": 29.142517299999998,
            "longitude": 77.614524
        }
    },
    {
        "name": "Masjid Ali",
        "main_category": "Mosque",
        "address": "4JX7+P5J Masjid Ali, mohalla dharampura, Sardhana, Uttar Pradesh 250342",
        "detailed_address": {
            "ward": null,
            "street": "4JX7+P5J, mohalla dharampura",
            "city": "Sardhana",
            "postal_code": "250342",
            "state": "Uttar Pradesh",
            "country_code": "IN"
        },
        "images": [
            {
                "about": "All",
                "link": "https://lh5.googleusercontent.com/p/AF1QipMypRrmtWTcSVedARcwQCOvULREn0Z_kNqMg-mW=w397-h298-k-no"
            },
            {
                "about": "Street View & 360deg",
                "link": "https://streetviewpixels-pa.googleapis.com/v1/thumbnail?panoid=n5lv5SYMsUeVxxf_6pguMA&cb_client=maps_sv.tactile.gps&w=224&h=298&yaw=349.15613&pitch=0&thumbfov=100"
            },
            {
                "about": "Videos",
                "link": "https://lh5.googleusercontent.com/p/AF1QipOIsKNfAn1OZHUT-W4eB-s3hl01Ciyg3V-U9uAZ=w224-h398-k-no"
            }
        ],
        "link": "https://www.google.com/maps/place/Masjid+Ali/data=!4m7!3m6!1s0x390c6bb3dc96e02b:0xf8c3de0afd8721ad!8m2!3d29.1493433!4d77.6129053!16s%2Fg%2F11c80hj1hw!19sChIJK-CW3LNrDDkRrSGH_Qrew_g?authuser=0&hl=en&rclk=1",
        "coordinates": {
            "latitude": 29.149343299999998,
            "longitude": 77.6129053
        }
    },
    {
        "name": "Masjid Buddha Babu",
        "main_category": "Mosque",
        "address": "4JW3+FV6 Masjid Buddha Babu, Sardhana, Uttar Pradesh 250342",
        "detailed_address": {
            "ward": null,
            "street": "4JW3+FV6",
            "city": "Sardhana",
            "postal_code": "250342",
            "state": "Uttar Pradesh",
            "country_code": "IN"
        },
        "images": [],
        "link": "https://www.google.com/maps/place/Masjid+Buddha+Babu/data=!4m7!3m6!1s0x390c6a4b9cad40f5:0xfcce1daf8a677227!8m2!3d29.1461505!4d77.6046304!16s%2Fg%2F11f01v52xl!19sChIJ9UCtnEtqDDkRJ3Jniq8dzvw?authuser=0&hl=en&rclk=1",
        "coordinates": {
            "latitude": 29.146150499999997,
            "longitude": 77.60463039999999
        }
    },
    {
        "name": "Jama Masjid (Marquaz)",
        "main_category": "Mosque",
        "address": "4JV7+H5W Jama Masjid (Marquaz), Sardhana, Uttar Pradesh 250342",
        "detailed_address": {
            "ward": null,
            "street": "4JV7+H5W",
            "city": "Sardhana",
            "postal_code": "250342",
            "state": "Uttar Pradesh",
            "country_code": "IN"
        },
        "images": [
            {
                "about": "All",
                "link": "https://lh5.googleusercontent.com/p/AF1QipPVqTYI0-wndXLnKGc7VXDMTBmIf1LI9ze0iGSv=w224-h398-k-no"
            },
            {
                "about": "Street View & 360deg",
                "link": "https://streetviewpixels-pa.googleapis.com/v1/thumbnail?panoid=pb1KOFfuEuwRiEHWsI0MQA&cb_client=maps_sv.tactile.gps&w=224&h=298&yaw=299.338&pitch=0&thumbfov=100"
            },
            {
                "about": "Videos",
                "link": "https://lh5.googleusercontent.com/p/AF1QipP2wRZI3CxTdI6OhDCzGcFrJvv3fxsDt8RKt2H8=w224-h398-k-no"
            }
        ],
        "link": "https://www.google.com/maps/place/Jama+Masjid+%28Marquaz%29/data=!4m7!3m6!1s0x390c6bb5da88b761:0xcb74fbc1dc5b8352!8m2!3d29.1439908!4d77.612959!16s%2Fg%2F11c2n9zqmx!19sChIJYbeI2rVrDDkRUoNb3MH7dMs?authuser=0&hl=en&rclk=1",
        "coordinates": {
            "latitude": 29.143990799999997,
            "longitude": 77.612959
        }
    },
    {
        "name": "Sunehri masjid",
        "main_category": "Mosque",
        "address": "4HWX+4R7 Sunehri masjid, Sardhana, Uttar Pradesh 250342",
        "detailed_address": {
            "ward": null,
            "street": "4HWX+4R7",
            "city": "Sardhana",
            "postal_code": "250342",
            "state": "Uttar Pradesh",
            "country_code": "IN"
        },
        "images": [
            {
                "about": "All",
                "link": "https://lh5.googleusercontent.com/p/AF1QipNSNtkTgUW5ZErjbw5VavLb4_zqE3wk6c3sSHqq=w224-h472-k-no"
            },
            {
                "about": "Videos",
                "link": "https://lh5.googleusercontent.com/p/AF1QipOLHjYXKzBJWCzovVHS1u0d3bulnb9F5cCOQfIs=w224-h398-k-no"
            }
        ],
        "link": "https://www.google.com/maps/place/Sunehri+masjid/data=!4m7!3m6!1s0x390c6a492410bbf7:0xdcd60ee11f95e889!8m2!3d29.1452838!4d77.5995431!16s%2Fg%2F11cr_9vmsw!19sChIJ97sQJElqDDkRieiVH-EO1tw?authuser=0&hl=en&rclk=1",
        "coordinates": {
            "latitude": 29.145283799999998,
            "longitude": 77.59954309999999
        }
    },
    {
        "name": "Madina Masjid",
        "main_category": "Mosque",
        "address": "5J26+4FP Madina Masjid, Sardhana, Uttar Pradesh 250342",
        "detailed_address": {
            "ward": null,
            "street": "5J26+4FP",
            "city": "Sardhana",
            "postal_code": "250342",
            "state": "Uttar Pradesh",
            "country_code": "IN"
        },
        "images": [
            {
                "about": "All",
                "link": "https://lh5.googleusercontent.com/p/AF1QipNZGV9fmHclywxzx7WBn4_VHAjUWcbHyAyosR0V=w496-h298-k-no"
            },
            {
                "about": "Videos",
                "link": "https://lh5.googleusercontent.com/p/AF1QipPX1StV_slZkQo9mmieqHEnk_9DMSwZyFGkEU1I=w224-h398-k-no"
            }
        ],
        "link": "https://www.google.com/maps/place/Madina+Masjid/data=!4m7!3m6!1s0x390c6bb252d6658b:0x203957e4fdb2b44f!8m2!3d29.1503385!4d77.6111967!16s%2Fg%2F11df5xx1xr!19sChIJi2XWUrJrDDkRT7Sy_eRXOSA?authuser=0&hl=en&rclk=1",
        "coordinates": {
            "latitude": 29.1503385,
            "longitude": 77.6111967
        }
    },
    {
        "name": "Masjid Aaysha",
        "main_category": "Mosque",
        "address": "4JX5+GPC Masjid Aaysha, Mohalla Kila, Sardhana, Uttar Pradesh 250342",
        "detailed_address": {
            "ward": "Mohalla Kila",
            "street": "4JX5+GPC",
            "city": "Sardhana",
            "postal_code": "250342",
            "state": "Uttar Pradesh",
            "country_code": "IN"
        },
        "images": [],
        "link": "https://www.google.com/maps/place/Masjid+Aaysha/data=!4m7!3m6!1s0x390c6bb3395da711:0x70cb0ef749f11833!8m2!3d29.1488023!4d77.6092544!16s%2Fg%2F11fy5dkcyc!19sChIJEaddObNrDDkRMxjxSfcOy3A?authuser=0&hl=en&rclk=1",
        "coordinates": {
            "latitude": 29.1488023,
            "longitude": 77.6092544
        }
    },
    {
        "name": "Makki Masjid Kumharan",
        "main_category": "Mosque",
        "address": "4JV8+RQ6 Makki Masjid Kumharan, Sardhana, Uttar Pradesh 250342",
        "detailed_address": {
            "ward": null,
            "street": "4JV8+RQ6",
            "city": "Sardhana",
            "postal_code": "250342",
            "state": "Uttar Pradesh",
            "country_code": "IN"
        },
        "images": [
            {
                "about": "All",
                "link": "https://lh5.googleusercontent.com/p/AF1QipNt90OUqKtd2TLdmGDEXv8nZo-fEGOsZM8WFUzQ=w298-h298-k-no"
            },
            {
                "about": "Street View & 360deg",
                "link": "https://streetviewpixels-pa.googleapis.com/v1/thumbnail?panoid=nthgZKXkXupWqp-ZnN1AfA&cb_client=maps_sv.tactile.gps&w=224&h=298&yaw=271.52148&pitch=0&thumbfov=100"
            },
            {
                "about": "Videos",
                "link": "https://lh5.googleusercontent.com/p/AF1QipO6blMyu2-vUYFskcEQDQrO-ItRbqvn9Ptt6n0I=w224-h398-k-no"
            }
        ],
        "link": "https://www.google.com/maps/place/Makki+Masjid+Kumharan/data=!4m7!3m6!1s0x390c6b5f74a9753b:0x31bc0153146a8399!8m2!3d29.1445419!4d77.6169018!16s%2Fg%2F11fntbg1s2!19sChIJO3WpdF9rDDkRmYNqFFMBvDE?authuser=0&hl=en&rclk=1",
        "coordinates": {
            "latitude": 29.1445419,
            "longitude": 77.6169018
        }
    },
    {
        "name": "Masjid Ghosiyaan",
        "main_category": "Mosque",
        "address": "4JX7+GJG Masjid Ghosiyaan, Sardhana, Uttar Pradesh 250342",
        "detailed_address": {
            "ward": null,
            "street": "4JX7+GJG",
            "city": "Sardhana",
            "postal_code": "250342",
            "state": "Uttar Pradesh",
            "country_code": "IN"
        },
        "images": [
            {
                "about": "All",
                "link": "https://lh5.googleusercontent.com/p/AF1QipPUZ0YI9zNvY51jxU7rj8ILdVrsfp_iW_SEBekD=w224-h497-k-no"
            },
            {
                "about": "Street View & 360deg",
                "link": "https://streetviewpixels-pa.googleapis.com/v1/thumbnail?panoid=dtoKGMu1mpPvOh7n-6tuTw&cb_client=maps_sv.tactile.gps&w=224&h=298&yaw=100.27535&pitch=0&thumbfov=100"
            }
        ],
        "link": "https://www.google.com/maps/place/Masjid+Ghosiyaan/data=!4m7!3m6!1s0x390c6bb15cf2b9ef:0xd1ff965c6362c1b3!8m2!3d29.1488172!4d77.6140627!16s%2Fg%2F11df428cmm!19sChIJ77nyXLFrDDkRs8FiY1yW_9E?authuser=0&hl=en&rclk=1",
        "coordinates": {
            "latitude": 29.1488172,
            "longitude": 77.61406269999999
        }
    },
    {
        "name": "Jinno Wali Masjid",
        "main_category": "Mosque",
        "address": "4JV7+RG2 Jinno Wali Masjid, Sardhana, Uttar Pradesh 250342",
        "detailed_address": {
            "ward": null,
            "street": "4JV7+RG2",
            "city": "Sardhana",
            "postal_code": "250342",
            "state": "Uttar Pradesh",
            "country_code": "IN"
        },
        "images": [
            {
                "about": "All",
                "link": "https://lh5.googleusercontent.com/p/AF1QipOxIPCcDXvtG66-LGZBoNagw4zS_hLDf2pO5Pqy=w529-h298-k-no"
            },
            {
                "about": "Dome",
                "link": "https://lh5.googleusercontent.com/p/AF1QipOxIPCcDXvtG66-LGZBoNagw4zS_hLDf2pO5Pqy=w529-h298-k-no"
            },
            {
                "about": "Videos",
                "link": "https://lh5.googleusercontent.com/p/AF1QipM7kMTjiCuZqfIFY29bt8EMWQN2SoiVUCNOW2vM=w224-h398-k-no"
            }
        ],
        "link": "https://www.google.com/maps/place/Jinno+Wali+Masjid/data=!4m7!3m6!1s0x390c6bb67c019b45:0x9184fdbac95c06eb!8m2!3d29.1445141!4d77.6137652!16s%2Fg%2F1ptx_5c2m!19sChIJRZsBfLZrDDkR6wZcybr9hJE?authuser=0&hl=en&rclk=1",
        "coordinates": {
            "latitude": 29.1445141,
            "longitude": 77.6137652
        }
    },
    {
        "name": "Chowk Bazaar Masjid",
        "main_category": "Mosque",
        "address": "4JW7+P99 Chowk Bazaar Masjid, Mohalla Chowk Bazaar, Sardhana, Uttar Pradesh 250342",
        "detailed_address": {
            "ward": null,
            "street": "4JW7+P99, Mohalla Chowk Bazaar",
            "city": "Sardhana",
            "postal_code": "250342",
            "state": "Uttar Pradesh",
            "country_code": "IN"
        },
        "images": [
            {
                "about": "All",
                "link": "https://lh5.googleusercontent.com/p/AF1QipNiDoAGeN1XOXISpiUi_1gHZjFOocyBJUo6AOrP=w397-h298-k-no"
            },
            {
                "about": "Street View & 360deg",
                "link": "https://streetviewpixels-pa.googleapis.com/v1/thumbnail?panoid=6OI9vXvJZv2thB791VSdRQ&cb_client=maps_sv.tactile.gps&w=224&h=298&yaw=127.09855&pitch=0&thumbfov=100"
            }
        ],
        "link": "https://www.google.com/maps/place/Chowk+Bazaar+Masjid/data=!4m7!3m6!1s0x390c6bb41d643f71:0x5bd423cd6fe1e6d1!8m2!3d29.1467765!4d77.6134879!16s%2Fg%2F11dy_jj_mf!19sChIJcT9kHbRrDDkR0ebhb80j1Fs?authuser=0&hl=en&rclk=1",
        "coordinates": {
            "latitude": 29.146776499999998,
            "longitude": 77.6134879
        }
    },
    {
        "name": "Jannat ul baqi Masjid",
        "main_category": "Mosque",
        "address": "4JQ6+7Q2 Jannat ul baqi Masjid, Meerut Rd, Sardhana, Uttar Pradesh 250342",
        "detailed_address": {
            "ward": null,
            "street": "4JQ6+7Q2, Meerut Rd",
            "city": "Sardhana",
            "postal_code": "250342",
            "state": "Uttar Pradesh",
            "country_code": "IN"
        },
        "images": [
            {
                "about": "All",
                "link": "https://lh5.googleusercontent.com/p/AF1QipPODjzNCkZxKSNXwtmB9sGrJvQnSGBualLkjyYG=w224-h298-k-no"
            }
        ],
        "link": "https://www.google.com/maps/place/Jannat+ul+baqi+Masjid/data=!4m7!3m6!1s0x390c6bcbb9c898ef:0x1fecbdcf0e2ed5e8!8m2!3d29.1381425!4d77.6118759!16s%2Fg%2F11c1s2sdgk!19sChIJ75jIuctrDDkR6NUuDs-97B8?authuser=0&hl=en&rclk=1",
        "coordinates": {
            "latitude": 29.138142499999997,
            "longitude": 77.6118759
        }
    },
    {
        "name": "Chhoti Masjid",
        "main_category": "Mosque",
        "address": "4JV7+XJ4 Chhoti Masjid, Unchapur, Sardhana, Uttar Pradesh 250342",
        "detailed_address": {
            "ward": "Unchapur",
            "street": "4JV7+XJ4, Unchapur",
            "city": "Sardhana",
            "postal_code": "250342",
            "state": "Uttar Pradesh",
            "country_code": "IN"
        },
        "images": [
            {
                "about": "All",
                "link": "https://lh5.googleusercontent.com/p/AF1QipOe3llBv-xpR6wqgWA59w8NwS9lFclFYXvMOv2f=w431-h298-k-no"
            },
            {
                "about": "Videos",
                "link": "https://lh5.googleusercontent.com/p/AF1QipMpOJJwymCMMkM9Y4BncydhVNr29WedZ1Fu-UGT=w224-h398-k-no"
            }
        ],
        "link": "https://www.google.com/maps/place/Chhoti+Masjid/data=!4m7!3m6!1s0x390c6bb687816f7b:0x8fdfe548d9028e24!8m2!3d29.1448781!4d77.6140745!16s%2Fg%2F11b6zpyq2g!19sChIJe2-Bh7ZrDDkRJI4C2Ujl348?authuser=0&hl=en&rclk=1",
        "coordinates": {
            "latitude": 29.1448781,
            "longitude": 77.6140745
        }
    },
    {
        "name": "Masjid Zikriya",
        "main_category": "Mosque",
        "address": "5J59+58M Masjid Zikriya, Sardhana Rural, Uttar Pradesh 250342",
        "detailed_address": {
            "ward": null,
            "street": "5J59+58M",
            "city": "Sardhana Rural",
            "postal_code": "250342",
            "state": "Uttar Pradesh",
            "country_code": "IN"
        },
        "images": [
            {
                "about": "All",
                "link": "https://lh5.googleusercontent.com/p/AF1QipP6goqX2iWXitAfvnl-7MBLssZzhlSTxOB21j4F=w224-h298-k-no"
            }
        ],
        "link": "https://www.google.com/maps/place/Masjid+Zikriya/data=!4m7!3m6!1s0x390c6baf69cc439b:0xddc24c17d8fe5356!8m2!3d29.1579506!4d77.6182843!16s%2Fg%2F11g01s5g3p!19sChIJm0PMaa9rDDkRVlP-2BdMwt0?authuser=0&hl=en&rclk=1",
        "coordinates": {
            "latitude": 29.1579506,
            "longitude": 77.6182843
        }
    },
    {
        "name": "Madina Masjid Azad Nagar",
        "main_category": "Mosque",
        "address": "4JX5+57R Madina Masjid Azad Nagar, Azad Nagar, Sardhana, Uttar Pradesh 250342",
        "detailed_address": {
            "ward": "Azad Nagar",
            "street": "4JX5+57R",
            "city": "Sardhana",
            "postal_code": "250342",
            "state": "Uttar Pradesh",
            "country_code": "IN"
        },
        "images": [
            {
                "about": "All",
                "link": "https://lh5.googleusercontent.com/p/AF1QipOOKdy1WMe5jr0LZLZhgzEGM5F-lQ7jJsI12FWx=w224-h398-k-no"
            },
            {
                "about": "Videos",
                "link": "https://lh5.googleusercontent.com/p/AF1QipMMZ4x3hxn4f-9Ixo_Cj8Ne3fumWIpHiC09z15y=w224-h398-k-no"
            }
        ],
        "link": "https://www.google.com/maps/place/Madina+Masjid+Azad+Nagar/data=!4m7!3m6!1s0x390c6bccbd90cb19:0xad6a34ddfd38d274!8m2!3d29.1479932!4d77.6081296!16s%2Fg%2F11f6kwpzb4!19sChIJGcuQvcxrDDkRdNI4_d00aq0?authuser=0&hl=en&rclk=1",
        "coordinates": {
            "latitude": 29.1479932,
            "longitude": 77.6081296
        }
    },
    {
        "name": "Masjid Jamman Shaheed",
        "main_category": "Mosque",
        "address": "4JQ6+RWR Masjid Jamman Shaheed, Sardhana, Uttar Pradesh 250342",
        "detailed_address": {
            "ward": null,
            "street": "4JQ6+RWR",
            "city": "Sardhana",
            "postal_code": "250342",
            "state": "Uttar Pradesh",
            "country_code": "IN"
        },
        "images": [
            {
                "about": "All",
                "link": "https://lh5.googleusercontent.com/p/AF1QipORt_YovpJrjMjFkNIpt-FTx7KYvl2y5mFNr-3s=w224-h298-k-no"
            },
            {
                "about": "Videos",
                "link": "https://lh5.googleusercontent.com/p/AF1QipNB_i2M7zwgM_Y16NVkYWkLExC2tpD0fhv-5lR-=w224-h398-k-no"
            }
        ],
        "link": "https://www.google.com/maps/place/Masjid+Jamman+Shaheed/data=!4m7!3m6!1s0x390c6bca3775786b:0xe5654c33dc6d3751!8m2!3d29.1396053!4d77.6122649!16s%2Fg%2F11c6djl_dc!19sChIJa3h1N8prDDkRUTdt3DNMZeU?authuser=0&hl=en&rclk=1",
        "coordinates": {
            "latitude": 29.1396053,
            "longitude": 77.6122649
        }
    },
    {
        "name": "Masjid Suleman Shah",
        "main_category": "Mosque",
        "address": "4JV9+65W Masjid Suleman Shah, Sardhana, Uttar Pradesh 250342",
        "detailed_address": {
            "ward": null,
            "street": "4JV9+65W",
            "city": "Sardhana",
            "postal_code": "250342",
            "state": "Uttar Pradesh",
            "country_code": "IN"
        },
        "images": [],
        "link": "https://www.google.com/maps/place/Masjid+Suleman+Shah/data=!4m7!3m6!1s0x390c6bb7e87bebd3:0x350f7dc1895043aa!8m2!3d29.1431038!4d77.6179643!16s%2Fg%2F11gbffhbtx!19sChIJ0-t76LdrDDkRqkNQicF9DzU?authuser=0&hl=en&rclk=1",
        "coordinates": {
            "latitude": 29.1431038,
            "longitude": 77.6179643
        }
    },
    {
        "name": "Masjid Gomti Nagar",
        "main_category": "Mosque",
        "address": "4JR8+J32 Masjid Gomti Nagar, Sardhana, Uttar Pradesh 250342",
        "detailed_address": {
            "ward": null,
            "street": "4JR8+J32",
            "city": "Sardhana",
            "postal_code": "250342",
            "state": "Uttar Pradesh",
            "country_code": "IN"
        },
        "images": [
            {
                "about": "All",
                "link": "https://lh5.googleusercontent.com/p/AF1QipPdyAioq46zQvXJoN0Ehd9t-ALjFtcXI9oZr2Kf=w224-h298-k-no"
            }
        ],
        "link": "https://www.google.com/maps/place/Masjid+Gomti+Nagar/data=!4m7!3m6!1s0x390c6bc9dcfb5111:0x96b07683b368fb38!8m2!3d29.1415199!4d77.6151513!16s%2Fg%2F11g6b2zzsj!19sChIJEVH73MlrDDkROPtos4N2sJY?authuser=0&hl=en&rclk=1",
        "coordinates": {
            "latitude": 29.1415199,
            "longitude": 77.6151513
        }
    },
    {
        "name": "Masjid Kabari Bazar",
        "main_category": "Mosque",
        "address": "4JW3+JR6 Masjid Kabari Bazar, Sardhana, Uttar Pradesh 250342",
        "detailed_address": {
            "ward": null,
            "street": "4JW3+JR6",
            "city": "Sardhana",
            "postal_code": "250342",
            "state": "Uttar Pradesh",
            "country_code": "IN"
        },
        "images": [],
        "link": "https://www.google.com/maps/place/Masjid+Kabari+Bazar/data=!4m7!3m6!1s0x390c6a4b86b97ed9:0x1872e55ed45b940b!8m2!3d29.1465369!4d77.604507!16s%2Fg%2F11ddwhhbvn!19sChIJ2X65hktqDDkRC5Rb1F7lchg?authuser=0&hl=en&rclk=1",
        "coordinates": {
            "latitude": 29.146536899999997,
            "longitude": 77.604507
        }
    },
    {
        "name": "Masjid Qureshiyan Bus Stand",
        "main_category": "Mosque",
        "address": "4JR7+Q4P Masjid Qureshiyan Bus Stand, Sardhana, Uttar Pradesh 250342",
        "detailed_address": {
            "ward": null,
            "street": "4JR7+Q4P",
            "city": "Sardhana",
            "postal_code": "250342",
            "state": "Uttar Pradesh",
            "country_code": "IN"
        },
        "images": [
            {
                "about": "All",
                "link": "https://lh5.googleusercontent.com/p/AF1QipOql_e7ov3ljEOlQKLk3SJ3MNdTL52xd6WZO5Kv=w224-h398-k-no"
            },
            {
                "about": "Dome",
                "link": "https://lh5.googleusercontent.com/p/AF1QipOql_e7ov3ljEOlQKLk3SJ3MNdTL52xd6WZO5Kv=w224-h398-k-no"
            }
        ],
        "link": "https://www.google.com/maps/place/Masjid+Qureshiyan+Bus+Stand/data=!4m7!3m6!1s0x390c6bb5f7ed16a3:0x310adf0b44880a03!8m2!3d29.1419549!4d77.6128307!16s%2Fg%2F11c1s00slx!19sChIJoxbt97VrDDkRAwqIRAvfCjE?authuser=0&hl=en&rclk=1",
        "coordinates": {
            "latitude": 29.141954899999998,
            "longitude": 77.6128307
        }
    },
    {
        "name": "Masjid Kaziyaan",
        "main_category": "Mosque",
        "address": "4JW7+C65 Masjid Kaziyaan, Sardhana, Uttar Pradesh 250342",
        "detailed_address": {
            "ward": null,
            "street": "4JW7+C65",
            "city": "Sardhana",
            "postal_code": "250342",
            "state": "Uttar Pradesh",
            "country_code": "IN"
        },
        "images": [],
        "link": "https://www.google.com/maps/place/Masjid+Kaziyaan/data=!4m7!3m6!1s0x390c6bb423c861a9:0xfb58a6519bf5545c!8m2!3d29.1460168!4d77.6130969!16s%2Fg%2F11d_d149py!19sChIJqWHII7RrDDkRXFT1m1GmWPs?authuser=0&hl=en&rclk=1",
        "coordinates": {
            "latitude": 29.146016799999998,
            "longitude": 77.6130969
        }
    },
    {
        "name": "Peerjadgaan Masjid",
        "main_category": "Mosque",
        "address": "4JR7+Q8M Peerjadgaan Masjid, Sardhana, Uttar Pradesh 250342",
        "detailed_address": {
            "ward": null,
            "street": "4JR7+Q8M",
            "city": "Sardhana",
            "postal_code": "250342",
            "state": "Uttar Pradesh",
            "country_code": "IN"
        },
        "images": [],
        "link": "https://www.google.com/maps/place/Peerjadgaan+Masjid/data=!4m7!3m6!1s0x390c6bb5ff653957:0xd1baa4ba8543d854!8m2!3d29.1419629!4d77.6132879!16s%2Fg%2F11ddx437y0!19sChIJVzll_7VrDDkRVNhDhbqkutE?authuser=0&hl=en&rclk=1",
        "coordinates": {
            "latitude": 29.1419629,
            "longitude": 77.6132879
        }
    },
    {
        "name": "Masjid Noor",
        "main_category": "Mosque",
        "address": "5J59+M74 Masjid Noor, Sardhana Rural, Uttar Pradesh 250342",
        "detailed_address": {
            "ward": null,
            "street": "5J59+M74",
            "city": "Sardhana Rural",
            "postal_code": "250342",
            "state": "Uttar Pradesh",
            "country_code": "IN"
        },
        "images": [
            {
                "about": "All",
                "link": "https://lh5.googleusercontent.com/p/AF1QipMJATIzVb9SJxzoEmh9zqTzgFvjQBQS0Du3y_1C=w224-h298-k-no"
            }
        ],
        "link": "https://www.google.com/maps/place/Masjid+Noor/data=!4m7!3m6!1s0x390c6baf4c2e5005:0x1b9ca0a9e80b961e!8m2!3d29.1591468!4d77.6182067!16s%2Fg%2F11g01sjv3p!19sChIJBVAuTK9rDDkRHpYL6KmgnBs?authuser=0&hl=en&rclk=1",
        "coordinates": {
            "latitude": 29.1591468,
            "longitude": 77.6182067
        }
    },
    {
        "name": "Masjid Shahidiya",
        "main_category": "Mosque",
        "address": "4JR4+3X3 Masjid Shahidiya, Sardhana, Uttar Pradesh 250342",
        "detailed_address": {
            "ward": null,
            "street": "4JR4+3X3",
            "city": "Sardhana",
            "postal_code": "250342",
            "state": "Uttar Pradesh",
            "country_code": "IN"
        },
        "images": [
            {
                "about": "All",
                "link": "https://lh5.googleusercontent.com/p/AF1QipMsRt0CdakN8hPdL5kgO8ay950bGwxj3tNdqkwu=w529-h298-k-no"
            }
        ],
        "link": "https://www.google.com/maps/place/Masjid+Shahidiya/data=!4m7!3m6!1s0x390c6a354bd55fdb:0x8cc4a41997e0cf64!8m2!3d29.1401315!4d77.6074289!16s%2Fg%2F11g889y1tk!19sChIJ21_VSzVqDDkRZM_glxmkxIw?authuser=0&hl=en&rclk=1",
        "coordinates": {
            "latitude": 29.1401315,
            "longitude": 77.6074289
        }
    },
    {
        "name": "Masjid Chhawni",
        "main_category": "Mosque",
        "address": "5J29+C35 Masjid Chhawni, Sardhana, Uttar Pradesh 250342",
        "detailed_address": {
            "ward": null,
            "street": "5J29+C35",
            "city": "Sardhana",
            "postal_code": "250342",
            "state": "Uttar Pradesh",
            "country_code": "IN"
        },
        "images": [
            {
                "about": "All",
                "link": "https://lh5.googleusercontent.com/p/AF1QipMK1-_Kzqsdy9DE8rRmyeV7e87zGVyglVUgiQWv=w224-h398-k-no"
            },
            {
                "about": "Dome",
                "link": "https://lh5.googleusercontent.com/p/AF1QipPuxxlWN1ZKgk3PWtT9UyveKkTazn8qkD_EJpyA=w224-h398-k-no"
            }
        ],
        "link": "https://www.google.com/maps/place/Masjid+Chhawni/data=!4m7!3m6!1s0x390c6bb05f8df4b1:0x9e02e4b897db550!8m2!3d29.1510132!4d77.617721!16s%2Fg%2F11g8cycmzs!19sChIJsfSNX7BrDDkRULV9iUsu4Ak?authuser=0&hl=en&rclk=1",
        "coordinates": {
            "latitude": 29.151013199999998,
            "longitude": 77.617721
        }
    },
    {
        "name": "Muhammadi Masjid",
        "main_category": "Mosque",
        "address": "5J25+6V5 Muhammadi Masjid, Sardhana, Uttar Pradesh 250342",
        "detailed_address": {
            "ward": null,
            "street": "5J25+6V5",
            "city": "Sardhana",
            "postal_code": "250342",
            "state": "Uttar Pradesh",
            "country_code": "IN"
        },
        "images": [],
        "link": "https://www.google.com/maps/place/Muhammadi+Masjid/data=!4m7!3m6!1s0x390c6bb2e382223f:0x161944599d658e95!8m2!3d29.1505107!4d77.60975!16s%2Fg%2F11dz3ws50r!19sChIJPyKC47JrDDkRlY5lnVlEGRY?authuser=0&hl=en&rclk=1",
        "coordinates": {
            "latitude": 29.150510699999998,
            "longitude": 77.60974999999999
        }
    },
    {
        "name": "Saabri Masjid",
        "main_category": "Mosque",
        "address": "4JX4+WW8 Saabri Masjid, Sardhana, Uttar Pradesh 250342",
        "detailed_address": {
            "ward": null,
            "street": "4JX4+WW8",
            "city": "Sardhana",
            "postal_code": "250342",
            "state": "Uttar Pradesh",
            "country_code": "IN"
        },
        "images": [
            {
                "about": "All",
                "link": "https://lh5.googleusercontent.com/p/AF1QipMaqoSAhSYSZLr0UV8b_ZtRZTIy2whoSQk7PO3X=w529-h298-k-no"
            }
        ],
        "link": "https://www.google.com/maps/place/Saabri+Masjid/data=!4m7!3m6!1s0x390c6a4cd65958df:0x316c9b4e0c755747!8m2!3d29.1497922!4d77.6073126!16s%2Fg%2F11f03yzsqz!19sChIJ31hZ1kxqDDkRR1d1DE6bbDE?authuser=0&hl=en&rclk=1",
        "coordinates": {
            "latitude": 29.1497922,
            "longitude": 77.6073126
        }
    },
    {
        "name": "Masjid Khari Kuan",
        "main_category": "Mosque",
        "address": "Masjid Khari Kuan, Sardhana, Uttar Pradesh 250342",
        "detailed_address": {
            "ward": null,
            "street": null,
            "city": "Sardhana",
            "postal_code": "250342",
            "state": "Uttar Pradesh",
            "country_code": "IN"
        },
        "images": [
            {
                "about": "All",
                "link": "https://lh5.googleusercontent.com/p/AF1QipM-l8TuTuBDdQhX086IwmswGANX8B1QQCFqqS4=w224-h298-k-no"
            },
            {
                "about": "Street View & 360deg",
                "link": "https://streetviewpixels-pa.googleapis.com/v1/thumbnail?panoid=ztZs6cPJxHOtdi2XuPSCyw&cb_client=maps_sv.tactile.gps&w=224&h=298&yaw=330.21048&pitch=0&thumbfov=100"
            }
        ],
        "link": "https://www.google.com/maps/place/Masjid+Khari+Kuan/data=!4m7!3m6!1s0x390c6bb5a5c2d3bb:0x8677fc8902b44f9b!8m2!3d29.1438176!4d77.6110011!16s%2Fg%2F11g69wzqqn!19sChIJu9PCpbVrDDkRm0-0Aon8d4Y?authuser=0&hl=en&rclk=1",
        "coordinates": {
            "latitude": 29.1438176,
            "longitude": 77.6110011
        }
    },
    {
        "name": "Eid Gah",
        "main_category": "Mosque",
        "address": "4JQ5+7CG Eid Gah, Sardhana, Uttar Pradesh 250342",
        "detailed_address": {
            "ward": null,
            "street": "4JQ5+7CG",
            "city": "Sardhana",
            "postal_code": "250342",
            "state": "Uttar Pradesh",
            "country_code": "IN"
        },
        "images": [
            {
                "about": "All",
                "link": "https://lh5.googleusercontent.com/p/AF1QipNK8G4Mh5r1b2VxkA33-zB8qScmtnAaJDaStgC0=w397-h298-k-no"
            },
            {
                "about": "Videos",
                "link": "https://lh5.googleusercontent.com/p/AF1QipMW8CLY7LzDmyAEO9_ZVVuxZpuAIcT_vw2i30Jr=w224-h398-k-no"
            }
        ],
        "link": "https://www.google.com/maps/place/Eid+Gah/data=!4m7!3m6!1s0x390c6bcb25ea28ef:0xfed7d16a3d828825!8m2!3d29.138199!4d77.6085833!16s%2Fg%2F11c6dd2zlm!19sChIJ7yjqJctrDDkRJYiCPWrR1_4?authuser=0&hl=en&rclk=1",
        "coordinates": {
            "latitude": 29.138199,
            "longitude": 77.60858329999999
        }
    },
    {
        "name": "Masjid Bilal",
        "main_category": "Mosque",
        "address": "5J59+4W5 Masjid Bilal, Sardhana Rural, Uttar Pradesh 250342",
        "detailed_address": {
            "ward": null,
            "street": "5J59+4W5",
            "city": "Sardhana Rural",
            "postal_code": "250342",
            "state": "Uttar Pradesh",
            "country_code": "IN"
        },
        "images": [
            {
                "about": "All",
                "link": "https://streetviewpixels-pa.googleapis.com/v1/thumbnail?panoid=sQNyV0QYp4t2i0F6stP0Lg&cb_client=maps_sv.tactile.gps&w=224&h=298&yaw=66.21089&pitch=0&thumbfov=100"
            },
            {
                "about": "Street View & 360deg",
                "link": "https://streetviewpixels-pa.googleapis.com/v1/thumbnail?panoid=sQNyV0QYp4t2i0F6stP0Lg&cb_client=maps_sv.tactile.gps&w=224&h=298&yaw=66.21089&pitch=0&thumbfov=100"
            }
        ],
        "link": "https://www.google.com/maps/place/Masjid+Bilal/data=!4m7!3m6!1s0x390c6ba58fb3d07f:0xf24fae2d813f941b!8m2!3d29.157769!4d77.6198502!16s%2Fg%2F11g01sc2c6!19sChIJf9Czj6VrDDkRG5Q_gS2uT_I?authuser=0&hl=en&rclk=1",
        "coordinates": {
            "latitude": 29.157769,
            "longitude": 77.6198502
        }
    },
    {
        "name": "Noor Masjid",
        "main_category": "Mosque",
        "address": "4JW6+7VG Noor Masjid, Tarni street, near Imambara Road, Sardhana, Uttar Pradesh 250342",
        "detailed_address": {
            "ward": null,
            "street": "4JW6+7VG, Tarni street, near Imambara Road",
            "city": "Sardhana",
            "postal_code": "250342",
            "state": "Uttar Pradesh",
            "country_code": "IN"
        },
        "images": [],
        "link": "https://www.google.com/maps/place/Noor+Masjid/data=!4m7!3m6!1s0x390c6ba31c4afd33:0x675e6503a7ad58fb!8m2!3d29.1456934!4d77.6122!16s%2Fg%2F11gj751d41!19sChIJM_1KHKNrDDkR-1itpwNlXmc?authuser=0&hl=en&rclk=1",
        "coordinates": {
            "latitude": 29.1456934,
            "longitude": 77.6122
        }
    },
    {
        "name": "Masjid Kothhi Wali",
        "main_category": "Mosque",
        "address": "4JW4+MCH Masjid Kothhi Wali, Sardhana, Uttar Pradesh 250342",
        "detailed_address": {
            "ward": null,
            "street": "4JW4+MCH",
            "city": "Sardhana",
            "postal_code": "250342",
            "state": "Uttar Pradesh",
            "country_code": "IN"
        },
        "images": [],
        "link": "https://www.google.com/maps/place/Masjid+Kothhi+Wali/data=!4m7!3m6!1s0x390c6a4b613b1a7f:0x468205ea37b597b2!8m2!3d29.1466783!4d77.6061227!16s%2Fg%2F11c5zgmgq8!19sChIJfxo7YUtqDDkRspe1N-oFgkY?authuser=0&hl=en&rclk=1",
        "coordinates": {
            "latitude": 29.146678299999998,
            "longitude": 77.6061227
        }
    },
    {
        "name": "Masjid Aqsah",
        "main_category": "Mosque",
        "address": "5J36+29P Masjid Aqsah, Mohalla Bunkarnagar, Church Rd, Sardhana, Uttar Pradesh 250342",
        "detailed_address": {
            "ward": null,
            "street": "5J36+29P, Mohalla Bunkarnagar, Church Rd",
            "city": "Sardhana",
            "postal_code": "250342",
            "state": "Uttar Pradesh",
            "country_code": "IN"
        },
        "images": [
            {
                "about": "All",
                "link": "https://lh5.googleusercontent.com/p/AF1QipN-gTBt2Oy7z1B1UDLOrTgSYdTI4ymjYJiDmTBt=w397-h298-k-no"
            }
        ],
        "link": "https://www.google.com/maps/place/Masjid+Aqsah/data=!4m7!3m6!1s0x390c6b27beaf25fd:0x3a7f14b8b710c3!8m2!3d29.1525794!4d77.6109483!16s%2Fg%2F11j94m1nw_!19sChIJ_SWvvidrDDkRwxC3uBR_OgA?authuser=0&hl=en&rclk=1",
        "coordinates": {
            "latitude": 29.152579399999997,
            "longitude": 77.61094829999999
        }
    },
    {
        "name": "Madina Masjid",
        "main_category": "Mosque",
        "address": "4JW9+2WG Madina Masjid, ansar nagar tehsil road, Sardhana, Uttar Pradesh 250342",
        "detailed_address": {
            "ward": null,
            "street": "4JW9+2WG, ansar nagar tehsil road",
            "city": "Sardhana",
            "postal_code": "250342",
            "state": "Uttar Pradesh",
            "country_code": "IN"
        },
        "images": [
            {
                "about": "All",
                "link": "https://streetviewpixels-pa.googleapis.com/v1/thumbnail?panoid=U0mQ98O9NtT54S7fM3Iuew&cb_client=maps_sv.tactile.gps&w=224&h=298&yaw=313.64438&pitch=0&thumbfov=100"
            },
            {
                "about": "Street View & 360deg",
                "link": "https://streetviewpixels-pa.googleapis.com/v1/thumbnail?panoid=U0mQ98O9NtT54S7fM3Iuew&cb_client=maps_sv.tactile.gps&w=224&h=298&yaw=313.64438&pitch=0&thumbfov=100"
            },
            {
                "about": "Videos",
                "link": "https://lh5.googleusercontent.com/p/AF1QipPAQpFx0VyQhS8dwjf_oMS-YgG8X_7fvy5sd7Vu=w224-h398-k-no"
            }
        ],
        "link": "https://www.google.com/maps/place/Madina+Masjid/data=!4m7!3m6!1s0x390c6b94ce6a8df5:0x9f70e4c64790aea8!8m2!3d29.1450631!4d77.6198211!16s%2Fg%2F11hz76b5p_!19sChIJ9Y1qzpRrDDkRqK6QR8bkcJ8?authuser=0&hl=en&rclk=1",
        "coordinates": {
            "latitude": 29.145063099999998,
            "longitude": 77.6198211
        }
    },
    {
        "name": "Takiya Jhannusha Masjid",
        "main_category": "Mosque",
        "address": "4JX7+7JV Takiya Jhannusha Masjid, Sardhana, Uttar Pradesh 250342",
        "detailed_address": {
            "ward": null,
            "street": "4JX7+7JV",
            "city": "Sardhana",
            "postal_code": "250342",
            "state": "Uttar Pradesh",
            "country_code": "IN"
        },
        "images": [
            {
                "about": "All",
                "link": "https://lh5.googleusercontent.com/p/AF1QipM3TfgB67TcYA_ZzQdwB-3V1bYr9pBADlQ20DbN=w397-h298-k-no"
            },
            {
                "about": "Dome",
                "link": "https://lh5.googleusercontent.com/p/AF1QipM3TfgB67TcYA_ZzQdwB-3V1bYr9pBADlQ20DbN=w397-h298-k-no"
            },
            {
                "about": "Street View & 360deg",
                "link": "https://streetviewpixels-pa.googleapis.com/v1/thumbnail?panoid=wLzevZF9tCLp1xgGyWKsgQ&cb_client=maps_sv.tactile.gps&w=224&h=298&yaw=63.955063&pitch=0&thumbfov=100"
            }
        ],
        "link": "https://www.google.com/maps/place/Takiya+Jhannusha+Masjid/data=!4m7!3m6!1s0x390c6bb15103ddcb:0x1589efaed36a2894!8m2!3d29.1482363!4d77.6140341!16s%2Fg%2F11df2lbg8g!19sChIJy90DUbFrDDkRlChq067viRU?authuser=0&hl=en&rclk=1",
        "coordinates": {
            "latitude": 29.148236299999997,
            "longitude": 77.6140341
        }
    },
    {
        "name": "Chilley Wali Masjid",
        "main_category": "Mosque",
        "address": "4JV7+C47 Chilley Wali Masjid, Near Markaz, Sardhana, Uttar Pradesh 250342",
        "detailed_address": {
            "ward": null,
            "street": "4JV7+C47, Near Markaz",
            "city": "Sardhana",
            "postal_code": "250342",
            "state": "Uttar Pradesh",
            "country_code": "IN"
        },
        "images": [
            {
                "about": "All",
                "link": "https://lh5.googleusercontent.com/p/AF1QipOAtevLncSdvKzNAAbPG3CCAWAS77PBLHCPa461=w224-h485-k-no"
            },
            {
                "about": "Street View & 360deg",
                "link": "https://streetviewpixels-pa.googleapis.com/v1/thumbnail?panoid=xkHv9CF8i1MiuDNUI5J0Lw&cb_client=maps_sv.tactile.gps&w=224&h=298&yaw=191.28073&pitch=0&thumbfov=100"
            }
        ],
        "link": "https://www.google.com/maps/place/Chilley+Wali+Masjid/data=!4m7!3m6!1s0x390c6baa61a5cf43:0x40fd61dce59ec407!8m2!3d29.1435492!4d77.6128041!16s%2Fg%2F11f6kwcvgy!19sChIJQ8-lYaprDDkRB8Se5dxh_UA?authuser=0&hl=en&rclk=1",
        "coordinates": {
            "latitude": 29.1435492,
            "longitude": 77.61280409999999
        }
    },
    {
        "name": "Masjid Mithe Shah",
        "main_category": "Mosque",
        "address": "4JQ5+GXM Masjid Mithe Shah, Sardhana, Uttar Pradesh 250342",
        "detailed_address": {
            "ward": null,
            "street": "4JQ5+GXM",
            "city": "Sardhana",
            "postal_code": "250342",
            "state": "Uttar Pradesh",
            "country_code": "IN"
        },
        "images": [
            {
                "about": "All",
                "link": "https://lh5.googleusercontent.com/p/AF1QipOGYGanZvFN2v5qzgbEbHc9JXcVm0oQXSHAvfj1=w397-h298-k-no"
            }
        ],
        "link": "https://www.google.com/maps/place/Masjid+Mithe+Shah/data=!4m7!3m6!1s0x390c6bcae2ccc383:0xc9cd42e06c846bcb!8m2!3d29.1388347!4d77.6099323!16s%2Fg%2F11c31w9pjz!19sChIJg8PM4sprDDkRy2uEbOBCzck?authuser=0&hl=en&rclk=1",
        "coordinates": {
            "latitude": 29.1388347,
            "longitude": 77.6099323
        }
    },
    {
        "name": "Aysa Masjid",
        "main_category": "Mosque",
        "address": "5J69+3FM Aysa Masjid, Sardhana Rural, Uttar Pradesh 250342",
        "detailed_address": {
            "ward": null,
            "street": "5J69+3FM",
            "city": "Sardhana Rural",
            "postal_code": null,
            "state": "Uttar Pradesh",
            "country_code": "IN"
        },
        "images": [
            {
                "about": "All",
                "link": "https://lh5.googleusercontent.com/p/AF1QipPJ6CWBvK5PERDCj4rv9RvPgdxRNg3VJNHvNw5S=w659-h298-k-no"
            },
            {
                "about": "Street View & 360deg",
                "link": "https://streetviewpixels-pa.googleapis.com/v1/thumbnail?panoid=Nt96HMtpWne6UCpTVFl53g&cb_client=maps_sv.tactile.gps&w=224&h=298&yaw=20.418306&pitch=0&thumbfov=100"
            },
            {
                "about": "Videos",
                "link": "https://lh5.googleusercontent.com/p/AF1QipO-hKIWdXwJJ5pHM30nXUl2ABQW20firf1nN8c=w224-h398-k-no"
            }
        ],
        "link": "https://www.google.com/maps/place/Aysa+Masjid/data=!4m7!3m6!1s0x390c6baf5357610d:0x50cf007bae418c8!8m2!3d29.1602014!4d77.618664!16s%2Fg%2F11h9rbvp00!19sChIJDWFXU69rDDkRyBjkugfwDAU?authuser=0&hl=en&rclk=1",
        "coordinates": {
            "latitude": 29.1602014,
            "longitude": 77.618664
        }
    },
    {
        "name": "Masjid Ayesha Sarai Afganan",
        "main_category": "Mosque",
        "address": "4JV8+75W Masjid Ayesha Sarai Afganan, Sardhana, Uttar Pradesh 250342",
        "detailed_address": {
            "ward": null,
            "street": "4JV8+75W",
            "city": "Sardhana",
            "postal_code": "250342",
            "state": "Uttar Pradesh",
            "country_code": "IN"
        },
        "images": [],
        "link": "https://www.google.com/maps/place/Masjid+Ayesha+Sarai+Afganan/data=!4m7!3m6!1s0x390c6bce4c75daed:0x2da1efdbfeb20be3!8m2!3d29.1432449!4d77.6154645!16s%2Fg%2F11mv9rfvjn!19sChIJ7dp1TM5rDDkR4wuy_tvvoS0?authuser=0&hl=en&rclk=1",
        "coordinates": {
            "latitude": 29.1432449,
            "longitude": 77.6154645
        }
    },
    {
        "name": "Basheeriya Masjid",
        "main_category": "Mosque",
        "address": "4JW4+GVG Basheeriya Masjid, Azad Nagar, Sardhana, Uttar Pradesh 250342",
        "detailed_address": {
            "ward": "Azad Nagar",
            "street": "4JW4+GVG",
            "city": "Sardhana",
            "postal_code": "250342",
            "state": "Uttar Pradesh",
            "country_code": "IN"
        },
        "images": [
            {
                "about": "All",
                "link": "https://lh5.googleusercontent.com/p/AF1QipOs6M7OhD3Usl8i84VakGJnRT-A12T_PXs0h4dO=w224-h398-k-no"
            }
        ],
        "link": "https://www.google.com/maps/place/Basheeriya+Masjid/data=!4m7!3m6!1s0x390c6a4b4e365673:0xcb546f2af90e934!8m2!3d29.1463221!4d77.6072157!16s%2Fg%2F11h9xrmxyd!19sChIJc1Y2TktqDDkRNOmQr_JGtQw?authuser=0&hl=en&rclk=1",
        "coordinates": {
            "latitude": 29.1463221,
            "longitude": 77.6072157
        }
    },
    {
        "name": "Masjid Aqsa",
        "main_category": "Mosque",
        "address": "Masjid Aqsa, Bunkar Nagar, Kalind Road, Sardhana, Uttar Pradesh 250342",
        "detailed_address": {
            "ward": null,
            "street": "Bunkar Nagar, Kalind Road",
            "city": "Sardhana",
            "postal_code": "250342",
            "state": "Uttar Pradesh",
            "country_code": "IN"
        },
        "images": [
            {
                "about": "All",
                "link": "https://lh5.googleusercontent.com/p/AF1QipMFmMSYEH40LzauBiSJX1XjileZ6w3rD3w0-p5e=w224-h298-k-no"
            }
        ],
        "link": "https://www.google.com/maps/place/Masjid+Aqsa/data=!4m7!3m6!1s0x390c6b7aaef8979f:0x3c94507f397cc396!8m2!3d29.1477668!4d77.6165642!16s%2Fg%2F11j0byfk3n!19sChIJn5f4rnprDDkRlsN8OX9QlDw?authuser=0&hl=en&rclk=1",
        "coordinates": {
            "latitude": 29.1477668,
            "longitude": 77.6165642
        }
    },
    {
        "name": "Masjid Angoor Wali",
        "main_category": "Mosque",
        "address": "4JV6+CQJ Masjid Angoor Wali, Sardhana, Uttar Pradesh 250342",
        "detailed_address": {
            "ward": null,
            "street": "4JV6+CQJ",
            "city": "Sardhana",
            "postal_code": "250342",
            "state": "Uttar Pradesh",
            "country_code": "IN"
        },
        "images": [
            {
                "about": "All",
                "link": "https://streetviewpixels-pa.googleapis.com/v1/thumbnail?panoid=s7g6ozW9XpDjbQHgs-zEMA&cb_client=maps_sv.tactile.gps&w=224&h=298&yaw=234.60712&pitch=0&thumbfov=100"
            },
            {
                "about": "Street View & 360deg",
                "link": "https://streetviewpixels-pa.googleapis.com/v1/thumbnail?panoid=s7g6ozW9XpDjbQHgs-zEMA&cb_client=maps_sv.tactile.gps&w=224&h=298&yaw=234.60712&pitch=0&thumbfov=100"
            }
        ],
        "link": "https://www.google.com/maps/place/Masjid+Angoor+Wali/data=!4m7!3m6!1s0x390c6bb5bf3771d5:0x462a210fe355af6a!8m2!3d29.1435943!4d77.6118981!16s%2Fg%2F11c31mpjwk!19sChIJ1XE3v7VrDDkRaq9V4w8hKkY?authuser=0&hl=en&rclk=1",
        "coordinates": {
            "latitude": 29.1435943,
            "longitude": 77.61189809999999
        }
    },
    {
        "name": "Peer Wali Masjid",
        "main_category": "Mosque",
        "address": "4JX6+245 Peer Wali Masjid, Mohalla Kila Khewan, Sardhana, Uttar Pradesh 250342",
        "detailed_address": {
            "ward": null,
            "street": "4JX6+245, Mohalla Kila Khewan",
            "city": "Sardhana",
            "postal_code": "250342",
            "state": "Uttar Pradesh",
            "country_code": "IN"
        },
        "images": [
            {
                "about": "All",
                "link": "https://lh5.googleusercontent.com/p/AF1QipNtcoV_qI6R12aOSm7UaotTOnEjZcGn8DqZUjA7=w529-h298-k-no"
            }
        ],
        "link": "https://www.google.com/maps/place/Peer+Wali+Masjid/data=!4m7!3m6!1s0x390c6bb37e650631:0x8eaf3a1213ae102e!8m2!3d29.1475149!4d77.6103482!16s%2Fg%2F11fy5j0q5k!19sChIJMQZlfrNrDDkRLhCuExI6r44?authuser=0&hl=en&rclk=1",
        "coordinates": {
            "latitude": 29.147514899999997,
            "longitude": 77.61034819999999
        }
    },
    {
        "name": "Choki Wali Masjid",
        "main_category": "Mosque",
        "address": "4HQX+8FF Choki Wali Masjid, Juledha Rd, Sardhana, Uttar Pradesh 250342",
        "detailed_address": {
            "ward": null,
            "street": "4HQX+8FF, Juledha Rd",
            "city": "Sardhana",
            "postal_code": "250342",
            "state": "Uttar Pradesh",
            "country_code": "IN"
        },
        "images": [],
        "link": "https://www.google.com/maps/place/Choki+Wali+Masjid/data=!4m7!3m6!1s0x390c6b643347669d:0xe3e18a8bf9975da9!8m2!3d29.1383013!4d77.5986629!16s%2Fg%2F11gj4ll13c!19sChIJnWZHM2RrDDkRqV2X-YuK4eM?authuser=0&hl=en&rclk=1",
        "coordinates": {
            "latitude": 29.1383013,
            "longitude": 77.5986629
        }
    },
    {
        "name": "Masjid Ayesha",
        "main_category": "Mosque",
        "address": "5J69+57C Masjid Ayesha, Sardhana Rural, Uttar Pradesh 250342",
        "detailed_address": {
            "ward": null,
            "street": "5J69+57C",
            "city": "Sardhana Rural",
            "postal_code": null,
            "state": "Uttar Pradesh",
            "country_code": "IN"
        },
        "images": [
            {
                "about": "All",
                "link": "https://streetviewpixels-pa.googleapis.com/v1/thumbnail?panoid=qiuCftH8JiJcVUbaSBxXKA&cb_client=maps_sv.tactile.gps&w=224&h=298&yaw=7.3202324&pitch=0&thumbfov=100"
            },
            {
                "about": "Street View & 360deg",
                "link": "https://streetviewpixels-pa.googleapis.com/v1/thumbnail?panoid=qiuCftH8JiJcVUbaSBxXKA&cb_client=maps_sv.tactile.gps&w=224&h=298&yaw=7.3202324&pitch=0&thumbfov=100"
            }
        ],
        "link": "https://www.google.com/maps/place/Masjid+Ayesha/data=!4m7!3m6!1s0x390c6ba8aee235fd:0xa885e90b6b636a2a!8m2!3d29.1604371!4d77.6181259!16s%2Fg%2F11gfn5x85t!19sChIJ_TXirqhrDDkRKmpjawvphag?authuser=0&hl=en&rclk=1",
        "coordinates": {
            "latitude": 29.1604371,
            "longitude": 77.6181259
        }
    },
    {
        "name": "Chhoti Masjid",
        "main_category": "Mosque",
        "address": "4HFR+V35 Chhoti Masjid, Sardhana, Meharmati Ganeshpur, Uttar Pradesh",
        "detailed_address": {
            "ward": null,
            "street": "4HFR+V35, Sardhana",
            "city": "Meharmati Ganeshpur, Mahermati",
            "postal_code": null,
            "state": "Uttar Pradesh",
            "country_code": "IN"
        },
        "images": [],
        "link": "https://www.google.com/maps/place/Chhoti+Masjid/data=!4m7!3m6!1s0x390c6a2388cb6539:0x6a26ba7a36ec6524!8m2!3d29.1246414!4d77.590247!16s%2Fg%2F11gg9j2zby!19sChIJOWXLiCNqDDkRJGXsNnq6Jmo?authuser=0&hl=en&rclk=1",
        "coordinates": {
            "latitude": 29.124641399999998,
            "longitude": 77.59024699999999
        }
    },
    {
        "name": "Makbare Wali Masjid",
        "main_category": "Mosque",
        "address": "4JR7+CG5 Makbare Wali Masjid, Sardhana, Uttar Pradesh 250342",
        "detailed_address": {
            "ward": null,
            "street": "4JR7+CG5",
            "city": "Sardhana",
            "postal_code": "250342",
            "state": "Uttar Pradesh",
            "country_code": "IN"
        },
        "images": [
            {
                "about": "All",
                "link": "https://streetviewpixels-pa.googleapis.com/v1/thumbnail?panoid=7EJWJouv2gqt-tIRRWtJjw&cb_client=maps_sv.tactile.gps&w=224&h=298&yaw=29.969276&pitch=0&thumbfov=100"
            },
            {
                "about": "Street View & 360deg",
                "link": "https://streetviewpixels-pa.googleapis.com/v1/thumbnail?panoid=7EJWJouv2gqt-tIRRWtJjw&cb_client=maps_sv.tactile.gps&w=224&h=298&yaw=29.969276&pitch=0&thumbfov=100"
            }
        ],
        "link": "https://www.google.com/maps/place/Makbare+Wali+Masjid/data=!4m7!3m6!1s0x390c6bc9f13b87dd:0x56798c433b813295!8m2!3d29.1410148!4d77.6138531!16s%2Fg%2F11csszcbtb!19sChIJ3Yc78clrDDkRlTKBO0OMeVY?authuser=0&hl=en&rclk=1",
        "coordinates": {
            "latitude": 29.141014799999997,
            "longitude": 77.6138531
        }
    },
    {
        "name": "Masjid shia bag",
        "main_category": "Mosque",
        "address": "5J2F+QC4 Masjid shia bag, Sardhana, Sardhana Rural, Uttar Pradesh 250342",
        "detailed_address": {
            "ward": null,
            "street": "5J2F+QC4",
            "city": "Sardhana, Sardhana Rural",
            "postal_code": "250342",
            "state": "Uttar Pradesh",
            "country_code": "IN"
        },
        "images": [
            {
                "about": "All",
                "link": "https://streetviewpixels-pa.googleapis.com/v1/thumbnail?panoid=rW0CgmYOjSCFyAwAc8CZlA&cb_client=maps_sv.tactile.gps&w=224&h=298&yaw=132.09622&pitch=0&thumbfov=100"
            },
            {
                "about": "Street View & 360deg",
                "link": "https://streetviewpixels-pa.googleapis.com/v1/thumbnail?panoid=rW0CgmYOjSCFyAwAc8CZlA&cb_client=maps_sv.tactile.gps&w=224&h=298&yaw=132.09622&pitch=0&thumbfov=100"
            }
        ],
        "link": "https://www.google.com/maps/place/Masjid+shia+bag/data=!4m7!3m6!1s0x390c6b9a933b92df:0x1e70ad8fca2ff039!8m2!3d29.1518934!4d77.6235684!16s%2Fg%2F11n60gcghw!19sChIJ35I7k5prDDkROfAvyo-tcB4?authuser=0&hl=en&rclk=1",
        "coordinates": {
            "latitude": 29.1518934,
            "longitude": 77.6235684
        }
    },
    {
        "name": "Badi masjid jag mohan nagar",
        "main_category": "Mosque",
        "address": "4JQ8+7MM Badi masjid jag mohan nagar, Sardhana, Uttar Pradesh 250342",
        "detailed_address": {
            "ward": null,
            "street": "4JQ8+7MM",
            "city": "Sardhana",
            "postal_code": "250342",
            "state": "Uttar Pradesh",
            "country_code": "IN"
        },
        "images": [
            {
                "about": "All",
                "link": "https://lh5.googleusercontent.com/p/AF1QipPOYbKUHrJUjqRK5jvYBW_s1WzenVYRLrenrZRt=w224-h298-k-no"
            }
        ],
        "link": "https://www.google.com/maps/place/Badi+masjid+jag+mohan+nagar/data=!4m7!3m6!1s0x390c6b9c35e29507:0x692fa6938dd0381f!8m2!3d29.1382118!4d77.6166696!16s%2Fg%2F11qnt2xjtp!19sChIJB5XiNZxrDDkRHzjQjZOmL2k?authuser=0&hl=en&rclk=1",
        "coordinates": {
            "latitude": 29.138211799999997,
            "longitude": 77.6166696
        }
    },
    {
        "name": "Mecca Chand Masjid",
        "main_category": "Mosque",
        "address": "4JV3+RH2 Mecca Chand Masjid, Sardhana, Uttar Pradesh 250342",
        "detailed_address": {
            "ward": null,
            "street": "4JV3+RH2",
            "city": "Sardhana",
            "postal_code": "250342",
            "state": "Uttar Pradesh",
            "country_code": "IN"
        },
        "images": [
            {
                "about": "All",
                "link": "https://streetviewpixels-pa.googleapis.com/v1/thumbnail?panoid=ni-IZtTAaIuJm6Jw0hTkIA&cb_client=maps_sv.tactile.gps&w=224&h=298&yaw=37.229862&pitch=0&thumbfov=100"
            },
            {
                "about": "Street View & 360deg",
                "link": "https://streetviewpixels-pa.googleapis.com/v1/thumbnail?panoid=ni-IZtTAaIuJm6Jw0hTkIA&cb_client=maps_sv.tactile.gps&w=224&h=298&yaw=37.229862&pitch=0&thumbfov=100"
            }
        ],
        "link": "https://www.google.com/maps/place/Mecca+Chand+Masjid/data=!4m7!3m6!1s0x390c6b2e0b5d1fc5:0x28aa936df68707a1!8m2!3d29.1445122!4d77.6038918!16s%2Fg%2F11f6kwm13m!19sChIJxR9dCy5rDDkRoQeH9m2Tqig?authuser=0&hl=en&rclk=1",
        "coordinates": {
            "latitude": 29.144512199999998,
            "longitude": 77.6038918
        }
    },
    {
        "name": "Masjid huzaifa raziyallah",
        "main_category": "Mosque",
        "address": "4JR8+MWF Masjid huzaifa raziyallah, Sardhana, Uttar Pradesh 250342",
        "detailed_address": {
            "ward": null,
            "street": "4JR8+MWF",
            "city": "Sardhana",
            "postal_code": "250342",
            "state": "Uttar Pradesh",
            "country_code": "IN"
        },
        "images": [],
        "link": "https://www.google.com/maps/place/Masjid+huzaifa+raziyallah/data=!4m7!3m6!1s0x390c6b26aa123729:0x3e9f615fa1a5b294!8m2!3d29.1416923!4d77.6172937!16s%2Fg%2F11lryb_bl1!19sChIJKTcSqiZrDDkRlLKloV9hnz4?authuser=0&hl=en&rclk=1",
        "coordinates": {
            "latitude": 29.1416923,
            "longitude": 77.61729369999999
        }
    },
    {
        "name": "Sabiri Masjid",
        "main_category": "Mosque",
        "address": "4JW8+2GP Sabiri Masjid, Chungi, kalad, Sardhana, Uttar Pradesh 250342",
        "detailed_address": {
            "ward": "kalad",
            "street": "4JW8+2GP, Chungi",
            "city": "Sardhana",
            "postal_code": "250342",
            "state": "Uttar Pradesh",
            "country_code": "IN"
        },
        "images": [
            {
                "about": "All",
                "link": "https://lh5.googleusercontent.com/p/AF1QipPQKbc2Gj0KOK0scGJK-SImwDFiQjfIHVpy7g6p=w224-h398-k-no"
            }
        ],
        "link": "https://www.google.com/maps/place/Sabiri+Masjid/data=!4m7!3m6!1s0x390c6bb700000001:0xc58b270b602f0411!8m2!3d29.145094!4d77.6163339!16s%2Fg%2F11gh0ly24m!19sChIJAQAAALdrDDkREQQvYAsni8U?authuser=0&hl=en&rclk=1",
        "coordinates": {
            "latitude": 29.145094,
            "longitude": 77.6163339
        }
    },
    {
        "name": "Masjid Abu Bakr",
        "main_category": "Mosque",
        "address": "5J26+5R5 Masjid Abu Bakr, Sardhana, Uttar Pradesh 250342",
        "detailed_address": {
            "ward": null,
            "street": "5J26+5R5",
            "city": "Sardhana",
            "postal_code": "250342",
            "state": "Uttar Pradesh",
            "country_code": "IN"
        },
        "images": [],
        "link": "https://www.google.com/maps/place/Masjid+Abu+Bakr/data=!4m7!3m6!1s0x390c6bb3caacb12b:0xe066e953bfb53424!8m2!3d29.1503956!4d77.61211!16s%2Fg%2F11fxx4c_f6!19sChIJK7GsyrNrDDkRJDS1v1PpZuA?authuser=0&hl=en&rclk=1",
        "coordinates": {
            "latitude": 29.1503956,
            "longitude": 77.61211
        }
    },
    {
        "name": "Masjid Abu Ayyub Ansari Gojjar.chok Kirachi",
        "main_category": "Mosque",
        "address": "4JR6+PHX Masjid Abu Ayyub Ansari Gojjar.chok Kirachi, mohalla takiya kait, sardhana, Sardhana",
        "detailed_address": {
            "ward": null,
            "street": "4JR6+PHX, mohalla takiya kait, sardhana",
            "city": "Sardhana",
            "postal_code": null,
            "state": "Uttar Pradesh",
            "country_code": "IN"
        },
        "images": [
            {
                "about": "All",
                "link": "https://lh5.googleusercontent.com/p/AF1QipO0En8O1rFzWwbJR5ROnl-hgaYGNiN-_3GgpkQS=w529-h298-k-no"
            },
            {
                "about": "Street View & 360deg",
                "link": "https://streetviewpixels-pa.googleapis.com/v1/thumbnail?panoid=niPGTfJZHzpLZB7CZn4TvA&cb_client=maps_sv.tactile.gps&w=224&h=298&yaw=184.59995&pitch=0&thumbfov=100"
            }
        ],
        "link": "https://www.google.com/maps/place/Masjid+Abu+Ayyub+Ansari+Gojjar.chok+Kirachi/data=!4m7!3m6!1s0x390c6bb58887315b:0x33c05b10c0792297!8m2!3d29.1418644!4d77.611469!16s%2Fg%2F11bxfr45zr!19sChIJWzGHiLVrDDkRlyJ5wBBbwDM?authuser=0&hl=en&rclk=1",
        "coordinates": {
            "latitude": 29.1418644,
            "longitude": 77.611469
        }
    },
    {
        "name": "Bilal Masjid",
        "main_category": "Mosque",
        "address": "4JV7+FXM Bilal Masjid, Sardhana, Uttar Pradesh 250342",
        "detailed_address": {
            "ward": null,
            "street": "4JV7+FXM",
            "city": "Sardhana",
            "postal_code": "250342",
            "state": "Uttar Pradesh",
            "country_code": "IN"
        },
        "images": [],
        "link": "https://www.google.com/maps/place/Bilal+Masjid/data=!4m7!3m6!1s0x390c6b9c2ce0a369:0xd634e4bb65a028aa!8m2!3d29.1437164!4d77.6149107!16s%2Fg%2F11p16myvf5!19sChIJaaPgLJxrDDkRqiigZbvkNNY?authuser=0&hl=en&rclk=1",
        "coordinates": {
            "latitude": 29.1437164,
            "longitude": 77.6149107
        }
    },
    {
        "name": "Makka masjid",
        "main_category": "Mosque",
        "address": "5J23+G68 Makka masjid, Sardhana, Uttar Pradesh 250342",
        "detailed_address": {
            "ward": null,
            "street": "5J23+G68",
            "city": "Sardhana",
            "postal_code": "250342",
            "state": "Uttar Pradesh",
            "country_code": "IN"
        },
        "images": [],
        "link": "https://www.google.com/maps/place/Makka+masjid/data=!4m7!3m6!1s0x390c6b15e35c6e29:0xc11868e31a67dadb!8m2!3d29.1512802!4d77.603079!16s%2Fg%2F11hxs9t63b!19sChIJKW5c4xVrDDkR29pnGuNoGME?authuser=0&hl=en&rclk=1",
        "coordinates": {
            "latitude": 29.1512802,
            "longitude": 77.603079
        }
    },
    {
        "name": "Fatima Masjid",
        "main_category": "Mosque",
        "address": "5J29+6X3 Fatima Masjid, Sardhana, Uttar Pradesh 250342",
        "detailed_address": {
            "ward": null,
            "street": "5J29+6X3",
            "city": "Sardhana",
            "postal_code": "250342",
            "state": "Uttar Pradesh",
            "country_code": "IN"
        },
        "images": [],
        "link": "https://www.google.com/maps/place/Fatima+Masjid/data=!4m7!3m6!1s0x390c6bdc1e06e063:0x366c3b5d988b969d!8m2!3d29.1505146!4d77.6199186!16s%2Fg%2F11jqy_l9vw!19sChIJY-AGHtxrDDkRnZaLmF07bDY?authuser=0&hl=en&rclk=1",
        "coordinates": {
            "latitude": 29.150514599999998,
            "longitude": 77.61991859999999
        }
    },
    {
        "name": "Chhoti Masjid",
        "main_category": "Mosque",
        "address": "5J23+CXG Chhoti Masjid, Sardhana, Uttar Pradesh 250342",
        "detailed_address": {
            "ward": null,
            "street": "5J23+CXG",
            "city": "Sardhana",
            "postal_code": "250342",
            "state": "Uttar Pradesh",
            "country_code": "IN"
        },
        "images": [],
        "link": "https://www.google.com/maps/place/Chhoti+Masjid/data=!4m7!3m6!1s0x390c6b71b47a6669:0x4146b35f16cce57!8m2!3d29.1510578!4d77.6049643!16s%2Fg%2F11lg_2pk0z!19sChIJaWZ6tHFrDDkRV85s8TVrFAQ?authuser=0&hl=en&rclk=1",
        "coordinates": {
            "latitude": 29.1510578,
            "longitude": 77.60496429999999
        }
    },
    {
        "name": "Chhoti masjid",
        "main_category": "Mosque",
        "address": "4JQ5+Q5X Chhoti masjid, Sardhana, Uttar Pradesh 250342",
        "detailed_address": {
            "ward": null,
            "street": "4JQ5+Q5X",
            "city": "Sardhana",
            "postal_code": "250342",
            "state": "Uttar Pradesh",
            "country_code": "IN"
        },
        "images": [],
        "link": "https://www.google.com/maps/place/Chhoti+masjid/data=!4m7!3m6!1s0x390c6b7fc8203069:0x15c44fd1642be6e8!8m2!3d29.1394824!4d77.6079779!16s%2Fg%2F11mv9r1t8h!19sChIJaTAgyH9rDDkR6OYrZNFPxBU?authuser=0&hl=en&rclk=1",
        "coordinates": {
            "latitude": 29.1394824,
            "longitude": 77.6079779
        }
    },
    {
        "name": "Chhoti Masjid Jag Monhan Nagar",
        "main_category": "Mosque",
        "address": "4JQ8+JJQ Chhoti Masjid Jag Monhan Nagar, Sardhana, Uttar Pradesh 250342",
        "detailed_address": {
            "ward": null,
            "street": "4JQ8+JJQ",
            "city": "Sardhana",
            "postal_code": "250342",
            "state": "Uttar Pradesh",
            "country_code": "IN"
        },
        "images": [],
        "link": "https://www.google.com/maps/place/Chhoti+Masjid+Jag+Monhan+Nagar/data=!4m7!3m6!1s0x390c6b7a59615f75:0x83eb7159cee92bce!8m2!3d29.139092!4d77.6165942!16s%2Fg%2F11lfkxhx6y!19sChIJdV9hWXprDDkRzivpzllx64M?authuser=0&hl=en&rclk=1",
        "coordinates": {
            "latitude": 29.139091999999998,
            "longitude": 77.6165942
        }
    },
    {
        "name": "Noor masjid Islamabad",
        "main_category": "Mosque",
        "address": "4JR6+CF8 Noor masjid Islamabad, Sardhana, Uttar Pradesh 250342",
        "detailed_address": {
            "ward": null,
            "street": "4JR6+CF8",
            "city": "Sardhana",
            "postal_code": "250342",
            "state": "Uttar Pradesh",
            "country_code": "IN"
        },
        "images": [],
        "link": "https://www.google.com/maps/place/Noor+masjid+Islamabad/data=!4m7!3m6!1s0x390c6b6071e9919b:0x3555ac5619657a2c!8m2!3d29.1410261!4d77.6112071!16s%2Fg%2F11mb_k8m46!19sChIJm5HpcWBrDDkRLHplGVasVTU?authuser=0&hl=en&rclk=1",
        "coordinates": {
            "latitude": 29.141026099999998,
            "longitude": 77.6112071
        }
    },
    {
        "name": "Masjid sarai musafiran",
        "main_category": "Mosque",
        "address": "4JV7+89C Masjid sarai musafiran, Sardhana, Uttar Pradesh 250342",
        "detailed_address": {
            "ward": null,
            "street": "4JV7+89C",
            "city": "Sardhana",
            "postal_code": "250342",
            "state": "Uttar Pradesh",
            "country_code": "IN"
        },
        "images": [],
        "link": "https://www.google.com/maps/place/Masjid+sarai+musafiran/data=!4m7!3m6!1s0x390c6be228ba4ec1:0xba2c198e769c306b!8m2!3d29.1433138!4d77.6133998!16s%2Fg%2F11lfkx26h6!19sChIJwU66KOJrDDkRazCcdo4ZLLo?authuser=0&hl=en&rclk=1",
        "coordinates": {
            "latitude": 29.143313799999998,
            "longitude": 77.6133998
        }
    }
]