[
    {
        "name": "JAMA MASJID DASUYA",
        "main_category": "Mosque",
        "address": "RM75+6MF JAMA MASJID DASUYA, Moti Nagar, Dasuya, Punjab 144205",
        "detailed_address": {
            "ward": "Moti Nagar",
            "street": "RM75+6MF",
            "city": "Dasuya",
            "postal_code": "144205",
            "state": "Punjab",
            "country_code": "IN"
        },
        "images": [
            {
                "about": "All",
                "link": "https://lh5.googleusercontent.com/p/AF1QipNDUBGOTEcn5gmOGqaT-Xxa_R_I6YQ9TeEXCQVM=w397-h298-k-no"
            },
            {
                "about": "Dome",
                "link": "https://lh5.googleusercontent.com/p/AF1QipPL6Pga6jqVabwHXbXXARtR3Vk7V5Ml0poFwft4=w224-h298-k-no"
            }
        ],
        "link": "https://www.google.com/maps/place/JAMA+MASJID+DASUYA/data=!4m7!3m6!1s0x391ba12c5c687329:0x69ae85c8b2a620d0!8m2!3d31.8130709!4d75.6591846!16s%2Fg%2F11d_8lvns2!19sChIJKXNoXCyhGzkR0CCmssiFrmk?authuser=0&hl=en&rclk=1",
        "coordinates": {
            "latitude": 31.8130709,
            "longitude": 75.6591846
        }
    },
    {
        "name": "Dargah Deewan Shah Ji Hardo Thalla",
        "main_category": "Mosque",
        "address": "RMCC+FVJ Dargah Deewan Shah Ji Hardo Thalla, Hardo Thallan, Dasuya, Punjab 144205",
        "detailed_address": {
            "ward": "Hardo Thallan",
            "street": "RMCC+FVJ",
            "city": "Dasuya",
            "postal_code": "144205",
            "state": "Punjab",
            "country_code": "IN"
        },
        "images": [
            {
                "about": "All",
                "link": "https://lh5.googleusercontent.com/p/AF1QipNi8rkkNPvYwUyXutNnRW308S7_UtbfvHVIGkKs=w397-h298-k-no"
            },
            {
                "about": "Dome",
                "link": "https://lh5.googleusercontent.com/p/AF1QipOhkKuLvRBYy8lsvnaSPCQT5T1e7K6AYd9bFHIl=w397-h298-k-no"
            }
        ],
        "link": "https://www.google.com/maps/place/Dargah+Deewan+Shah+Ji+Hardo+Thalla/data=!4m7!3m6!1s0x391ba0d746bcaa69:0xa31e4686ef216a67!8m2!3d31.8212161!4d75.6721511!16s%2Fg%2F11f1289yj8!19sChIJaaq8RtegGzkRZ2oh74ZGHqM?authuser=0&hl=en&rclk=1",
        "coordinates": {
            "latitude": 31.821216099999997,
            "longitude": 75.6721511
        }
    },
    {
        "name": "Dargah Kulalam Shah Ji (Naugajha Peer Ji)",
        "main_category": "Mosque",
        "address": "RM83+857 Dargah Kulalam Shah Ji (Naugajha Peer Ji), old city, Dasuya, Punjab 144205",
        "detailed_address": {
            "ward": "old city",
            "street": "RM83+857",
            "city": "Dasuya",
            "postal_code": "144205",
            "state": "Punjab",
            "country_code": "IN"
        },
        "images": [
            {
                "about": "All",
                "link": "https://lh5.googleusercontent.com/p/AF1QipOypHVM4ELWEgb4JobVQpPLN-etMZkAe21pUESV=w397-h298-k-no"
            }
        ],
        "link": "https://www.google.com/maps/place/Dargah+Kulalam+Shah+Ji+%28Naugajha+Peer+Ji%29/data=!4m7!3m6!1s0x391ba131757d61c9:0x7edede9f63f67c9f!8m2!3d31.8157848!4d75.652917!16s%2Fg%2F11fxzqk00b!19sChIJyWF9dTGhGzkRn3z2Y5_e3n4?authuser=0&hl=en&rclk=1",
        "coordinates": {
            "latitude": 31.8157848,
            "longitude": 75.652917
        }
    },
    {
        "name": "Eid Gah Madina Masjid",
        "main_category": "Mosque",
        "address": "Eid Gah Madina Masjid, Eid Gah Rd, Dasuya, Punjab 144205",
        "detailed_address": {
            "ward": null,
            "street": "Eid Gah Rd",
            "city": "Dasuya",
            "postal_code": "144205",
            "state": "Punjab",
            "country_code": "IN"
        },
        "images": [
            {
                "about": "All",
                "link": "https://lh5.googleusercontent.com/p/AF1QipP7uOFAa1bseI3PF62jsQxkUzqvsCcEaTbwXYdq=w224-h298-k-no"
            },
            {
                "about": "By owner",
                "link": "https://lh5.googleusercontent.com/p/AF1QipNaVijxmU7JT3k6PZoxDGfsHV66i7V1X_IyDvfZ=w224-h398-k-no"
            },
            {
                "about": "Videos",
                "link": "https://lh5.googleusercontent.com/p/AF1QipPJNa5eIPSypYD_1nnmZ8pwVFoZ6qkV_jLlMQec=w224-h398-k-no"
            }
        ],
        "link": "https://www.google.com/maps/place/Eid+Gah+Madina+Masjid/data=!4m7!3m6!1s0x391ba72313223b4f:0xe5621ad7c1455a0a!8m2!3d31.7934259!4d75.6769795!16s%2Fg%2F11f1w8mgrx!19sChIJTzsiEyOnGzkRClpFwdcaYuU?authuser=0&hl=en&rclk=1",
        "coordinates": {
            "latitude": 31.7934259,
            "longitude": 75.6769795
        }
    },
    {
        "name": "nuuraanii msjid",
        "main_category": "Mosque",
        "address": "QMXG+FQ2 nuuraanii msjid, Keharvali, Dasuya, Punjab 144205",
        "detailed_address": {
            "ward": "Keharvali",
            "street": "QMXG+FQ2",
            "city": "Dasuya",
            "postal_code": "144205",
            "state": "Punjab",
            "country_code": "IN"
        },
        "images": [
            {
                "about": "All",
                "link": "https://lh5.googleusercontent.com/p/AF1QipNBzoajymr16tzYVNv69EPfBBGNoLwa3wUFE7eN=w397-h298-k-no"
            },
            {
                "about": "Videos",
                "link": "https://lh5.googleusercontent.com/p/AF1QipNivLPkGutqzDR7dpl3lqL_xoCn9tWnKcMdwoI=w224-h398-k-no"
            }
        ],
        "link": "https://www.google.com/maps/place/%E0%A4%A8%E0%A5%82%E0%A4%B0%E0%A4%BE%E0%A4%A8%E0%A5%80+%E0%A4%AE%E0%A4%B8%E0%A5%8D%E0%A4%9C%E0%A4%BF%E0%A4%A6/data=!4m7!3m6!1s0x391ba7251053323d:0x5c6b28320a8ea4df!8m2!3d31.7986497!4d75.676887!16s%2Fg%2F11gdy2p339!19sChIJPTJTECWnGzkR36SOCjIoa1w?authuser=0&hl=en&rclk=1",
        "coordinates": {
            "latitude": 31.7986497,
            "longitude": 75.676887
        }
    },
    {
        "name": "Dargah Peer Baba Hazrat Shah Ji",
        "main_category": "Mosque",
        "address": "RM82+RQ6 Dargah Peer Baba Hazrat Shah Ji, old city, Dasuya, Punjab 144205",
        "detailed_address": {
            "ward": "old city",
            "street": "RM82+RQ6",
            "city": "Dasuya",
            "postal_code": "144205",
            "state": "Punjab",
            "country_code": "IN"
        },
        "images": [
            {
                "about": "All",
                "link": "https://lh5.googleusercontent.com/p/AF1QipMp05JeuHeeMA3B5tFAut5G4poAiuWBUr3zTOdB=w397-h298-k-no"
            }
        ],
        "link": "https://www.google.com/maps/place/Dargah+Peer+Baba+Hazrat+Shah+Ji/data=!4m7!3m6!1s0x391ba1311d00721d:0x28cdbc4d3a279de0!8m2!3d31.8170385!4d75.6519053!16s%2Fg%2F11g9k1pg1v!19sChIJHXIAHTGhGzkR4J0nOk28zSg?authuser=0&hl=en&rclk=1",
        "coordinates": {
            "latitude": 31.8170385,
            "longitude": 75.6519053
        }
    },
    {
        "name": "Masjid Nihalpur Dasuya",
        "main_category": "Mosque",
        "address": "QMW7+Q9H Masjid Nihalpur Dasuya, Dharmpura, Dasuya, Nihalpur, Punjab 144205",
        "detailed_address": {
            "ward": "Dharmpura",
            "street": "QMW7+Q9H",
            "city": "Dasuya, Nihalpur",
            "postal_code": "144205",
            "state": "Punjab",
            "country_code": "IN"
        },
        "images": [],
        "link": "https://www.google.com/maps/place/Masjid+Nihalpur+Dasuya/data=!4m7!3m6!1s0x391ba6d998675079:0xc535b23e62702326!8m2!3d31.7969494!4d75.6634959!16s%2Fg%2F11f1wmmphx!19sChIJeVBnmNmmGzkRJiNwYj6yNcU?authuser=0&hl=en&rclk=1",
        "coordinates": {
            "latitude": 31.7969494,
            "longitude": 75.6634959
        }
    },
    {
        "name": "Masjid Bodla",
        "main_category": "Mosque",
        "address": "QMMF+4WH Masjid Bodla, Main Road, Dasuya, Punjab 144205",
        "detailed_address": {
            "ward": null,
            "street": "QMMF+4WH, Main Road",
            "city": "Dasuya",
            "postal_code": "144205",
            "state": "Punjab",
            "country_code": "IN"
        },
        "images": [],
        "link": "https://www.google.com/maps/place/Masjid+Bodla/data=!4m7!3m6!1s0x391ba71bc317d6ff:0x9ba52e936faa3358!8m2!3d31.7828001!4d75.6748642!16s%2Fg%2F11f28f1r0c!19sChIJ_9YXwxunGzkRWDOqb5MupZs?authuser=0&hl=en&rclk=1",
        "coordinates": {
            "latitude": 31.7828001,
            "longitude": 75.6748642
        }
    },
    {
        "name": "Eid Gah Wali Masjid `yd gh dswh",
        "main_category": "Mosque",
        "address": "QMVG+9Q5 Eid Gah Wali Masjid `yd gh dswh, Dasuya, Punjab 144205",
        "detailed_address": {
            "ward": null,
            "street": "QMVG+9Q5",
            "city": "Dasuya",
            "postal_code": null,
            "state": "Punjab",
            "country_code": "IN"
        },
        "images": [
            {
                "about": "All",
                "link": "https://lh5.googleusercontent.com/p/AF1QipOMj5rE7fvQ0Q8RmvRU3gJ-p2x8wT8nb_gpsj6Y=w397-h298-k-no"
            }
        ],
        "link": "https://www.google.com/maps/place/Eid+Gah+Wali+Masjid+%D8%B9%DB%8C%D8%AF+%DA%AF%D8%A7%DB%81+%D8%AF%D8%B3%D9%88%DB%81%D8%A7%E2%80%AD/data=!4m7!3m6!1s0x391ba723130298a9:0x78800a695be721da!8m2!3d31.7933919!4d75.6769692!16s%2Fg%2F11gf06qwk9!19sChIJqZgCEyOnGzkR2iHnW2kKgHg?authuser=0&hl=en&rclk=1",
        "coordinates": {
            "latitude": 31.7933919,
            "longitude": 75.6769692
        }
    },
    {
        "name": "iidgaah vaalii msjid",
        "main_category": "Mosque",
        "address": "QMVG+5MF iidgaah vaalii msjid, Dasuya, Punjab 144205",
        "detailed_address": {
            "ward": null,
            "street": "QMVG+5MF",
            "city": "Dasuya",
            "postal_code": null,
            "state": "Punjab",
            "country_code": "IN"
        },
        "images": [
            {
                "about": "All",
                "link": "https://lh5.googleusercontent.com/p/AF1QipMdXd11lgAXR95LPn3E8PCNC20HIMAsTOTblBx-=w529-h298-k-no"
            }
        ],
        "link": "https://www.google.com/maps/place/%E0%A4%88%E0%A4%A6%E0%A4%97%E0%A4%BE%E0%A4%B9+%E0%A4%B5%E0%A4%BE%E0%A4%B2%E0%A5%80+%E0%A4%AE%E0%A4%B8%E0%A5%8D%E0%A4%9C%E0%A4%BF%E0%A4%A6/data=!4m7!3m6!1s0x391ba7230f9f53f1:0x73e9cbc592cab044!8m2!3d31.7929367!4d75.676666!16s%2Fg%2F11h9yv2kty!19sChIJ8VOfDyOnGzkRRLDKksXL6XM?authuser=0&hl=en&rclk=1",
        "coordinates": {
            "latitude": 31.7929367,
            "longitude": 75.676666
        }
    },
    {
        "name": "Baba Bodiyan Dargah",
        "main_category": "Mosque",
        "address": "RJFQ+8HH Baba Bodiyan Dargah, Saheed Parshotam Lal Bittu Rd, old city, Dasuya, Ashrafpur, Punjab 144205",
        "detailed_address": {
            "ward": "old city",
            "street": "RJFQ+8HH, Saheed Parshotam Lal Bittu Rd",
            "city": "Dasuya, Ashrafpur",
            "postal_code": "144205",
            "state": "Punjab",
            "country_code": "IN"
        },
        "images": [],
        "link": "https://www.google.com/maps/place/Baba+Bodiyan+Dargah/data=!4m7!3m6!1s0x391ba113b48d2837:0xc58f53d5b6eee64!8m2!3d31.8233155!4d75.6389965!16s%2Fg%2F11fv4xdr9p!19sChIJNyiNtBOhGzkRZO5uWz31WAw?authuser=0&hl=en&rclk=1",
        "coordinates": {
            "latitude": 31.8233155,
            "longitude": 75.63899649999999
        }
    },
    {
        "name": "Noorani masjid",
        "main_category": "Mosque",
        "address": "Noorani masjid, Keharvali, Dasuya, Punjab 144205",
        "detailed_address": {
            "ward": "Keharvali",
            "street": null,
            "city": "Dasuya",
            "postal_code": "144205",
            "state": "Punjab",
            "country_code": "IN"
        },
        "images": [],
        "link": "https://www.google.com/maps/place/Noorani+masjid/data=!4m7!3m6!1s0x391ba7251032a29f:0x558c05916da0a36b!8m2!3d31.7985778!4d75.676854!16s%2Fg%2F11f377yg1p!19sChIJn6IyECWnGzkRa6OgbZEFjFU?authuser=0&hl=en&rclk=1",
        "coordinates": {
            "latitude": 31.7985778,
            "longitude": 75.67685399999999
        }
    },
    {
        "name": "Jama masjid GT road punjab",
        "main_category": "Mosque",
        "address": "RM75+7M6 Jama masjid GT road punjab, Moti Nagar, Dasuya, Punjab 144205",
        "detailed_address": {
            "ward": "Moti Nagar",
            "street": "RM75+7M6",
            "city": "Dasuya",
            "postal_code": "144205",
            "state": "Punjab",
            "country_code": "IN"
        },
        "images": [],
        "link": "https://www.google.com/maps/place/Jama+masjid+GT+road+punjab/data=!4m7!3m6!1s0x391ba168522e60e9:0xc6c65fcd641ea991!8m2!3d31.8131796!4d75.6591678!16s%2Fg%2F11v5b7r2vy!19sChIJ6WAuUmihGzkRkakeZM1fxsY?authuser=0&hl=en&rclk=1",
        "coordinates": {
            "latitude": 31.813179599999998,
            "longitude": 75.65916779999999
        }
    },
    {
        "name": "Mosque",
        "main_category": "Mosque",
        "address": "RM75+8M7 Mosque, Moti Nagar, Dasuya, Punjab 144205",
        "detailed_address": {
            "ward": "Moti Nagar",
            "street": "RM75+8M7",
            "city": "Dasuya",
            "postal_code": "144205",
            "state": "Punjab",
            "country_code": "IN"
        },
        "images": [],
        "link": "https://www.google.com/maps/place/Mosque/data=!4m7!3m6!1s0x391ba1b1ce08e299:0x4800e0753910e408!8m2!3d31.8132712!4d75.6592253!16s%2Fg%2F11vf8vls6_!19sChIJmeIIzrGhGzkRCOQQOXXgAEg?authuser=0&hl=en&rclk=1",
        "coordinates": {
            "latitude": 31.8132712,
            "longitude": 75.6592253
        }
    },
    {
        "name": "mdiinaa msjid",
        "main_category": "Mosque",
        "address": "QMVG+5MF mdiinaa msjid, Dasuya, Punjab 144205",
        "detailed_address": {
            "ward": null,
            "street": "QMVG+5MF",
            "city": "Dasuya",
            "postal_code": null,
            "state": "Punjab",
            "country_code": "IN"
        },
        "images": [
            {
                "about": "All",
                "link": "https://lh5.googleusercontent.com/p/AF1QipMGvu_vgk2gBfJE5rRv3LtHNTgPpNjgvFyGNweH=w529-h298-k-no"
            }
        ],
        "link": "https://www.google.com/maps/place/%E0%A4%AE%E0%A4%A6%E0%A5%80%E0%A4%A8%E0%A4%BE+%E0%A4%AE%E0%A4%B8%E0%A5%8D%E0%A4%9C%E0%A4%BF%E0%A4%A6/data=!4m7!3m6!1s0x391ba7230f0cd13d:0x9f54ded54b11860!8m2!3d31.7929335!4d75.676666!16s%2Fg%2F11gf19l20y!19sChIJPdEMDyOnGzkRYBixVO1N9Qk?authuser=0&hl=en&rclk=1",
        "coordinates": {
            "latitude": 31.7929335,
            "longitude": 75.676666
        }
    },
    {
        "name": "Masjid randhawa dasuya",
        "main_category": "Mosque",
        "address": "QPC4+MG Masjid randhawa dasuya, Nussa, Punjab 144205",
        "detailed_address": {
            "ward": null,
            "street": "QPC4+MG",
            "city": "Nussa",
            "postal_code": null,
            "state": "Punjab",
            "country_code": "IN"
        },
        "images": [],
        "link": "https://www.google.com/maps/place/Masjid+randhawa+dasuya/data=!4m7!3m6!1s0x391ba76f69050a7d:0xe29eb62f885ea08a!8m2!3d31.7716733!4d75.7063546!16s%2Fg%2F11vhcc9tck!19sChIJfQoFaW-nGzkRiqBeiC-2nuI?authuser=0&hl=en&rclk=1",
        "coordinates": {
            "latitude": 31.7716733,
            "longitude": 75.7063546
        }
    }
]