[
    {
        "name": "Aahele-Sunnat Sabun Pura Masjid",
        "main_category": "Mosque",
        "address": "Aahele-Sunnat Sabun Pura Masjid, Arham Nivas, 2, Sarafa Bazar Rd, Pratap Chowk, Shivaji Nagar, Lonar, Maharashtra 443302",
        "detailed_address": {
            "ward": "Pratap Chowk, Shivaji Nagar",
            "street": "Arham Nivas, 2, Sarafa Bazar Rd",
            "city": "Lonar",
            "postal_code": "443302",
            "state": "Maharashtra",
            "country_code": "IN"
        },
        "images": [
            {
                "about": "All",
                "link": "https://lh5.googleusercontent.com/p/AF1QipPzbAg-rHZDIAfLXMiVk6f2jdEh3cQZ8e36Dw9f=w496-h298-k-no"
            },
            {
                "about": "Dome",
                "link": "https://lh5.googleusercontent.com/p/AF1QipNDjb4xLciaHPljRpvDXJ89XqO9BvfkMN5nrqI=w397-h298-k-no"
            }
        ],
        "link": "https://www.google.com/maps/place/Aahele-Sunnat+Sabun+Pura+Masjid/data=!4m7!3m6!1s0x3bd0833bbabd9019:0xf42c417e0823f52a!8m2!3d19.9860434!4d76.5178388!16s%2Fg%2F11c5d5bjfs!19sChIJGZC9ujuD0DsRKvUjCH5BLPQ?authuser=0&hl=en&rclk=1",
        "coordinates": {
            "latitude": 19.9860434,
            "longitude": 76.51783879999999
        }
    },
    {
        "name": "Jama Masjid ( Aahele Sunnat )",
        "main_category": "Mosque",
        "address": "XGPC+F8P Jama Masjid ( Aahele Sunnat ), Dhar road, Jama Masjid Rd, Chawk, Lonar, Maharashtra 443302",
        "detailed_address": {
            "ward": "Chawk",
            "street": "XGPC+F8P, Dhar road, Jama Masjid Rd",
            "city": "Lonar",
            "postal_code": "443302",
            "state": "Maharashtra",
            "country_code": "IN"
        },
        "images": [
            {
                "about": "All",
                "link": "https://lh5.googleusercontent.com/p/AF1QipMKIJEq7b6n6uSrz1e98Z7zOzli0mb35FqiK4sM=w224-h375-k-no"
            },
            {
                "about": "Dome",
                "link": "https://lh5.googleusercontent.com/p/AF1QipOztAV6LKTfMi6UuQvNglzXZvRqdUj81qZPBO6l=w224-h317-k-no"
            }
        ],
        "link": "https://www.google.com/maps/place/Jama+Masjid+%28+Aahele+Sunnat+%29/data=!4m7!3m6!1s0x3bd083396e4ca24b:0x6bf41aeab1e283ca!8m2!3d19.986218!4d76.5208278!16s%2Fg%2F11c3wtp7ds!19sChIJS6JMbjmD0DsRyoPiseoa9Gs?authuser=0&hl=en&rclk=1",
        "coordinates": {
            "latitude": 19.986217999999997,
            "longitude": 76.52082779999999
        }
    },
    {
        "name": "Gausiya Masjid",
        "main_category": "Mosque",
        "address": "XGJF+FF7 Gausiya Masjid, Patel Nagar, Lonar, Maharashtra 443302",
        "detailed_address": {
            "ward": "Patel Nagar",
            "street": "XGJF+FF7",
            "city": "Lonar",
            "postal_code": "443302",
            "state": "Maharashtra",
            "country_code": "IN"
        },
        "images": [],
        "link": "https://www.google.com/maps/place/Gausiya+Masjid/data=!4m7!3m6!1s0x3bd0833fa6673ddb:0xd924f8291464e845!8m2!3d19.9811687!4d76.5236857!16s%2Fg%2F11f2v0bsmr!19sChIJ2z1npj-D0DsRRehkFCn4JNk?authuser=0&hl=en&rclk=1",
        "coordinates": {
            "latitude": 19.981168699999998,
            "longitude": 76.5236857
        }
    },
    {
        "name": "Qadriya Masjid",
        "main_category": "Mosque",
        "address": "XGQG+6FW Qadriya Masjid, Azad Nagar, Wadgaon, Lonar, Maharashtra 443302",
        "detailed_address": {
            "ward": "Azad Nagar, Wadgaon",
            "street": "XGQG+6FW",
            "city": "Lonar",
            "postal_code": "443302",
            "state": "Maharashtra",
            "country_code": "IN"
        },
        "images": [
            {
                "about": "All",
                "link": "https://lh5.googleusercontent.com/p/AF1QipMnO3IGtuiP-5l3CthOX55kNKA4nmpE91g7lrpk=w224-h392-k-no"
            },
            {
                "about": "Dome",
                "link": "https://lh5.googleusercontent.com/p/AF1QipMnO3IGtuiP-5l3CthOX55kNKA4nmpE91g7lrpk=w224-h392-k-no"
            },
            {
                "about": "Videos",
                "link": "https://lh5.googleusercontent.com/p/AF1QipPKnvOx9gHn9muWba5BN7DIOHp5oZi4rrrdNvsx=w529-h298-k-no"
            }
        ],
        "link": "https://www.google.com/maps/place/Qadriya+Masjid/data=!4m7!3m6!1s0x3bd0834785a239a7:0x6700861c56cdd5e1!8m2!3d19.9881078!4d76.5262154!16s%2Fg%2F11gck5v0l4!19sChIJpzmihUeD0DsR4dXNVhyGAGc?authuser=0&hl=en&rclk=1",
        "coordinates": {
            "latitude": 19.988107799999998,
            "longitude": 76.5262154
        }
    },
    {
        "name": "Khalid Bin Walid Masjid",
        "main_category": "Mosque",
        "address": "XGP9+FVP Khalid Bin Walid Masjid, Pratap Chowk, Shivaji Nagar, Lonar, Maharashtra 443302",
        "detailed_address": {
            "ward": "Pratap Chowk, Shivaji Nagar",
            "street": "XGP9+FVP",
            "city": "Lonar",
            "postal_code": "443302",
            "state": "Maharashtra",
            "country_code": "IN"
        },
        "images": [
            {
                "about": "All",
                "link": "https://lh5.googleusercontent.com/p/AF1QipP1avN1S2-dBXYEdO73SHXUDLoZ2xeYtaG50_wt=w397-h298-k-no"
            }
        ],
        "link": "https://www.google.com/maps/place/Khalid+Bin+Walid+Masjid/data=!4m7!3m6!1s0x3bd0837d78748903:0x550702bd98d02643!8m2!3d19.9862177!4d76.5196939!16s%2Fg%2F11g04775b0!19sChIJA4l0eH2D0DsRQybQmL0CB1U?authuser=0&hl=en&rclk=1",
        "coordinates": {
            "latitude": 19.986217699999997,
            "longitude": 76.5196939
        }
    },
    {
        "name": "Jama Masjid Chawk",
        "main_category": "School",
        "address": "XGPC+M6P Jama Masjid Chawk, Dhar Rd, Shivaji Nagar, Lonar, Maharashtra 443302",
        "detailed_address": {
            "ward": "Shivaji Nagar",
            "street": "XGPC+M6P, Dhar Rd",
            "city": "Lonar",
            "postal_code": "443302",
            "state": "Maharashtra",
            "country_code": "IN"
        },
        "images": [
            {
                "about": "All",
                "link": "https://lh5.googleusercontent.com/p/AF1QipNVhHuYqGYF2Y1PsjChM02OeNBRzyrsV4UmKzGO=w396-h298-k-no"
            },
            {
                "about": "Building",
                "link": "https://lh5.googleusercontent.com/p/AF1QipPzoXBM1A4QiAzXHw2cM8UK-LDIgcYrQ0sh9jET=w396-h298-k-no"
            },
            {
                "about": "Street View & 360deg",
                "link": "https://streetviewpixels-pa.googleapis.com/v1/thumbnail?panoid=xRfVAr6mMI1Q_kCtySGZ5Q&cb_client=maps_sv.tactile.gps&w=224&h=298&yaw=330.62207&pitch=0&thumbfov=100"
            }
        ],
        "link": "https://www.google.com/maps/place/Jama+Masjid+Chawk/data=!4m7!3m6!1s0x3bd0830d12ecabed:0xbdc73e4d7b32783b!8m2!3d19.9867237!4d76.5205916!16s%2Fg%2F11fjn2zzg1!19sChIJ7avsEg2D0DsRO3gye00-x70?authuser=0&hl=en&rclk=1",
        "coordinates": {
            "latitude": 19.9867237,
            "longitude": 76.5205916
        }
    },
    {
        "name": "KGN PLASTIC JAMA MASJID CHOK LONAR",
        "main_category": "Shopping mall",
        "address": "XGPC+6PR KGN PLASTIC JAMA MASJID CHOK LONAR, Shivaji Nagar, Lonar, Maharashtra 443302",
        "detailed_address": {
            "ward": "Shivaji Nagar",
            "street": "XGPC+6PR",
            "city": "Lonar",
            "postal_code": "443302",
            "state": "Maharashtra",
            "country_code": "IN"
        },
        "images": [
            {
                "about": "All",
                "link": "https://lh5.googleusercontent.com/p/AF1QipMnXoqrs-FakYipXbmizYSJ7gJFupLuAJc7chsG=w224-h398-k-no"
            },
            {
                "about": "Inside",
                "link": "https://lh5.googleusercontent.com/p/AF1QipMnXoqrs-FakYipXbmizYSJ7gJFupLuAJc7chsG=w224-h398-k-no"
            }
        ],
        "link": "https://www.google.com/maps/place/KGN+PLASTIC+JAMA+MASJID+CHOK+LONAR/data=!4m7!3m6!1s0x3bd083a1045b8c45:0x5d3f99b7d1b0458f!8m2!3d19.985607!4d76.5217652!16s%2Fg%2F11kv4fgh2b!19sChIJRYxbBKGD0DsRj0Ww0beZP10?authuser=0&hl=en&rclk=1",
        "coordinates": {
            "latitude": 19.985606999999998,
            "longitude": 76.52176519999999
        }
    },
    {
        "name": "Mohammadi Masjid",
        "main_category": "Mosque",
        "address": "XGQ9+VFM Mohammadi Masjid, Zam Zam Colony, Sarswati Nagar, Lonar, Maharashtra 443302",
        "detailed_address": {
            "ward": "Zam Zam Colony, Sarswati Nagar",
            "street": "XGQ9+VFM",
            "city": "Lonar",
            "postal_code": "443302",
            "state": "Maharashtra",
            "country_code": "IN"
        },
        "images": [],
        "link": "https://www.google.com/maps/place/Mohammadi+Masjid/data=!4m7!3m6!1s0x3bd08309db53fbb7:0x5426d037ce6cd05d!8m2!3d19.9896967!4d76.5186322!16s%2Fg%2F11twrsfb6j!19sChIJt_tT2wmD0DsRXdBszjfQJlQ?authuser=0&hl=en&rclk=1",
        "coordinates": {
            "latitude": 19.9896967,
            "longitude": 76.5186322
        }
    },
    {
        "name": "Masjid",
        "main_category": "Mosque",
        "address": "XH49+F4H Masjid, Lonar, Pimpalner, Maharashtra 443302",
        "detailed_address": {
            "ward": null,
            "street": "XH49+F4H",
            "city": "Lonar, Pimpalner",
            "postal_code": null,
            "state": "Maharashtra",
            "country_code": "IN"
        },
        "images": [],
        "link": "https://www.google.com/maps/place/Masjid/data=!4m7!3m6!1s0x3bd085f837bd303d:0xf9bb422312e827be!8m2!3d19.9561758!4d76.567852!16s%2Fg%2F11sr7p0srs!19sChIJPTC9N_iF0DsRvifoEiNCu_k?authuser=0&hl=en&rclk=1",
        "coordinates": {
            "latitude": 19.9561758,
            "longitude": 76.567852
        }
    }
]