[
    {
        "name": "Jamia Masjid. - Ahle sunnat Jamat.",
        "main_category": "Mosque",
        "address": "355G+J9J Jamia Masjid. - Ahle sunnat Jamat., Jaggamma Garipeta, Samarlakota, Andhra Pradesh 533440",
        "detailed_address": {
            "ward": "Jaggamma Garipeta",
            "street": "355G+J9J",
            "city": "Samarlakota",
            "postal_code": "533440",
            "state": "Andhra Pradesh",
            "country_code": "IN"
        },
        "images": [
            {
                "about": "All",
                "link": "https://lh5.googleusercontent.com/p/AF1QipMGRgIU050WTp527QYiX3w6pB53j4kYNvQ6AanL=w224-h298-k-no"
            },
            {
                "about": "Dome",
                "link": "https://lh5.googleusercontent.com/p/AF1QipOv-ksBrevYzbX5HPEBtQSBNWasNdLd9NA73UWQ=w662-h298-k-no"
            },
            {
                "about": "Videos",
                "link": "https://lh5.googleusercontent.com/p/AF1QipMQbl-_ngk74tU4_7WuGRti5qOoNqFjBM1DEYvn=w529-h298-k-no"
            }
        ],
        "link": "https://www.google.com/maps/place/Jamia+Masjid.+-+Ahle+sunnat+Jamat./data=!4m7!3m6!1s0x3a3780d99bb15ee5:0x6f0136b43246c350!8m2!3d17.0590914!4d82.1758927!16s%2Fg%2F11c6y_wtdd!19sChIJ5V6xm9mANzoRUMNGMrQ2AW8?authuser=0&hl=en&rclk=1",
        "coordinates": {
            "latitude": 17.0590914,
            "longitude": 82.17589269999999
        }
    },
    {
        "name": "Choti masjid",
        "main_category": "Mosque",
        "address": "34GQ+376 Choti masjid, Peddapuram Samalkota Bypass Rd, Samarlakota, Peddapuram, Andhra Pradesh 533437",
        "detailed_address": {
            "ward": null,
            "street": "34GQ+376, Peddapuram Samalkota Bypass Rd",
            "city": "Samarlakota, Peddapuram",
            "postal_code": null,
            "state": "Andhra Pradesh",
            "country_code": "IN"
        },
        "images": [
            {
                "about": "All",
                "link": "https://streetviewpixels-pa.googleapis.com/v1/thumbnail?panoid=8KmOWxCv6xHXd92IDsSI8Q&cb_client=maps_sv.tactile.gps&w=224&h=298&yaw=140.26291&pitch=0&thumbfov=100"
            },
            {
                "about": "Street View & 360deg",
                "link": "https://streetviewpixels-pa.googleapis.com/v1/thumbnail?panoid=8KmOWxCv6xHXd92IDsSI8Q&cb_client=maps_sv.tactile.gps&w=224&h=298&yaw=140.26291&pitch=0&thumbfov=100"
            }
        ],
        "link": "https://www.google.com/maps/place/Choti+masjid/data=!4m7!3m6!1s0x3a3781658518f913:0x46df21e0f9da722!8m2!3d17.075167!4d82.138137!16s%2Fg%2F11f4_59lg7!19sChIJE_kYhWWBNzoRIqedDx7ybQQ?authuser=0&hl=en&rclk=1",
        "coordinates": {
            "latitude": 17.075167,
            "longitude": 82.138137
        }
    },
    {
        "name": "Masjid E Ghouse Mohiddin",
        "main_category": "Mosque",
        "address": "Masjid E Ghouse Mohiddin, Sri Vijaya Durga Temple, 18-14-69/4,Bhaskar Nagar, Colony, Area, Samarlakota, Andhra Pradesh 533440",
        "detailed_address": {
            "ward": "Bhargava Colony, Area",
            "street": "Sri Vijaya Durga Temple, 18-14-69/4,Bhaskar Nagar, Colony",
            "city": "Samarlakota",
            "postal_code": "533440",
            "state": "Andhra Pradesh",
            "country_code": "IN"
        },
        "images": [
            {
                "about": "All",
                "link": "https://lh5.googleusercontent.com/p/AF1QipNyE554XflSg4k3JoeJQbVV4C4U-AMubyemGt8M=w662-h298-k-no"
            }
        ],
        "link": "https://www.google.com/maps/place/Masjid+E+Ghouse+Mohiddin/data=!4m7!3m6!1s0x3a3781c284ef8581:0xbd41ad6dbb1ccc4a!8m2!3d17.0604626!4d82.1573!16s%2Fg%2F11vl1lysh2!19sChIJgYXvhMKBNzoRSswcu22tQb0?authuser=0&hl=en&rclk=1",
        "coordinates": {
            "latitude": 17.060462599999997,
            "longitude": 82.15729999999999
        }
    },
    {
        "name": "Quereshi masjid samalkot",
        "main_category": "Place of worship",
        "address": "355G+J6X Quereshi masjid samalkot, Sangeetharaopet, Samarlakota, Andhra Pradesh 533440",
        "detailed_address": {
            "ward": "Sangeetharaopet",
            "street": "355G+J6X",
            "city": "Samarlakota",
            "postal_code": "533440",
            "state": "Andhra Pradesh",
            "country_code": "IN"
        },
        "images": [],
        "link": "https://www.google.com/maps/place/Quereshi+masjid+samalkot/data=!4m7!3m6!1s0x3a37815f050ded47:0x9e75d6caf0cf73e0!8m2!3d17.0591238!4d82.1755953!16s%2Fg%2F11tf6kf87g!19sChIJR-0NBV-BNzoR4HPP8MrWdZ4?authuser=0&hl=en&rclk=1",
        "coordinates": {
            "latitude": 17.0591238,
            "longitude": 82.1755953
        }
    },
    {
        "name": "Masjid e Azam",
        "main_category": "Mosque",
        "address": "Masjid e Azam, Teachers Colony, Nimmathota, Samarlakota, Andhra Pradesh 533440",
        "detailed_address": {
            "ward": "Teachers Colony, Nimmathota",
            "street": null,
            "city": "Samarlakota",
            "postal_code": "533440",
            "state": "Andhra Pradesh",
            "country_code": "IN"
        },
        "images": [],
        "link": "https://www.google.com/maps/place/Masjid+e+Azam/data=!4m7!3m6!1s0x3a37815cf6074ae3:0x262d020d73ceeb85!8m2!3d17.0474317!4d82.1683289!16s%2Fg%2F11qvk_sjxt!19sChIJ40oH9lyBNzoRhevOcw0CLSY?authuser=0&hl=en&rclk=1",
        "coordinates": {
            "latitude": 17.0474317,
            "longitude": 82.16832889999999
        }
    },
    {
        "name": "MADINA AHLE SUNNAT MASJID",
        "main_category": "Mosque",
        "address": "MADINA AHLE SUNNAT MASJID, 8-12-17/1,masjid Street,near Bommala gudi Peddapuram Andhra Pradesh 533437 IN, Peddapuram, Andhra Pradesh",
        "detailed_address": {
            "ward": null,
            "street": "8-12-17/1,masjid Street,near Bommala gudi Peddapuram Andhra Pradesh 533437 IN",
            "city": "Peddapuram",
            "postal_code": null,
            "state": "Andhra Pradesh",
            "country_code": "IN"
        },
        "images": [],
        "link": "https://www.google.com/maps/place/MADINA+AHLE+SUNNAT+MASJID/data=!4m7!3m6!1s0x3a3781bc3d28a2bb:0x7cc9a43c0953fa73!8m2!3d17.0910276!4d82.1386455!16s%2Fg%2F11gjzmbzd_!19sChIJu6IoPbyBNzoRc_pTCTykyXw?authuser=0&hl=en&rclk=1",
        "coordinates": {
            "latitude": 17.0910276,
            "longitude": 82.1386455
        }
    }
]