[
    {
        "name": "qadri jama masjid",
        "main_category": "Mosque",
        "address": "qadri jama masjid, Malout, Punjab 152107",
        "detailed_address": {
            "ward": null,
            "street": null,
            "city": "Malout",
            "postal_code": "152107",
            "state": "Punjab",
            "country_code": "IN"
        },
        "images": [
            {
                "about": "All",
                "link": "https://lh5.googleusercontent.com/p/AF1QipNjuyBvNTQGEOigeK45T8hSvjmUPm8xOl70x-MK=w397-h298-k-no"
            },
            {
                "about": "By owner",
                "link": "https://lh5.googleusercontent.com/p/AF1QipNOLsRKb4eeA96J0kcnI9YH7m50KK6kyvf5AcA4=w224-h473-k-no"
            },
            {
                "about": "Street View & 360deg",
                "link": "https://streetviewpixels-pa.googleapis.com/v1/thumbnail?panoid=lYP2zYZYsGMVCoocpxKQgw&cb_client=maps_sv.tactile.gps&w=224&h=298&yaw=280.953&pitch=0&thumbfov=100"
            }
        ],
        "link": "https://www.google.com/maps/place/qadri+jama+masjid/data=!4m7!3m6!1s0x391710d9c68cb1ad:0x832a4c3ac8cfe059!8m2!3d30.1888233!4d74.4865423!16s%2Fg%2F11gf3wxxky!19sChIJrbGMxtkQFzkRWeDPyDpMKoM?authuser=0&hl=en&rclk=1",
        "coordinates": {
            "latitude": 30.1888233,
            "longitude": 74.4865423
        }
    },
    {
        "name": "Masjid Noor",
        "main_category": "Mosque",
        "address": "5FMX+XP6 Masjid Noor, Malout, Punjab 152107",
        "detailed_address": {
            "ward": null,
            "street": "5FMX+XP6",
            "city": "Malout",
            "postal_code": "152107",
            "state": "Punjab",
            "country_code": "IN"
        },
        "images": [
            {
                "about": "All",
                "link": "https://lh5.googleusercontent.com/p/AF1QipNrMXNaRjO7zlOzmwJBEQFpILFXnTt83OXOPlUG=w397-h298-k-no"
            },
            {
                "about": "Street View & 360deg",
                "link": "https://streetviewpixels-pa.googleapis.com/v1/thumbnail?panoid=Bf2Hs4d7ecIwP1-mHA5CAg&cb_client=maps_sv.tactile.gps&w=224&h=298&yaw=97.81315&pitch=0&thumbfov=100"
            },
            {
                "about": "Videos",
                "link": "https://lh5.googleusercontent.com/p/AF1QipMRepHFLBZgBut3L9OelvzBG7DjVB_Wr3jDA0-P=w224-h398-k-no"
            }
        ],
        "link": "https://www.google.com/maps/place/Masjid+Noor/data=!4m7!3m6!1s0x391710d2cd8ffdab:0x5402f14d9cd42e75!8m2!3d30.1849077!4d74.4992811!16s%2Fg%2F11gbk69tk0!19sChIJq_2PzdIQFzkRdS7UnE3xAlQ?authuser=0&hl=en&rclk=1",
        "coordinates": {
            "latitude": 30.1849077,
            "longitude": 74.49928109999999
        }
    },
    {
        "name": "Mosque",
        "main_category": "Mosque",
        "address": "6F6J+7CX Mosque, Malout Pinnd, Malout Rural, Punjab 152107",
        "detailed_address": {
            "ward": null,
            "street": "6F6J+7CX",
            "city": "Malout Pinnd, Malout Rural",
            "postal_code": "152107",
            "state": "Punjab",
            "country_code": "IN"
        },
        "images": [],
        "link": "https://www.google.com/maps/place/Mosque/data=!4m7!3m6!1s0x3917113ec57cdbfb:0x8880033dd565d067!8m2!3d30.2107335!4d74.4811244!16s%2Fg%2F11fzf4jxx2!19sChIJ-9t8xT4RFzkRZ9Bl1T0DgIg?authuser=0&hl=en&rclk=1",
        "coordinates": {
            "latitude": 30.2107335,
            "longitude": 74.4811244
        }
    },
    {
        "name": "Masjide Hasnain",
        "main_category": "Mosque",
        "address": "5GG7+37C Masjide Hasnain, Danewala, Punjab 152107",
        "detailed_address": {
            "ward": null,
            "street": "5GG7+37C",
            "city": "Danewala",
            "postal_code": "152107",
            "state": "Punjab",
            "country_code": "IN"
        },
        "images": [
            {
                "about": "All",
                "link": "https://lh5.googleusercontent.com/p/AF1QipPr4sSk-OtsHSKublljsn16iHBjXOeyQTcQ3SNr=w529-h298-k-no"
            }
        ],
        "link": "https://www.google.com/maps/place/Masjide+Hasnain/data=!4m7!3m6!1s0x3917177d08f91b05:0x1ba7e55856c7a084!8m2!3d30.1750972!4d74.513922!16s%2Fg%2F11rwst8hg1!19sChIJBRv5CH0XFzkRhKDHVljlpxs?authuser=0&hl=en&rclk=1",
        "coordinates": {
            "latitude": 30.1750972,
            "longitude": 74.513922
        }
    }
]