[
    {
        "name": "Kota Masjid",
        "main_category": "Mosque",
        "address": "Q4MW+CFV Kota Masjid, Patharia Rd, Garhakota, Madhya Pradesh 470229",
        "detailed_address": {
            "ward": null,
            "street": "Q4MW+CFV, Patharia Rd",
            "city": "Garhakota",
            "postal_code": "470229",
            "state": "Madhya Pradesh",
            "country_code": "IN"
        },
        "images": [
            {
                "about": "All",
                "link": "https://lh5.googleusercontent.com/p/AF1QipPVh2qTp56ROTmtkJjsKaP5ji_Ejs78TAlLhpLS=w224-h298-k-no"
            },
            {
                "about": "Dome",
                "link": "https://lh5.googleusercontent.com/p/AF1QipPJD5Ihn_AI5cs8RDgqwzrZ8nSNdOYQgbYATRJX=w224-h416-k-no"
            },
            {
                "about": "Videos",
                "link": "https://lh5.googleusercontent.com/p/AF1QipPwitK5XwsdO7-aE9sW0EU_D6MGhB5ImuVtUhNF=w247-h298-k-no"
            },
            {
                "about": "Street View & 360deg",
                "link": "https://streetviewpixels-pa.googleapis.com/v1/thumbnail?panoid=1GYal1EcKiWERIEdc5mifQ&cb_client=maps_sv.tactile.gps&w=224&h=298&yaw=346.6023&pitch=0&thumbfov=100"
            }
        ],
        "link": "https://www.google.com/maps/place/Kota+Masjid/data=!4m7!3m6!1s0x3978b32285be56e7:0xebd2aecffb951a55!8m2!3d23.7836096!4d79.1461697!16s%2Fg%2F1hjh53xhl!19sChIJ51a-hSKzeDkRVRqV-8-u0us?authuser=0&hl=en&rclk=1",
        "coordinates": {
            "latitude": 23.7836096,
            "longitude": 79.1461697
        }
    },
    {
        "name": "Nagina Masjid",
        "main_category": "Mosque",
        "address": "Q4GV+W54 Nagina Masjid, Garhakota, Madhya Pradesh 470229",
        "detailed_address": {
            "ward": null,
            "street": "Q4GV+W54",
            "city": "Garhakota",
            "postal_code": "470229",
            "state": "Madhya Pradesh",
            "country_code": "IN"
        },
        "images": [],
        "link": "https://www.google.com/maps/place/Nagina+Masjid/data=!4m7!3m6!1s0x3978b33b5739bcad:0xa68c01cba072e92b!8m2!3d23.7772573!4d79.1429403!16s%2Fg%2F1hjh1zx4z!19sChIJrbw5VzuzeDkRK-lyoMsBjKY?authuser=0&hl=en&rclk=1",
        "coordinates": {
            "latitude": 23.7772573,
            "longitude": 79.14294029999999
        }
    },
    {
        "name": "Markaz Kanch Masjid",
        "main_category": "Mosque",
        "address": "Q4JQ+34R Markaz Kanch Masjid, Garhakota, Madhya Pradesh 470232",
        "detailed_address": {
            "ward": null,
            "street": "Q4JQ+34R",
            "city": "Garhakota",
            "postal_code": "470232",
            "state": "Madhya Pradesh",
            "country_code": "IN"
        },
        "images": [
            {
                "about": "All",
                "link": "https://lh5.googleusercontent.com/p/AF1QipMXIlYiscL1yqJg4e60J2qSQ-ZV9a3rmVHUdTY3=w224-h331-k-no"
            },
            {
                "about": "Street View & 360deg",
                "link": "https://streetviewpixels-pa.googleapis.com/v1/thumbnail?panoid=macx6pOe8k_50nm2dEbOFg&cb_client=maps_sv.tactile.gps&w=224&h=298&yaw=150.92395&pitch=0&thumbfov=100"
            },
            {
                "about": "Videos",
                "link": "https://lh5.googleusercontent.com/p/AF1QipMXIlYiscL1yqJg4e60J2qSQ-ZV9a3rmVHUdTY3=w224-h331-k-no"
            }
        ],
        "link": "https://www.google.com/maps/place/Markaz+Kanch+Masjid/data=!4m7!3m6!1s0x3978b33e7fd1e393:0x1a235bc32a470dc9!8m2!3d23.7802291!4d79.137769!16s%2Fg%2F11g6jsd3kz!19sChIJk-PRfz6zeDkRyQ1HKsNbIxo?authuser=0&hl=en&rclk=1",
        "coordinates": {
            "latitude": 23.7802291,
            "longitude": 79.13776899999999
        }
    },
    {
        "name": "Noorani Masjid",
        "main_category": "Mosque",
        "address": "Q4HR+4FC Noorani Masjid, Chhota Pul Rd, Garhakota, Madhya Pradesh 470229",
        "detailed_address": {
            "ward": null,
            "street": "Q4HR+4FC, Chhota Pul Rd",
            "city": "Garhakota",
            "postal_code": "470229",
            "state": "Madhya Pradesh",
            "country_code": "IN"
        },
        "images": [],
        "link": "https://www.google.com/maps/place/Noorani+Masjid/data=!4m7!3m6!1s0x3978b33c9af01ec3:0x5a4a6833c016a26!8m2!3d23.7778151!4d79.1411288!16s%2Fg%2F1hjgytwpl!19sChIJwx7wmjyzeDkRJmoBPIOmpAU?authuser=0&hl=en&rclk=1",
        "coordinates": {
            "latitude": 23.777815099999998,
            "longitude": 79.14112879999999
        }
    },
    {
        "name": "Shahar Jama Masjid Garhakota",
        "main_category": "Mosque",
        "address": "Q4JQ+5RW Shahar Jama Masjid Garhakota, Garhakota, Madhya Pradesh 470232",
        "detailed_address": {
            "ward": null,
            "street": "Q4JQ+5RW",
            "city": "Garhakota",
            "postal_code": "470232",
            "state": "Madhya Pradesh",
            "country_code": "IN"
        },
        "images": [
            {
                "about": "All",
                "link": "https://lh5.googleusercontent.com/p/AF1QipO2IDh6P20rDF8gZ3LN1HCwImx85epaEh40Cany=w397-h298-k-no"
            },
            {
                "about": "Dome",
                "link": "https://lh5.googleusercontent.com/p/AF1QipN2jV3gPqAlC-ySZkTrWjc_MSLXCc_pLC1zdAKS=w224-h398-k-no"
            }
        ],
        "link": "https://www.google.com/maps/place/Shahar+Jama+Masjid+Garhakota/data=!4m7!3m6!1s0x3978b33db4f64859:0xfd6630f68c87ebeb!8m2!3d23.7804887!4d79.1395647!16s%2Fg%2F11f3nm0b2d!19sChIJWUj2tD2zeDkR6-uHjPYwZv0?authuser=0&hl=en&rclk=1",
        "coordinates": {
            "latitude": 23.7804887,
            "longitude": 79.1395647
        }
    },
    {
        "name": "Madina Masjid",
        "main_category": "Mosque",
        "address": "Q4HM+4WV Madina Masjid, Rehli Rd, Garhakota, Madhya Pradesh 470232",
        "detailed_address": {
            "ward": null,
            "street": "Q4HM+4WV, Rehli Rd",
            "city": "Garhakota",
            "postal_code": "470232",
            "state": "Madhya Pradesh",
            "country_code": "IN"
        },
        "images": [
            {
                "about": "All",
                "link": "https://streetviewpixels-pa.googleapis.com/v1/thumbnail?panoid=_zBxE2vgNWbcViEFqjjXPA&cb_client=maps_sv.tactile.gps&w=224&h=298&yaw=87.484215&pitch=0&thumbfov=100"
            },
            {
                "about": "Street View & 360deg",
                "link": "https://streetviewpixels-pa.googleapis.com/v1/thumbnail?panoid=_zBxE2vgNWbcViEFqjjXPA&cb_client=maps_sv.tactile.gps&w=224&h=298&yaw=87.484215&pitch=0&thumbfov=100"
            }
        ],
        "link": "https://www.google.com/maps/place/Madina+Masjid/data=!4m7!3m6!1s0x3978b33f260d7ca9:0xfd2b79637444bc6a!8m2!3d23.7778538!4d79.134787!16s%2Fg%2F1hm3fx8zw!19sChIJqXwNJj-zeDkRarxEdGN5K_0?authuser=0&hl=en&rclk=1",
        "coordinates": {
            "latitude": 23.7778538,
            "longitude": 79.134787
        }
    },
    {
        "name": "Kota Masjid",
        "main_category": "Religious destination",
        "address": "Q4JW+M4H Kota Masjid, Old Bus Stand Rd, Garhakota, Madhya Pradesh 470229",
        "detailed_address": {
            "ward": null,
            "street": "Q4JW+M4H, Old Bus Stand Rd",
            "city": "Garhakota",
            "postal_code": "470229",
            "state": "Madhya Pradesh",
            "country_code": "IN"
        },
        "images": [],
        "link": "https://www.google.com/maps/place/Kota+Masjid/data=!4m7!3m6!1s0x3978b36b1bb42eff:0xd89a6c8a5a103725!8m2!3d23.7816896!4d79.1453529!16s%2Fg%2F11gvy0tv2q!19sChIJ_y60G2uzeDkRJTcQWopsmtg?authuser=0&hl=en&rclk=1",
        "coordinates": {
            "latitude": 23.7816896,
            "longitude": 79.14535289999999
        }
    },
    {
        "name": "Takia Masjid",
        "main_category": "Mosque",
        "address": "Q4HP+8XC Takia Masjid, Nathuram Singhai Rd, Garhakota, Madhya Pradesh 470232",
        "detailed_address": {
            "ward": null,
            "street": "Q4HP+8XC, Nathuram Singhai Rd",
            "city": "Garhakota",
            "postal_code": "470232",
            "state": "Madhya Pradesh",
            "country_code": "IN"
        },
        "images": [
            {
                "about": "All",
                "link": "https://streetviewpixels-pa.googleapis.com/v1/thumbnail?panoid=Mm2pdScc20H4sOKUnCHxbQ&cb_client=maps_sv.tactile.gps&w=224&h=298&yaw=281.6851&pitch=0&thumbfov=100"
            },
            {
                "about": "Street View & 360deg",
                "link": "https://streetviewpixels-pa.googleapis.com/v1/thumbnail?panoid=Mm2pdScc20H4sOKUnCHxbQ&cb_client=maps_sv.tactile.gps&w=224&h=298&yaw=281.6851&pitch=0&thumbfov=100"
            }
        ],
        "link": "https://www.google.com/maps/place/Takia+Masjid/data=!4m7!3m6!1s0x3978b33ea379d5df:0xac61c54d4bb40eba!8m2!3d23.7783168!4d79.1373959!16s%2Fg%2F1hm5msy6_!19sChIJ39V5oz6zeDkRug60S03FYaw?authuser=0&hl=en&rclk=1",
        "coordinates": {
            "latitude": 23.7783168,
            "longitude": 79.1373959
        }
    }
]