[
    {
        "name": "College Road Masjid",
        "main_category": "Mosque",
        "address": "College Road Masjid, Gangpar Dhumkar, Hailakandi, Assam 788151",
        "detailed_address": {
            "ward": "Gangpar Dhumkar",
            "street": null,
            "city": "Hailakandi",
            "postal_code": "788151",
            "state": "Assam",
            "country_code": "IN"
        },
        "images": [
            {
                "about": "All",
                "link": "https://lh5.googleusercontent.com/p/AF1QipMpCpue0r3kyfwcgdYgtfWuF0ojZEvXaDw-Gfh0=w397-h298-k-no"
            }
        ],
        "link": "https://www.google.com/maps/place/College+Road+Masjid/data=!4m7!3m6!1s0x374e258942f649ef:0x47a33969a9d3eae3!8m2!3d24.6879083!4d92.5651209!16s%2Fg%2F1tffbk4r!19sChIJ70n2QoklTjcR4-rTqWk5o0c?authuser=0&hl=en&rclk=1",
        "coordinates": {
            "latitude": 24.6879083,
            "longitude": 92.5651209
        }
    },
    {
        "name": "Kachari Masjid",
        "main_category": "Mosque",
        "address": "MHJ7+MX4 Kachari Masjid, Bashdahar, Hailakandi, Assam 788155",
        "detailed_address": {
            "ward": "Bashdahar",
            "street": "MHJ7+MX4",
            "city": "Hailakandi",
            "postal_code": "788155",
            "state": "Assam",
            "country_code": "IN"
        },
        "images": [
            {
                "about": "All",
                "link": "https://lh5.googleusercontent.com/p/AF1QipPN8odiUKnqvKOnpZn6MR2p2Gzeuico_nVX-QCY=w397-h298-k-no"
            },
            {
                "about": "Street View & 360deg",
                "link": "https://streetviewpixels-pa.googleapis.com/v1/thumbnail?panoid=gJjlDFfrZ-9owQU16JSvOg&cb_client=maps_sv.tactile.gps&w=224&h=298&yaw=76.9777&pitch=0&thumbfov=100"
            }
        ],
        "link": "https://www.google.com/maps/place/Kachari+Masjid/data=!4m7!3m6!1s0x374e258e092562b9:0xf10d85ebd6d8ed7a!8m2!3d24.6816325!4d92.5649411!16s%2Fg%2F11b771qhb_!19sChIJuWIlCY4lTjcReu3Y1uuFDfE?authuser=0&hl=en&rclk=1",
        "coordinates": {
            "latitude": 24.6816325,
            "longitude": 92.5649411
        }
    },
    {
        "name": "Rangauti Kankah Mosjid",
        "main_category": "Mosque",
        "address": "Rangauti Kankah Mosjid, Ratanpur Rd, Bandukmara Grant, Hailakandi, Assam 788155",
        "detailed_address": {
            "ward": "Bandukmara Grant",
            "street": "Ratanpur Rd",
            "city": "Hailakandi",
            "postal_code": "788155",
            "state": "Assam",
            "country_code": "IN"
        },
        "images": [
            {
                "about": "All",
                "link": "https://lh5.googleusercontent.com/p/AF1QipPUY5a5h7jkqYdfx7N8Ft-kl5o_J7_Te8sYNZrZ=w224-h343-k-no"
            },
            {
                "about": "Videos",
                "link": "https://lh5.googleusercontent.com/p/AF1QipPEbKJEg58x49qIQDdUuwHj-H2I285sXv0_uhLo=w529-h298-k-no"
            }
        ],
        "link": "https://www.google.com/maps/place/Rangauti+Kankah+Mosjid/data=!4m7!3m6!1s0x374e2583ce8ea611:0x3dff7db1f017d5cd!8m2!3d24.6843399!4d92.5759416!16s%2Fg%2F11c2mc_305!19sChIJEaaOzoMlTjcRzdUX8LF9_z0?authuser=0&hl=en&rclk=1",
        "coordinates": {
            "latitude": 24.684339899999998,
            "longitude": 92.5759416
        }
    },
    {
        "name": "Siraj Patty Masjid",
        "main_category": "Mosque",
        "address": "MHM9+V3V Siraj Patty Masjid, Gangpar Dhumkar, Hailakandi, Assam 788155",
        "detailed_address": {
            "ward": "Gangpar Dhumkar",
            "street": "MHM9+V3V",
            "city": "Hailakandi",
            "postal_code": "788155",
            "state": "Assam",
            "country_code": "IN"
        },
        "images": [],
        "link": "https://www.google.com/maps/place/Siraj+Patty+Masjid/data=!4m7!3m6!1s0x374e258f16dda3d1:0x1c5e99065c42c319!8m2!3d24.6847395!4d92.5676576!16s%2Fg%2F11f1hwkhmz!19sChIJ0aPdFo8lTjcRGcNCXAaZXhw?authuser=0&hl=en&rclk=1",
        "coordinates": {
            "latitude": 24.6847395,
            "longitude": 92.56765759999999
        }
    },
    {
        "name": "Rangauti Jama Masjid",
        "main_category": "Mosque",
        "address": "MHGG+V3W Rangauti Jama Masjid, Lala Rd, Bandukmara Grant, Hailakandi, Rangauti Pt II, Assam 788151",
        "detailed_address": {
            "ward": "Bandukmara Grant",
            "street": "MHGG+V3W, Lala Rd",
            "city": "Hailakandi, Rangauti Pt II",
            "postal_code": "788151",
            "state": "Assam",
            "country_code": "IN"
        },
        "images": [
            {
                "about": "All",
                "link": "https://lh5.googleusercontent.com/p/AF1QipNDBFMzFoDhtl14YU06Nw9Yf1_zhhoWXoAWmKkf=w397-h298-k-no"
            },
            {
                "about": "Videos",
                "link": "https://lh5.googleusercontent.com/p/AF1QipPwxfqbuinH7pHcU56dudyHjg1pSzOGV9Oq8aFT=w224-h398-k-no"
            }
        ],
        "link": "https://www.google.com/maps/place/Rangauti+Jama+Masjid/data=!4m7!3m6!1s0x374e259c63d9acd9:0x810d50e44459ee7f!8m2!3d24.6772379!4d92.5752103!16s%2Fg%2F1tdncm5n!19sChIJ2azZY5wlTjcRf-5ZRORQDYE?authuser=0&hl=en&rclk=1",
        "coordinates": {
            "latitude": 24.677237899999998,
            "longitude": 92.5752103
        }
    },
    {
        "name": "Mazarbhuiya Jamme Masjid",
        "main_category": "Mosque",
        "address": "MHP8+GV2 Mazarbhuiya Jamme Masjid, Model Township, Gangpar Dhumkar, Hailakandi, Assam 788155",
        "detailed_address": {
            "ward": "Model Township, Gangpar Dhumkar",
            "street": "MHP8+GV2",
            "city": "Hailakandi",
            "postal_code": null,
            "state": "Assam",
            "country_code": "IN"
        },
        "images": [
            {
                "about": "All",
                "link": "https://lh5.googleusercontent.com/p/AF1QipNwxkEVp0n8dl0GHJDUwzcxabPRteE9gpHpP7VB=w224-h398-k-no"
            },
            {
                "about": "Videos",
                "link": "https://lh5.googleusercontent.com/p/AF1QipN-9U9W6GFLVdq2tmsQa90AhehAwEiEycL6ixjJ=w224-h409-k-no"
            }
        ],
        "link": "https://www.google.com/maps/place/Mazarbhuiya+Jamme+Masjid/data=!4m7!3m6!1s0x374e258f2b8f3027:0x40a8aa0947d2e0e2!8m2!3d24.686268!4d92.5671352!16s%2Fg%2F11gf5x94sm!19sChIJJzCPK48lTjcR4uDSRwmqqEA?authuser=0&hl=en&rclk=1",
        "coordinates": {
            "latitude": 24.686268,
            "longitude": 92.5671352
        }
    },
    {
        "name": "New Town Jame Masjid",
        "main_category": "Mosque",
        "address": "MHP9+GR7 New Town Jame Masjid, Ratanpur Rd, Purbagool, Hailakandi, Assam 788155",
        "detailed_address": {
            "ward": "Purbagool",
            "street": "MHP9+GR7, Ratanpur Rd",
            "city": "Hailakandi",
            "postal_code": "788155",
            "state": "Assam",
            "country_code": "IN"
        },
        "images": [],
        "link": "https://www.google.com/maps/place/New+Town+Jame+Masjid/data=!4m7!3m6!1s0x374e2585931d643f:0xd52bec2aa1f8f8fd!8m2!3d24.6862981!4d92.5695426!16s%2Fg%2F11gf95k2xh!19sChIJP2Qdk4UlTjcR_fj4oSrsK9U?authuser=0&hl=en&rclk=1",
        "coordinates": {
            "latitude": 24.6862981,
            "longitude": 92.56954259999999
        }
    },
    {
        "name": "Boitonnoor Jameh Mosque",
        "main_category": "Mosque",
        "address": "MHF9+FQX Boitonnoor Jameh Mosque, w/no-I,Hailakandi, Vichingcha Pt II",
        "detailed_address": {
            "ward": "Sudorshonpur",
            "street": "MHF9+FQX, w/no-I,Hailakandi",
            "city": "Vichingcha Pt II",
            "postal_code": null,
            "state": "Assam",
            "country_code": "IN"
        },
        "images": [],
        "link": "https://www.google.com/maps/place/Boitonnoor+Jameh+Mosque/data=!4m7!3m6!1s0x374e2599e302d0f5:0xbb71dbb19b9cb4e6!8m2!3d24.6737267!4d92.5694966!16s%2Fg%2F11bxc5vj3m!19sChIJ9dAC45klTjcR5rScm7Hbcbs?authuser=0&hl=en&rclk=1",
        "coordinates": {
            "latitude": 24.6737267,
            "longitude": 92.5694966
        }
    },
    {
        "name": "Dar-us-Salam Masjid, Hailakandi",
        "main_category": "Mosque",
        "address": "PH38+5RW Dar-us-Salam Masjid, Hailakandi, Kalopar Rd, Brojapur, Hailakandi, Lakhirbond Pt II, Assam 788152",
        "detailed_address": {
            "ward": "Brojapur",
            "street": "PH38+5RW, Kalopar Rd",
            "city": "Hailakandi, Lakhirbond Pt II",
            "postal_code": "788152",
            "state": "Assam",
            "country_code": "IN"
        },
        "images": [
            {
                "about": "All",
                "link": "https://lh5.googleusercontent.com/p/AF1QipPty2SiGDFLyVuYmvtQ-pewNL65rvtaw6OQ1cS_=w397-h298-k-no"
            }
        ],
        "link": "https://www.google.com/maps/place/Dar-us-Salam+Masjid,+Hailakandi/data=!4m7!3m6!1s0x374e2f657485cdcd:0xb37ac6c0a0826625!8m2!3d24.7029856!4d92.5670735!16s%2Fg%2F11fy7df0mv!19sChIJzc2FdGUvTjcRJWaCoMDGerM?authuser=0&hl=en&rclk=1",
        "coordinates": {
            "latitude": 24.702985599999998,
            "longitude": 92.56707349999999
        }
    },
    {
        "name": "Sang Jurai Masjid",
        "main_category": "Mosque",
        "address": "MHGC+FQ3 Sang Jurai Masjid, Gudhmghat Road, Tariq's Neighbour Hood, Gastola, Hailakandi, Rangauti Pt II, Assam 788155",
        "detailed_address": {
            "ward": "Tariq's Neighbour Hood, Gastola",
            "street": "MHGC+FQ3, Gudhmghat Road",
            "city": "Hailakandi, Rangauti Pt II",
            "postal_code": "788155",
            "state": "Assam",
            "country_code": "IN"
        },
        "images": [
            {
                "about": "All",
                "link": "https://lh5.googleusercontent.com/p/AF1QipNWsI2xhsw5qDg5oyZcG0mxafcU5owfArFZ5Cze=w397-h298-k-no"
            },
            {
                "about": "Street View & 360deg",
                "link": "https://streetviewpixels-pa.googleapis.com/v1/thumbnail?panoid=ASC4FtNI8DsiGtLzoU7TOA&cb_client=maps_sv.tactile.gps&w=224&h=298&yaw=131.51003&pitch=0&thumbfov=100"
            }
        ],
        "link": "https://www.google.com/maps/place/Sang+Jurai+Masjid/data=!4m7!3m6!1s0x374e259a4aafe8cd:0x6cefb6e78c39513e!8m2!3d24.6761251!4d92.5719167!16s%2Fg%2F1v82_g9z!19sChIJzeivSpolTjcRPlE5jOe272w?authuser=0&hl=en&rclk=1",
        "coordinates": {
            "latitude": 24.6761251,
            "longitude": 92.5719167
        }
    },
    {
        "name": "Katlicherra Bustand Masjid",
        "main_category": "Mosque",
        "address": "MHF7+7VG Katlicherra Bustand Masjid, Bashdahar, Vichingcha Pt II, Assam 788155",
        "detailed_address": {
            "ward": "Bashdahar",
            "street": "MHF7+7VG",
            "city": "Vichingcha Pt II",
            "postal_code": "788155",
            "state": "Assam",
            "country_code": "IN"
        },
        "images": [
            {
                "about": "All",
                "link": "https://lh5.googleusercontent.com/p/AF1QipN5m5Cf6btStUIM_QEth_PMJQ1yfdNkK8Z-bcMB=w397-h298-k-no"
            }
        ],
        "link": "https://www.google.com/maps/place/Katlicherra+Bustand+Masjid/data=!4m7!3m6!1s0x374e2596a05b714b:0x16585211675203dc!8m2!3d24.6731777!4d92.5647038!16s%2Fg%2F11bxfzmwm3!19sChIJS3FboJYlTjcR3ANSZxFSWBY?authuser=0&hl=en&rclk=1",
        "coordinates": {
            "latitude": 24.6731777,
            "longitude": 92.56470379999999
        }
    },
    {
        "name": "Narainpur PT I Masjid",
        "main_category": "Mosque",
        "address": "MGWR+7R6 Narainpur PT I Masjid, Brojapur, Itorkandi Pt I, Hailakandi, Assam 788152",
        "detailed_address": {
            "ward": "Brojapur",
            "street": "MGWR+7R6",
            "city": "Itorkandi Pt I, Hailakandi",
            "postal_code": null,
            "state": "Assam",
            "country_code": "IN"
        },
        "images": [
            {
                "about": "All",
                "link": "https://lh5.googleusercontent.com/p/AF1QipPUQw2aLX25Ebi_cnZLnmQyBR1PFB0szDSEpUrh=w662-h298-k-no"
            }
        ],
        "link": "https://www.google.com/maps/place/Narainpur+PT+I+Masjid/data=!4m7!3m6!1s0x374e2f5500f36973:0xf37e4291df4d370c!8m2!3d24.6956641!4d92.5420041!16s%2Fg%2F11hd1lz44l!19sChIJc2nzAFUvTjcRDDdN35FCfvM?authuser=0&hl=en&rclk=1",
        "coordinates": {
            "latitude": 24.6956641,
            "longitude": 92.5420041
        }
    },
    {
        "name": "Masjid Sirat Al Mustaqim",
        "main_category": "Mosque",
        "address": "Masjid Sirat Al Mustaqim, College Rd, Gangpar Dhumkar, Hailakandi, Assam 788152",
        "detailed_address": {
            "ward": "Gangpar Dhumkar",
            "street": "College Rd",
            "city": "Hailakandi",
            "postal_code": "788152",
            "state": "Assam",
            "country_code": "IN"
        },
        "images": [
            {
                "about": "All",
                "link": "https://lh5.googleusercontent.com/p/AF1QipNdXrF4IfOGYzTflEraU6FAgOovRqLETLIWQ8e4=w529-h298-k-no"
            },
            {
                "about": "By owner",
                "link": "https://lh5.googleusercontent.com/p/AF1QipPQOcWuafarJM_2TDUWxMPWiECIo82iVoafQnVH=w224-h298-k-no"
            },
            {
                "about": "Videos",
                "link": "https://lh5.googleusercontent.com/p/AF1QipP72ioOhdTgOEEL8aDncNFBleu_m6hDZqOiBvTV=w529-h298-k-no"
            }
        ],
        "link": "https://www.google.com/maps/place/Masjid+Sirat+Al+Mustaqim/data=!4m7!3m6!1s0x374e2f6769904379:0x80101ec4e4fb97cb!8m2!3d24.69268!4d92.5667346!16s%2Fg%2F11t6fm959l!19sChIJeUOQaWcvTjcRy5f75MQeEIA?authuser=0&hl=en&rclk=1",
        "coordinates": {
            "latitude": 24.69268,
            "longitude": 92.56673459999999
        }
    },
    {
        "name": "Panjegana Masjid",
        "main_category": "Mosque",
        "address": "MHJC+RCJ Panjegana Masjid, Bandukmara Grant, Hailakandi, Assam 788155",
        "detailed_address": {
            "ward": "Bandukmara Grant",
            "street": "MHJC+RCJ",
            "city": "Hailakandi",
            "postal_code": "788155",
            "state": "Assam",
            "country_code": "IN"
        },
        "images": [],
        "link": "https://www.google.com/maps/place/Panjegana+Masjid/data=!4m7!3m6!1s0x374e25851649abdd:0x17ce5982289cdefa!8m2!3d24.682087!4d92.5710221!16s%2Fg%2F11fz9jk039!19sChIJ3atJFoUlTjcR-t6cKIJZzhc?authuser=0&hl=en&rclk=1",
        "coordinates": {
            "latitude": 24.682087,
            "longitude": 92.5710221
        }
    },
    {
        "name": "Lakshmirbond Jamme Masjid",
        "main_category": "Mosque",
        "address": "MHPG+93F Lakshmirbond Jamme Masjid, Purbagool, Hailakandi, Assam 788155",
        "detailed_address": {
            "ward": "Purbagool",
            "street": "MHPG+93F",
            "city": "Hailakandi",
            "postal_code": "788155",
            "state": "Assam",
            "country_code": "IN"
        },
        "images": [
            {
                "about": "All",
                "link": "https://lh5.googleusercontent.com/p/AF1QipPdfs77xArozA7iPNKBa7hCNefyFgaKz_OwjMZi=w397-h298-k-no"
            },
            {
                "about": "Dome",
                "link": "https://lh5.googleusercontent.com/p/AF1QipNX6Xw0bYwWFJ4meBNicdZC99x9Lnhy0Xu-EIuv=w397-h298-k-no"
            }
        ],
        "link": "https://www.google.com/maps/place/Lakshmirbond+Jamme+Masjid/data=!4m7!3m6!1s0x374e2583e41392ff:0x9d821f36b21357b1!8m2!3d24.6859429!4d92.5751567!16s%2Fg%2F11f3n3yx6n!19sChIJ_5IT5IMlTjcRsVcTsjYfgp0?authuser=0&hl=en&rclk=1",
        "coordinates": {
            "latitude": 24.6859429,
            "longitude": 92.5751567
        }
    },
    {
        "name": "Jail Masjid",
        "main_category": "Mosque",
        "address": "MGFX+FFM Jail Masjid, NH27, Bashdahar, Narayanpur, Kanchanpur Pt I, Assam 788151",
        "detailed_address": {
            "ward": "Bashdahar",
            "street": "MGFX+FFM, NH27",
            "city": "Narayanpur, Kanchanpur Pt I",
            "postal_code": null,
            "state": "Assam",
            "country_code": "IN"
        },
        "images": [
            {
                "about": "All",
                "link": "https://lh5.googleusercontent.com/p/AF1QipOIy1yW2g3AVq4W4sCTU0KT7iKPl76K_2XgDSOF=w397-h298-k-no"
            }
        ],
        "link": "https://www.google.com/maps/place/Jail+Masjid/data=!4m7!3m6!1s0x374e257f5981e3b9:0x76fd43cec4ee3f73!8m2!3d24.6737035!4d92.5486873!16s%2Fg%2F11fd6n4bb1!19sChIJueOBWX8lTjcRcz_uxM5D_XY?authuser=0&hl=en&rclk=1",
        "coordinates": {
            "latitude": 24.6737035,
            "longitude": 92.5486873
        }
    },
    {
        "name": "Masjid",
        "main_category": "Mosque",
        "address": "Masjid, Unnamed Road, 788151, Bashdahar, Hailakandi, Assam 788151",
        "detailed_address": {
            "ward": "Bashdahar",
            "street": "Unnamed Road, 788151",
            "city": "Hailakandi, Tupkhana",
            "postal_code": "788151",
            "state": "Assam",
            "country_code": "IN"
        },
        "images": [
            {
                "about": "All",
                "link": "https://lh5.googleusercontent.com/p/AF1QipOduG2lV8CNd7xNaAqRJdgjcWMmvWMx0blrTrei=w224-h302-k-no"
            }
        ],
        "link": "https://www.google.com/maps/place/Masjid/data=!4m7!3m6!1s0x374e25eeaf3c3ff1:0xf97ee413d17fe4b1!8m2!3d24.6754914!4d92.5540932!16s%2Fg%2F11fylqgm07!19sChIJ8T88r-4lTjcRseR_0RPkfvk?authuser=0&hl=en&rclk=1",
        "coordinates": {
            "latitude": 24.6754914,
            "longitude": 92.5540932
        }
    },
    {
        "name": "Alia Madrassa Masjid",
        "main_category": "Mosque",
        "address": "MHM9+9J8 Alia Madrassa Masjid, Bandukmara Grant, Hailakandi, Assam 788155",
        "detailed_address": {
            "ward": "Bandukmara Grant",
            "street": "MHM9+9J8",
            "city": "Hailakandi",
            "postal_code": "788155",
            "state": "Assam",
            "country_code": "IN"
        },
        "images": [
            {
                "about": "All",
                "link": "https://lh5.googleusercontent.com/p/AF1QipM6EgCoeskvodnE2DeLWLjfx69jYKSG8MiEoL1S=w629-h298-k-no"
            }
        ],
        "link": "https://www.google.com/maps/place/Alia+Madrassa+Masjid/data=!4m7!3m6!1s0x374e258f8193ff6b:0x8519832f5fc1b10d!8m2!3d24.6834019!4d92.5690818!16s%2Fg%2F11gbxd0qwz!19sChIJa_-TgY8lTjcRDbHBXy-DGYU?authuser=0&hl=en&rclk=1",
        "coordinates": {
            "latitude": 24.6834019,
            "longitude": 92.56908179999999
        }
    },
    {
        "name": "Madrasha Masjid",
        "main_category": "Mosque",
        "address": "MHGG+XF6 Madrasha Masjid, Bandukmara Grant, Hailakandi, Rangauti Pt II, Assam 788155",
        "detailed_address": {
            "ward": "Bandukmara Grant",
            "street": "MHGG+XF6",
            "city": "Hailakandi, Rangauti Pt II",
            "postal_code": "788155",
            "state": "Assam",
            "country_code": "IN"
        },
        "images": [
            {
                "about": "All",
                "link": "https://lh5.googleusercontent.com/p/AF1QipN6eOfq6sSWyfbioc-Lt1vhchmsk-8lvvpRd563=w397-h298-k-no"
            }
        ],
        "link": "https://www.google.com/maps/place/Madrasha+Masjid/data=!4m7!3m6!1s0x374e25432fd62c53:0xaddefb85df15dd82!8m2!3d24.6773198!4d92.575785!16s%2Fg%2F11pkbjtn_k!19sChIJUyzWL0MlTjcRgt0V34X73q0?authuser=0&hl=en&rclk=1",
        "coordinates": {
            "latitude": 24.6773198,
            "longitude": 92.575785
        }
    },
    {
        "name": "Ratanpur Road Jame Masjid",
        "main_category": "Mosque",
        "address": "MHMC+V3C Ratanpur Road Jame Masjid, Ratanpur Rd, Purbagool, Hailakandi, Assam 788155",
        "detailed_address": {
            "ward": "Purbagool",
            "street": "MHMC+V3C, Ratanpur Rd",
            "city": "Hailakandi",
            "postal_code": "788155",
            "state": "Assam",
            "country_code": "IN"
        },
        "images": [
            {
                "about": "All",
                "link": "https://lh5.googleusercontent.com/p/AF1QipPHMBtTtQwJIL4n9hojD4n3-IhT7t26ZS_KXVGi=w529-h298-k-no"
            }
        ],
        "link": "https://www.google.com/maps/place/Ratanpur+Road+Jame+Masjid/data=!4m7!3m6!1s0x374e251dce10d22d:0x2ae30a30201beba0!8m2!3d24.6846752!4d92.5701355!16s%2Fg%2F11fmd7g4_k!19sChIJLdIQzh0lTjcRoOsbIDAK4yo?authuser=0&hl=en&rclk=1",
        "coordinates": {
            "latitude": 24.684675199999997,
            "longitude": 92.57013549999999
        }
    },
    {
        "name": "Rangauti Bilpar Jama Masjid",
        "main_category": "Mosque",
        "address": "Rangauti Bilpar Jama Masjid, Bilpar Dhumkar, Hailakandi, Assam 788155",
        "detailed_address": {
            "ward": "Purbagool",
            "street": "Bilpar Dhumkar",
            "city": "Hailakandi",
            "postal_code": "788155",
            "state": "Assam",
            "country_code": "IN"
        },
        "images": [],
        "link": "https://www.google.com/maps/place/Rangauti+Bilpar+Jama+Masjid/data=!4m7!3m6!1s0x374e253e04eea319:0x6531dbdc8ec9f50d!8m2!3d24.6864208!4d92.5765343!16s%2Fg%2F11fj0snql0!19sChIJGaPuBD4lTjcRDfXJjtzbMWU?authuser=0&hl=en&rclk=1",
        "coordinates": {
            "latitude": 24.6864208,
            "longitude": 92.57653429999999
        }
    },
    {
        "name": "Basic Road Jame Masjid",
        "main_category": "Mosque",
        "address": "MGRW+XHC Basic Road Jame Masjid, Mazumder Para, Hailakandi, Narainpur Pt III, Assam 788151",
        "detailed_address": {
            "ward": "Mazumder Para",
            "street": "MGRW+XHC",
            "city": "Hailakandi, Narainpur Pt III",
            "postal_code": "788151",
            "state": "Assam",
            "country_code": "IN"
        },
        "images": [
            {
                "about": "All",
                "link": "https://streetviewpixels-pa.googleapis.com/v1/thumbnail?panoid=E5cavBVguahplON1evK3OA&cb_client=maps_sv.tactile.gps&w=224&h=298&yaw=150.36894&pitch=0&thumbfov=100"
            },
            {
                "about": "Street View & 360deg",
                "link": "https://streetviewpixels-pa.googleapis.com/v1/thumbnail?panoid=E5cavBVguahplON1evK3OA&cb_client=maps_sv.tactile.gps&w=224&h=298&yaw=150.36894&pitch=0&thumbfov=100"
            }
        ],
        "link": "https://www.google.com/maps/place/Basic+Road+Jame+Masjid/data=!4m7!3m6!1s0x374e25e048d1c42b:0xf1af02a335a0ecf3!8m2!3d24.6924319!4d92.5463892!16s%2Fg%2F11g3_6s5vd!19sChIJK8TRSOAlTjcR8-ygNaMCr_E?authuser=0&hl=en&rclk=1",
        "coordinates": {
            "latitude": 24.6924319,
            "longitude": 92.5463892
        }
    },
    {
        "name": "Bandukmara Masjid",
        "main_category": "Mosque",
        "address": "MHMH+FCW Bandukmara Masjid, Bandukmara Grant, Hailakandi, Rangauti Pt I, Assam 788155",
        "detailed_address": {
            "ward": "Bandukmara Grant",
            "street": "MHMH+FCW",
            "city": "Hailakandi, Rangauti Pt I",
            "postal_code": "788155",
            "state": "Assam",
            "country_code": "IN"
        },
        "images": [],
        "link": "https://www.google.com/maps/place/Bandukmara+Masjid/data=!4m7!3m6!1s0x374e25827ca7f51f:0xab15c5f7d5ca7727!8m2!3d24.6837336!4d92.5785868!16s%2Fg%2F11f1231lk3!19sChIJH_WnfIIlTjcRJ3fK1ffFFas?authuser=0&hl=en&rclk=1",
        "coordinates": {
            "latitude": 24.6837336,
            "longitude": 92.5785868
        }
    },
    {
        "name": "Peer Sattawala Shah Jame Masjid",
        "main_category": "Mosque",
        "address": "MH87+C4C Peer Sattawala Shah Jame Masjid, Lala Rd, Dakhin Sonapur, Hailakandi, Vichingcha Pt II, Assam 788155",
        "detailed_address": {
            "ward": "Dakhin Sonapur",
            "street": "MH87+C4C, Lala Rd",
            "city": "Hailakandi, Vichingcha Pt II",
            "postal_code": "788155",
            "state": "Assam",
            "country_code": "IN"
        },
        "images": [],
        "link": "https://www.google.com/maps/place/Peer+Sattawala+Shah+Jame+Masjid/data=!4m7!3m6!1s0x374e25be5fb7f01b:0x7b9a9cd98afba3a4!8m2!3d24.6660525!4d92.5627783!16s%2Fg%2F11gdvdhkg8!19sChIJG_C3X74lTjcRpKP7itmcmns?authuser=0&hl=en&rclk=1",
        "coordinates": {
            "latitude": 24.6660525,
            "longitude": 92.56277829999999
        }
    },
    {
        "name": "Bilpar Ek Gumbuz Jame Masjid",
        "main_category": "Mosque",
        "address": "MHWJ+3P8 Bilpar Ek Gumbuz Jame Masjid, Purbagool, Hailakandi, Bilpar Dhumkar, Assam 788155",
        "detailed_address": {
            "ward": "Purbagool",
            "street": "MHWJ+3P8",
            "city": "Hailakandi, Bilpar Dhumkar",
            "postal_code": "788155",
            "state": "Assam",
            "country_code": "IN"
        },
        "images": [],
        "link": "https://www.google.com/maps/place/Bilpar+Ek+Gumbuz+Jame+Masjid/data=!4m7!3m6!1s0x374e2f80ffd81add:0x4c574822166c43a9!8m2!3d24.6951617!4d92.5818414!16s%2Fg%2F11g6pp12m4!19sChIJ3RrY_4AvTjcRqUNsFiJIV0w?authuser=0&hl=en&rclk=1",
        "coordinates": {
            "latitude": 24.6951617,
            "longitude": 92.5818414
        }
    },
    {
        "name": "Bagarpul Jama Masjid",
        "main_category": "Mosque",
        "address": "MH9P+X8R Bagarpul Jama Masjid, Hailakandi Rd, Rangauti Pt I, Paikan, Assam 788155",
        "detailed_address": {
            "ward": null,
            "street": "MH9P+X8R, Hailakandi Rd",
            "city": "Rangauti Pt I, Paikan",
            "postal_code": "788155",
            "state": "Assam",
            "country_code": "IN"
        },
        "images": [
            {
                "about": "All",
                "link": "https://lh5.googleusercontent.com/p/AF1QipMWy_-GdD0ocwNB1k_atavaKuEwKon1T3y5S5Ko=w529-h298-k-no"
            },
            {
                "about": "Street View & 360deg",
                "link": "https://streetviewpixels-pa.googleapis.com/v1/thumbnail?panoid=NAb35cv2y5OT-y14hmyyLg&cb_client=maps_sv.tactile.gps&w=224&h=298&yaw=65.07746&pitch=0&thumbfov=100"
            }
        ],
        "link": "https://www.google.com/maps/place/Bagarpul+Jama+Masjid/data=!4m7!3m6!1s0x374e25a2eb6c69dd:0x6e0176ba176e6a45!8m2!3d24.669996!4d92.5857534!16s%2Fg%2F11j02c4xyk!19sChIJ3Wls66IlTjcRRWpuF7p2AW4?authuser=0&hl=en&rclk=1",
        "coordinates": {
            "latitude": 24.669995999999998,
            "longitude": 92.5857534
        }
    },
    {
        "name": "Gangpar Dhumkar MASJID",
        "main_category": "Mosque",
        "address": "MHV3+X6G Gangpar Dhumkar MASJID, Kalopar, part III, Gangpar Dhumkar, Hailakandi, Assam 788152",
        "detailed_address": {
            "ward": "Kalopar, part III, Gangpar Dhumkar",
            "street": "MHV3+X6G",
            "city": "Hailakandi",
            "postal_code": "788152",
            "state": "Assam",
            "country_code": "IN"
        },
        "images": [
            {
                "about": "All",
                "link": "https://lh5.googleusercontent.com/p/AF1QipNknwthbEglWP3iyGe4Ffds81r3GCRClzGzzeqF=w224-h398-k-no"
            }
        ],
        "link": "https://www.google.com/maps/place/Gangpar+Dhumkar+MASJID/data=!4m7!3m6!1s0x374e2f023f6cc3d3:0x85bd375921192e0!8m2!3d24.6949293!4d92.5530841!16s%2Fg%2F11gy4xjtfx!19sChIJ08NsPwIvTjcR4JIRknXTWwg?authuser=0&hl=en&rclk=1",
        "coordinates": {
            "latitude": 24.6949293,
            "longitude": 92.55308409999999
        }
    },
    {
        "name": "Masjid e Moazzam",
        "main_category": "Mosque",
        "address": "MH46+687 Masjid e Moazzam, Dakhin Sonapur, Hailakandi, Borbond Pt III, Assam 788164",
        "detailed_address": {
            "ward": "Dakhin Sonapur",
            "street": "MH46+687",
            "city": "Hailakandi, Borbond Pt III",
            "postal_code": "788164",
            "state": "Assam",
            "country_code": "IN"
        },
        "images": [],
        "link": "https://www.google.com/maps/place/Masjid+e+Moazzam/data=!4m7!3m6!1s0x374e25ce524270c7:0x47f89b205dbeeb79!8m2!3d24.6555484!4d92.5607955!16s%2Fg%2F11gmvfhydp!19sChIJx3BCUs4lTjcReeu-XSCb-Ec?authuser=0&hl=en&rclk=1",
        "coordinates": {
            "latitude": 24.655548399999997,
            "longitude": 92.5607955
        }
    },
    {
        "name": "Masjid Panjagana",
        "main_category": "Mosque",
        "address": "MHM7+QV3 Masjid Panjagana, NS Rd, Bashdahar, Hailakandi, Assam 788155",
        "detailed_address": {
            "ward": "Bashdahar",
            "street": "MHM7+QV3, NS Rd",
            "city": "Hailakandi",
            "postal_code": "788155",
            "state": "Assam",
            "country_code": "IN"
        },
        "images": [
            {
                "about": "All",
                "link": "https://streetviewpixels-pa.googleapis.com/v1/thumbnail?panoid=89lGe7I_1lihIBy0AYj8fQ&cb_client=maps_sv.tactile.gps&w=224&h=298&yaw=132.5849&pitch=0&thumbfov=100"
            },
            {
                "about": "Street View & 360deg",
                "link": "https://streetviewpixels-pa.googleapis.com/v1/thumbnail?panoid=89lGe7I_1lihIBy0AYj8fQ&cb_client=maps_sv.tactile.gps&w=224&h=298&yaw=132.5849&pitch=0&thumbfov=100"
            }
        ],
        "link": "https://www.google.com/maps/place/Masjid+Panjagana/data=!4m7!3m6!1s0x374e25fd3cc050e1:0x990611fbcb552cfe!8m2!3d24.6843801!4d92.5646756!16s%2Fg%2F11h1s9j8xf!19sChIJ4VDAPP0lTjcR_ixVy_sRBpk?authuser=0&hl=en&rclk=1",
        "coordinates": {
            "latitude": 24.6843801,
            "longitude": 92.5646756
        }
    },
    {
        "name": "Baytunnur Jame Masjid",
        "main_category": "Mosque",
        "address": "MH98+538 Baytunnur Jame Masjid, Dakhin Sonapur, Hailakandi, Vichingcha Pt II, Assam 788164",
        "detailed_address": {
            "ward": "Dakhin Sonapur",
            "street": "MH98+538",
            "city": "Hailakandi, Vichingcha Pt II",
            "postal_code": "788164",
            "state": "Assam",
            "country_code": "IN"
        },
        "images": [],
        "link": "https://www.google.com/maps/place/Baytunnur+Jame+Masjid/data=!4m7!3m6!1s0x374e25bdee278f5d:0x8de6969c3a29e06a!8m2!3d24.6679133!4d92.5651928!16s%2Fg%2F11f53ps5lh!19sChIJXY8n7r0lTjcRauApOpyW5o0?authuser=0&hl=en&rclk=1",
        "coordinates": {
            "latitude": 24.6679133,
            "longitude": 92.56519279999999
        }
    },
    {
        "name": "Hailakani Railway Station Masjid",
        "main_category": "Mosque",
        "address": "Hailakani Railway Station Masjid, Railway Station, Bandar Gram Road,Oposit Of, Hailakandi, Assam",
        "detailed_address": {
            "ward": "Bandukmara Grant",
            "street": "Railway Station, Bandar Gram Road,Oposit Of",
            "city": "Hailakandi",
            "postal_code": null,
            "state": "Assam",
            "country_code": "IN"
        },
        "images": [
            {
                "about": "All",
                "link": "https://streetviewpixels-pa.googleapis.com/v1/thumbnail?panoid=fjk16i0dIfGWYxCS6IH8ZA&cb_client=maps_sv.tactile.gps&w=224&h=298&yaw=24.15682&pitch=0&thumbfov=100"
            },
            {
                "about": "Street View & 360deg",
                "link": "https://streetviewpixels-pa.googleapis.com/v1/thumbnail?panoid=fjk16i0dIfGWYxCS6IH8ZA&cb_client=maps_sv.tactile.gps&w=224&h=298&yaw=24.15682&pitch=0&thumbfov=100"
            }
        ],
        "link": "https://www.google.com/maps/place/Hailakani+Railway+Station+Masjid/data=!4m7!3m6!1s0x374e257528c127a9:0x730f654f6581ced5!8m2!3d24.6774318!4d92.5693087!16s%2Fg%2F11gyxhn4nq!19sChIJqSfBKHUlTjcR1c6BZU9lD3M?authuser=0&hl=en&rclk=1",
        "coordinates": {
            "latitude": 24.677431799999997,
            "longitude": 92.5693087
        }
    },
    {
        "name": "Gorib Nowaz Gastola Mosque",
        "main_category": "Mosque",
        "address": "MHH9+38J Gorib Nowaz Gastola Mosque, Bandukmara Grant, Hailakandi, Assam 788155",
        "detailed_address": {
            "ward": "Bandukmara Grant",
            "street": "MHH9+38J",
            "city": "Hailakandi",
            "postal_code": "788155",
            "state": "Assam",
            "country_code": "IN"
        },
        "images": [
            {
                "about": "All",
                "link": "https://lh5.googleusercontent.com/p/AF1QipMbld0oK-R0y17k-BLKtWqHEBXY_7-T7yI9krvI=w397-h298-k-no"
            },
            {
                "about": "Latest",
                "link": "https://lh5.googleusercontent.com/p/AF1QipPOCkfAj8UtFMYqRKHlkGuTR191gZ1azfgGGudm=w224-h298-k-no"
            },
            {
                "about": "Street View & 360deg",
                "link": "https://streetviewpixels-pa.googleapis.com/v1/thumbnail?panoid=cN-aytWQO8XdNbR1r0g52A&cb_client=maps_sv.tactile.gps&w=224&h=298&yaw=36.736343&pitch=0&thumbfov=100"
            }
        ],
        "link": "https://www.google.com/maps/place/Gorib+Nowaz+Gastola+Mosque/data=!4m7!3m6!1s0x374e25e68a79c1a5:0x15c44f7520de35dc!8m2!3d24.6778746!4d92.5682899!16s%2Fg%2F11sbd3cc44!19sChIJpcF5iuYlTjcR3DXeIHVPxBU?authuser=0&hl=en&rclk=1",
        "coordinates": {
            "latitude": 24.6778746,
            "longitude": 92.5682899
        }
    },
    {
        "name": "Juma Masjid",
        "main_category": "Mosque",
        "address": "MHR2+P4Q Juma Masjid, Brojapur, Hailakandi, Assam 788152",
        "detailed_address": {
            "ward": "Brojapur",
            "street": "MHR2+P4Q",
            "city": "Hailakandi",
            "postal_code": "788152",
            "state": "Assam",
            "country_code": "IN"
        },
        "images": [
            {
                "about": "All",
                "link": "https://streetviewpixels-pa.googleapis.com/v1/thumbnail?panoid=FWllOKiUR7PNpIEpXllrCA&cb_client=maps_sv.tactile.gps&w=224&h=298&yaw=54.142784&pitch=0&thumbfov=100"
            },
            {
                "about": "Street View & 360deg",
                "link": "https://streetviewpixels-pa.googleapis.com/v1/thumbnail?panoid=FWllOKiUR7PNpIEpXllrCA&cb_client=maps_sv.tactile.gps&w=224&h=298&yaw=54.142784&pitch=0&thumbfov=100"
            },
            {
                "about": "Videos",
                "link": "https://lh5.googleusercontent.com/p/AF1QipMTGBs6QcaRdBaSkhRYyLmjOGW46reSEPgvEnhe=w224-h398-k-no"
            }
        ],
        "link": "https://www.google.com/maps/place/Juma+Masjid/data=!4m7!3m6!1s0x374e256d77d9f367:0x258a61f7bb435d1e!8m2!3d24.6918456!4d92.550363!16s%2Fg%2F11gly7ltg4!19sChIJZ_PZd20lTjcRHl1Du_dhiiU?authuser=0&hl=en&rclk=1",
        "coordinates": {
            "latitude": 24.6918456,
            "longitude": 92.55036299999999
        }
    },
    {
        "name": "alamin masjid",
        "main_category": "Mosque",
        "address": "MHHC+9HH alamin masjid, Ajab Ali Laskar Ln, Bandukmara Grant, Hailakandi, Assam 788155",
        "detailed_address": {
            "ward": "Bandukmara Grant",
            "street": "MHHC+9HH, Ajab Ali Laskar Ln",
            "city": "Hailakandi",
            "postal_code": "788155",
            "state": "Assam",
            "country_code": "IN"
        },
        "images": [
            {
                "about": "All",
                "link": "https://lh5.googleusercontent.com/p/AF1QipMoR91PcOHqmXnr-LF5NlLZG9NRl57BT_6Yp0zN=w529-h298-k-no"
            }
        ],
        "link": "https://www.google.com/maps/place/alamin+masjid/data=!4m7!3m6!1s0x374e254684439e3f:0x8dc78f5032d71e49!8m2!3d24.6784302!4d92.5714962!16s%2Fg%2F11h8bhm3l6!19sChIJP55DhEYlTjcRSR7XMlCPx40?authuser=0&hl=en&rclk=1",
        "coordinates": {
            "latitude": 24.678430199999998,
            "longitude": 92.5714962
        }
    },
    {
        "name": "Ujankupa Nizamia Jama Masjid",
        "main_category": "Mosque",
        "address": "PG2V+WMC Ujankupa Nizamia Jama Masjid, Brojapur, Gangpar Dhonkar Pt III, Hailakandi, Assam 788152",
        "detailed_address": {
            "ward": "Brojapur",
            "street": "PG2V+WMC",
            "city": "Gangpar Dhonkar Pt III, Hailakandi",
            "postal_code": "788152",
            "state": "Assam",
            "country_code": "IN"
        },
        "images": [
            {
                "about": "All",
                "link": "https://lh5.googleusercontent.com/p/AF1QipPVoywqgr4SU8CK1-Ktw2Sxrmn94mp7uqKALmA4=w397-h298-k-no"
            },
            {
                "about": "Dome",
                "link": "https://lh5.googleusercontent.com/p/AF1QipPVoywqgr4SU8CK1-Ktw2Sxrmn94mp7uqKALmA4=w397-h298-k-no"
            }
        ],
        "link": "https://www.google.com/maps/place/Ujankupa+Nizamia+Jama+Masjid/data=!4m7!3m6!1s0x374e2f522f3c601f:0x9948c69c95a7f7f1!8m2!3d24.7023046!4d92.5441542!16s%2Fg%2F11gbl3bkmx!19sChIJH2A8L1IvTjcR8fenlZzGSJk?authuser=0&hl=en&rclk=1",
        "coordinates": {
            "latitude": 24.702304599999998,
            "longitude": 92.5441542
        }
    },
    {
        "name": "Mosque",
        "main_category": "Mosque",
        "address": "MH82+74F Mosque, kanchanpur pt 1, Hailakandi, Kanchanpur Pt I, Assam 788164",
        "detailed_address": {
            "ward": null,
            "street": "MH82+74F, kanchanpur pt 1",
            "city": "Hailakandi, Kanchanpur Pt I",
            "postal_code": null,
            "state": "Assam",
            "country_code": "IN"
        },
        "images": [
            {
                "about": "All",
                "link": "https://lh5.googleusercontent.com/p/AF1QipM9l0-QMQZ7cc7i0ELl6yAEyOjn5HViNDTY0JhU=w224-h298-k-no"
            }
        ],
        "link": "https://www.google.com/maps/place/Mosque/data=!4m7!3m6!1s0x374e25c3260cc605:0xe5122ab49736b5bf!8m2!3d24.6656965!4d92.550309!16s%2Fg%2F11hbpk5syj!19sChIJBcYMJsMlTjcRv7U2l7QqEuU?authuser=0&hl=en&rclk=1",
        "coordinates": {
            "latitude": 24.6656965,
            "longitude": 92.550309
        }
    },
    {
        "name": "Masjid-ul-Salam",
        "main_category": "Mosque",
        "address": "MH56+GM8 Masjid-ul-Salam, Dakhin Sonapur, Hailakandi, Assam 788164",
        "detailed_address": {
            "ward": "Dakhin Sonapur",
            "street": "MH56+GM8",
            "city": "Hailakandi",
            "postal_code": "788164",
            "state": "Assam",
            "country_code": "IN"
        },
        "images": [],
        "link": "https://www.google.com/maps/place/Masjid-ul-Salam/data=!4m7!3m6!1s0x374e25c13b45af91:0xae4c981c5b6d7053!8m2!3d24.6587791!4d92.5617085!16s%2Fg%2F11h0by9hr6!19sChIJka9FO8ElTjcRU3BtWxyYTK4?authuser=0&hl=en&rclk=1",
        "coordinates": {
            "latitude": 24.6587791,
            "longitude": 92.5617085
        }
    },
    {
        "name": "Masjid-Ul-Wasi'",
        "main_category": "Mosque",
        "address": "MH67+928 Masjid-Ul-Wasi', Lala Rd, Dakhin Sonapur, Hailakandi, Assam 788164",
        "detailed_address": {
            "ward": "Dakhin Sonapur",
            "street": "MH67+928, Lala Rd",
            "city": "Hailakandi",
            "postal_code": "788164",
            "state": "Assam",
            "country_code": "IN"
        },
        "images": [],
        "link": "https://www.google.com/maps/place/Masjid-Ul-Wasi%27/data=!4m7!3m6!1s0x374e252f20c11d93:0x90dfc314359adc38!8m2!3d24.6609005!4d92.5625909!16s%2Fg%2F11fk4mtt2p!19sChIJkx3BIC8lTjcRONyaNRTD35A?authuser=0&hl=en&rclk=1",
        "coordinates": {
            "latitude": 24.6609005,
            "longitude": 92.56259089999999
        }
    },
    {
        "name": "Hailakandi (Ward-4) paanjaagaanaa msjid",
        "main_category": "Mosque",
        "address": "MHC5+V92 Hailakandi (Ward-4) paanjaagaanaa msjid, Bashdahar, Tupkhana, Assam 788151",
        "detailed_address": {
            "ward": "Bashdahar",
            "street": "MHC5+V92",
            "city": "Tupkhana",
            "postal_code": "788151",
            "state": "Assam",
            "country_code": "IN"
        },
        "images": [],
        "link": "https://www.google.com/maps/place/Hailakandi+%28Ward-4%29+%E0%A6%AA%E0%A6%BE%E0%A6%A8%E0%A7%8D%E0%A6%9C%E0%A6%BE%E0%A6%97%E0%A6%BE%E0%A6%A8%E0%A6%BE+%E0%A6%AE%E0%A6%B8%E0%A6%9C%E0%A6%BF%E0%A6%A6/data=!4m7!3m6!1s0x374e253d3b2ad6a9:0xb09440120689ef88!8m2!3d24.6721265!4d92.5583887!16s%2Fg%2F11hyrmgl1y!19sChIJqdYqOz0lTjcRiO-JBhJAlLA?authuser=0&hl=en&rclk=1",
        "coordinates": {
            "latitude": 24.672126499999997,
            "longitude": 92.5583887
        }
    },
    {
        "name": "Academy Masjid",
        "main_category": "Mosque",
        "address": "MHHG+4P4 Academy Masjid, Bandukmara Grant, Hailakandi, Rangauti Pt II, Assam 788155",
        "detailed_address": {
            "ward": "Bandukmara Grant",
            "street": "MHHG+4P4",
            "city": "Hailakandi, Rangauti Pt II",
            "postal_code": "788155",
            "state": "Assam",
            "country_code": "IN"
        },
        "images": [
            {
                "about": "All",
                "link": "https://lh5.googleusercontent.com/p/AF1QipONvMakd_bEjw2NKx3BxGJCuByVivRAJowdfmjN=w397-h298-k-no"
            }
        ],
        "link": "https://www.google.com/maps/place/Academy+Masjid/data=!4m7!3m6!1s0x374e2508d5019efd:0xfd5c7f2abc7be2cb!8m2!3d24.6777589!4d92.5768146!16s%2Fg%2F11s0s1fc6w!19sChIJ_Z4B1QglTjcRy-J7vCp_XP0?authuser=0&hl=en&rclk=1",
        "coordinates": {
            "latitude": 24.6777589,
            "longitude": 92.57681459999999
        }
    },
    {
        "name": "Aqsa Jame Masjid",
        "main_category": "Mosque",
        "address": "MHR9+P5G Aqsa Jame Masjid, Gangpar Dhumkar, Hailakandi, Assam 788155",
        "detailed_address": {
            "ward": "Gangpar Dhumkar",
            "street": "MHR9+P5G",
            "city": "Hailakandi",
            "postal_code": null,
            "state": "Assam",
            "country_code": "IN"
        },
        "images": [],
        "link": "https://www.google.com/maps/place/Aqsa+Jame+Masjid/data=!4m7!3m6!1s0x374e25ac64e1f27d:0xe824899edb1240ab!8m2!3d24.6918021!4d92.5679654!16s%2Fg%2F11tg28dmgz!19sChIJffLhZKwlTjcRq0AS256JJOg?authuser=0&hl=en&rclk=1",
        "coordinates": {
            "latitude": 24.6918021,
            "longitude": 92.56796539999999
        }
    },
    {
        "name": "Hailakandi Markaz",
        "main_category": "Mosque",
        "address": "Hailakandi Markaz, College Road W/N:13, Hailakandi, Assam 788155",
        "detailed_address": {
            "ward": "Gangpar Dhumkar",
            "street": "College Road W/N:13",
            "city": "Hailakandi",
            "postal_code": "788155",
            "state": "Assam",
            "country_code": "IN"
        },
        "images": [],
        "link": "https://www.google.com/maps/place/Hailakandi+Markaz/data=!4m7!3m6!1s0x374e2589681632bf:0x90cf5c7722ebdad9!8m2!3d24.688093!4d92.5650716!16s%2Fg%2F1ydpvbsl5!19sChIJvzIWaIklTjcR2drrIndcz5A?authuser=0&hl=en&rclk=1",
        "coordinates": {
            "latitude": 24.688093,
            "longitude": 92.5650716
        }
    },
    {
        "name": "Vichingcha part 1 Habibi ya Jama Masjid",
        "main_category": "Mosque",
        "address": "MH66+H77 Vichingcha part 1 Habibi ya Jama Masjid, Dakhin Sonapur, Vichingcha Pt I, Hailakandi, Assam 788164",
        "detailed_address": {
            "ward": "Dakhin Sonapur",
            "street": "MH66+H77",
            "city": "Vichingcha Pt I, Hailakandi",
            "postal_code": null,
            "state": "Assam",
            "country_code": "IN"
        },
        "images": [],
        "link": "https://www.google.com/maps/place/Vichingcha+part+1+Habibi+ya+Jama+Masjid/data=!4m7!3m6!1s0x374e251da89b8f41:0x425c7f7fc8b124eb!8m2!3d24.6614099!4d92.5606603!16s%2Fg%2F11h5w4gfwn!19sChIJQY-bqB0lTjcR6ySxyH9_XEI?authuser=0&hl=en&rclk=1",
        "coordinates": {
            "latitude": 24.6614099,
            "longitude": 92.5606603
        }
    },
    {
        "name": "Jama Masjid",
        "main_category": "Mosque",
        "address": "Jama Masjid, Vypass Jama Masjid, Sudorshonpur, Vichingcha Pt II, Assam 788155",
        "detailed_address": {
            "ward": "Sudorshonpur",
            "street": "Vypass Jama Masjid",
            "city": "Vichingcha Pt II",
            "postal_code": "788155",
            "state": "Assam",
            "country_code": "IN"
        },
        "images": [],
        "link": "https://www.google.com/maps/place/Jama+Masjid/data=!4m7!3m6!1s0x374e25ae0a259ddf:0x952a37b170fc238d!8m2!3d24.6716882!4d92.5668555!16s%2Fg%2F11h0bb55bm!19sChIJ350lCq4lTjcRjSP8cLE3KpU?authuser=0&hl=en&rclk=1",
        "coordinates": {
            "latitude": 24.6716882,
            "longitude": 92.5668555
        }
    },
    {
        "name": "Darul Jannath Jamma Masjid",
        "main_category": "Mosque",
        "address": "MHJF+JPW Darul Jannath Jamma Masjid, Bandukmara Grant, Hailakandi, Assam 788155",
        "detailed_address": {
            "ward": "Bandukmara Grant",
            "street": "MHJF+JPW",
            "city": "Hailakandi",
            "postal_code": "788155",
            "state": "Assam",
            "country_code": "IN"
        },
        "images": [],
        "link": "https://www.google.com/maps/place/Darul+Jannath+Jamma+Masjid/data=!4m7!3m6!1s0x374e25cbe81fa037:0x73e4cfac2da8c8bf!8m2!3d24.6816041!4d92.5743352!16s%2Fg%2F11pd2rg42d!19sChIJN6Af6MslTjcRv8ioLazP5HM?authuser=0&hl=en&rclk=1",
        "coordinates": {
            "latitude": 24.681604099999998,
            "longitude": 92.5743352
        }
    },
    {
        "name": "Narainpur jama masjid",
        "main_category": "Mosque",
        "address": "MGPV+J28 Narainpur jama masjid, HailaKandi Bypass, Mazumder Para, Itorkandi Pt I, Narainpur Pt III, Assam 788151",
        "detailed_address": {
            "ward": "Mazumder Para",
            "street": "MGPV+J28, HailaKandi Bypass",
            "city": "Itorkandi Pt I, Narainpur Pt III",
            "postal_code": "788151",
            "state": "Assam",
            "country_code": "IN"
        },
        "images": [
            {
                "about": "All",
                "link": "https://lh5.googleusercontent.com/p/AF1QipPoX_Y3ku7lDa-YFdD-kHRUgzPVVGJCsXM-Ev0n=w529-h298-k-no"
            },
            {
                "about": "Videos",
                "link": "https://lh5.googleusercontent.com/p/AF1QipPoX_Y3ku7lDa-YFdD-kHRUgzPVVGJCsXM-Ev0n=w529-h298-k-no"
            }
        ],
        "link": "https://www.google.com/maps/place/Narainpur+jama+masjid/data=!4m7!3m6!1s0x374e25f3a5e93a93:0xc8e9f7b904807500!8m2!3d24.6865389!4d92.5425743!16s%2Fg%2F11n5dsg9yd!19sChIJkzrppfMlTjcRAHWABLn36cg?authuser=0&hl=en&rclk=1",
        "coordinates": {
            "latitude": 24.6865389,
            "longitude": 92.5425743
        }
    },
    {
        "name": "S Fresh Masjid",
        "main_category": "Mosque",
        "address": "MHGC+GVC S Fresh Masjid, Gudamghat road, Transport office, Bandukmara Grant, Hailakandi, Rangauti Pt II, Assam 788155",
        "detailed_address": {
            "ward": "Transport office, Bandukmara Grant",
            "street": "MHGC+GVC, Gudamghat road",
            "city": "Hailakandi, Rangauti Pt II",
            "postal_code": "788155",
            "state": "Assam",
            "country_code": "IN"
        },
        "images": [
            {
                "about": "All",
                "link": "https://lh5.googleusercontent.com/p/AF1QipP7gAl7CE8g8-ISg2gEkHFMUXklZuf5RTvGkE2x=w398-h298-k-no"
            },
            {
                "about": "Dome",
                "link": "https://lh5.googleusercontent.com/p/AF1QipNxeFSx1rH1DFDAVZSdGgR2BkTYOwViwJtdddTS=w397-h298-k-no"
            },
            {
                "about": "Street View & 360deg",
                "link": "https://streetviewpixels-pa.googleapis.com/v1/thumbnail?panoid=4VmhiMRNd0sEPFgAZyBH1A&cb_client=maps_sv.tactile.gps&w=224&h=298&yaw=20.533625&pitch=0&thumbfov=100"
            }
        ],
        "link": "https://www.google.com/maps/place/S+Fresh+Masjid/data=!4m7!3m6!1s0x374e25097084b8b9:0x6ba769f411e0894c!8m2!3d24.676314!4d92.5721301!16s%2Fg%2F11nxv58441!19sChIJubiEcAklTjcRTIngEfRpp2s?authuser=0&hl=en&rclk=1",
        "coordinates": {
            "latitude": 24.676313999999998,
            "longitude": 92.5721301
        }
    },
    {
        "name": "Khalopar Jam-E-Masjid",
        "main_category": "Mosque",
        "address": "Khalopar Jam-E-Masjid, VILL: SOUTH JASNABAD PART, 2, Hailakandi, Assam 788163",
        "detailed_address": {
            "ward": "Bashdahar",
            "street": "VILL: SOUTH JASNABAD PART, 2",
            "city": "Hailakandi",
            "postal_code": "788163",
            "state": "Assam",
            "country_code": "IN"
        },
        "images": [
            {
                "about": "All",
                "link": "https://streetviewpixels-pa.googleapis.com/v1/thumbnail?panoid=AdFkBGc-UBUvDMIhkrFfIg&cb_client=maps_sv.tactile.gps&w=224&h=298&yaw=226.15555&pitch=0&thumbfov=100"
            },
            {
                "about": "Street View & 360deg",
                "link": "https://streetviewpixels-pa.googleapis.com/v1/thumbnail?panoid=AdFkBGc-UBUvDMIhkrFfIg&cb_client=maps_sv.tactile.gps&w=224&h=298&yaw=226.15555&pitch=0&thumbfov=100"
            }
        ],
        "link": "https://www.google.com/maps/place/Khalopar+Jam-E-Masjid/data=!4m7!3m6!1s0x374e25b0f42b9221:0xda91101bfc7ff52e!8m2!3d24.6812329!4d92.5646083!16s%2Fg%2F11sbqmjzcr!19sChIJIZIr9LAlTjcRLvV__BsQkdo?authuser=0&hl=en&rclk=1",
        "coordinates": {
            "latitude": 24.681232899999998,
            "longitude": 92.56460829999999
        }
    },
    {
        "name": "Mazumder para jame masjid",
        "main_category": "Mosque",
        "address": "MGPX+48R Mazumder para jame masjid, Mazumder Para, Hailakandi, Narainpur Pt III, Assam 788151",
        "detailed_address": {
            "ward": "Mazumder Para",
            "street": "MGPX+48R",
            "city": "Hailakandi, Narainpur Pt III",
            "postal_code": "788151",
            "state": "Assam",
            "country_code": "IN"
        },
        "images": [],
        "link": "https://www.google.com/maps/place/Mazumder+para+jame+masjid/data=!4m7!3m6!1s0x374e2551bed97585:0x125c3dc4739b9c09!8m2!3d24.6853529!4d92.5482725!16s%2Fg%2F11tf_m1cwk!19sChIJhXXZvlElTjcRCZybc8Q9XBI?authuser=0&hl=en&rclk=1",
        "coordinates": {
            "latitude": 24.685352899999998,
            "longitude": 92.5482725
        }
    },
    {
        "name": "Arynapur Bodo Masjid",
        "main_category": "Mosque",
        "address": "MHJ7+CGJ Arynapur Bodo Masjid, Bashdahar, Hailakandi, Assam 788151",
        "detailed_address": {
            "ward": "Bashdahar",
            "street": "MHJ7+CGJ",
            "city": "Hailakandi",
            "postal_code": null,
            "state": "Assam",
            "country_code": "IN"
        },
        "images": [],
        "link": "https://www.google.com/maps/place/Arynapur+Bodo+Masjid/data=!4m7!3m6!1s0x374e2543451bc79d:0xdbdc92eeee78b460!8m2!3d24.6810974!4d92.5637787!16s%2Fg%2F11t1fyp969!19sChIJnccbRUMlTjcRYLR47u6S3Ns?authuser=0&hl=en&rclk=1",
        "coordinates": {
            "latitude": 24.6810974,
            "longitude": 92.5637787
        }
    },
    {
        "name": "Kamrul Nagar Masjid",
        "main_category": "Mosque",
        "address": "Kamrul Nagar Masjid, 18BARZPD6102P1 Ajachak Pally, Hailakandi, Assam 788151",
        "detailed_address": {
            "ward": "Mazumder Para",
            "street": "18BARZPD6102P1 Ajachak Pally",
            "city": "Hailakandi",
            "postal_code": "788151",
            "state": "Assam",
            "country_code": "IN"
        },
        "images": [
            {
                "about": "All",
                "link": "https://lh5.googleusercontent.com/p/AF1QipO5sxi5ZI3BRy3x3ynIk1l2nNsDYCYFRJQ65uA2=w224-h299-k-no"
            }
        ],
        "link": "https://www.google.com/maps/place/Kamrul+Nagar+Masjid/data=!4m7!3m6!1s0x374e25a6954d513b:0x64b48d1394d36be3!8m2!3d24.6805071!4d92.5505085!16s%2Fg%2F11n_f479ms!19sChIJO1FNlaYlTjcR42vTlBONtGQ?authuser=0&hl=en&rclk=1",
        "coordinates": {
            "latitude": 24.6805071,
            "longitude": 92.55050849999999
        }
    },
    {
        "name": "Narayanpur Bypass ass Masjid",
        "main_category": "Mosque",
        "address": "Narayanpur Bypass ass Masjid, Narainpur Rd NARAINPUR PART 2, Mazumder Para, Narainpur Pt III, Assam 788152",
        "detailed_address": {
            "ward": "Mazumder Para",
            "street": "Narainpur Rd NARAINPUR PART 2",
            "city": "Narainpur Pt III",
            "postal_code": "788152",
            "state": "Assam",
            "country_code": "IN"
        },
        "images": [
            {
                "about": "All",
                "link": "https://lh5.googleusercontent.com/p/AF1QipMyDyUMJLbR9ttE7ikF5g6wLQWZN_YJRdwnbCdd=w529-h298-k-no"
            }
        ],
        "link": "https://www.google.com/maps/place/Narayanpur+Bypass+ass+Masjid/data=!4m7!3m6!1s0x374e25dc23affa39:0x19d0e8d0ec89dda9!8m2!3d24.6887087!4d92.5421187!16s%2Fg%2F11rfd6wcbs!19sChIJOfqvI9wlTjcRqd2J7NDo0Bk?authuser=0&hl=en&rclk=1",
        "coordinates": {
            "latitude": 24.6887087,
            "longitude": 92.54211869999999
        }
    },
    {
        "name": "Narainpur Eidgah Masjid naaraainpur iidgaa msjid",
        "main_category": "Mosque",
        "address": "MGPV+J49 Narainpur Eidgah Masjid naaraainpur iidgaa msjid, HailaKandi Bypass, Narainpur Pt III, Hailakandi, Assam 788152",
        "detailed_address": {
            "ward": null,
            "street": "MGPV+J49, HailaKandi Bypass",
            "city": "Narainpur Pt III, Hailakandi",
            "postal_code": "788152",
            "state": "Assam",
            "country_code": "IN"
        },
        "images": [
            {
                "about": "All",
                "link": "https://lh5.googleusercontent.com/p/AF1QipOYKXSglEeN5BD_pqJoBhUZKSQ_KxUsPTibL-hv=w224-h498-k-no"
            }
        ],
        "link": "https://www.google.com/maps/place/Narainpur+Eidgah+Masjid+%E0%A6%A8%E0%A6%BE%E0%A6%B0%E0%A6%BE%E0%A6%87%E0%A6%A8%E0%A6%AA%E0%A7%81%E0%A6%B0+%E0%A6%88%E0%A6%A6%E0%A6%97%E0%A6%BE+%E0%A6%AE%E0%A6%B8%E0%A6%9C%E0%A6%BF%E0%A6%A6/data=!4m7!3m6!1s0x374e2546c3abbcd9:0x4c3c671254630e4e!8m2!3d24.6865476!4d92.5428712!16s%2Fg%2F11l6gm42jq!19sChIJ2byrw0YlTjcRTg5jVBJnPEw?authuser=0&hl=en&rclk=1",
        "coordinates": {
            "latitude": 24.686547599999997,
            "longitude": 92.5428712
        }
    },
    {
        "name": "RATANPUR PURBOPAR JAMA MASJID",
        "main_category": "Mosque",
        "address": "MHP9+GGQ RATANPUR PURBOPAR JAMA MASJID, RATANPUR PURBOPAR, MAULANA ZIAUDDIN ROAD, Hailakandi, Assam 788155",
        "detailed_address": {
            "ward": "Gangpar Dhumkar",
            "street": "MHP9+GGQ, RATANPUR PURBOPAR, MAULANA ZIAUDDIN ROAD",
            "city": "Hailakandi",
            "postal_code": "788155",
            "state": "Assam",
            "country_code": "IN"
        },
        "images": [],
        "link": "https://www.google.com/maps/place/RATANPUR+PURBOPAR+JAMA+MASJID/data=!4m7!3m6!1s0x374e25a55005133b:0x8a7ca1ab5984ee41!8m2!3d24.6863468!4d92.5688481!16s%2Fg%2F11r9vb9rr9!19sChIJOxMFUKUlTjcRQe6EWauhfIo?authuser=0&hl=en&rclk=1",
        "coordinates": {
            "latitude": 24.6863468,
            "longitude": 92.5688481
        }
    }
]