[
    {
        "name": "Jama Masjid",
        "main_category": "Mosque",
        "address": "CP2W+JX4 Jama Masjid, Charkhari, Uttar Pradesh 210421",
        "detailed_address": {
            "ward": null,
            "street": "CP2W+JX4",
            "city": "Charkhari",
            "postal_code": "210421",
            "state": "Uttar Pradesh",
            "country_code": "IN"
        },
        "images": [
            {
                "about": "All",
                "link": "https://streetviewpixels-pa.googleapis.com/v1/thumbnail?panoid=X6HO7gQEnezZ3gffFjLFjA&cb_client=maps_sv.tactile.gps&w=224&h=298&yaw=284.7262&pitch=0&thumbfov=100"
            },
            {
                "about": "Street View & 360deg",
                "link": "https://streetviewpixels-pa.googleapis.com/v1/thumbnail?panoid=X6HO7gQEnezZ3gffFjLFjA&cb_client=maps_sv.tactile.gps&w=224&h=298&yaw=284.7262&pitch=0&thumbfov=100"
            }
        ],
        "link": "https://www.google.com/maps/place/Jama+Masjid/data=!4m7!3m6!1s0x399d37896037adcb:0x1aeee24f916032af!8m2!3d25.4015137!4d79.7474619!16s%2Fg%2F11gs81ms_w!19sChIJy603YIk3nTkRrzJgkU_i7ho?authuser=0&hl=en&rclk=1",
        "coordinates": {
            "latitude": 25.4015137,
            "longitude": 79.74746189999999
        }
    },
    {
        "name": "Saqlainiya masjid",
        "main_category": "Mosque",
        "address": "CFVG+5W9 Saqlainiya masjid, Uttar Pradesh 210429",
        "detailed_address": {
            "ward": null,
            "street": "CFVG+5W9",
            "city": null,
            "postal_code": null,
            "state": "Uttar Pradesh",
            "country_code": "IN"
        },
        "images": [
            {
                "about": "All",
                "link": "https://lh5.googleusercontent.com/p/AF1QipNSRWmkENpXu1rgYlk5j3bANvcRez7Lww528WOg=w224-h397-k-no"
            }
        ],
        "link": "https://www.google.com/maps/place/Saqlainiya+masjid/data=!4m7!3m6!1s0x399d50ceb7f1d1bf:0x13220edc8a620605!8m2!3d25.4429065!4d79.4773628!16s%2Fg%2F11gf9ndmwz!19sChIJv9Hxt85QnTkRBQZiitwOIhM?authuser=0&hl=en&rclk=1",
        "coordinates": {
            "latitude": 25.4429065,
            "longitude": 79.4773628
        }
    },
    {
        "name": "Baba joo Masjid",
        "main_category": "Mosque",
        "address": "CP2V+VVH Baba joo Masjid, Charkhari, Uttar Pradesh 210421",
        "detailed_address": {
            "ward": null,
            "street": "CP2V+VVH",
            "city": "Charkhari",
            "postal_code": "210421",
            "state": "Uttar Pradesh",
            "country_code": "IN"
        },
        "images": [
            {
                "about": "All",
                "link": "https://lh5.googleusercontent.com/p/AF1QipPuwqu4whDGBB6NYANVkZ_SZ6ltU_8Xa_WqAZK1=w349-h298-k-no"
            },
            {
                "about": "Dome",
                "link": "https://lh5.googleusercontent.com/p/AF1QipPuwqu4whDGBB6NYANVkZ_SZ6ltU_8Xa_WqAZK1=w349-h298-k-no"
            },
            {
                "about": "Street View & 360deg",
                "link": "https://streetviewpixels-pa.googleapis.com/v1/thumbnail?panoid=gvbJEb5-zdUtIUZ6-7UX7Q&cb_client=maps_sv.tactile.gps&w=224&h=298&yaw=335.44006&pitch=0&thumbfov=100"
            }
        ],
        "link": "https://www.google.com/maps/place/Baba+joo+Masjid/data=!4m7!3m6!1s0x399d3727a7dbbcd9:0x8f91d2608787c7c4!8m2!3d25.4021977!4d79.7447191!16s%2Fg%2F11j0hpnf83!19sChIJ2bzbpyc3nTkRxMeHh2DSkY8?authuser=0&hl=en&rclk=1",
        "coordinates": {
            "latitude": 25.4021977,
            "longitude": 79.7447191
        }
    },
    {
        "name": "Shahi Masjid",
        "main_category": "Mosque",
        "address": "CP2X+PPW Shahi Masjid, Charkhari, Uttar Pradesh 210421",
        "detailed_address": {
            "ward": null,
            "street": "CP2X+PPW",
            "city": "Charkhari",
            "postal_code": "210421",
            "state": "Uttar Pradesh",
            "country_code": "IN"
        },
        "images": [
            {
                "about": "All",
                "link": "https://lh5.googleusercontent.com/p/AF1QipOLN-otbCdcJ4kekHWkw19ylgi5zRqPjfAZcyY3=w397-h298-k-no"
            }
        ],
        "link": "https://www.google.com/maps/place/Shahi+Masjid/data=!4m7!3m6!1s0x399d373e1751fba5:0xe7adc9503c7de223!8m2!3d25.4018653!4d79.7493257!16s%2Fg%2F11h0ms2637!19sChIJpftRFz43nTkRI-J9PFDJrec?authuser=0&hl=en&rclk=1",
        "coordinates": {
            "latitude": 25.401865299999997,
            "longitude": 79.7493257
        }
    },
    {
        "name": "Farm Shaheed Dargaah And Masjid",
        "main_category": "Mosque",
        "address": "9PPX+2CP Farm Shaheed Dargaah And Masjid, Mhaaraj Nagar, Uttar Pradesh 210421",
        "detailed_address": {
            "ward": null,
            "street": "9PPX+2CP",
            "city": "Mhaaraj Nagar",
            "postal_code": "210421",
            "state": "Uttar Pradesh",
            "country_code": "IN"
        },
        "images": [
            {
                "about": "All",
                "link": "https://lh5.googleusercontent.com/p/AF1QipPKC3QaQMQLcYQYT7qaYi4qyiPQ8uCOZbAU_8B-=w224-h398-k-no"
            },
            {
                "about": "Dome",
                "link": "https://lh5.googleusercontent.com/p/AF1QipMygx7UltayBIIUOc8jLjEFzrcJ6YIONUGtsMio=w528-h298-k-no"
            },
            {
                "about": "Videos",
                "link": "https://lh5.googleusercontent.com/p/AF1QipOMu5YeNw2LPT9fTA9UjG_wP9tNjl3Koz9P4cJt=w224-h398-k-no"
            },
            {
                "about": "Street View & 360deg",
                "link": "https://streetviewpixels-pa.googleapis.com/v1/thumbnail?panoid=v_bcsfVyncM_6Sn6saGLIw&cb_client=maps_sv.tactile.gps&w=224&h=298&yaw=83.91903&pitch=0&thumbfov=100"
            }
        ],
        "link": "https://www.google.com/maps/place/Farm+Shaheed+Dargaah+And+Masjid/data=!4m7!3m6!1s0x399d35c0c1ee3f47:0x549b260f26e24643!8m2!3d25.3850802!4d79.7485894!16s%2Fg%2F11fp1dtksn!19sChIJRz_uwcA1nTkRQ0biJg8mm1Q?authuser=0&hl=en&rclk=1",
        "coordinates": {
            "latitude": 25.385080199999997,
            "longitude": 79.7485894
        }
    },
    {
        "name": "Kothi Shaheed Dargaah And Masjid",
        "main_category": "Shrine",
        "address": "9QX2+C94 Kothi Shaheed Dargaah And Masjid, Charkhari, Uttar Pradesh 210421",
        "detailed_address": {
            "ward": null,
            "street": "9QX2+C94",
            "city": "Charkhari",
            "postal_code": "210421",
            "state": "Uttar Pradesh",
            "country_code": "IN"
        },
        "images": [
            {
                "about": "All",
                "link": "https://streetviewpixels-pa.googleapis.com/v1/thumbnail?panoid=BeFioO5b8kzhnMVH_Qhn6A&cb_client=maps_sv.tactile.gps&w=224&h=298&yaw=204.37268&pitch=0&thumbfov=100"
            },
            {
                "about": "Street View & 360deg",
                "link": "https://streetviewpixels-pa.googleapis.com/v1/thumbnail?panoid=BeFioO5b8kzhnMVH_Qhn6A&cb_client=maps_sv.tactile.gps&w=224&h=298&yaw=204.37268&pitch=0&thumbfov=100"
            }
        ],
        "link": "https://www.google.com/maps/place/Kothi+Shaheed+Dargaah+And+Masjid/data=!4m7!3m6!1s0x399d35c9479856db:0xaa0629d535f5c4b8!8m2!3d25.398515!4d79.7509421!16s%2Fg%2F11fp1ds40k!19sChIJ21aYR8k1nTkRuMT1NdUpBqo?authuser=0&hl=en&rclk=1",
        "coordinates": {
            "latitude": 25.398515,
            "longitude": 79.7509421
        }
    },
    {
        "name": "Amarganj Pashchim Masjid",
        "main_category": "Mosque",
        "address": "9QX3+Q5G Amarganj Pashchim Masjid, Charkhari, Uttar Pradesh 210421",
        "detailed_address": {
            "ward": null,
            "street": "9QX3+Q5G",
            "city": "Charkhari",
            "postal_code": "210421",
            "state": "Uttar Pradesh",
            "country_code": "IN"
        },
        "images": [
            {
                "about": "All",
                "link": "https://streetviewpixels-pa.googleapis.com/v1/thumbnail?panoid=rY9F2Ge22QNlhV_2_rS5Eg&cb_client=maps_sv.tactile.gps&w=224&h=298&yaw=275.82993&pitch=0&thumbfov=100"
            },
            {
                "about": "Street View & 360deg",
                "link": "https://streetviewpixels-pa.googleapis.com/v1/thumbnail?panoid=rY9F2Ge22QNlhV_2_rS5Eg&cb_client=maps_sv.tactile.gps&w=224&h=298&yaw=275.82993&pitch=0&thumbfov=100"
            }
        ],
        "link": "https://www.google.com/maps/place/Amarganj+Pashchim+Masjid/data=!4m7!3m6!1s0x399d37b53175e91f:0x68d68c62ad3d560e!8m2!3d25.399426!4d79.7529586!16s%2Fg%2F11fp860gx_!19sChIJH-l1MbU3nTkRDlY9rWKM1mg?authuser=0&hl=en&rclk=1",
        "coordinates": {
            "latitude": 25.399426,
            "longitude": 79.7529586
        }
    },
    {
        "name": "Masjid Shia Waqf Board",
        "main_category": "Mosque",
        "address": "9PWR+XWP Masjid Shia Waqf Board, Charkhari, Uttar Pradesh 210421",
        "detailed_address": {
            "ward": null,
            "street": "9PWR+XWP",
            "city": "Charkhari",
            "postal_code": "210421",
            "state": "Uttar Pradesh",
            "country_code": "IN"
        },
        "images": [],
        "link": "https://www.google.com/maps/place/Masjid+Shia+Waqf+Board/data=!4m7!3m6!1s0x399d35ec2200d021:0xf8e3306abe9df460!8m2!3d25.397451!4d79.7423157!16s%2Fg%2F11fq2pn3v7!19sChIJIdAAIuw1nTkRYPSdvmow4_g?authuser=0&hl=en&rclk=1",
        "coordinates": {
            "latitude": 25.397451,
            "longitude": 79.74231569999999
        }
    },
    {
        "name": "Masjid Amarganj Purb",
        "main_category": "Mosque",
        "address": "9QX3+3JX Masjid Amarganj Purb, Charkhari, Uttar Pradesh 210421",
        "detailed_address": {
            "ward": null,
            "street": "9QX3+3JX",
            "city": "Charkhari",
            "postal_code": "210421",
            "state": "Uttar Pradesh",
            "country_code": "IN"
        },
        "images": [
            {
                "about": "All",
                "link": "https://lh5.googleusercontent.com/p/AF1QipPqrMzq3W6E2QxGu7WsLN11XLuNXF9T4cVtQVRa=w224-h442-k-no"
            },
            {
                "about": "Videos",
                "link": "https://lh5.googleusercontent.com/p/AF1QipPqrMzq3W6E2QxGu7WsLN11XLuNXF9T4cVtQVRa=w224-h442-k-no"
            }
        ],
        "link": "https://www.google.com/maps/place/Masjid+Amarganj+Purb/data=!4m7!3m6!1s0x399d357bb39fa58f:0xa2e0d61192be3235!8m2!3d25.3977348!4d79.7541151!16s%2Fg%2F11fp85rbk3!19sChIJj6Wfs3s1nTkRNTK-khHW4KI?authuser=0&hl=en&rclk=1",
        "coordinates": {
            "latitude": 25.3977348,
            "longitude": 79.75411509999999
        }
    },
    {
        "name": "Masjid Turkiyana",
        "main_category": "Mosque",
        "address": "CP2X+CGF Masjid Turkiyana, Charkhari, Uttar Pradesh 210421",
        "detailed_address": {
            "ward": null,
            "street": "CP2X+CGF",
            "city": "Charkhari",
            "postal_code": "210421",
            "state": "Uttar Pradesh",
            "country_code": "IN"
        },
        "images": [
            {
                "about": "All",
                "link": "https://lh5.googleusercontent.com/p/AF1QipMNcRIkH1KPG8P4SaJao83SWQiWpKiq5gvrPkfw=w660-h298-k-no"
            },
            {
                "about": "Street View & 360deg",
                "link": "https://lh5.googleusercontent.com/p/AF1QipPxm7fGGUQtwfDo23aTtKP9GIh9mzvfAJnbMHE0=w224-h298-k-no-pi-20-ya90.999985-ro-0-fo100"
            }
        ],
        "link": "https://www.google.com/maps/place/Masjid+Turkiyana/data=!4m7!3m6!1s0x399d3740833f5f95:0xaaa8c383ac7c645a!8m2!3d25.4010575!4d79.7488016!16s%2Fg%2F11h8y4rs54!19sChIJlV8_g0A3nTkRWmR8rIPDqKo?authuser=0&hl=en&rclk=1",
        "coordinates": {
            "latitude": 25.4010575,
            "longitude": 79.7488016
        }
    },
    {
        "name": "Eid Gah charkhari",
        "main_category": "Mosque",
        "address": "9PWR+QMH Eid Gah charkhari, Charkhari, Uttar Pradesh 210421",
        "detailed_address": {
            "ward": null,
            "street": "9PWR+QMH",
            "city": "Charkhari",
            "postal_code": "210421",
            "state": "Uttar Pradesh",
            "country_code": "IN"
        },
        "images": [],
        "link": "https://www.google.com/maps/place/Eid+Gah+charkhari/data=!4m7!3m6!1s0x399d355920941175:0x5a1074252a34fb89!8m2!3d25.3969486!4d79.7417243!16s%2Fg%2F11t5xh2qrz!19sChIJdRGUIFk1nTkRifs0KiV0EFo?authuser=0&hl=en&rclk=1",
        "coordinates": {
            "latitude": 25.396948599999998,
            "longitude": 79.7417243
        }
    },
    {
        "name": "Charkhari uttr pradesh",
        "main_category": "Mosque",
        "address": "CR39+H7M Charkhari uttr pradesh, Fatehpur, Uttar Pradesh 210421",
        "detailed_address": {
            "ward": null,
            "street": "CR39+H7M",
            "city": "Fatehpur",
            "postal_code": "210421",
            "state": "Uttar Pradesh",
            "country_code": "IN"
        },
        "images": [],
        "link": "https://www.google.com/maps/place/Charkhari+uttr+pradesh/data=!4m7!3m6!1s0x399d37bd7116246f:0xec4cb1241afbb813!8m2!3d25.4039559!4d79.818162!16s%2Fg%2F11rzjbsdt4!19sChIJbyQWcb03nTkRE7j7GiSxTOw?authuser=0&hl=en&rclk=1",
        "coordinates": {
            "latitude": 25.4039559,
            "longitude": 79.818162
        }
    },
    {
        "name": "Choti Masjid Bjariya",
        "main_category": "Mosque",
        "address": "8R5X+JH7 Choti Masjid Bjariya, Chandao, Fatehpur Bajaria, Mahoba, Uttar Pradesh 210427",
        "detailed_address": {
            "ward": "Chandao",
            "street": "8R5X+JH7",
            "city": "Fatehpur Bajaria, Mahoba",
            "postal_code": "210427",
            "state": "Uttar Pradesh",
            "country_code": "IN"
        },
        "images": [
            {
                "about": "All",
                "link": "https://streetviewpixels-pa.googleapis.com/v1/thumbnail?panoid=j6YHKO2vnBSuoY0EV1BA3A&cb_client=maps_sv.tactile.gps&w=224&h=298&yaw=29.480806&pitch=0&thumbfov=100"
            },
            {
                "about": "Street View & 360deg",
                "link": "https://streetviewpixels-pa.googleapis.com/v1/thumbnail?panoid=j6YHKO2vnBSuoY0EV1BA3A&cb_client=maps_sv.tactile.gps&w=224&h=298&yaw=29.480806&pitch=0&thumbfov=100"
            }
        ],
        "link": "https://www.google.com/maps/place/Choti+Masjid+Bjariya/data=!4m7!3m6!1s0x3982cd7a1b9661c1:0xd291e0a9958ed4bb!8m2!3d25.3090321!4d79.8489258!16s%2Fg%2F11hzm13c15!19sChIJwWGWG3rNgjkRu9SOlangkdI?authuser=0&hl=en&rclk=1",
        "coordinates": {
            "latitude": 25.3090321,
            "longitude": 79.84892579999999
        }
    }
]