[
    {
        "name": "Madina masjid warud",
        "main_category": "Mosque",
        "address": "F7C8+VXM Madina masjid warud, Shaniwar Peth, Warud, Maharashtra 444906",
        "detailed_address": {
            "ward": "Shaniwar Peth",
            "street": "F7C8+VXM",
            "city": "Warud",
            "postal_code": "444906",
            "state": "Maharashtra",
            "country_code": "IN"
        },
        "images": [
            {
                "about": "All",
                "link": "https://lh5.googleusercontent.com/p/AF1QipPQ7kO9DFaT5HjgiNEq6E39B3OTEOKQ-w9zbmHd=w397-h298-k-no"
            }
        ],
        "link": "https://www.google.com/maps/place/Madina+masjid+warud/data=!4m7!3m6!1s0x3bd5cae955555555:0x74ec09e715ca6f32!8m2!3d21.4722134!4d78.2674147!16s%2Fg%2F11byyqfnmn!19sChIJVVVVVenK1TsRMm_KFecJ7HQ?authuser=0&hl=en&rclk=1",
        "coordinates": {
            "latitude": 21.472213399999998,
            "longitude": 78.2674147
        }
    },
    {
        "name": "jama Masjid markaz",
        "main_category": "Mosque",
        "address": "F788+VMH jama Masjid markaz, Jama masjid bangla chwok, Warud, Maharashtra 444906",
        "detailed_address": {
            "ward": "Motha Bhaji Bazar",
            "street": "F788+VMH, Jama masjid bangla chwok",
            "city": "Warud",
            "postal_code": "444906",
            "state": "Maharashtra",
            "country_code": "IN"
        },
        "images": [
            {
                "about": "All",
                "link": "https://lh5.googleusercontent.com/p/AF1QipMAb3GPXy6lffCIzSwZkdbLh2ALxBNFUPgKiYy5=w224-h398-k-no"
            }
        ],
        "link": "https://www.google.com/maps/place/jama+Masjid+markaz/data=!4m7!3m6!1s0x3bd5caea43304f91:0x5db25bd3d0a7ed48!8m2!3d21.4671904!4d78.266722!16s%2Fg%2F1263g78y4!19sChIJkU8wQ-rK1TsRSO2n0NNbsl0?authuser=0&hl=en&rclk=1",
        "coordinates": {
            "latitude": 21.4671904,
            "longitude": 78.266722
        }
    },
    {
        "name": "Masjid E Arkam",
        "main_category": "Mosque",
        "address": "F796+XVC Masjid E Arkam, Shaniwar Peth, Warud, Maharashtra 444906",
        "detailed_address": {
            "ward": "Shaniwar Peth",
            "street": "F796+XVC",
            "city": "Warud",
            "postal_code": "444906",
            "state": "Maharashtra",
            "country_code": "IN"
        },
        "images": [
            {
                "about": "All",
                "link": "https://lh5.googleusercontent.com/p/AF1QipPWt_ybEOFsIRbUA2vJwrp4W09726nOLpnDgNJ6=w397-h298-k-no"
            },
            {
                "about": "Latest",
                "link": "https://lh5.googleusercontent.com/p/AF1QipNO155LF0zUMAjf9FOAun_5CpaMybkk--mQFj3a=w224-h298-k-no"
            },
            {
                "about": "Videos",
                "link": "https://lh5.googleusercontent.com/p/AF1QipPHNsvj70ZBUyw-pkigSQaD4JMxzhnQAmpcxvqH=w224-h398-k-no"
            }
        ],
        "link": "https://www.google.com/maps/place/Masjid+E+Arkam/data=!4m7!3m6!1s0x3bd5cae926b2b23f:0xb4aee1e2f3420554!8m2!3d21.4699292!4d78.2621455!16s%2Fg%2F11gffkm522!19sChIJP7KyJunK1TsRVAVC8-LhrrQ?authuser=0&hl=en&rclk=1",
        "coordinates": {
            "latitude": 21.4699292,
            "longitude": 78.2621455
        }
    },
    {
        "name": "Masjid-E-Ghausiya",
        "main_category": "Mosque",
        "address": "F775+WPV Masjid-E-Ghausiya, Ghausiya Nagar, Shaniwar Peth, Warud, Maharashtra 444906",
        "detailed_address": {
            "ward": "Ghausiya Nagar, Shaniwar Peth",
            "street": "F775+WPV",
            "city": "Warud",
            "postal_code": "444906",
            "state": "Maharashtra",
            "country_code": "IN"
        },
        "images": [
            {
                "about": "All",
                "link": "https://lh5.googleusercontent.com/p/AF1QipPOxyVd2vLl2u9wjOmxw6frYJW-i1zO6JT2UKmP=w298-h298-k-no"
            },
            {
                "about": "Dome",
                "link": "https://lh5.googleusercontent.com/p/AF1QipMXGyn2UpnDKmuYfZHW41hXUcqsSkIeZCK6KiUw=w298-h298-k-no"
            }
        ],
        "link": "https://www.google.com/maps/place/Masjid-E-Ghausiya/data=!4m7!3m6!1s0x3bd5cac2a9f6728b:0xafdaa5459a73674d!8m2!3d21.4648739!4d78.2592992!16s%2Fg%2F11g98x824c!19sChIJi3L2qcLK1TsRTWdzmkWl2q8?authuser=0&hl=en&rclk=1",
        "coordinates": {
            "latitude": 21.4648739,
            "longitude": 78.2592992
        }
    },
    {
        "name": "Jaituniya Masjid",
        "main_category": "Mosque",
        "address": "F787+FCF Jaituniya Masjid, Shaniwar Peth, Warud, Maharashtra 444906",
        "detailed_address": {
            "ward": "Shaniwar Peth",
            "street": "F787+FCF",
            "city": "Warud",
            "postal_code": "444906",
            "state": "Maharashtra",
            "country_code": "IN"
        },
        "images": [
            {
                "about": "All",
                "link": "https://lh5.googleusercontent.com/p/AF1QipOGw7IfDO7CS7KX6tDduy2w_ww2j0xtDlidWizu=w224-h299-k-no"
            },
            {
                "about": "Videos",
                "link": "https://lh5.googleusercontent.com/p/AF1QipMM78g8R3emK4qIW7LaZP2IdVVhYZ45BY_DiBb-=w224-h448-k-no"
            }
        ],
        "link": "https://www.google.com/maps/place/Jaituniya+Masjid/data=!4m7!3m6!1s0x3bd5cac1f935af61:0xe6503bf7891cbe!8m2!3d21.4661761!4d78.2635329!16s%2Fg%2F11hck1x49n!19sChIJYa81-cHK1TsRvhyJ9ztQ5gA?authuser=0&hl=en&rclk=1",
        "coordinates": {
            "latitude": 21.4661761,
            "longitude": 78.2635329
        }
    },
    {
        "name": "Masjid-e-swaliheen",
        "main_category": "Mosque",
        "address": "Masjid-e-swaliheen, Salfi nagar, Amravati road, Shaniwar Peth, Warud, Maharashtra 444906",
        "detailed_address": {
            "ward": "Shaniwar Peth",
            "street": "Salfi nagar, Amravati road",
            "city": "Warud",
            "postal_code": null,
            "state": "Maharashtra",
            "country_code": "IN"
        },
        "images": [
            {
                "about": "All",
                "link": "https://lh5.googleusercontent.com/p/AF1QipN4ZMdQr8u2qc9A8cj7-E4iHxch3qNrFEnjVraS=w529-h298-k-no"
            }
        ],
        "link": "https://www.google.com/maps/place/Masjid-e-swaliheen/data=!4m7!3m6!1s0x3bd5cb078f35c633:0xa9afa01614068be4!8m2!3d21.46597!4d78.2591946!16s%2Fg%2F11f658qygg!19sChIJM8Y1jwfL1TsR5IsGFBagr6k?authuser=0&hl=en&rclk=1",
        "coordinates": {
            "latitude": 21.46597,
            "longitude": 78.2591946
        }
    },
    {
        "name": "Masjid-E-Muhammadiya",
        "main_category": "Mosque",
        "address": "F785+QCJ Masjid-E-Muhammadiya, Siddik plot, Warud, Maharashtra 444906",
        "detailed_address": {
            "ward": "Siddik plot",
            "street": "F785+QCJ",
            "city": "Warud",
            "postal_code": "444906",
            "state": "Maharashtra",
            "country_code": "IN"
        },
        "images": [],
        "link": "https://www.google.com/maps/place/Masjid-E-Muhammadiya/data=!4m7!3m6!1s0x3bd5cae7da5af92b:0x907a189c3427e8e1!8m2!3d21.4669744!4d78.2585056!16s%2Fg%2F11f541rpnq!19sChIJK_la2ufK1TsR4egnNJwYepA?authuser=0&hl=en&rclk=1",
        "coordinates": {
            "latitude": 21.466974399999998,
            "longitude": 78.25850559999999
        }
    },
    {
        "name": "Masjid-E-TajulAuliya",
        "main_category": "Mosque",
        "address": "F7F7+QJ4 Masjid-E-TajulAuliya, Taj Nagar, Shaniwar Peth, Warud, Maharashtra 444906",
        "detailed_address": {
            "ward": "Taj Nagar, Shaniwar Peth",
            "street": "F7F7+QJ4",
            "city": "Warud",
            "postal_code": "444906",
            "state": "Maharashtra",
            "country_code": "IN"
        },
        "images": [],
        "link": "https://www.google.com/maps/place/Masjid-E-TajulAuliya/data=!4m7!3m6!1s0x3bd5cb95d62c4e9d:0x98e79613013d945!8m2!3d21.4743877!4d78.2640907!16s%2Fg%2F11f7r6dd1n!19sChIJnU4s1pXL1TsRRdkTMGF5jgk?authuser=0&hl=en&rclk=1",
        "coordinates": {
            "latitude": 21.474387699999998,
            "longitude": 78.2640907
        }
    },
    {
        "name": "Masjid-E-Urdu Bagh",
        "main_category": "Mosque",
        "address": "F786+549 Masjid-E-Urdu Bagh, Shaniwar Peth, Warud, Maharashtra 444906",
        "detailed_address": {
            "ward": "Shaniwar Peth",
            "street": "F786+549",
            "city": "Warud",
            "postal_code": "444906",
            "state": "Maharashtra",
            "country_code": "IN"
        },
        "images": [],
        "link": "https://www.google.com/maps/place/Masjid-E-Urdu+Bagh/data=!4m7!3m6!1s0x3bd5cbc1ab09267d:0x7ff4eb3dbae0046b!8m2!3d21.465412!4d78.2603683!16s%2Fg%2F11smzj50xj!19sChIJfSYJq8HL1TsRawTguj3r9H8?authuser=0&hl=en&rclk=1",
        "coordinates": {
            "latitude": 21.465412,
            "longitude": 78.2603683
        }
    },
    {
        "name": "Mohammad is Masjid",
        "main_category": "Mosque",
        "address": "F785+QCJ Mohammad is Masjid, Siddik plot, Warud, Maharashtra 444906",
        "detailed_address": {
            "ward": "Siddik plot",
            "street": "F785+QCJ Siddik plot",
            "city": "Warud",
            "postal_code": "444906",
            "state": "Maharashtra",
            "country_code": "IN"
        },
        "images": [],
        "link": "https://www.google.com/maps/place/Mohammad+is+Masjid/data=!4m7!3m6!1s0x3bd5cb085415a3cf:0x3579d44ff11549aa!8m2!3d21.4669865!4d78.2584938!16s%2Fg%2F11k9b36frb!19sChIJz6MVVAjL1TsRqkkV8U_UeTU?authuser=0&hl=en&rclk=1",
        "coordinates": {
            "latitude": 21.466986499999997,
            "longitude": 78.2584938
        }
    },
    {
        "name": "Jama Masjid Eidgah",
        "main_category": "Mosque",
        "address": "F795+6J7 Jama Masjid Eidgah, Shaniwar Peth, Warud, Maharashtra 444906",
        "detailed_address": {
            "ward": "Shaniwar Peth",
            "street": "F795+6J7",
            "city": "Warud",
            "postal_code": "444906",
            "state": "Maharashtra",
            "country_code": "IN"
        },
        "images": [],
        "link": "https://www.google.com/maps/place/Jama+Masjid+Eidgah/data=!4m7!3m6!1s0x3bd5cae8803ed52f:0xe5d320bf4c3d65cc!8m2!3d21.4680333!4d78.2590587!16s%2Fg%2F11f4qq2lvt!19sChIJL9U-gOjK1TsRzGU9TL8g0-U?authuser=0&hl=en&rclk=1",
        "coordinates": {
            "latitude": 21.4680333,
            "longitude": 78.2590587
        }
    },
    {
        "name": "Masjid-e-Ayesha",
        "main_category": "Mosque",
        "address": "F775+XG9 Masjid-e-Ayesha, Unnamed Road, Shaniwar Peth, Warud, Maharashtra 444906",
        "detailed_address": {
            "ward": "Shaniwar Peth",
            "street": "F775+XG9, Unnamed Road",
            "city": "Warud",
            "postal_code": "444906",
            "state": "Maharashtra",
            "country_code": "IN"
        },
        "images": [],
        "link": "https://www.google.com/maps/place/Masjid-e-Ayesha/data=!4m7!3m6!1s0x3bd5cb621ea3eb75:0x6cd62ccbabcda197!8m2!3d21.4649168!4d78.2588733!16s%2Fg%2F11h7sq2fnr!19sChIJdeujHmLL1TsRl6HNq8ss1mw?authuser=0&hl=en&rclk=1",
        "coordinates": {
            "latitude": 21.464916799999997,
            "longitude": 78.25887329999999
        }
    }
]