[
    {
        "name": "NEW JAMA MASJID",
        "main_category": "Mosque",
        "address": "GG3V+F68 NEW JAMA MASJID, Unnamed Road, Purani Basti, Katghora, Amakhokhara, Chhattisgarh 495445",
        "detailed_address": {
            "ward": "Purani Basti",
            "street": "GG3V+F68, Unnamed Road",
            "city": "Katghora, Amakhokhara",
            "postal_code": "495445",
            "state": "Chhattisgarh",
            "country_code": "IN"
        },
        "images": [],
        "link": "https://www.google.com/maps/place/NEW+JAMA+MASJID/data=!4m7!3m6!1s0x39881f73abb162b1:0x8fec58f16d972aa6!8m2!3d22.5036735!4d82.5430736!16s%2Fg%2F11gfd20gq9!19sChIJsWKxq3MfiDkRpiqXbfFY7I8?authuser=0&hl=en&rclk=1",
        "coordinates": {
            "latitude": 22.503673499999998,
            "longitude": 82.5430736
        }
    },
    {
        "name": "Purani Jama Masjid",
        "main_category": "Mosque",
        "address": "Purani Jama Masjid, Purani Basti, Katghora, Amakhokhara, Chhattisgarh 495445",
        "detailed_address": {
            "ward": "Purani Basti",
            "street": null,
            "city": "Katghora, Amakhokhara",
            "postal_code": "495445",
            "state": "Chhattisgarh",
            "country_code": "IN"
        },
        "images": [
            {
                "about": "All",
                "link": "https://lh5.googleusercontent.com/p/AF1QipMauamxBDv8RFiC4U_0a4_sodkfgMVt7ywlJMcn=w301-h298-k-no"
            }
        ],
        "link": "https://www.google.com/maps/place/Purani+Jama+Masjid/data=!4m7!3m6!1s0x39881f39192e370d:0xc9f84879621140de!8m2!3d22.5033985!4d82.5424852!16s%2Fg%2F11rf6rf1cz!19sChIJDTcuGTkfiDkR3kARYnlI-Mk?authuser=0&hl=en&rclk=1",
        "coordinates": {
            "latitude": 22.5033985,
            "longitude": 82.5424852
        }
    },
    {
        "name": "Madina Masjid",
        "main_category": "Mosque",
        "address": "GG8X+V8R Madina Masjid, Katghora, Chhattisgarh 495445",
        "detailed_address": {
            "ward": null,
            "street": "GG8X+V8R",
            "city": "Katghora",
            "postal_code": "495445",
            "state": "Chhattisgarh",
            "country_code": "IN"
        },
        "images": [
            {
                "about": "All",
                "link": "https://streetviewpixels-pa.googleapis.com/v1/thumbnail?panoid=Yr-GtdA63a-ZAwt0T3qSgg&cb_client=maps_sv.tactile.gps&w=224&h=298&yaw=200.474&pitch=0&thumbfov=100"
            },
            {
                "about": "Street View & 360deg",
                "link": "https://streetviewpixels-pa.googleapis.com/v1/thumbnail?panoid=Yr-GtdA63a-ZAwt0T3qSgg&cb_client=maps_sv.tactile.gps&w=224&h=298&yaw=200.474&pitch=0&thumbfov=100"
            }
        ],
        "link": "https://www.google.com/maps/place/Madina+Masjid/data=!4m7!3m6!1s0x39881ff87a2375b3:0x2b7a524bc08fc962!8m2!3d22.517227!4d82.5482625!16s%2Fg%2F11ghsglgkv!19sChIJs3UjevgfiDkRYsmPwEtSeis?authuser=0&hl=en&rclk=1",
        "coordinates": {
            "latitude": 22.517227,
            "longitude": 82.54826249999999
        }
    },
    {
        "name": "masjid garib nawaj",
        "main_category": "Mosque",
        "address": "GH24+JH6 masjid garib nawaj, Tahsil Collony, Katghora, Chhattisgarh 495445",
        "detailed_address": {
            "ward": "Tahsil Collony",
            "street": "GH24+JH6",
            "city": "Katghora",
            "postal_code": "495445",
            "state": "Chhattisgarh",
            "country_code": "IN"
        },
        "images": [],
        "link": "https://www.google.com/maps/place/masjid+garib+nawaj/data=!4m7!3m6!1s0x39881ffd491ba3ff:0x3e2e96a23cbd7696!8m2!3d22.5015385!4d82.5563918!16s%2Fg%2F11g_xsbbsn!19sChIJ_6MbSf0fiDkRlna9PKKWLj4?authuser=0&hl=en&rclk=1",
        "coordinates": {
            "latitude": 22.5015385,
            "longitude": 82.5563918
        }
    },
    {
        "name": "mdrsaa",
        "main_category": "Mosque",
        "address": "GG6Q+8R9 mdrsaa, Amakhokhara, Chhattisgarh 495445",
        "detailed_address": {
            "ward": null,
            "street": "GG6Q+8R9",
            "city": "Amakhokhara",
            "postal_code": "495445",
            "state": "Chhattisgarh",
            "country_code": "IN"
        },
        "images": [
            {
                "about": "All",
                "link": "https://lh5.googleusercontent.com/p/AF1QipMB6U1hHvyqyZy0Ysz2Nt08cbOL5BWFw9PSdbt7=w395-h298-k-no"
            }
        ],
        "link": "https://www.google.com/maps/place/%E0%A4%AE%E0%A4%A6%E0%A4%B0%E0%A4%B8%E0%A4%BE/data=!4m7!3m6!1s0x39881fb18d29eceb:0x792f317fb523a6f1!8m2!3d22.5107999!4d82.539613!16s%2Fg%2F11n0hzmctb!19sChIJ6-wpjbEfiDkR8aYjtX8xL3k?authuser=0&hl=en&rclk=1",
        "coordinates": {
            "latitude": 22.5107999,
            "longitude": 82.539613
        }
    }
]