[
    {
        "name": "Sunni Masjid",
        "main_category": "Mosque",
        "address": "Sunni Masjid, Ramgarh, Adarsh Nagar, Brajrajnagar, Odisha 768216",
        "detailed_address": {
            "ward": "Ramgarh, Adarsh Nagar",
            "street": null,
            "city": "Brajrajnagar",
            "postal_code": "768216",
            "state": "Odisha",
            "country_code": "IN"
        },
        "images": [
            {
                "about": "All",
                "link": "https://lh5.googleusercontent.com/p/AF1QipM5dUHL9T59hnG_UKeS4VNRYHxkS9LrH7cVbq8z=w224-h398-k-no"
            },
            {
                "about": "Dome",
                "link": "https://lh5.googleusercontent.com/p/AF1QipNgUnU7m0ycjZAf-DuiGN6M_3wn0Lq-gdr6uvDm=w397-h298-k-no"
            },
            {
                "about": "Videos",
                "link": "https://lh5.googleusercontent.com/p/AF1QipO_bqhfAntTIs4Su5vt3mmvzTEOX0ToUc50mwJ2=w224-h398-k-no"
            },
            {
                "about": "By owner",
                "link": "https://lh5.googleusercontent.com/p/AF1QipPgZyryXFa2amcAQFPjbCWvTrhujy9MaecNXDC8=w529-h298-k-no"
            }
        ],
        "link": "https://www.google.com/maps/place/Sunni+Masjid/data=!4m7!3m6!1s0x3a20de0ae80cac21:0xf2bd2c454ea826a3!8m2!3d21.8379814!4d83.9122992!16s%2Fg%2F11f_b_xzn5!19sChIJIawM6AreIDoRoyaoTkUsvfI?authuser=0&hl=en&rclk=1",
        "coordinates": {
            "latitude": 21.8379814,
            "longitude": 83.91229919999999
        }
    },
    {
        "name": "Ahle Sunnat Jama masjid",
        "main_category": "Mosque",
        "address": "RWCF+M7P Ahle Sunnat Jama masjid, Brajrajnagar, Odisha 768216",
        "detailed_address": {
            "ward": null,
            "street": "RWCF+M7P",
            "city": "Brajrajnagar",
            "postal_code": null,
            "state": "Odisha",
            "country_code": "IN"
        },
        "images": [
            {
                "about": "All",
                "link": "https://lh5.googleusercontent.com/p/AF1QipOLCaJGTNZOfwmuUteb9FnwH0DDdjjO5ddi6GMt=w224-h298-k-no"
            },
            {
                "about": "Videos",
                "link": "https://lh5.googleusercontent.com/p/AF1QipNd_wLU7CZMBrX8YzV6FRjjDXkg4VYgbdaKeVOU=w529-h298-k-no"
            }
        ],
        "link": "https://www.google.com/maps/place/Ahle+Sunnat+Jama+masjid/data=!4m7!3m6!1s0x3a20df52a023cb33:0xd5bbc976983873df!8m2!3d21.821706!4d83.9232077!16s%2Fg%2F11g1kn1nx8!19sChIJM8sjoFLfIDoR33M4mHbJu9U?authuser=0&hl=en&rclk=1",
        "coordinates": {
            "latitude": 21.821706,
            "longitude": 83.92320769999999
        }
    },
    {
        "name": "Madarsha & Masjid",
        "main_category": "Mosque",
        "address": "RWV8+R4M Madarsha & Masjid, Mandalia, Brajrajnagar, Odisha 768216",
        "detailed_address": {
            "ward": "Mandalia",
            "street": "RWV8+R4M",
            "city": "Brajrajnagar",
            "postal_code": "768216",
            "state": "Odisha",
            "country_code": "IN"
        },
        "images": [],
        "link": "https://www.google.com/maps/place/Madarsha+%26+Masjid/data=!4m7!3m6!1s0x3a20dde169be5541:0x982151b1ebd5d6aa!8m2!3d21.8445893!4d83.9152932!16s%2Fg%2F11gd9d7s4j!19sChIJQVW-aeHdIDoRqtbV67FRIZg?authuser=0&hl=en&rclk=1",
        "coordinates": {
            "latitude": 21.8445893,
            "longitude": 83.9152932
        }
    },
    {
        "name": "Rampur masjid",
        "main_category": "Mosque",
        "address": "RW3J+JJ2 Rampur masjid, Unnamed Road, Brajrajnagar, Odisha 768225",
        "detailed_address": {
            "ward": null,
            "street": "RW3J+JJ2, Unnamed Road",
            "city": "Brajrajnagar",
            "postal_code": "768225",
            "state": "Odisha",
            "country_code": "IN"
        },
        "images": [
            {
                "about": "All",
                "link": "https://lh5.googleusercontent.com/p/AF1QipPBNS71eMVrwP0jG_koSAefshQKUnIQRJSMAK-B=w224-h398-k-no"
            }
        ],
        "link": "https://www.google.com/maps/place/Rampur+masjid/data=!4m7!3m6!1s0x3a20dfbdd10d45f9:0xe4cad8c4bf0e044!8m2!3d21.8040162!4d83.9315185!16s%2Fg%2F11gxvs7g93!19sChIJ-UUN0b3fIDoRRODwS4ytTA4?authuser=0&hl=en&rclk=1",
        "coordinates": {
            "latitude": 21.8040162,
            "longitude": 83.9315185
        }
    }
]