[
    {
        "name": "AL BILLAL MASJID",
        "main_category": "Mosque",
        "address": "AL BILLAL MASJID, ASIFABAD WAH CANTT, 4 Grand Trunk Rd, Asifabad, Wah, Rawalpindi, Punjab, Pakistan",
        "detailed_address": {
            "ward": "Asifabad",
            "street": "ASIFABAD WAH CANTT, 4 Grand Trunk Rd",
            "city": "Wah",
            "postal_code": null,
            "state": "Rawalpindi, Punjab",
            "country_code": "PK"
        },
        "images": [
            {
                "about": "All",
                "link": "https://lh5.googleusercontent.com/p/AF1QipM2qHWm5EnurkkZ7kXQOFHEf568YpxPT5s-rEZr=w224-h398-k-no"
            },
            {
                "about": "Dome",
                "link": "https://lh5.googleusercontent.com/p/AF1QipNWZmQQC_KbQxjlQZJCpUs9YhVnF3IMX83_x_gq=w529-h298-k-no"
            }
        ],
        "link": "https://www.google.com/maps/place/AL+BILLAL+MASJID/data=!4m7!3m6!1s0x38dfa7f4c5048b19:0x380b8cecd8857d1a!8m2!3d33.7832893!4d72.7134822!16s%2Fg%2F11b7k1j502!19sChIJGYsExfSn3zgRGn2F2OyMCzg?authuser=0&hl=en&rclk=1",
        "coordinates": {
            "latitude": 33.7832893,
            "longitude": 72.7134822
        }
    },
    {
        "name": "Masjid-e-Osmania",
        "main_category": "Mosque",
        "address": "979Q+CCG Masjid-e-Osmania, Osmania Colony, Asifabad, Asifabad",
        "detailed_address": {
            "ward": null,
            "street": "979Q+CCG, Osmania Colony, Asifabad",
            "city": "Asifabad",
            "postal_code": null,
            "state": "Telangana",
            "country_code": "IN"
        },
        "images": [
            {
                "about": "All",
                "link": "https://lh5.googleusercontent.com/p/AF1QipMrfjYBYuF9nZhps7VUBzJ1MDN-ZjveLaB5qc2G=w529-h298-k-no"
            }
        ],
        "link": "https://www.google.com/maps/place/Masjid-e-Osmania/data=!4m7!3m6!1s0x3bd2aea043e8367d:0xee7678b6d5658e7!8m2!3d19.3685527!4d79.2885762!16s%2Fg%2F11bw6692r_!19sChIJfTboQ6Cu0jsR51hWbYtn5w4?authuser=0&hl=en&rclk=1",
        "coordinates": {
            "latitude": 19.3685527,
            "longitude": 79.2885762
        }
    },
    {
        "name": "Masjid-e-Huda",
        "main_category": "Mosque",
        "address": "Masjid-e-Huda, opp. Bus Stand, Asifabad, Telangana 504293",
        "detailed_address": {
            "ward": null,
            "street": "opp. Bus Stand",
            "city": "Asifabad",
            "postal_code": null,
            "state": "Telangana",
            "country_code": "IN"
        },
        "images": [
            {
                "about": "All",
                "link": "https://lh5.googleusercontent.com/p/AF1QipPllkFQmvTsweg0bOfEhXJVlagxq4BtEDMAy5g=w529-h298-k-no"
            },
            {
                "about": "Street View & 360deg",
                "link": "https://streetviewpixels-pa.googleapis.com/v1/thumbnail?panoid=_CuvXGe43A7IgQ6SDWKBSQ&cb_client=maps_sv.tactile.gps&w=224&h=298&yaw=61.811718&pitch=0&thumbfov=100"
            },
            {
                "about": "Videos",
                "link": "https://lh5.googleusercontent.com/p/AF1QipPjHfE9BFFBuM8ROuaCTwh_TXDYEIgls4moI7Kg=w529-h298-k-no"
            }
        ],
        "link": "https://www.google.com/maps/place/Masjid-e-Huda/data=!4m7!3m6!1s0x3bd2ac1c5f823685:0x442868b52a3ced5e!8m2!3d19.3620003!4d79.2942735!16s%2Fg%2F11bw7cz2mz!19sChIJhTaCXxys0jsRXu08KrVoKEQ?authuser=0&hl=en&rclk=1",
        "coordinates": {
            "latitude": 19.3620003,
            "longitude": 79.2942735
        }
    },
    {
        "name": "Masjid e Khadim",
        "main_category": "Mosque",
        "address": "974W+GHR Masjid e Khadim, Asifabad, Telangana 504293",
        "detailed_address": {
            "ward": null,
            "street": "974W+GHR",
            "city": "Asifabad",
            "postal_code": "504293",
            "state": "Telangana",
            "country_code": "IN"
        },
        "images": [
            {
                "about": "All",
                "link": "https://lh5.googleusercontent.com/p/AF1QipOz8pLzPUsDjuxJMOyuTkDLyfkDNCMUHQyYuuN8=w662-h298-k-no"
            },
            {
                "about": "Street View & 360deg",
                "link": "https://streetviewpixels-pa.googleapis.com/v1/thumbnail?panoid=GzKqGsN0rm0JU9690LJqcA&cb_client=maps_sv.tactile.gps&w=224&h=298&yaw=15.154508&pitch=0&thumbfov=100"
            }
        ],
        "link": "https://www.google.com/maps/place/Masjid+e+Khadim/data=!4m7!3m6!1s0x3bd2ac0487a9f291:0x6fbe7074c3de740b!8m2!3d19.3563518!4d79.2964018!16s%2Fg%2F11cjj61r0q!19sChIJkfKphwSs0jsRC3Tew3Rwvm8?authuser=0&hl=en&rclk=1",
        "coordinates": {
            "latitude": 19.3563518,
            "longitude": 79.2964018
        }
    },
    {
        "name": "Jama Masjid",
        "main_category": "Mosque",
        "address": "Jama Masjid, Bazarwadi,, Asifabad, Telangana 504293",
        "detailed_address": {
            "ward": null,
            "street": "Bazarwadi,",
            "city": "Asifabad",
            "postal_code": "504293",
            "state": "Telangana",
            "country_code": "IN"
        },
        "images": [
            {
                "about": "All",
                "link": "https://lh5.googleusercontent.com/p/AF1QipOefKvSoyJ4NzVqfVBBp4go34_ZpWVTq31GjkFX=w397-h298-k-no"
            },
            {
                "about": "Street View & 360deg",
                "link": "https://streetviewpixels-pa.googleapis.com/v1/thumbnail?panoid=daBZEmKcPEmN5g5rH_iRDw&cb_client=maps_sv.tactile.gps&w=224&h=298&yaw=86.436714&pitch=0&thumbfov=100"
            },
            {
                "about": "Videos",
                "link": "https://lh5.googleusercontent.com/p/AF1QipOLBERgIh1TSKb-CExEFRCtbwt9ExKy-pDVR7is=w541-h298-k-no"
            }
        ],
        "link": "https://www.google.com/maps/place/Jama+Masjid/data=!4m7!3m6!1s0x3bd2aea773cd3d43:0xc60c04b9f21fcf83!8m2!3d19.3622125!4d79.289124!16s%2Fg%2F11bw77yf0r!19sChIJQz3Nc6eu0jsRg88f8rkEDMY?authuser=0&hl=en&rclk=1",
        "coordinates": {
            "latitude": 19.3622125,
            "longitude": 79.289124
        }
    },
    {
        "name": "Masjid e Sahaba & Madarsa Tahfiz ul Quraan",
        "main_category": "Mosque",
        "address": "Masjid e Sahaba & Madarsa Tahfiz ul Quraan, NAWAZISH NAGAR, Asifabad, Telangana 504293",
        "detailed_address": {
            "ward": null,
            "street": "NAWAZISH NAGAR",
            "city": "Asifabad",
            "postal_code": "504293",
            "state": "Telangana",
            "country_code": "IN"
        },
        "images": [
            {
                "about": "All",
                "link": "https://lh5.googleusercontent.com/p/AF1QipOjDbBcr1dKgvKbSCXPIio4hAtHQjXbX8gzmgA=w529-h298-k-no"
            },
            {
                "about": "Street View & 360deg",
                "link": "https://streetviewpixels-pa.googleapis.com/v1/thumbnail?panoid=e-OkZCuMPdQadTA1_kK14g&cb_client=maps_sv.tactile.gps&w=224&h=298&yaw=357.64154&pitch=0&thumbfov=100"
            },
            {
                "about": "Videos",
                "link": "https://lh5.googleusercontent.com/p/AF1QipPZdAbgyz8r6tDGUrsxm2OSegQSuhSyyQgmBiEl=w224-h407-k-no"
            }
        ],
        "link": "https://www.google.com/maps/place/Masjid+e+Sahaba+%26+Madarsa+Tahfiz+ul+Quraan/data=!4m7!3m6!1s0x3bd2aea7c6631baf:0x62b87d4b00422aba!8m2!3d19.3598125!4d79.2883125!16s%2Fg%2F113dzbrlr!19sChIJrxtjxqeu0jsRuipCAEt9uGI?authuser=0&hl=en&rclk=1",
        "coordinates": {
            "latitude": 19.3598125,
            "longitude": 79.28831249999999
        }
    },
    {
        "name": "Jami Masjid-e-Ghosia",
        "main_category": "Mosque",
        "address": "QPJ8+CMC Jami Masjid-e-Ghosia, Asifabad, Wah, Rawalpindi, Punjab, Pakistan",
        "detailed_address": {
            "ward": "Asifabad",
            "street": "QPJ8+CMC",
            "city": "Wah",
            "postal_code": null,
            "state": "Rawalpindi, Punjab",
            "country_code": "PK"
        },
        "images": [
            {
                "about": "All",
                "link": "https://lh5.googleusercontent.com/p/AF1QipPz9G3NBthIaGjQiZSbDUMpv8VzffOZbuu-maAY=w224-h298-k-no"
            },
            {
                "about": "Dome",
                "link": "https://lh5.googleusercontent.com/p/AF1QipPz9G3NBthIaGjQiZSbDUMpv8VzffOZbuu-maAY=w224-h298-k-no"
            }
        ],
        "link": "https://www.google.com/maps/place/J%C4%81mi+Masjid-e-Ghosia/data=!4m7!3m6!1s0x38dfa78c913fed15:0xcf4b09adeaaebc1a!8m2!3d33.7810727!4d72.71664!16s%2Fg%2F11cs1xnj47!19sChIJFe0_kYyn3zgRGryu6q0JS88?authuser=0&hl=en&rclk=1",
        "coordinates": {
            "latitude": 33.781072699999996,
            "longitude": 72.71664
        }
    },
    {
        "name": "Masjid e Noor",
        "main_category": "Mosque",
        "address": "976M+99C Masjid e Noor, Asifabad, Telangana 504293",
        "detailed_address": {
            "ward": null,
            "street": "976M+99C",
            "city": "Asifabad",
            "postal_code": "504293",
            "state": "Telangana",
            "country_code": "IN"
        },
        "images": [
            {
                "about": "All",
                "link": "https://lh5.googleusercontent.com/p/AF1QipN1hb-i6IvrGkVspEtKCuFA5_KQLkIOWcHBGJyz=w397-h298-k-no"
            },
            {
                "about": "Street View & 360deg",
                "link": "https://streetviewpixels-pa.googleapis.com/v1/thumbnail?panoid=P-3-pHWjfO9WK0-AWGlV4Q&cb_client=maps_sv.tactile.gps&w=224&h=298&yaw=246.51863&pitch=0&thumbfov=100"
            }
        ],
        "link": "https://www.google.com/maps/place/Masjid+e+Noor/data=!4m7!3m6!1s0x3bd2aea5cbc568eb:0x5aed9b5568109c20!8m2!3d19.3609381!4d79.283388!16s%2Fg%2F11cjj4r8cv!19sChIJ62jFy6Wu0jsRIJwQaFWb7Vo?authuser=0&hl=en&rclk=1",
        "coordinates": {
            "latitude": 19.3609381,
            "longitude": 79.283388
        }
    },
    {
        "name": "Ek Minaar Kachchi Masjid",
        "main_category": "Mosque",
        "address": "GR76+RVF Ek Minaar Kachchi Masjid, Asfabad Chandpura, Uttar Pradesh 203408",
        "detailed_address": {
            "ward": null,
            "street": "GR76+RVF",
            "city": "Asfabad Chandpura",
            "postal_code": "203408",
            "state": "Uttar Pradesh",
            "country_code": "IN"
        },
        "images": [
            {
                "about": "All",
                "link": "https://lh5.googleusercontent.com/p/AF1QipPmFUGLhnIYYK0x_UHbN2d_g2apDcG4acf9JGHW=w224-h298-k-no"
            },
            {
                "about": "Street View & 360deg",
                "link": "https://lh5.googleusercontent.com/p/AF1QipNvYmnCqZBefB3ktqJEYtU25QAikBvGH2XYqg93=w224-h298-k-no-pi-0-ya87.887436-ro-0-fo100"
            }
        ],
        "link": "https://www.google.com/maps/place/Ek+Minaar+Kachchi+Masjid/data=!4m7!3m6!1s0x390c9895a391cc4d:0x9f4657269dc47c23!8m2!3d28.5145678!4d77.8121621!16s%2Fg%2F11dftp3x6x!19sChIJTcyRo5WYDDkRI3zEnSZXRp8?authuser=0&hl=en&rclk=1",
        "coordinates": {
            "latitude": 28.5145678,
            "longitude": 77.8121621
        }
    },
    {
        "name": "Jami Masjid-e-Aqsa",
        "main_category": "Mosque",
        "address": "Jami Masjid-e-Aqsa, Ghazi Pur, Asifabad, Wah, Rawalpindi, Punjab, Pakistan",
        "detailed_address": {
            "ward": "Asifabad",
            "street": "Ghazi Pur",
            "city": "Wah",
            "postal_code": null,
            "state": "Rawalpindi, Punjab",
            "country_code": "PK"
        },
        "images": [
            {
                "about": "All",
                "link": "https://lh5.googleusercontent.com/p/AF1QipPaGW6T2fk1aXLMUyRcNPDzj9YTTEmHI9XyzvM1=w224-h298-k-no"
            }
        ],
        "link": "https://www.google.com/maps/place/J%C4%81mi+Masjid-e-Aqs%C4%81/data=!4m7!3m6!1s0x38dfa78af9d7c78d:0x3bac2b28517e9cb3!8m2!3d33.7796615!4d72.7119369!16s%2Fg%2F1pxwrgffg!19sChIJjcfX-Yqn3zgRs5x-USgrrDs?authuser=0&hl=en&rclk=1",
        "coordinates": {
            "latitude": 33.779661499999996,
            "longitude": 72.7119369
        }
    },
    {
        "name": "Masjid e Yaseen",
        "main_category": "Mosque",
        "address": "Masjid e Yaseen, opp. Jail, Jankapur, Asifabad, Telangana 504293",
        "detailed_address": {
            "ward": "Jankapur",
            "street": "opp. Jail",
            "city": "Asifabad",
            "postal_code": "504293",
            "state": "Telangana",
            "country_code": "IN"
        },
        "images": [
            {
                "about": "All",
                "link": "https://lh5.googleusercontent.com/p/AF1QipPvhjP33FKfv8RatZHWr9XdIHd4uXHmg45GDQI=w529-h298-k-no"
            },
            {
                "about": "Street View & 360deg",
                "link": "https://streetviewpixels-pa.googleapis.com/v1/thumbnail?panoid=ZhgP5qfY_ilJF4EYAsssvw&cb_client=maps_sv.tactile.gps&w=224&h=298&yaw=23.368435&pitch=0&thumbfov=100"
            },
            {
                "about": "Videos",
                "link": "https://lh5.googleusercontent.com/p/AF1QipNjJNvE20MkQY2QUmt-b_RcAl2wAGxiuvM505E=w529-h298-k-no"
            }
        ],
        "link": "https://www.google.com/maps/place/Masjid+e+Yaseen/data=!4m7!3m6!1s0x3bd2ae9ef5cade0b:0xa80f60e413fdcad2!8m2!3d19.374471!4d79.2873049!16s%2Fg%2F11cjpfh3jq!19sChIJC97K9Z6u0jsR0sr9E-RgD6g?authuser=0&hl=en&rclk=1",
        "coordinates": {
            "latitude": 19.374471,
            "longitude": 79.2873049
        }
    },
    {
        "name": "Hazrat Bilal Markaz Masjid",
        "main_category": "Mosque",
        "address": "GR87+2C9 Hazrat Bilal Markaz Masjid, Asfabad Chandpura, Uttar Pradesh 203408",
        "detailed_address": {
            "ward": null,
            "street": "GR87+2C9",
            "city": "Asfabad Chandpura",
            "postal_code": "203408",
            "state": "Uttar Pradesh",
            "country_code": "IN"
        },
        "images": [],
        "link": "https://www.google.com/maps/place/Hazrat+Bilal+Markaz+Masjid/data=!4m7!3m6!1s0x390c989581b80629:0x562bc390bca09f74!8m2!3d28.5150476!4d77.8136228!16s%2Fg%2F11g8wn30l0!19sChIJKQa4gZWYDDkRdJ-gvJDDK1Y?authuser=0&hl=en&rclk=1",
        "coordinates": {
            "latitude": 28.5150476,
            "longitude": 77.81362279999999
        }
    },
    {
        "name": "Masjid-e-Khadijah",
        "main_category": "Mosque",
        "address": "974R+XWR Masjid-e-Khadijah, Asifabad, Telangana 504293",
        "detailed_address": {
            "ward": null,
            "street": "974R+XWR",
            "city": "Asifabad",
            "postal_code": "504293",
            "state": "Telangana",
            "country_code": "IN"
        },
        "images": [
            {
                "about": "All",
                "link": "https://lh5.googleusercontent.com/p/AF1QipPgR6-V5x67SZQQFfuVhCjBBG1-jRdvv4kAstE0=w224-h398-k-no"
            }
        ],
        "link": "https://www.google.com/maps/place/Masjid-e-Khadijah/data=!4m7!3m6!1s0x3bd2ad43aa7c3d41:0xceb45b62869910bb!8m2!3d19.3574779!4d79.2922524!16s%2Fg%2F11sshd34_9!19sChIJQT18qkOt0jsRuxCZhmJbtM4?authuser=0&hl=en&rclk=1",
        "coordinates": {
            "latitude": 19.3574779,
            "longitude": 79.2922524
        }
    },
    {
        "name": "Asifabad masjid",
        "main_category": "Mosque",
        "address": "35MR+77R Asifabad masjid, Haveli Bahadur Shah, Jhang, Punjab, Pakistan",
        "detailed_address": {
            "ward": null,
            "street": "35MR+77R",
            "city": "Haveli Bahadur Shah",
            "postal_code": null,
            "state": "Jhang, Punjab",
            "country_code": "PK"
        },
        "images": [],
        "link": "https://www.google.com/maps/place/Asifabad+masjid/data=!4m7!3m6!1s0x392377a7ebdb0c01:0xc6e724f48f8274ff!8m2!3d31.0832495!4d72.1906458!16s%2Fg%2F11trrvld6k!19sChIJAQzb66d3IzkR_3SCj_Qk58Y?authuser=0&hl=en&rclk=1",
        "coordinates": {
            "latitude": 31.083249499999997,
            "longitude": 72.1906458
        }
    },
    {
        "name": "Qadeem Masjid",
        "main_category": "Housing society",
        "address": "976V+Q6C Qadeem Masjid, Asifabad, Telangana 504293",
        "detailed_address": {
            "ward": null,
            "street": "976V+Q6C",
            "city": "Asifabad",
            "postal_code": "504293",
            "state": "Telangana",
            "country_code": "IN"
        },
        "images": [
            {
                "about": "All",
                "link": "https://streetviewpixels-pa.googleapis.com/v1/thumbnail?panoid=q5PbfaYOXiwq-WNV763n3Q&cb_client=maps_sv.tactile.gps&w=224&h=298&yaw=238.9147&pitch=0&thumbfov=100"
            },
            {
                "about": "Street View & 360deg",
                "link": "https://streetviewpixels-pa.googleapis.com/v1/thumbnail?panoid=q5PbfaYOXiwq-WNV763n3Q&cb_client=maps_sv.tactile.gps&w=224&h=298&yaw=238.9147&pitch=0&thumbfov=100"
            }
        ],
        "link": "https://www.google.com/maps/place/Qadeem+Masjid/data=!4m7!3m6!1s0x3bd2ad16820b6fcf:0xc2c5251517b0c7f4!8m2!3d19.3619289!4d79.2930146!16s%2Fg%2F11s9c75fsj!19sChIJz28Lghat0jsR9MewFxUlxcI?authuser=0&hl=en&rclk=1",
        "coordinates": {
            "latitude": 19.3619289,
            "longitude": 79.29301459999999
        }
    },
    {
        "name": "Siddique Akbar Masjid",
        "main_category": "Mosque",
        "address": "QPJ9+P84 Siddique Akbar Masjid, Asifabad, Wah, Cantt, Punjab, Pakistan",
        "detailed_address": {
            "ward": "Asifabad",
            "street": "QPJ9+P84",
            "city": "Wah",
            "postal_code": null,
            "state": "Cantt, Punjab",
            "country_code": "PK"
        },
        "images": [],
        "link": "https://www.google.com/maps/place/Siddique+Akbar+Masjid/data=!4m7!3m6!1s0x38dfa710dfb0b0c5:0x8faee35fd6e3e866!8m2!3d33.7817577!4d72.7183429!16s%2Fg%2F11shj9kt90!19sChIJxbCw3xCn3zgRZujj1l_jro8?authuser=0&hl=en&rclk=1",
        "coordinates": {
            "latitude": 33.7817577,
            "longitude": 72.7183429
        }
    },
    {
        "name": "Masjid E Khadija, Maktab E Abdullah",
        "main_category": "Place of worship",
        "address": "974R+VWP Masjid E Khadija, Maktab E Abdullah, Kasabwadi, Asifabad, Telangana 504293",
        "detailed_address": {
            "ward": "Kasabwadi",
            "street": "974R+VWP",
            "city": "Asifabad",
            "postal_code": "504293",
            "state": "Telangana",
            "country_code": "IN"
        },
        "images": [
            {
                "about": "All",
                "link": "https://lh5.googleusercontent.com/p/AF1QipOnbkJZ5zbXT-tZcMUFQFpbJDxfy1zyjCvzBzRv=w529-h298-k-no"
            }
        ],
        "link": "https://www.google.com/maps/place/Masjid+E+Khadija,+Maktab+E+Abdullah/data=!4m7!3m6!1s0x3bd2ad4c6a475809:0x7f6fc1ed635fd790!8m2!3d19.3572248!4d79.2923366!16s%2Fg%2F11sshcvd0p!19sChIJCVhHakyt0jsRkNdfY-3Bb38?authuser=0&hl=en&rclk=1",
        "coordinates": {
            "latitude": 19.3572248,
            "longitude": 79.2923366
        }
    }
]