[
    {
        "name": "Markaz Masjid Karimganj District",
        "main_category": "Mosque",
        "address": "V939+5J2 Markaz Masjid Karimganj District, Markaz Masjid Complex, Kanishail, Assam 788711",
        "detailed_address": {
            "ward": null,
            "street": "V939+5J2, Markaz Masjid Complex",
            "city": "Kanishail, Banamali Pt I",
            "postal_code": "788711",
            "state": "Assam",
            "country_code": "IN"
        },
        "images": [
            {
                "about": "All",
                "link": "https://lh5.googleusercontent.com/p/AF1QipNlvrx9cX3lS6UO8CB5PQO7zkfmxC5JaMy1BCs=w224-h298-k-no"
            },
            {
                "about": "By owner",
                "link": "https://lh5.googleusercontent.com/p/AF1QipNjX3JJimT6d6QKd8RNQqs4DahNjkMeCKqCLkPS=w397-h298-k-no"
            },
            {
                "about": "Street View & 360deg",
                "link": "https://streetviewpixels-pa.googleapis.com/v1/thumbnail?panoid=a-DNgxeSKTEpElptB5chJw&cb_client=maps_sv.tactile.gps&w=224&h=298&yaw=251.19518&pitch=0&thumbfov=100"
            }
        ],
        "link": "https://www.google.com/maps/place/Markaz+Masjid+Karimganj+District/data=!4m7!3m6!1s0x3751d36f03c9ea8f:0x7b232d8168a54430!8m2!3d24.8534431!4d92.3689207!16s%2Fg%2F11_8_zlwf!19sChIJj-rJA2_TUTcRMESlaIEtI3s?authuser=0&hl=en&rclk=1",
        "coordinates": {
            "latitude": 24.8534431,
            "longitude": 92.36892069999999
        }
    },
    {
        "name": "Fakirabazar Jame Masjid",
        "main_category": "Mosque",
        "address": "V77Q+6MG Fakirabazar Jame Masjid, Karimganj - Sylhet Rd, Karimganj, Barbhadri, Assam 788710",
        "detailed_address": {
            "ward": null,
            "street": "V77Q+6MG, Karimganj - Sylhet Rd",
            "city": "Karimganj, Barbhadri",
            "postal_code": "788710",
            "state": "Assam",
            "country_code": "IN"
        },
        "images": [
            {
                "about": "All",
                "link": "https://lh5.googleusercontent.com/p/AF1QipMScl7j4X1pFiqW7t3fAJopXzDkyiyG34zI727S=w298-h298-k-no"
            },
            {
                "about": "Street View & 360deg",
                "link": "https://streetviewpixels-pa.googleapis.com/v1/thumbnail?panoid=_YUgfD1-9vTsYfmsTDFMOw&cb_client=maps_sv.tactile.gps&w=224&h=298&yaw=223.40884&pitch=0&thumbfov=100"
            },
            {
                "about": "Videos",
                "link": "https://lh5.googleusercontent.com/p/AF1QipNMAlYz-6c5PzYWOGya7mnue7NHwQurU2nMsH_t=w397-h298-k-no"
            }
        ],
        "link": "https://www.google.com/maps/place/Fakirabazar+Jame+Masjid/data=!4m7!3m6!1s0x3751cd427607c7ad:0x85d9bb4f91c8fb40!8m2!3d24.8630715!4d92.2892107!16s%2Fg%2F11c2qmlvfy!19sChIJrccHdkLNUTcRQPvIkU-72YU?authuser=0&hl=en&rclk=1",
        "coordinates": {
            "latitude": 24.8630715,
            "longitude": 92.2892107
        }
    },
    {
        "name": "Karimganj Railway Masjid",
        "main_category": "Mosque",
        "address": "V95F+J85 Karimganj Railway Masjid, Railway colony, Karimganj, Banamali Pt II, Assam 788710",
        "detailed_address": {
            "ward": null,
            "street": "V95F+J85, Railway colony",
            "city": "Karimganj, Banamali Pt II",
            "postal_code": "788710",
            "state": "Assam",
            "country_code": "IN"
        },
        "images": [
            {
                "about": "All",
                "link": "https://lh5.googleusercontent.com/p/AF1QipO2hnTZbReUhB9VHZiMzs3Rx67BZxx5KFmUw6wL=w397-h298-k-no"
            }
        ],
        "link": "https://www.google.com/maps/place/Karimganj+Railway+Masjid/data=!4m7!3m6!1s0x3751d367ad998d73:0xa008fc9508f84999!8m2!3d24.859022!4d92.3733746!16s%2Fg%2F1jgm2j1yy!19sChIJc42ZrWfTUTcRmUn4CJX8CKA?authuser=0&hl=en&rclk=1",
        "coordinates": {
            "latitude": 24.859022,
            "longitude": 92.37337459999999
        }
    },
    {
        "name": "Maizdi Madani Maszid",
        "main_category": "Mosque",
        "address": "V88V+87V Maizdi Madani Maszid, Maizdi, Karnamadhu Pt V, Assam 788712",
        "detailed_address": {
            "ward": null,
            "street": "V88V+87V",
            "city": "Maizdi, Karnamadhu Pt V",
            "postal_code": "788712",
            "state": "Assam",
            "country_code": "IN"
        },
        "images": [
            {
                "about": "All",
                "link": "https://lh5.googleusercontent.com/p/AF1QipMqj61LNBvCHSIbddv5_KWuSOCCi_49kBMpJSYp=w397-h298-k-no"
            },
            {
                "about": "Street View & 360deg",
                "link": "https://streetviewpixels-pa.googleapis.com/v1/thumbnail?panoid=dg8ulahusEvOjf8GU9tAjA&cb_client=maps_sv.tactile.gps&w=224&h=298&yaw=348.41306&pitch=0&thumbfov=100"
            }
        ],
        "link": "https://www.google.com/maps/place/Maizdi+Madani+Maszid/data=!4m7!3m6!1s0x3751d320ed63d997:0x2596135dcfa3a4d8!8m2!3d24.8658507!4d92.3431831!16s%2Fg%2F11c4hqf4ph!19sChIJl9lj7SDTUTcR2KSjz10TliU?authuser=0&hl=en&rclk=1",
        "coordinates": {
            "latitude": 24.8658507,
            "longitude": 92.34318309999999
        }
    },
    {
        "name": "Tinkuna Jame Masjid",
        "main_category": "Mosque",
        "address": "V9C3+QX3 Tinkuna Jame Masjid, Laxmi Charan Rd, Karimganj, Assam 788710",
        "detailed_address": {
            "ward": null,
            "street": "V9C3+QX3, Laxmi Charan Rd",
            "city": "Karimganj",
            "postal_code": "788710",
            "state": "Assam",
            "country_code": "IN"
        },
        "images": [
            {
                "about": "All",
                "link": "https://lh5.googleusercontent.com/p/AF1QipNW_K19HqTF2uxdhxfEwwwG8eeJkOH98awuaT6Z=w224-h298-k-no"
            },
            {
                "about": "Videos",
                "link": "https://lh5.googleusercontent.com/p/AF1QipPI1IozXsFJJ9lOe-d9sHcUHtrOMExXVYX0t7kZ=w224-h398-k-no"
            }
        ],
        "link": "https://www.google.com/maps/place/Tinkuna+Jame+Masjid/data=!4m7!3m6!1s0x3751d33a41455485:0xa75970d649a819d5!8m2!3d24.8718781!4d92.3549125!16s%2Fg%2F1t_kdwqj!19sChIJhVRFQTrTUTcR1RmoSdZwWac?authuser=0&hl=en&rclk=1",
        "coordinates": {
            "latitude": 24.8718781,
            "longitude": 92.3549125
        }
    },
    {
        "name": "Karimganj District Town Eidgah",
        "main_category": "Mosque",
        "address": "V982+HC8 Karimganj District Town Eidgah, Settlement Ln, Karimganj, Assam 788710",
        "detailed_address": {
            "ward": null,
            "street": "V982+HC8, Settlement Ln",
            "city": "Karimganj",
            "postal_code": "788710",
            "state": "Assam",
            "country_code": "IN"
        },
        "images": [
            {
                "about": "All",
                "link": "https://lh5.googleusercontent.com/p/AF1QipMh9GpW7hRufX4OMiG_8tHZblSeuOuxu7rY2bTM=w224-h298-k-no"
            },
            {
                "about": "Dome",
                "link": "https://lh5.googleusercontent.com/p/AF1QipP6c90-Zyep6hHpvyCHhyjmfKdPGO9IK02EPNDQ=w224-h298-k-no"
            },
            {
                "about": "Videos",
                "link": "https://lh5.googleusercontent.com/p/AF1QipNnEnEZuMoeGoD9BffAH_NT6rVFvRmD2auAClGh=w224-h398-k-no"
            },
            {
                "about": "Street View & 360deg",
                "link": "https://streetviewpixels-pa.googleapis.com/v1/thumbnail?panoid=qTWVmSAKLUq5FRqWm2kZaw&cb_client=maps_sv.tactile.gps&w=224&h=298&yaw=183.44333&pitch=0&thumbfov=100"
            }
        ],
        "link": "https://www.google.com/maps/place/Karimganj+District+Town+Eidgah/data=!4m7!3m6!1s0x3751d323383e554d:0x684b702db1d88fef!8m2!3d24.8664183!4d92.3510685!16s%2Fg%2F11f1vhdnjd!19sChIJTVU-OCPTUTcR74_YsS1wS2g?authuser=0&hl=en&rclk=1",
        "coordinates": {
            "latitude": 24.8664183,
            "longitude": 92.3510685
        }
    },
    {
        "name": "Court Mosque",
        "main_category": "Mosque",
        "address": "V9C6+J5P Court Mosque, Karimganj, Assam 788710",
        "detailed_address": {
            "ward": null,
            "street": "V9C6+J5P",
            "city": "Karimganj",
            "postal_code": "788710",
            "state": "Assam",
            "country_code": "IN"
        },
        "images": [
            {
                "about": "All",
                "link": "https://lh5.googleusercontent.com/p/AF1QipPA3Oelb5DzpQEvnWJMYYFQgQ47XJ3TcqNoOBMY=w397-h298-k-no"
            },
            {
                "about": "Street View & 360deg",
                "link": "https://streetviewpixels-pa.googleapis.com/v1/thumbnail?panoid=S66_osKSD2skkh_2GezkpQ&cb_client=maps_sv.tactile.gps&w=224&h=298&yaw=15.101453&pitch=0&thumbfov=100"
            }
        ],
        "link": "https://www.google.com/maps/place/Court+Mosque/data=!4m7!3m6!1s0x3751d338680c6395:0x9de9b862b9f7bfc!8m2!3d24.8715916!4d92.3604532!16s%2Fg%2F11cn3nc74c!19sChIJlWMMaDjTUTcR_HufK4ab3gk?authuser=0&hl=en&rclk=1",
        "coordinates": {
            "latitude": 24.8715916,
            "longitude": 92.3604532
        }
    },
    {
        "name": "Hadargram Jame Masjid.Estd-1686",
        "main_category": "Mosque",
        "address": "V9C9+8WP Hadargram Jame Masjid.Estd-1686, Karimganj Rd, Medal Pt II, Karimganj, Assam 788711",
        "detailed_address": {
            "ward": null,
            "street": "V9C9+8WP, Karimganj Rd",
            "city": "Medal Pt II, Karimganj",
            "postal_code": "788711",
            "state": "Assam",
            "country_code": "IN"
        },
        "images": [
            {
                "about": "All",
                "link": "https://lh5.googleusercontent.com/p/AF1QipN3fL31Kq2b_nOB9-rMfbN9S4PL3c0sgzw9QzOw=w224-h298-k-no"
            }
        ],
        "link": "https://www.google.com/maps/place/Hadargram+Jame+Masjid.Estd-1686/data=!4m7!3m6!1s0x3751d344e31fd4cf:0x6f4e2742def004aa!8m2!3d24.8708302!4d92.3698249!16s%2Fg%2F11g6pxh4fb!19sChIJz9Qf40TTUTcRqgTw3kInTm8?authuser=0&hl=en&rclk=1",
        "coordinates": {
            "latitude": 24.8708302,
            "longitude": 92.3698249
        }
    },
    {
        "name": "Munsif Court Jama Masjid",
        "main_category": "Mosque",
        "address": "V9C6+J57 Munsif Court Jama Masjid, Karimganj, Assam 788710",
        "detailed_address": {
            "ward": null,
            "street": "V9C6+J57",
            "city": "Karimganj",
            "postal_code": "788710",
            "state": "Assam",
            "country_code": "IN"
        },
        "images": [
            {
                "about": "All",
                "link": "https://lh5.googleusercontent.com/p/AF1QipNrTL9v6vskXGspWbC_fPkvzK5taohiqenwfAhO=w224-h398-k-no"
            },
            {
                "about": "Street View & 360deg",
                "link": "https://streetviewpixels-pa.googleapis.com/v1/thumbnail?panoid=S66_osKSD2skkh_2GezkpQ&cb_client=maps_sv.tactile.gps&w=224&h=298&yaw=13.015595&pitch=0&thumbfov=100"
            }
        ],
        "link": "https://www.google.com/maps/place/Munsif+Court+Jama+Masjid/data=!4m7!3m6!1s0x3751d33867fb9ae7:0x6c01a2cd29ace3f8!8m2!3d24.8715385!4d92.3604292!16s%2Fg%2F11c6tx_5b5!19sChIJ55r7ZzjTUTcR-OOsKc2iAWw?authuser=0&hl=en&rclk=1",
        "coordinates": {
            "latitude": 24.8715385,
            "longitude": 92.3604292
        }
    },
    {
        "name": "Banamali Jame Masjid",
        "main_category": "Mosque",
        "address": "V974+M74 Banamali Jame Masjid, Nalukandi, Bonomali, Karimganj, Assam 788710",
        "detailed_address": {
            "ward": "Nalukandi, Bonomali",
            "street": "V974+M74",
            "city": "Karimganj",
            "postal_code": "788710",
            "state": "Assam",
            "country_code": "IN"
        },
        "images": [
            {
                "about": "All",
                "link": "https://lh5.googleusercontent.com/p/AF1QipNnB8v5qu4scc-k7HSbUyK7fY20JGf9ZPBlh-fS=w397-h298-k-no"
            },
            {
                "about": "Dome",
                "link": "https://lh5.googleusercontent.com/p/AF1QipNnB8v5qu4scc-k7HSbUyK7fY20JGf9ZPBlh-fS=w397-h298-k-no"
            }
        ],
        "link": "https://www.google.com/maps/place/Banamali+Jame+Masjid/data=!4m7!3m6!1s0x3751d33dc66e83ed:0x2c9d767c344843f6!8m2!3d24.8641394!4d92.3557147!16s%2Fg%2F11f_d7zzr4!19sChIJ7YNuxj3TUTcR9kNINHx2nSw?authuser=0&hl=en&rclk=1",
        "coordinates": {
            "latitude": 24.8641394,
            "longitude": 92.3557147
        }
    },
    {
        "name": "Delitila Jama Masjid",
        "main_category": "Mosque",
        "address": "V945+XJ4 Delitila Jama Masjid, W Kanishail Rd, Banamali Pt I, Assam 788711",
        "detailed_address": {
            "ward": null,
            "street": "V945+XJ4, W Kanishail Rd",
            "city": "Banamali Pt I",
            "postal_code": "788711",
            "state": "Assam",
            "country_code": "IN"
        },
        "images": [],
        "link": "https://www.google.com/maps/place/Delitila+Jama+Masjid/data=!4m7!3m6!1s0x3751d314603e5c5b:0xcabb67b650d8a91e!8m2!3d24.857398!4d92.3590897!16s%2Fg%2F11gb3p1vqn!19sChIJW1w-YBTTUTcRHqnYULZnu8o?authuser=0&hl=en&rclk=1",
        "coordinates": {
            "latitude": 24.857398,
            "longitude": 92.3590897
        }
    },
    {
        "name": "Saralkha Road Masjid",
        "main_category": "Mosque",
        "address": "V87X+H2C Saralkha Road Masjid, Saralkha Road, Settlement Rd, Karimganj, Assam 788712",
        "detailed_address": {
            "ward": null,
            "street": "V87X+H2C, Saralkha Road, Settlement Rd",
            "city": "Karimganj",
            "postal_code": "788712",
            "state": "Assam",
            "country_code": "IN"
        },
        "images": [
            {
                "about": "All",
                "link": "https://lh5.googleusercontent.com/p/AF1QipO-FwYpb3nUe5QSqxyULx7jqwLN2W3YF1SppJE2=w224-h398-k-no"
            },
            {
                "about": "Latest",
                "link": "https://lh5.googleusercontent.com/p/AF1QipPwWudFFVx5p12WoxIzDOwzSe_3uHdSLxlY1X0a=w224-h496-k-no"
            },
            {
                "about": "Videos",
                "link": "https://lh5.googleusercontent.com/p/AF1QipNdn-JcmUm4AoAhTrRKIFKS9RnpHgdty9F1RUbU=w224-h398-k-no"
            }
        ],
        "link": "https://www.google.com/maps/place/Saralkha+Road+Masjid/data=!4m7!3m6!1s0x3751d3223ba44955:0xceb899b8ca893483!8m2!3d24.8639263!4d92.3475253!16s%2Fg%2F11f1vhrbwh!19sChIJVUmkOyLTUTcRgzSJyriZuM4?authuser=0&hl=en&rclk=1",
        "coordinates": {
            "latitude": 24.8639263,
            "longitude": 92.3475253
        }
    },
    {
        "name": "Settlement Bazaar Masjid",
        "main_category": "Mosque",
        "address": "V88W+MVG Settlement Bazaar Masjid, Unnamed Road, Karimganj, Assam 788710",
        "detailed_address": {
            "ward": null,
            "street": "V88W+MVG, Unnamed Road",
            "city": "Karimganj",
            "postal_code": "788710",
            "state": "Assam",
            "country_code": "IN"
        },
        "images": [
            {
                "about": "All",
                "link": "https://lh5.googleusercontent.com/p/AF1QipNfZoWbERB6hAuqC8QmCuPYr4WV8oqTY8mYrZN0=w395-h298-k-no"
            }
        ],
        "link": "https://www.google.com/maps/place/Settlement+Bazaar+Masjid/data=!4m7!3m6!1s0x3751d353c8c3fa67:0xa3c951002317e6ad!8m2!3d24.8666867!4d92.3471916!16s%2Fg%2F11gy875htv!19sChIJZ_rDyFPTUTcRreYXIwBRyaM?authuser=0&hl=en&rclk=1",
        "coordinates": {
            "latitude": 24.8666867,
            "longitude": 92.3471916
        }
    },
    {
        "name": "Karimganj Maizdihi Mashjid",
        "main_category": "Mosque",
        "address": "V88X+QHX Karimganj Maizdihi Mashjid, Settlement Road, NH37, Karimganj, 788710",
        "detailed_address": {
            "ward": null,
            "street": "V88X+QHX, Settlement Road, NH37",
            "city": "Karimganj",
            "postal_code": "788710",
            "state": "Assam",
            "country_code": "IN"
        },
        "images": [
            {
                "about": "All",
                "link": "https://streetviewpixels-pa.googleapis.com/v1/thumbnail?panoid=OlK5Oo3ph31yN9Jueh0oHA&cb_client=maps_sv.tactile.gps&w=224&h=298&yaw=196.94536&pitch=0&thumbfov=100"
            },
            {
                "about": "Street View & 360deg",
                "link": "https://streetviewpixels-pa.googleapis.com/v1/thumbnail?panoid=OlK5Oo3ph31yN9Jueh0oHA&cb_client=maps_sv.tactile.gps&w=224&h=298&yaw=196.94536&pitch=0&thumbfov=100"
            }
        ],
        "link": "https://www.google.com/maps/place/Karimganj+Maizdihi+Mashjid/data=!4m7!3m6!1s0x3751d3a8803a01b1:0x76e0d50f33dbbb8e!8m2!3d24.8669993!4d92.3489815!16s%2Fg%2F11h79v6dcy!19sChIJsQE6gKjTUTcRjrvbMw_V4HY?authuser=0&hl=en&rclk=1",
        "coordinates": {
            "latitude": 24.8669993,
            "longitude": 92.3489815
        }
    },
    {
        "name": "Longai Mosque",
        "main_category": "Mosque",
        "address": "V86X+RQ8 Longai Mosque, Longai Rd, Karimganj, Assam 788710",
        "detailed_address": {
            "ward": null,
            "street": "V86X+RQ8, Longai Rd",
            "city": "Karimganj",
            "postal_code": "788710",
            "state": "Assam",
            "country_code": "IN"
        },
        "images": [],
        "link": "https://www.google.com/maps/place/Longai+Mosque/data=!4m7!3m6!1s0x3751d3187f77195b:0xede771e935162b34!8m2!3d24.8620429!4d92.3494565!16s%2Fg%2F11bx5q51mn!19sChIJWxl3fxjTUTcRNCsWNelx5-0?authuser=0&hl=en&rclk=1",
        "coordinates": {
            "latitude": 24.8620429,
            "longitude": 92.3494565
        }
    },
    {
        "name": "A.R.C Road mosque",
        "main_category": "Mosque",
        "address": "V89R+8WC A.R.C Road mosque, A.R.C Road Settlement, Assam 788710",
        "detailed_address": {
            "ward": null,
            "street": "V89R+8WC, A.R.C Road Settlement",
            "city": "Karnamadhu Pt II",
            "postal_code": "788710",
            "state": "Assam",
            "country_code": "IN"
        },
        "images": [
            {
                "about": "All",
                "link": "https://lh5.googleusercontent.com/p/AF1QipOmfAoKKWn1gvLM5nbgmp4oR9uLT077HR-3z6xb=w397-h298-k-no"
            }
        ],
        "link": "https://www.google.com/maps/place/A.R.C+Road+mosque/data=!4m7!3m6!1s0x3751d3d89d577549:0xd8c353b6afcaad66!8m2!3d24.8683029!4d92.342269!16s%2Fg%2F11nm9mcph7!19sChIJSXVXndjTUTcRZq3Kr7ZTw9g?authuser=0&hl=en&rclk=1",
        "coordinates": {
            "latitude": 24.8683029,
            "longitude": 92.342269
        }
    },
    {
        "name": "Jahanpur Masjid",
        "main_category": "Mosque",
        "address": "V84V+FWM Jahanpur Masjid, Longai Road, Longai Ghat, Karimganj, Umapati, Assam 788710",
        "detailed_address": {
            "ward": "Longai Ghat",
            "street": "V84V+FWM, Longai Road",
            "city": "Karimganj, Umapati",
            "postal_code": "788710",
            "state": "Assam",
            "country_code": "IN"
        },
        "images": [
            {
                "about": "All",
                "link": "https://lh5.googleusercontent.com/p/AF1QipMGWXgXOvFHXmCOBHY1FJbzV6FK6wpocpTqWqXp=w397-h298-k-no"
            }
        ],
        "link": "https://www.google.com/maps/place/Jahanpur+Masjid/data=!4m7!3m6!1s0x3751d30b74adceb3:0x9c01c8a5394db77e!8m2!3d24.8562155!4d92.3447958!16s%2Fg%2F11ghn4mq1y!19sChIJs86tdAvTUTcRfrdNOaXIAZw?authuser=0&hl=en&rclk=1",
        "coordinates": {
            "latitude": 24.856215499999998,
            "longitude": 92.3447958
        }
    },
    {
        "name": "New Masjid",
        "main_category": "Mosque",
        "address": "V76R+G9J New Masjid, Karimganj - Sylhet Rd, Karimganj, Barbhadri, Assam 788710",
        "detailed_address": {
            "ward": null,
            "street": "V76R+G9J, Karimganj - Sylhet Rd",
            "city": "Karimganj, Barbhadri",
            "postal_code": "788710",
            "state": "Assam",
            "country_code": "IN"
        },
        "images": [
            {
                "about": "All",
                "link": "https://lh5.googleusercontent.com/p/AF1QipPdTYfgiPTi-VBEKxFrfJg1e_8qAMJASqSkwQ-r=w224-h303-k-no"
            },
            {
                "about": "Dome",
                "link": "https://lh5.googleusercontent.com/p/AF1QipPdTYfgiPTi-VBEKxFrfJg1e_8qAMJASqSkwQ-r=w224-h303-k-no"
            }
        ],
        "link": "https://www.google.com/maps/place/New+Masjid/data=!4m7!3m6!1s0x3751cd6847aa9979:0xe18b47d0d69adb21!8m2!3d24.8613436!4d92.2908958!16s%2Fg%2F11c6134b6_!19sChIJeZmqR2jNUTcRIdua1tBHi-E?authuser=0&hl=en&rclk=1",
        "coordinates": {
            "latitude": 24.861343599999998,
            "longitude": 92.2908958
        }
    },
    {
        "name": "Bonomali Rail Gate Jame Masjid",
        "main_category": "Mosque",
        "address": "V969+WJG Bonomali Rail Gate Jame Masjid, Karimganj - Agartala - Sabroom Rd, Karimganj, Assam 788710",
        "detailed_address": {
            "ward": null,
            "street": "V969+WJG, Karimganj - Agartala - Sabroom Rd",
            "city": "Karimganj",
            "postal_code": "788710",
            "state": "Assam",
            "country_code": "IN"
        },
        "images": [
            {
                "about": "All",
                "link": "https://streetviewpixels-pa.googleapis.com/v1/thumbnail?panoid=50r5CLDY7jvZmxH83P1wvQ&cb_client=maps_sv.tactile.gps&w=224&h=298&yaw=236.43942&pitch=0&thumbfov=100"
            },
            {
                "about": "Street View & 360deg",
                "link": "https://streetviewpixels-pa.googleapis.com/v1/thumbnail?panoid=50r5CLDY7jvZmxH83P1wvQ&cb_client=maps_sv.tactile.gps&w=224&h=298&yaw=236.43942&pitch=0&thumbfov=100"
            }
        ],
        "link": "https://www.google.com/maps/place/Bonomali+Rail+Gate+Jame+Masjid/data=!4m7!3m6!1s0x3751d3169f1ec9f5:0x1f6be31e76e72485!8m2!3d24.8623085!4d92.3690761!16s%2Fg%2F11thshqql6!19sChIJ9ckenxbTUTcRhSTndh7jax8?authuser=0&hl=en&rclk=1",
        "coordinates": {
            "latitude": 24.862308499999997,
            "longitude": 92.3690761
        }
    },
    {
        "name": "Settlement bazaar masjid",
        "main_category": "Mosque",
        "address": "Settlement bazaar masjid, Dewan Choudhary road, Karimganj, Assam 788710",
        "detailed_address": {
            "ward": null,
            "street": "Dewan Choudhary road",
            "city": "Karimganj",
            "postal_code": "788710",
            "state": "Assam",
            "country_code": "IN"
        },
        "images": [],
        "link": "https://www.google.com/maps/place/Settlement+bazaar+masjid/data=!4m7!3m6!1s0x3751d363e22d3bbf:0x1b5b5933d180018e!8m2!3d24.8649293!4d92.3592151!16s%2Fg%2F11rhhzvp3z!19sChIJvzst4mPTUTcRjgGA0TNZWxs?authuser=0&hl=en&rclk=1",
        "coordinates": {
            "latitude": 24.8649293,
            "longitude": 92.3592151
        }
    },
    {
        "name": "Jame Masjid Maizdihi",
        "main_category": "Mosque",
        "address": "V88V+87R Jame Masjid Maizdihi, Karnamadhu Pt V, Assam 788710",
        "detailed_address": {
            "ward": null,
            "street": "V88V+87R",
            "city": "Karnamadhu Pt V",
            "postal_code": null,
            "state": "Assam",
            "country_code": "IN"
        },
        "images": [
            {
                "about": "All",
                "link": "https://streetviewpixels-pa.googleapis.com/v1/thumbnail?panoid=dg8ulahusEvOjf8GU9tAjA&cb_client=maps_sv.tactile.gps&w=224&h=298&yaw=337.1838&pitch=0&thumbfov=100"
            },
            {
                "about": "Street View & 360deg",
                "link": "https://streetviewpixels-pa.googleapis.com/v1/thumbnail?panoid=dg8ulahusEvOjf8GU9tAjA&cb_client=maps_sv.tactile.gps&w=224&h=298&yaw=337.1838&pitch=0&thumbfov=100"
            }
        ],
        "link": "https://www.google.com/maps/place/Jame+Masjid+Maizdihi/data=!4m7!3m6!1s0x3751d384bde1fcc5:0x48e31d6a9ce803bf!8m2!3d24.8658633!4d92.3431471!16s%2Fg%2F11qnhyh6xr!19sChIJxfzhvYTTUTcRvwPonGod40g?authuser=0&hl=en&rclk=1",
        "coordinates": {
            "latitude": 24.865863299999997,
            "longitude": 92.3431471
        }
    },
    {
        "name": "2 no. Mashjid, Lokenath Sarani",
        "main_category": "Mosque",
        "address": "V8CX+HXX 2 no. Mashjid, Lokenath Sarani, Karimganj, Assam 788710",
        "detailed_address": {
            "ward": null,
            "street": "V8CX+HXX",
            "city": "Karimganj",
            "postal_code": "788710",
            "state": "Assam",
            "country_code": "IN"
        },
        "images": [],
        "link": "https://www.google.com/maps/place/2+no.+Mashjid,+Lokenath+Sarani/data=!4m7!3m6!1s0x3751d38d925e394d:0x62b1e2612b900c6f!8m2!3d24.8714892!4d92.3499977!16s%2Fg%2F11j_sb7xxq!19sChIJTTleko3TUTcRbwyQK2HisWI?authuser=0&hl=en&rclk=1",
        "coordinates": {
            "latitude": 24.8714892,
            "longitude": 92.34999769999999
        }
    },
    {
        "name": "Mabarakpur Grand Jame masjid",
        "main_category": "Mosque",
        "address": "R9XQ+QM5 Mabarakpur Grand Jame masjid, Karimganj - Silchar Rd, Karimganj, Alongjuri, Assam 788713",
        "detailed_address": {
            "ward": null,
            "street": "R9XQ+QM5, Karimganj - Silchar Rd",
            "city": "Karimganj, Alongjuri",
            "postal_code": "788713",
            "state": "Assam",
            "country_code": "IN"
        },
        "images": [],
        "link": "https://www.google.com/maps/place/Mabarakpur+Grand+Jame+masjid/data=!4m7!3m6!1s0x3751d5d870ca47dd:0x8461fc7146b169a3!8m2!3d24.8493898!4d92.3892437!16s%2Fg%2F11r27xkmb3!19sChIJ3UfKcNjVUTcRo2mxRnH8YYQ?authuser=0&hl=en&rclk=1",
        "coordinates": {
            "latitude": 24.849389799999997,
            "longitude": 92.3892437
        }
    },
    {
        "name": "Madani masjid, Umapati",
        "main_category": "Mosque",
        "address": "V982+HP3 Madani masjid, Umapati, NH37, Karimganj, Assam 788710",
        "detailed_address": {
            "ward": null,
            "street": "V982+HP3, NH37",
            "city": "Karimganj",
            "postal_code": "788710",
            "state": "Assam",
            "country_code": "IN"
        },
        "images": [
            {
                "about": "All",
                "link": "https://lh5.googleusercontent.com/p/AF1QipMuIVfiwlBlmNn4rGkYkpQtOIAa71z68UfYM2mp=w529-h298-k-no"
            },
            {
                "about": "Street View & 360deg",
                "link": "https://streetviewpixels-pa.googleapis.com/v1/thumbnail?panoid=QMOEAoAYNEJ7qZZu5c6T_g&cb_client=maps_sv.tactile.gps&w=224&h=298&yaw=130.3594&pitch=0&thumbfov=100"
            }
        ],
        "link": "https://www.google.com/maps/place/Madani+masjid,+Umapati/data=!4m7!3m6!1s0x3751d365d4459bf3:0xa2260def1af5c7e3!8m2!3d24.8663854!4d92.3519117!16s%2Fg%2F11v5_xy_qp!19sChIJ85tF1GXTUTcR48f1Gu8NJqI?authuser=0&hl=en&rclk=1",
        "coordinates": {
            "latitude": 24.8663854,
            "longitude": 92.3519117
        }
    },
    {
        "name": "District Fouzdari Court Masjid",
        "main_category": "Mosque",
        "address": "V994+R78 District Fouzdari Court Masjid, NH37, Karimganj, Assam 788710",
        "detailed_address": {
            "ward": null,
            "street": "V994+R78, NH37",
            "city": "Karimganj",
            "postal_code": "788710",
            "state": "Assam",
            "country_code": "IN"
        },
        "images": [
            {
                "about": "All",
                "link": "https://streetviewpixels-pa.googleapis.com/v1/thumbnail?panoid=HU0GkaWoCpWBCiBE4xTmbQ&cb_client=maps_sv.tactile.gps&w=224&h=298&yaw=4.3852987&pitch=0&thumbfov=100"
            },
            {
                "about": "Street View & 360deg",
                "link": "https://streetviewpixels-pa.googleapis.com/v1/thumbnail?panoid=HU0GkaWoCpWBCiBE4xTmbQ&cb_client=maps_sv.tactile.gps&w=224&h=298&yaw=4.3852987&pitch=0&thumbfov=100"
            }
        ],
        "link": "https://www.google.com/maps/place/District+Fouzdari+Court+Masjid/data=!4m7!3m6!1s0x3751d3830baea863:0x43cfa24bfc46f56d!8m2!3d24.8695421!4d92.3556899!16s%2Fg%2F11vdrpylj3!19sChIJY6iuC4PTUTcRbfVG_Euiz0M?authuser=0&hl=en&rclk=1",
        "coordinates": {
            "latitude": 24.8695421,
            "longitude": 92.3556899
        }
    },
    {
        "name": "Tilak Chand Road Masjid",
        "main_category": "Mosque",
        "address": "V9G4+9XH Tilak Chand Road Masjid, Tilak Chand Rd, Karimganj, Assam 788710",
        "detailed_address": {
            "ward": null,
            "street": "V9G4+9XH, Tilak Chand Rd",
            "city": "Karimganj",
            "postal_code": "788710",
            "state": "Assam",
            "country_code": "IN"
        },
        "images": [
            {
                "about": "All",
                "link": "https://lh5.googleusercontent.com/p/AF1QipOg0-nKIbxtsUuvGMlhN_6fTbeKEX70UvqzVvHR=w224-h498-k-no"
            }
        ],
        "link": "https://www.google.com/maps/place/Tilak+Chand+Road+Masjid/data=!4m7!3m6!1s0x3751d309524e5edd:0xc84dbfe5699158a3!8m2!3d24.875947!4d92.3574823!16s%2Fg%2F11vf5djbhz!19sChIJ3V5OUgnTUTcRo1iRaeW_Tcg?authuser=0&hl=en&rclk=1",
        "coordinates": {
            "latitude": 24.875947,
            "longitude": 92.3574823
        }
    },
    {
        "name": "Tawakul Shah Jame Masjid",
        "main_category": "Mosque",
        "address": "V965+696 Tawakul Shah Jame Masjid, Nalukandi, Bonomali Rd, Karimganj",
        "detailed_address": {
            "ward": null,
            "street": "V965+696, Nalukandi, Bonomali Rd",
            "city": "Karimganj, Banamali Pt I",
            "postal_code": null,
            "state": "Assam",
            "country_code": "IN"
        },
        "images": [],
        "link": "https://www.google.com/maps/place/Tawakul+Shah+Jame+Masjid/data=!4m7!3m6!1s0x3751d37995c43f9f:0x9bcb7b0cc0bb2b97!8m2!3d24.8605427!4d92.3583953!16s%2Fg%2F11hdqjv5hm!19sChIJnz_ElXnTUTcRlyu7wAx7y5s?authuser=0&hl=en&rclk=1",
        "coordinates": {
            "latitude": 24.8605427,
            "longitude": 92.3583953
        }
    },
    {
        "name": "Jayforpur Jame masjid. Siraj uddin sakir uddin",
        "main_category": "Housing society",
        "address": "V975+XMG Jayforpur Jame masjid. Siraj uddin sakir uddin, Karimganj, Assam 788710",
        "detailed_address": {
            "ward": null,
            "street": "V975+XMG",
            "city": "Karimganj",
            "postal_code": "788710",
            "state": "Assam",
            "country_code": "IN"
        },
        "images": [],
        "link": "https://www.google.com/maps/place/Jayforpur+Jame+masjid.+Siraj+uddin+sakir+uddin/data=!4m7!3m6!1s0x3751d3ef22902c1f:0x8cec1cbbc94d5310!8m2!3d24.8649293!4d92.3592151!16s%2Fg%2F11s65b4k3v!19sChIJHyyQIu_TUTcREFNNybsc7Iw?authuser=0&hl=en&rclk=1",
        "coordinates": {
            "latitude": 24.8649293,
            "longitude": 92.3592151
        }
    }
]