[
    {
        "name": "Sunnath Jamath Jamiya (Big) Mosque Kottur",
        "main_category": "Mosque",
        "address": "GXWM+8JV Sunnath Jamath Jamiya (Big) Mosque Kottur, Kottur, Malaiyandipattanam, Tamil Nadu 642007",
        "detailed_address": {
            "ward": null,
            "street": "GXWM+8JV",
            "city": "Kottur, Malaiyandipattanam",
            "postal_code": "642007",
            "state": "Tamil Nadu",
            "country_code": "IN"
        },
        "images": [
            {
                "about": "All",
                "link": "https://lh5.googleusercontent.com/p/AF1QipMnOti0GLwcSm_0uN_sKiipNPF9SlVmsJjuMyw=w529-h298-k-no"
            },
            {
                "about": "Dome",
                "link": "https://lh5.googleusercontent.com/p/AF1QipPl8ybiYOuSiF-JAbYGC2HgvdHIouW3sqEHidpl=w224-h298-k-no"
            },
            {
                "about": "Videos",
                "link": "https://lh5.googleusercontent.com/p/AF1QipMGgDK9CjbM1n14yB6oOXYu_8YrvaR6mhisQBI=w298-h298-k-no"
            },
            {
                "about": "Street View & 360deg",
                "link": "https://streetviewpixels-pa.googleapis.com/v1/thumbnail?panoid=7PZmtUjsh1yaGwIArGonPw&cb_client=maps_sv.tactile.gps&w=224&h=298&yaw=137.00061&pitch=0&thumbfov=100"
            }
        ],
        "link": "https://www.google.com/maps/place/Sunnath+Jamath+Jamiya+%28Big%29+Mosque+Kottur/data=!4m7!3m6!1s0x3ba83ac12ec50da9:0xa68f570db74d1c61!8m2!3d10.5458708!4d76.9840588!16s%2Fg%2F11c708w496!19sChIJqQ3FLsE6qDsRYRxNtw1Xj6Y?authuser=0&hl=en&rclk=1",
        "coordinates": {
            "latitude": 10.5458708,
            "longitude": 76.9840588
        }
    },
    {
        "name": "Masjid-e Jamiya",
        "main_category": "School",
        "address": "R6HG+3C7 Masjid-e Jamiya, Kotturu, Karnataka 583134",
        "detailed_address": {
            "ward": null,
            "street": "R6HG+3C7",
            "city": "Kotturu",
            "postal_code": "583134",
            "state": "Karnataka",
            "country_code": "IN"
        },
        "images": [
            {
                "about": "All",
                "link": "https://lh5.googleusercontent.com/p/AF1QipMXIZr4ha7jC9JyyG8_P0JJEfXbBiYn8oYFdnGs=w224-h497-k-no"
            },
            {
                "about": "Street View & 360deg",
                "link": "https://lh5.googleusercontent.com/p/AF1QipN8hyOCmKJIktNPGVpKbgZhB21bh-dpCBmeFUgb=w224-h298-k-no-pi0-ya263-ro-0-fo100"
            },
            {
                "about": "Videos",
                "link": "https://lh5.googleusercontent.com/p/AF1QipPlML7u7LPXaeyZD3paL8dJBznzXgTIY9_bcycq=w224-h398-k-no"
            }
        ],
        "link": "https://www.google.com/maps/place/Masjid-e+Jamiya/data=!4m7!3m6!1s0x3bb9efb4dd3e0a47:0xbec06eeb4d9a6cf8!8m2!3d14.8276614!4d76.2260544!16s%2Fg%2F11fx7p9ql9!19sChIJRwo-3bTvuTsR-GyaTetuwL4?authuser=0&hl=en&rclk=1",
        "coordinates": {
            "latitude": 14.8276614,
            "longitude": 76.2260544
        }
    },
    {
        "name": "Masjid-E-Tuheed (Ahle Hadees)",
        "main_category": "Mosque",
        "address": "R6HF+X23 Masjid-E-Tuheed (Ahle Hadees), Managapura, Kotturu, Karnataka 583134",
        "detailed_address": {
            "ward": "Managapura",
            "street": "R6HF+X23",
            "city": "Kotturu",
            "postal_code": "583134",
            "state": "Karnataka",
            "country_code": "IN"
        },
        "images": [
            {
                "about": "All",
                "link": "https://lh5.googleusercontent.com/p/AF1QipOEZaHu3JVBZb07gbE32bRpE_ValRlo2wz6P6lC=w224-h398-k-no"
            },
            {
                "about": "Street View & 360deg",
                "link": "https://streetviewpixels-pa.googleapis.com/v1/thumbnail?panoid=jHUbwPi2zzluM9C5R1jXiA&cb_client=maps_sv.tactile.gps&w=224&h=298&yaw=139.61894&pitch=0&thumbfov=100"
            }
        ],
        "link": "https://www.google.com/maps/place/Masjid-E-Tuheed+%28Ahle+Hadees%29/data=!4m7!3m6!1s0x3bb9ee4c834b9b23:0x16d5b2d5e2c213bd!8m2!3d14.8298874!4d76.2225504!16s%2Fg%2F11cs5m9z58!19sChIJI5tLg0zuuTsRvRPC4tWy1RY?authuser=0&hl=en&rclk=1",
        "coordinates": {
            "latitude": 14.829887399999999,
            "longitude": 76.2225504
        }
    },
    {
        "name": "Kottur Mosque",
        "main_category": "Mosque",
        "address": "2GQ5+PVF Kottur Mosque, Sreekandapuram, Kerala 670631",
        "detailed_address": {
            "ward": null,
            "street": "2GQ5+PVF",
            "city": "Sreekandapuram",
            "postal_code": "670631",
            "state": "Kerala",
            "country_code": "IN"
        },
        "images": [],
        "link": "https://www.google.com/maps/place/Kottur+Mosque/data=!4m7!3m6!1s0x3ba43813db99f477:0x5d91ffc2d31a8bd2!8m2!3d12.0393068!4d75.5096851!16s%2Fg%2F11bzt9pwzk!19sChIJd_SZ2xM4pDsR0osa08L_kV0?authuser=0&hl=en&rclk=1",
        "coordinates": {
            "latitude": 12.0393068,
            "longitude": 75.5096851
        }
    },
    {
        "name": "Mosque",
        "main_category": "Mosque",
        "address": "JHC3+Q79 Mosque, Kottur Thottam, Tamil Nadu 614708",
        "detailed_address": {
            "ward": null,
            "street": "JHC3+Q79",
            "city": "Kottur Thottam",
            "postal_code": "614708",
            "state": "Tamil Nadu",
            "country_code": "IN"
        },
        "images": [
            {
                "about": "All",
                "link": "https://lh5.googleusercontent.com/p/AF1QipP8ZxOk-q0RTSaeRgEBIGvqGBm4JUjA0F0pfUZ4=w511-h298-k-no"
            },
            {
                "about": "Dome",
                "link": "https://lh5.googleusercontent.com/p/AF1QipMbn9g4_vkYaSeTk6IxoC6OncrGSVxdmBBtx6VE=w397-h298-k-no"
            },
            {
                "about": "Street View & 360deg",
                "link": "https://streetviewpixels-pa.googleapis.com/v1/thumbnail?panoid=i4Nt9TNIgbPL8v3PS-AsTA&cb_client=maps_sv.tactile.gps&w=224&h=298&yaw=245.12337&pitch=0&thumbfov=100"
            }
        ],
        "link": "https://www.google.com/maps/place/Mosque/data=!4m7!3m6!1s0x3a555003b60d87f9:0xbcc3aa8c77727335!8m2!3d10.6219241!4d79.5532452!16s%2Fg%2F11hcjyrym7!19sChIJ-YcNtgNQVToRNXNyd4yqw7w?authuser=0&hl=en&rclk=1",
        "coordinates": {
            "latitude": 10.6219241,
            "longitude": 79.55324519999999
        }
    },
    {
        "name": "Bilal masjid",
        "main_category": "Mosque",
        "address": "R68H+FQV Bilal masjid, Vidya Nagara, Kotturu, Karnataka 583134",
        "detailed_address": {
            "ward": "Vidya Nagara",
            "street": "R68H+FQV",
            "city": "Kotturu",
            "postal_code": "583134",
            "state": "Karnataka",
            "country_code": "IN"
        },
        "images": [
            {
                "about": "All",
                "link": "https://lh5.googleusercontent.com/p/AF1QipPKOtySA4hLjGCTNohjHVgqC73GXaXE3nHuLO2Q=w397-h298-k-no"
            },
            {
                "about": "Street View & 360deg",
                "link": "https://streetviewpixels-pa.googleapis.com/v1/thumbnail?panoid=DPTfDieBW4o-DduFBu_b9g&cb_client=maps_sv.tactile.gps&w=224&h=298&yaw=125.73189&pitch=0&thumbfov=100"
            }
        ],
        "link": "https://www.google.com/maps/place/Bilal+masjid/data=!4m7!3m6!1s0x3bb9ef7544509313:0x71d2ddd0cab6e95c!8m2!3d14.8162283!4d76.2294188!16s%2Fg%2F11qnz55ths!19sChIJE5NQRHXvuTsRXOm2ytDd0nE?authuser=0&hl=en&rclk=1",
        "coordinates": {
            "latitude": 14.816228299999999,
            "longitude": 76.22941879999999
        }
    },
    {
        "name": "Masjid A Mubarak",
        "main_category": "Mosque",
        "address": "R6FG+VVG Masjid A Mubarak, Kotturu, Karnataka 583134",
        "detailed_address": {
            "ward": null,
            "street": "R6FG+VVG",
            "city": "Kotturu",
            "postal_code": "583134",
            "state": "Karnataka",
            "country_code": "IN"
        },
        "images": [
            {
                "about": "All",
                "link": "https://lh5.googleusercontent.com/p/AF1QipNuB3zwKuOnfdrZyn_b9g6cUzMblUYM30_nP_Dv=w224-h485-k-no"
            },
            {
                "about": "Street View & 360deg",
                "link": "https://streetviewpixels-pa.googleapis.com/v1/thumbnail?panoid=GhVUrN8TPCnXaVrKGLUNCg&cb_client=maps_sv.tactile.gps&w=224&h=298&yaw=185.12787&pitch=0&thumbfov=100"
            }
        ],
        "link": "https://www.google.com/maps/place/Masjid+A+Mubarak/data=!4m7!3m6!1s0x3bb9efb57a3bed7f:0x96893b2147b5d61e!8m2!3d14.8246924!4d76.2272158!16s%2Fg%2F11hb03jrl6!19sChIJf-07erXvuTsRHta1RyE7iZY?authuser=0&hl=en&rclk=1",
        "coordinates": {
            "latitude": 14.8246924,
            "longitude": 76.2272158
        }
    },
    {
        "name": "Masjid-e-Zainab (Dawat-o-Tabligh)",
        "main_category": "Mosque",
        "address": "Masjid-e-Zainab (Dawat-o-Tabligh), Kotturu road, Harapanahalli, Karnataka 583131",
        "detailed_address": {
            "ward": null,
            "street": "Kotturu road",
            "city": "Harapanahalli",
            "postal_code": "583131",
            "state": "Karnataka",
            "country_code": "IN"
        },
        "images": [],
        "link": "https://www.google.com/maps/place/Masjid-e-Zainab+%28Dawat-o-Tabligh%29/data=!4m7!3m6!1s0x3bb98db2964ee7c5:0x28d1d31f4ea332cf!8m2!3d14.781281!4d76.0029057!16s%2Fg%2F11mq64t5pp!19sChIJxedOlrKNuTsRzzKjTh_T0Sg?authuser=0&hl=en&rclk=1",
        "coordinates": {
            "latitude": 14.781281,
            "longitude": 76.0029057
        }
    },
    {
        "name": "Masjid-al-hasnaine kottur",
        "main_category": "Mosque",
        "address": "Q6R8+QCH Masjid-al-hasnaine kottur, Kotturu, Karnataka 583134",
        "detailed_address": {
            "ward": null,
            "street": "Q6R8+QCH",
            "city": "Kotturu",
            "postal_code": "583134",
            "state": "Karnataka",
            "country_code": "IN"
        },
        "images": [
            {
                "about": "All",
                "link": "https://lh5.googleusercontent.com/p/AF1QipO2DGMw_G5MS3ka_lG2J84zeBwmR8R3rU2huhUd=w529-h298-k-no"
            }
        ],
        "link": "https://www.google.com/maps/place/Masjid-al-hasnaine+kottur/data=!4m7!3m6!1s0x3bb9f12e8a02b799:0xe0bc9de06c857a7e!8m2!3d14.7919488!4d76.2161054!16s%2Fg%2F11l1m_fx75!19sChIJmbcCii7xuTsRfnqFbOCdvOA?authuser=0&hl=en&rclk=1",
        "coordinates": {
            "latitude": 14.7919488,
            "longitude": 76.2161054
        }
    },
    {
        "name": "masjid hakimji wali",
        "main_category": "Mosque",
        "address": "masjid hakimji wali, 1764, Gali Mata Wali, Vaidwara, Roshanpura, Chandni Chowk, New Delhi, Delhi, 110006",
        "detailed_address": {
            "ward": "Vaidwara, Roshanpura, Chandni Chowk",
            "street": "1764, Gali Mata Wali",
            "city": "New Delhi, Delhi",
            "postal_code": "110006",
            "state": "Delhi",
            "country_code": "IN"
        },
        "images": [],
        "link": "https://www.google.com/maps/place/masjid+hakimji+wali/data=!4m7!3m6!1s0x390cfdb134dc4aa5:0xddb35101fa9fc2df!8m2!3d28.6532724!4d77.2294861!16s%2Fg%2F11t045_65k!19sChIJpUrcNLH9DDkR38Kf-gFRs90?authuser=0&hl=en&rclk=1",
        "coordinates": {
            "latitude": 28.6532724,
            "longitude": 77.2294861
        }
    },
    {
        "name": "MASJID-E-JAMIYA",
        "main_category": "Mosque",
        "address": "R775+739 MASJID-E-JAMIYA, Kotturu - Banavikallu Rd, Kodihalli, Karnataka 583134",
        "detailed_address": {
            "ward": null,
            "street": "R775+739, Kotturu - Banavikallu Rd",
            "city": "Kodihalli",
            "postal_code": null,
            "state": "Karnataka",
            "country_code": "IN"
        },
        "images": [],
        "link": "https://www.google.com/maps/place/MASJID-E-JAMIYA/data=!4m7!3m6!1s0x3bb9ef540dad9b99:0x3f63184d9660a223!8m2!3d14.8131712!4d76.2577397!16s%2Fg%2F11sqh_b2sq!19sChIJmZutDVTvuTsRI6Jglk0YYz8?authuser=0&hl=en&rclk=1",
        "coordinates": {
            "latitude": 14.8131712,
            "longitude": 76.2577397
        }
    }
]