[
    {
        "name": "madeena masjid",
        "main_category": "Mosque",
        "address": "MQ3V+PWW madeena masjid, Sausar, Madhya Pradesh 480106",
        "detailed_address": {
            "ward": null,
            "street": "MQ3V+PWW",
            "city": "Sausar",
            "postal_code": "480106",
            "state": "Madhya Pradesh",
            "country_code": "IN"
        },
        "images": [
            {
                "about": "All",
                "link": "https://lh5.googleusercontent.com/p/AF1QipNsq1MMFldghQNXQ36KXo28RahWRnvfrPBvSgMT=w397-h298-k-no"
            },
            {
                "about": "Street View & 360deg",
                "link": "https://streetviewpixels-pa.googleapis.com/v1/thumbnail?panoid=6lVOJ2RSc8wJy1OVrtrmAA&cb_client=maps_sv.tactile.gps&w=224&h=298&yaw=182.93071&pitch=0&thumbfov=100"
            }
        ],
        "link": "https://www.google.com/maps/place/madeena+masjid/data=!4m7!3m6!1s0x3bd505778e5e008d:0xde1a9c53bbcdd8b0!8m2!3d21.6543632!4d78.7948234!16s%2Fg%2F11bxdvt50m!19sChIJjQBejncF1TsRsNjNu1OcGt4?authuser=0&hl=en&rclk=1",
        "coordinates": {
            "latitude": 21.6543632,
            "longitude": 78.7948234
        }
    },
    {
        "name": "Gharib Nawaz Masjid",
        "main_category": "Mosque",
        "address": "JQVW+G7H Gharib Nawaz Masjid, Chhindwara Rd, Gajana Colony, Gawande Colony, Sausar, Madhya Pradesh 480106",
        "detailed_address": {
            "ward": "Gajana Colony, Gawande Colony",
            "street": "JQVW+G7H, Chhindwara Rd",
            "city": "Sausar",
            "postal_code": "480106",
            "state": "Madhya Pradesh",
            "country_code": "IN"
        },
        "images": [
            {
                "about": "All",
                "link": "https://streetviewpixels-pa.googleapis.com/v1/thumbnail?panoid=usZKrARw35S3_kVA-rkHnw&cb_client=maps_sv.tactile.gps&w=224&h=298&yaw=270.47806&pitch=0&thumbfov=100"
            },
            {
                "about": "Street View & 360deg",
                "link": "https://streetviewpixels-pa.googleapis.com/v1/thumbnail?panoid=usZKrARw35S3_kVA-rkHnw&cb_client=maps_sv.tactile.gps&w=224&h=298&yaw=270.47806&pitch=0&thumbfov=100"
            }
        ],
        "link": "https://www.google.com/maps/place/Gharib+Nawaz+Masjid/data=!4m7!3m6!1s0x3bd50575283825d7:0xc39cc1358b1a19da!8m2!3d21.6438161!4d78.7957265!16s%2Fg%2F11c2nhnc4r!19sChIJ1yU4KHUF1TsR2hkaizXBnMM?authuser=0&hl=en&rclk=1",
        "coordinates": {
            "latitude": 21.6438161,
            "longitude": 78.7957265
        }
    },
    {
        "name": "Madarsa Islamiya",
        "main_category": "Mosque",
        "address": "MR52+7G9 Madarsa Islamiya, Sausar, Madhya Pradesh 480106",
        "detailed_address": {
            "ward": null,
            "street": "MR52+7G9",
            "city": "Sausar",
            "postal_code": "480106",
            "state": "Madhya Pradesh",
            "country_code": "IN"
        },
        "images": [],
        "link": "https://www.google.com/maps/place/Madarsa+Islamiya/data=!4m7!3m6!1s0x3bd5057a553fd1e7:0x712bb7f7939d6af!8m2!3d21.6581508!4d78.8013526!16s%2Fg%2F11c702skh2!19sChIJ59E_VXoF1TsRr9Y5eX-7Egc?authuser=0&hl=en&rclk=1",
        "coordinates": {
            "latitude": 21.658150799999998,
            "longitude": 78.8013526
        }
    },
    {
        "name": "Masjid Muhammadi Ahle hadees",
        "main_category": "Mosque",
        "address": "JQXW+3RR Masjid Muhammadi Ahle hadees, shivaji chowk, Sausar, Madhya Pradesh 480106",
        "detailed_address": {
            "ward": "shivaji chowk",
            "street": "JQXW+3RR",
            "city": "Sausar",
            "postal_code": "480106",
            "state": "Madhya Pradesh",
            "country_code": "IN"
        },
        "images": [
            {
                "about": "All",
                "link": "https://streetviewpixels-pa.googleapis.com/v1/thumbnail?panoid=iwJesrd8_IfNfoSV-n6yzQ&cb_client=maps_sv.tactile.gps&w=224&h=298&yaw=180.3477&pitch=0&thumbfov=100"
            },
            {
                "about": "Street View & 360deg",
                "link": "https://streetviewpixels-pa.googleapis.com/v1/thumbnail?panoid=iwJesrd8_IfNfoSV-n6yzQ&cb_client=maps_sv.tactile.gps&w=224&h=298&yaw=180.3477&pitch=0&thumbfov=100"
            }
        ],
        "link": "https://www.google.com/maps/place/Masjid+Muhammadi+Ahle+hadees/data=!4m7!3m6!1s0x3bd5057421ab1553:0x505d6e8034e37319!8m2!3d21.6477432!4d78.7970049!16s%2Fg%2F11csccqqzp!19sChIJUxWrIXQF1TsRGXPjNIBuXVA?authuser=0&hl=en&rclk=1",
        "coordinates": {
            "latitude": 21.6477432,
            "longitude": 78.79700489999999
        }
    },
    {
        "name": "Idgah",
        "main_category": "Mosque",
        "address": "MQ8W+8GF Idgah, Sausar, Madhya Pradesh 480106",
        "detailed_address": {
            "ward": null,
            "street": "MQ8W+8GF",
            "city": "Sausar",
            "postal_code": null,
            "state": "Madhya Pradesh",
            "country_code": "IN"
        },
        "images": [],
        "link": "https://www.google.com/maps/place/Idgah/data=!4m7!3m6!1s0x3bd5051cbb688fbd:0x720b0a7b64adaa9!8m2!3d21.665818!4d78.7962865!16s%2Fg%2F11mvm8pb4l!19sChIJvY9ouxwF1TsRqdpKtqewIAc?authuser=0&hl=en&rclk=1",
        "coordinates": {
            "latitude": 21.665817999999998,
            "longitude": 78.7962865
        }
    },
    {
        "name": "Jama Masjid sausar",
        "main_category": "Mosque",
        "address": "MQ4X+J4Q Jama Masjid sausar, Sausar, Madhya Pradesh 480106",
        "detailed_address": {
            "ward": null,
            "street": "MQ4X+J4Q",
            "city": "Sausar",
            "postal_code": "480106",
            "state": "Madhya Pradesh",
            "country_code": "IN"
        },
        "images": [
            {
                "about": "All",
                "link": "https://streetviewpixels-pa.googleapis.com/v1/thumbnail?panoid=Th3XbL1QFQ6d8FIxCR1QPg&cb_client=maps_sv.tactile.gps&w=224&h=298&yaw=138.04219&pitch=0&thumbfov=100"
            },
            {
                "about": "Street View & 360deg",
                "link": "https://streetviewpixels-pa.googleapis.com/v1/thumbnail?panoid=Th3XbL1QFQ6d8FIxCR1QPg&cb_client=maps_sv.tactile.gps&w=224&h=298&yaw=138.04219&pitch=0&thumbfov=100"
            }
        ],
        "link": "https://www.google.com/maps/place/Jama+Masjid+sausar/data=!4m7!3m6!1s0x3bd505b53efbe25b:0xda5a3641d195c361!8m2!3d21.6565957!4d78.7978642!16s%2Fg%2F11nmt7nn0s!19sChIJW-L7PrUF1TsRYcOV0UE2Wto?authuser=0&hl=en&rclk=1",
        "coordinates": {
            "latitude": 21.6565957,
            "longitude": 78.79786419999999
        }
    },
    {
        "name": "Jama Masjid",
        "main_category": "Mosque",
        "address": "MQ4W+H3J Jama Masjid, Unnamed Road, Sausar, Madhya Pradesh 480106",
        "detailed_address": {
            "ward": null,
            "street": "MQ4W+H3J, Unnamed Road",
            "city": "Sausar",
            "postal_code": "480106",
            "state": "Madhya Pradesh",
            "country_code": "IN"
        },
        "images": [
            {
                "about": "All",
                "link": "https://streetviewpixels-pa.googleapis.com/v1/thumbnail?panoid=pOgZXUhN1Hje3W1bO1VBow&cb_client=maps_sv.tactile.gps&w=224&h=298&yaw=71.34426&pitch=0&thumbfov=100"
            },
            {
                "about": "Street View & 360deg",
                "link": "https://streetviewpixels-pa.googleapis.com/v1/thumbnail?panoid=pOgZXUhN1Hje3W1bO1VBow&cb_client=maps_sv.tactile.gps&w=224&h=298&yaw=71.34426&pitch=0&thumbfov=100"
            }
        ],
        "link": "https://www.google.com/maps/place/Jama+Masjid/data=!4m7!3m6!1s0x3bd505046dc848bd:0x659645f0156022d7!8m2!3d21.6564677!4d78.7951324!16s%2Fg%2F11fkf2lhrd!19sChIJvUjIbQQF1TsR1yJgFfBFlmU?authuser=0&hl=en&rclk=1",
        "coordinates": {
            "latitude": 21.6564677,
            "longitude": 78.7951324
        }
    },
    {
        "name": "Masjid (Ahle Sunnat Wal Jama'at)",
        "main_category": "Mosque",
        "address": "MQ6X+2M2 Masjid (Ahle Sunnat Wal Jama'at), Sausar, Madhya Pradesh 480106",
        "detailed_address": {
            "ward": null,
            "street": "MQ6X+2M2",
            "city": "Sausar",
            "postal_code": "480106",
            "state": "Madhya Pradesh",
            "country_code": "IN"
        },
        "images": [
            {
                "about": "All",
                "link": "https://streetviewpixels-pa.googleapis.com/v1/thumbnail?panoid=JprF6cQ0dzasbZX2SXibOw&cb_client=maps_sv.tactile.gps&w=224&h=298&yaw=2.8715632&pitch=0&thumbfov=100"
            },
            {
                "about": "Latest",
                "link": "https://lh5.googleusercontent.com/p/AF1QipMIRKboOElH2lyjTLiiEUdmJS1dAE9aJythYssJ=w224-h398-k-no"
            },
            {
                "about": "Street View & 360deg",
                "link": "https://streetviewpixels-pa.googleapis.com/v1/thumbnail?panoid=JprF6cQ0dzasbZX2SXibOw&cb_client=maps_sv.tactile.gps&w=224&h=298&yaw=2.8715632&pitch=0&thumbfov=100"
            }
        ],
        "link": "https://www.google.com/maps/place/Masjid+%28Ahle+Sunnat+Wal+Jama%27at%29/data=!4m7!3m6!1s0x3bd5057be5af1467:0x4c4a3f2194c49aa5!8m2!3d21.6600239!4d78.7991349!16s%2Fg%2F11g9fqmzqg!19sChIJZxSv5XsF1TsRpZrElCE_Skw?authuser=0&hl=en&rclk=1",
        "coordinates": {
            "latitude": 21.6600239,
            "longitude": 78.7991349
        }
    }
]