[
    {
        "name": "Makka Masjid Nokha",
        "main_category": "Mosque",
        "address": "HF3H+5CQ Makka Masjid Nokha, Ward no 19, Nokha, Rajasthan 334803",
        "detailed_address": {
            "ward": "Ward no 19",
            "street": "HF3H+5CQ",
            "city": "Nokha",
            "postal_code": "334803",
            "state": "Rajasthan",
            "country_code": "IN"
        },
        "images": [
            {
                "about": "All",
                "link": "https://lh5.googleusercontent.com/p/AF1QipMZPMcT0m-jd7AcHlhDE_g9BuB4MCKMwIzhsTp9=w660-h298-k-no"
            },
            {
                "about": "Street View & 360deg",
                "link": "https://streetviewpixels-pa.googleapis.com/v1/thumbnail?panoid=i7W4K5vUA4mDazO3kcVO_g&cb_client=maps_sv.tactile.gps&w=224&h=298&yaw=337.00885&pitch=0&thumbfov=100"
            }
        ],
        "link": "https://www.google.com/maps/place/Makka+Masjid+Nokha/data=!4m7!3m6!1s0x396aa9c29655c223:0xeb049d16786bfef5!8m2!3d27.5529653!4d73.4785966!16s%2Fg%2F11gb3z2jc_!19sChIJI8JVlsKpajkR9f5reBadBOs?authuser=0&hl=en&rclk=1",
        "coordinates": {
            "latitude": 27.5529653,
            "longitude": 73.4785966
        }
    },
    {
        "name": "Jama Masjid Nokha",
        "main_category": "Mosque",
        "address": "4448+5W4 Jama Masjid Nokha, Garh Nokha, Bihar 802215",
        "detailed_address": {
            "ward": null,
            "street": "4448+5W4",
            "city": "Garh Nokha",
            "postal_code": "802215",
            "state": "Bihar",
            "country_code": "IN"
        },
        "images": [
            {
                "about": "All",
                "link": "https://lh5.googleusercontent.com/p/AF1QipPXnY0pbsa-RCwhJj28lYtPSyICsk6QaMLTZF6h=w224-h497-k-no"
            }
        ],
        "link": "https://www.google.com/maps/place/Jama+Masjid+Nokha/data=!4m7!3m6!1s0x398da33c81619f1b:0x6a2b7c4ccbbdd5b6!8m2!3d25.1053961!4d84.1173397!16s%2Fg%2F11bwhbgfbh!19sChIJG59hgTyjjTkRttW9y0x8K2o?authuser=0&hl=en&rclk=1",
        "coordinates": {
            "latitude": 25.1053961,
            "longitude": 84.1173397
        }
    },
    {
        "name": "Noori masjid garh nokha",
        "main_category": "Mosque",
        "address": "4447+V5C Noori masjid garh nokha, Garh Nokha, Bihar 802215",
        "detailed_address": {
            "ward": null,
            "street": "4447+V5C",
            "city": "Garh Nokha",
            "postal_code": "802215",
            "state": "Bihar",
            "country_code": "IN"
        },
        "images": [
            {
                "about": "All",
                "link": "https://lh5.googleusercontent.com/p/AF1QipOdCL8ZTXh2BSDVF8VimVO8fw49vVyIU_ekSTkf=w224-h398-k-no"
            },
            {
                "about": "Dome",
                "link": "https://lh5.googleusercontent.com/p/AF1QipMoE4kUt-YTJvp2BIiRzO-Pcv38UFRoetvS1pdb=w224-h398-k-no"
            },
            {
                "about": "Street View & 360deg",
                "link": "https://streetviewpixels-pa.googleapis.com/v1/thumbnail?panoid=HFRE_ZxhszWRjmo5yXzjiQ&cb_client=maps_sv.tactile.gps&w=224&h=298&yaw=359.3967&pitch=0&thumbfov=100"
            }
        ],
        "link": "https://www.google.com/maps/place/Noori+masjid+garh+nokha/data=!4m7!3m6!1s0x398da33ab7457727:0x750328f5674a0582!8m2!3d25.1071912!4d84.1128801!16s%2Fg%2F11c5_dv1fh!19sChIJJ3dFtzqjjTkRggVKZ_UoA3U?authuser=0&hl=en&rclk=1",
        "coordinates": {
            "latitude": 25.1071912,
            "longitude": 84.1128801
        }
    },
    {
        "name": "Madeena Jama Masjid mdiinaa jaamaa msjid",
        "main_category": "Mosque",
        "address": "HF2F+VQR Madeena Jama Masjid mdiinaa jaamaa msjid, Bus Stand Rd, Nokha, Rajasthan 334803",
        "detailed_address": {
            "ward": null,
            "street": "HF2F+VQR, Bus Stand Rd",
            "city": "Nokha",
            "postal_code": "334803",
            "state": "Rajasthan",
            "country_code": "IN"
        },
        "images": [
            {
                "about": "All",
                "link": "https://lh5.googleusercontent.com/p/AF1QipMRgUbNGK35GZeKlzG4VvnrDjG0IcWzHRnHFSer=w397-h298-k-no"
            },
            {
                "about": "Street View & 360deg",
                "link": "https://streetviewpixels-pa.googleapis.com/v1/thumbnail?panoid=heidddHdhVXEeNRQeLUKmg&cb_client=maps_sv.tactile.gps&w=224&h=298&yaw=276.54007&pitch=0&thumbfov=100"
            }
        ],
        "link": "https://www.google.com/maps/place/Madeena+Jama+Masjid+%E0%A4%AE%E0%A4%A6%E0%A5%80%E0%A4%A8%E0%A4%BE+%E0%A4%9C%E0%A4%BE%E0%A4%AE%E0%A4%BE+%E0%A4%AE%E0%A4%B8%E0%A5%8D%E0%A4%9C%E0%A4%BF%E0%A4%A6/data=!4m7!3m6!1s0x396aa96d1dcd6861:0xd4e60e602f7a2d9f!8m2!3d27.5522469!4d73.4743839!16s%2Fg%2F11fsvn702y!19sChIJYWjNHW2pajkRny16L2AO5tQ?authuser=0&hl=en&rclk=1",
        "coordinates": {
            "latitude": 27.5522469,
            "longitude": 73.47438389999999
        }
    },
    {
        "name": "Masjid Desalsar Nokha",
        "main_category": "Mosque",
        "address": "M823+RP Masjid Desalsar Nokha, Desalsar Mandlawatan, Rajasthan 334801",
        "detailed_address": {
            "ward": null,
            "street": "M823+RP",
            "city": "Desalsar Mandlawatan",
            "postal_code": null,
            "state": "Rajasthan",
            "country_code": "IN"
        },
        "images": [],
        "link": "https://www.google.com/maps/place/Masjid+Desalsar+Nokha/data=!4m7!3m6!1s0x393ff957da304b21:0x66e066027d3081cd!8m2!3d27.6520802!4d73.3042899!16s%2Fg%2F11tnhwjwx_!19sChIJIUsw2lf5PzkRzYEwfQJm4GY?authuser=0&hl=en&rclk=1",
        "coordinates": {
            "latitude": 27.6520802,
            "longitude": 73.3042899
        }
    }
]