[
    {
        "name": "Madeena Masjid,Barkatpura",
        "main_category": "Mosque",
        "address": "VJ2C+CJ8 Madeena Masjid,Barkatpura, Barkatpura St, Dubbawada, Metpally, Telangana 505325",
        "detailed_address": {
            "ward": "Dubbawada",
            "street": "VJ2C+CJ8, Barkatpura St",
            "city": "Metpally",
            "postal_code": "505325",
            "state": "Telangana",
            "country_code": "IN"
        },
        "images": [
            {
                "about": "All",
                "link": "https://lh5.googleusercontent.com/p/AF1QipM55Xqu4sJhcCIZzgtWWHMZDqKUyFC0nBac0Lku=w662-h298-k-no"
            },
            {
                "about": "Street View & 360deg",
                "link": "https://streetviewpixels-pa.googleapis.com/v1/thumbnail?panoid=SJROjX9oCZtz7zKDrQqt4Q&cb_client=maps_sv.tactile.gps&w=224&h=298&yaw=250.63751&pitch=0&thumbfov=100"
            },
            {
                "about": "Videos",
                "link": "https://lh5.googleusercontent.com/p/AF1QipN9YdjUZWZQPgNxKy3jbOhTUJwD-djnA3oFOIrM=w238-h298-k-no"
            }
        ],
        "link": "https://www.google.com/maps/place/Madeena+Masjid,Barkatpura/data=!4m7!3m6!1s0x3bcd9f8feb4782d9:0xb985019cba454c75!8m2!3d18.8510436!4d78.6215866!16s%2Fg%2F11b6gqfh12!19sChIJ2YJH64-fzTsRdUxFupwBhbk?authuser=0&hl=en&rclk=1",
        "coordinates": {
            "latitude": 18.8510436,
            "longitude": 78.6215866
        }
    },
    {
        "name": "jama masjid",
        "main_category": "Mosque",
        "address": "3P2J+4RC jama masjid, Yelagadapa, Telangana 504202",
        "detailed_address": {
            "ward": null,
            "street": "3P2J+4RC",
            "city": "Yelagadapa",
            "postal_code": "504202",
            "state": "Telangana",
            "country_code": "IN"
        },
        "images": [
            {
                "about": "All",
                "link": "https://lh5.googleusercontent.com/p/AF1QipO7cPLYui7C6UudwUVw6MRBPllCPeLh8JyKdNzw=w529-h298-k-no"
            },
            {
                "about": "Dome",
                "link": "https://lh5.googleusercontent.com/p/AF1QipPzjIl6Jm0F__TjrtjKjxDKVJroE005VvewekiR=w328-h298-k-no"
            },
            {
                "about": "Videos",
                "link": "https://lh5.googleusercontent.com/p/AF1QipMrE73PQgGYT0thdoboMJ7BfOKP679aZviGf1G8=w224-h398-k-no"
            },
            {
                "about": "Street View & 360deg",
                "link": "https://streetviewpixels-pa.googleapis.com/v1/thumbnail?panoid=WZuRZH5CceJn0YArfbAZQw&cb_client=maps_sv.tactile.gps&w=224&h=298&yaw=315.44012&pitch=0&thumbfov=100"
            }
        ],
        "link": "https://www.google.com/maps/place/jama+masjid/data=!4m7!3m6!1s0x3bcd79ec3d5fa82f:0x5849790fa812b908!8m2!3d19.0503033!4d78.7320086!16s%2Fg%2F11g6_c9vpr!19sChIJL6hfPex5zTsRCLkSqA95SVg?authuser=0&hl=en&rclk=1",
        "coordinates": {
            "latitude": 19.0503033,
            "longitude": 78.7320086
        }
    },
    {
        "name": "Masjid-E-Mohammadiya",
        "main_category": "Mosque",
        "address": "Masjid-E-Mohammadiya, 1, Nirmal - Mancherial Rd, Jannaram, Telangana 504205",
        "detailed_address": {
            "ward": null,
            "street": "1, Nirmal - Mancherial Rd",
            "city": "Jannaram",
            "postal_code": "504205",
            "state": "Telangana",
            "country_code": "IN"
        },
        "images": [],
        "link": "https://www.google.com/maps/place/Masjid-E-Mohammadiya/data=!4m7!3m6!1s0x3bcd673fccaa4f81:0xf85ddfa7fa77cdbb!8m2!3d19.1192404!4d78.9938765!16s%2Fg%2F11byvwzk4r!19sChIJgU-qzD9nzTsRu813-qffXfg?authuser=0&hl=en&rclk=1",
        "coordinates": {
            "latitude": 19.1192404,
            "longitude": 78.9938765
        }
    },
    {
        "name": "Jaama Masjid, Mamda",
        "main_category": "Mosque",
        "address": "3GGC+9GC Jaama Masjid, Mamda, Mamda, Telangana 504310",
        "detailed_address": {
            "ward": null,
            "street": "3GGC+9GC",
            "city": "Mamda",
            "postal_code": "504310",
            "state": "Telangana",
            "country_code": "IN"
        },
        "images": [
            {
                "about": "All",
                "link": "https://lh5.googleusercontent.com/p/AF1QipP4vSr4iJiSVhT33RJumXnTNBqXlau9Cgw1R3Dp=w529-h298-k-no"
            }
        ],
        "link": "https://www.google.com/maps/place/Jaama+Masjid,+Mamda/data=!4m7!3m6!1s0x3bcd8452b7de92af:0x925f85717a32a59b!8m2!3d19.0759378!4d78.5212573!16s%2Fg%2F11fxzlcl0s!19sChIJr5Let1KEzTsRm6UyenGFX5I?authuser=0&hl=en&rclk=1",
        "coordinates": {
            "latitude": 19.0759378,
            "longitude": 78.5212573
        }
    },
    {
        "name": "Jama Masjid",
        "main_category": "Mosque",
        "address": "Jama Masjid, Bus Station, Old, Utnur, Telangana 504311",
        "detailed_address": {
            "ward": "Sevadas Nagar",
            "street": "Bus Station, Old",
            "city": "Utnur",
            "postal_code": "504311",
            "state": "Telangana",
            "country_code": "IN"
        },
        "images": [
            {
                "about": "All",
                "link": "https://lh5.googleusercontent.com/p/AF1QipNgXmzFIiNb7KaR81NcbxAJRB6oTxPerNoIubTa=w224-h398-k-no"
            },
            {
                "about": "Street View & 360deg",
                "link": "https://streetviewpixels-pa.googleapis.com/v1/thumbnail?panoid=nj6ibS_16-ovKF3omhppBw&cb_client=maps_sv.tactile.gps&w=224&h=298&yaw=312.1434&pitch=0&thumbfov=100"
            }
        ],
        "link": "https://www.google.com/maps/place/Jama+Masjid/data=!4m7!3m6!1s0x3bd285b42543f7db:0xfbc9083caa3eda41!8m2!3d19.3679744!4d78.7738921!16s%2Fg%2F11c2p12cr7!19sChIJ2_dDJbSF0jsRQdo-qjwIyfs?authuser=0&hl=en&rclk=1",
        "coordinates": {
            "latitude": 19.367974399999998,
            "longitude": 78.7738921
        }
    },
    {
        "name": "MADINA MASJID",
        "main_category": "Mosque",
        "address": "WR54+PPR MADINA MASJID, Koratla - Raikal Rd, Raikal, Telangana 505460",
        "detailed_address": {
            "ward": null,
            "street": "WR54+PPR, Koratla - Raikal Rd",
            "city": "Raikal",
            "postal_code": "505460",
            "state": "Telangana",
            "country_code": "IN"
        },
        "images": [
            {
                "about": "All",
                "link": "https://streetviewpixels-pa.googleapis.com/v1/thumbnail?panoid=e5m2uI8wyuWda6t31lc4-w&cb_client=maps_sv.tactile.gps&w=224&h=298&yaw=182.1024&pitch=0&thumbfov=100"
            },
            {
                "about": "Street View & 360deg",
                "link": "https://streetviewpixels-pa.googleapis.com/v1/thumbnail?panoid=e5m2uI8wyuWda6t31lc4-w&cb_client=maps_sv.tactile.gps&w=224&h=298&yaw=182.1024&pitch=0&thumbfov=100"
            }
        ],
        "link": "https://www.google.com/maps/place/MADINA+MASJID/data=!4m7!3m6!1s0x3bcd724519552b49:0x197d4f7574cfd45a!8m2!3d18.9093503!4d78.8067678!16s%2Fg%2F11b6sn2_xq!19sChIJSStVGUVyzTsRWtTPdHVPfRk?authuser=0&hl=en&rclk=1",
        "coordinates": {
            "latitude": 18.9093503,
            "longitude": 78.8067678
        }
    },
    {
        "name": "Katkapur Mosque (kttkaapuur msiidu)",
        "main_category": "Mosque",
        "address": "XVVG+5RF Katkapur Mosque (kttkaapuur msiidu), near pond ( ceruvu dggr, Katkapur, Telangana 505460",
        "detailed_address": {
            "ward": null,
            "street": "XVVG+5RF, near pond ( ceruvu dggr",
            "city": "Katkapur",
            "postal_code": "505460",
            "state": "Telangana",
            "country_code": "IN"
        },
        "images": [
            {
                "about": "All",
                "link": "https://lh5.googleusercontent.com/p/AF1QipOCR9j9_LnbnAuultd6Yzgww-hDWgIraZIaWvGL=w529-h298-k-no"
            },
            {
                "about": "Dome",
                "link": "https://lh5.googleusercontent.com/p/AF1QipNYD2zZDYmXmTy1r4ReVJChyOc35PT_T3YXsKd3=w529-h298-k-no"
            },
            {
                "about": "By owner",
                "link": "https://lh5.googleusercontent.com/p/AF1QipNqkc1Yv-rBSyo4FhkdgOVMYVq9G1r5tzRrdaO8=w529-h298-k-no"
            }
        ],
        "link": "https://www.google.com/maps/place/Katkapur+Mosque+%28%E0%B0%95%E0%B0%9F%E0%B1%8D%E0%B0%95%E0%B0%BE%E0%B0%AA%E0%B1%82%E0%B0%B0%E0%B1%8D+%E0%B0%AE%E0%B0%B8%E0%B1%80%E0%B0%A6%E0%B1%81%29/data=!4m7!3m6!1s0x3bcd6fb4c94e53ab:0xa93ccc3c7b6ec293!8m2!3d18.9894705!4d78.8750372!16s%2Fg%2F11fhr7tfd0!19sChIJq1NOybRvzTsRk8JuezzMPKk?authuser=0&hl=en&rclk=1",
        "coordinates": {
            "latitude": 18.9894705,
            "longitude": 78.8750372
        }
    },
    {
        "name": "Masjide Fasiyoddin",
        "main_category": "Mosque",
        "address": "3GJF+67M Masjide Fasiyoddin, Mamda, Telangana 504310",
        "detailed_address": {
            "ward": null,
            "street": "3GJF+67M",
            "city": "Mamda",
            "postal_code": "504310",
            "state": "Telangana",
            "country_code": "IN"
        },
        "images": [],
        "link": "https://www.google.com/maps/place/Masjide+Fasiyoddin/data=!4m7!3m6!1s0x3bcd844cfe7a464f:0xc58abf5580d1fb20!8m2!3d19.0805774!4d78.5231638!16s%2Fg%2F11gd919v73!19sChIJT0Z6_kyEzTsRIPvRgFW_isU?authuser=0&hl=en&rclk=1",
        "coordinates": {
            "latitude": 19.0805774,
            "longitude": 78.52316379999999
        }
    },
    {
        "name": "Madina Masjid",
        "main_category": "Mosque",
        "address": "2JXR+2QJ Madina Masjid, Bellala Rd, Vidyanagar, Subhash nagar, Khanapur, Thimmapur, Telangana 504203",
        "detailed_address": {
            "ward": "Vidyanagar, Subhash nagar",
            "street": "2JXR+2QJ Madina Masjid, Bellala Rd",
            "city": "Khanapur, Thimmapur",
            "postal_code": "504203",
            "state": "Telangana",
            "country_code": "IN"
        },
        "images": [
            {
                "about": "All",
                "link": "https://streetviewpixels-pa.googleapis.com/v1/thumbnail?panoid=5nWarrv7h0IVaxVBGd1iOA&cb_client=maps_sv.tactile.gps&w=224&h=298&yaw=237.02626&pitch=0&thumbfov=100"
            },
            {
                "about": "Street View & 360deg",
                "link": "https://streetviewpixels-pa.googleapis.com/v1/thumbnail?panoid=5nWarrv7h0IVaxVBGd1iOA&cb_client=maps_sv.tactile.gps&w=224&h=298&yaw=237.02626&pitch=0&thumbfov=100"
            }
        ],
        "link": "https://www.google.com/maps/place/Madina+Masjid/data=!4m7!3m6!1s0x3bcd838576afb3b7:0x577acc4d6ab0d65d!8m2!3d19.0471158!4d78.6429724!16s%2Fg%2F11k2jqt9dc!19sChIJt7OvdoWDzTsRXdawak3Melc?authuser=0&hl=en&rclk=1",
        "coordinates": {
            "latitude": 19.0471158,
            "longitude": 78.64297239999999
        }
    },
    {
        "name": "Masjid-e-Abdullah",
        "main_category": "Mosque",
        "address": "3XR2+J23 Masjid-e-Abdullah, Jannaram - Kalamadugu Rd, Kalmadagu, Telangana 504205",
        "detailed_address": {
            "ward": null,
            "street": "3XR2+J23, Jannaram - Kalamadugu Rd",
            "city": "Kalmadagu",
            "postal_code": "504205",
            "state": "Telangana",
            "country_code": "IN"
        },
        "images": [
            {
                "about": "All",
                "link": "https://lh5.googleusercontent.com/p/AF1QipOvo_w25BNUkR6QwLBoSQWlYLE-F8vV2JpFpqZH=w529-h298-k-no"
            },
            {
                "about": "Videos",
                "link": "https://lh5.googleusercontent.com/p/AF1QipMp4uSDSodWbXNP4k8QvYtA62lWwcbTMV1okx9r=w298-h298-k-no"
            }
        ],
        "link": "https://www.google.com/maps/place/Masjid-e-Abdullah/data=!4m7!3m6!1s0x3bcd6660227f8177:0xe67839b827ba0ea4!8m2!3d19.0915155!4d78.9500358!16s%2Fg%2F11hbc1vfry!19sChIJd4F_ImBmzTsRpA66J7g5eOY?authuser=0&hl=en&rclk=1",
        "coordinates": {
            "latitude": 19.0915155,
            "longitude": 78.9500358
        }
    },
    {
        "name": "Masjid-e-Nabawi",
        "main_category": "Mosque",
        "address": "3M39+9HV Masjid-e-Nabawi, Dilawarpur Rd, Dilawarpur, Dilwarpur, Telangana 504203",
        "detailed_address": {
            "ward": null,
            "street": "3M39+9HV, Dilawarpur Rd",
            "city": "Dilawarpur, Dilwarpur",
            "postal_code": "504203",
            "state": "Telangana",
            "country_code": "IN"
        },
        "images": [
            {
                "about": "All",
                "link": "https://lh5.googleusercontent.com/p/AF1QipPpgIV5G_5tifIPRPNEPHzmpeau_bsK7vONX1mu=w397-h298-k-no"
            },
            {
                "about": "Street View & 360deg",
                "link": "https://streetviewpixels-pa.googleapis.com/v1/thumbnail?panoid=5hTwZmZr5c-KMUcWDMADGQ&cb_client=maps_sv.tactile.gps&w=224&h=298&yaw=171.65572&pitch=0&thumbfov=100"
            }
        ],
        "link": "https://www.google.com/maps/place/Masjid-e-Nabawi/data=!4m7!3m6!1s0x3bcd79c0659a9051:0xf6f7fe363db8997d!8m2!3d19.0534835!4d78.6689104!16s%2Fg%2F11jhygrlt6!19sChIJUZCaZcB5zTsRfZm4PTb-9_Y?authuser=0&hl=en&rclk=1",
        "coordinates": {
            "latitude": 19.0534835,
            "longitude": 78.6689104
        }
    },
    {
        "name": "mosque",
        "main_category": "Mosque",
        "address": "WQP8+PM6 mosque, Regunta, Telangana 505331",
        "detailed_address": {
            "ward": null,
            "street": "WQP8+PM6",
            "city": "Regunta",
            "postal_code": null,
            "state": "Telangana",
            "country_code": "IN"
        },
        "images": [],
        "link": "https://www.google.com/maps/place/mosque/data=!4m7!3m6!1s0x3bcd73e110000001:0xd250bf53bfc9418c!8m2!3d18.9367927!4d78.7666317!16s%2Fg%2F11gfm8l9dz!19sChIJAQAAEOFzzTsRjEHJv1O_UNI?authuser=0&hl=en&rclk=1",
        "coordinates": {
            "latitude": 18.936792699999998,
            "longitude": 78.76663169999999
        }
    },
    {
        "name": "Mosque",
        "main_category": "Mosque",
        "address": "Mosque, Kadam Project, Kannapur, Telangana 504202",
        "detailed_address": {
            "ward": null,
            "street": null,
            "city": "Kadam Project, Kannapur",
            "postal_code": null,
            "state": "Telangana",
            "country_code": "IN"
        },
        "images": [
            {
                "about": "All",
                "link": "https://lh5.googleusercontent.com/p/AF1QipO1OlYO9RzRQKlxFdXVS0yZ9KA9nft13EhotUjH=w397-h298-k-no"
            },
            {
                "about": "Street View & 360deg",
                "link": "https://streetviewpixels-pa.googleapis.com/v1/thumbnail?panoid=UoMifD-RlQsq1hWydNKGKA&cb_client=maps_sv.tactile.gps&w=224&h=298&yaw=347.81848&pitch=0&thumbfov=100"
            }
        ],
        "link": "https://www.google.com/maps/place/Mosque/data=!4m7!3m6!1s0x3bcd7bbcda484eed:0xe286da12f76e31fe!8m2!3d19.1018044!4d78.7807716!16s%2Fg%2F1hm2txbq6!19sChIJ7U5I2rx7zTsR_jFu9xLahuI?authuser=0&hl=en&rclk=1",
        "coordinates": {
            "latitude": 19.1018044,
            "longitude": 78.7807716
        }
    },
    {
        "name": "mohammadiya masjid",
        "main_category": "Mosque",
        "address": "2PXJ+CQ7 mohammadiya masjid, Yelagadapa, Telangana 504202",
        "detailed_address": {
            "ward": null,
            "street": "2PXJ+CQ7",
            "city": "Yelagadapa",
            "postal_code": "504202",
            "state": "Telangana",
            "country_code": "IN"
        },
        "images": [
            {
                "about": "All",
                "link": "https://streetviewpixels-pa.googleapis.com/v1/thumbnail?panoid=Ur1bh_SFJf0VqF6SP-sPZg&cb_client=maps_sv.tactile.gps&w=224&h=298&yaw=340.75418&pitch=0&thumbfov=100"
            },
            {
                "about": "Street View & 360deg",
                "link": "https://streetviewpixels-pa.googleapis.com/v1/thumbnail?panoid=Ur1bh_SFJf0VqF6SP-sPZg&cb_client=maps_sv.tactile.gps&w=224&h=298&yaw=340.75418&pitch=0&thumbfov=100"
            }
        ],
        "link": "https://www.google.com/maps/place/mohammadiya+masjid/data=!4m7!3m6!1s0x3bcd79eebda4377b:0xada75b3c1058bd41!8m2!3d19.0485421!4d78.7319151!16s%2Fg%2F11dxrwxb2j!19sChIJezekve55zTsRQb1YEDxbp60?authuser=0&hl=en&rclk=1",
        "coordinates": {
            "latitude": 19.0485421,
            "longitude": 78.7319151
        }
    },
    {
        "name": "MASJID E MAGHFIRATH",
        "main_category": "Mosque",
        "address": "2P84+648 MASJID E MAGHFIRATH, Ramrajupalli, Telangana 505331",
        "detailed_address": {
            "ward": null,
            "street": "2P84+648",
            "city": "Ramrajupalli",
            "postal_code": null,
            "state": "Telangana",
            "country_code": "IN"
        },
        "images": [
            {
                "about": "All",
                "link": "https://lh5.googleusercontent.com/p/AF1QipNFh9DVojCfMNN6FXLDI0zItxX_xX0WP9XvXJJm=w224-h473-k-no"
            },
            {
                "about": "Street View & 360deg",
                "link": "https://streetviewpixels-pa.googleapis.com/v1/thumbnail?panoid=ypTUzD3DiV-qhDJhzCjWkw&cb_client=maps_sv.tactile.gps&w=224&h=298&yaw=143.06729&pitch=0&thumbfov=100"
            }
        ],
        "link": "https://www.google.com/maps/place/MASJID+E+MAGHFIRATH/data=!4m7!3m6!1s0x3bcd7756ae1fb565:0xb332c29d5e6576f1!8m2!3d19.0155403!4d78.7053323!16s%2Fg%2F11ht6qybct!19sChIJZbUfrlZ3zTsR8XZlXp3CMrM?authuser=0&hl=en&rclk=1",
        "coordinates": {
            "latitude": 19.015540299999998,
            "longitude": 78.7053323
        }
    },
    {
        "name": "Choti Masjid",
        "main_category": "Mosque",
        "address": "Choti Masjid, 1, Nirmal - Mancherial Rd, Jannaram, Telangana 504205",
        "detailed_address": {
            "ward": null,
            "street": "1, Nirmal - Mancherial Rd",
            "city": "Jannaram",
            "postal_code": "504205",
            "state": "Telangana",
            "country_code": "IN"
        },
        "images": [
            {
                "about": "All",
                "link": "https://streetviewpixels-pa.googleapis.com/v1/thumbnail?panoid=Idh00paMelYeBIsU85mM7w&cb_client=maps_sv.tactile.gps&w=224&h=298&yaw=214.03764&pitch=0&thumbfov=100"
            },
            {
                "about": "Street View & 360deg",
                "link": "https://streetviewpixels-pa.googleapis.com/v1/thumbnail?panoid=Idh00paMelYeBIsU85mM7w&cb_client=maps_sv.tactile.gps&w=224&h=298&yaw=214.03764&pitch=0&thumbfov=100"
            }
        ],
        "link": "https://www.google.com/maps/place/Choti+Masjid/data=!4m7!3m6!1s0x3bcd673e34ac2f77:0xc32f71faf30d7a5f!8m2!3d19.1184965!4d78.9931769!16s%2Fg%2F11bw5mbvt0!19sChIJdy-sND5nzTsRX3oN8_pxL8M?authuser=0&hl=en&rclk=1",
        "coordinates": {
            "latitude": 19.1184965,
            "longitude": 78.9931769
        }
    },
    {
        "name": "Masjid E Abu Bakar",
        "main_category": "Mosque",
        "address": "2JXP+GVV Masjid E Abu Bakar, Nirmal - Mancherial Rd, Khanapur, Thimmapur, Telangana 504203",
        "detailed_address": {
            "ward": null,
            "street": "2JXP+GVV, Nirmal - Mancherial Rd",
            "city": "Khanapur, Thimmapur",
            "postal_code": "504203",
            "state": "Telangana",
            "country_code": "IN"
        },
        "images": [
            {
                "about": "All",
                "link": "https://streetviewpixels-pa.googleapis.com/v1/thumbnail?panoid=IcAUDzvDKqt1_MbvjLgIsA&cb_client=maps_sv.tactile.gps&w=224&h=298&yaw=292.50937&pitch=0&thumbfov=100"
            },
            {
                "about": "Street View & 360deg",
                "link": "https://streetviewpixels-pa.googleapis.com/v1/thumbnail?panoid=IcAUDzvDKqt1_MbvjLgIsA&cb_client=maps_sv.tactile.gps&w=224&h=298&yaw=292.50937&pitch=0&thumbfov=100"
            }
        ],
        "link": "https://www.google.com/maps/place/Masjid+E+Abu+Bakar/data=!4m7!3m6!1s0x3bcd838be7675037:0x1ecef2637bebf20c!8m2!3d19.0488678!4d78.6371746!16s%2Fg%2F11kyxhjk80!19sChIJN1Bn54uDzTsRDPLre2Pyzh4?authuser=0&hl=en&rclk=1",
        "coordinates": {
            "latitude": 19.0488678,
            "longitude": 78.6371746
        }
    },
    {
        "name": "MASJID-E-YAQOOB",
        "main_category": "Mosque",
        "address": "MASJID-E-YAQOOB, Bus Stand, Near, Khanapur, Telangana 504203",
        "detailed_address": {
            "ward": null,
            "street": "Bus Stand, Near",
            "city": "Khanapur",
            "postal_code": "504203",
            "state": "Telangana",
            "country_code": "IN"
        },
        "images": [
            {
                "about": "All",
                "link": "https://streetviewpixels-pa.googleapis.com/v1/thumbnail?panoid=I3pIPfFYoubgfm6NXZChSQ&cb_client=maps_sv.tactile.gps&w=224&h=298&yaw=143.42294&pitch=0&thumbfov=100"
            },
            {
                "about": "Street View & 360deg",
                "link": "https://streetviewpixels-pa.googleapis.com/v1/thumbnail?panoid=I3pIPfFYoubgfm6NXZChSQ&cb_client=maps_sv.tactile.gps&w=224&h=298&yaw=143.42294&pitch=0&thumbfov=100"
            }
        ],
        "link": "https://www.google.com/maps/place/MASJID-E-YAQOOB/data=!4m7!3m6!1s0x3bcd8352a87046d5:0xdf5258dbc7731492!8m2!3d19.0391692!4d78.6504292!16s%2Fg%2F11h7fm1krv!19sChIJ1UZwqFKDzTsRkhRzx9tYUt8?authuser=0&hl=en&rclk=1",
        "coordinates": {
            "latitude": 19.0391692,
            "longitude": 78.65042919999999
        }
    },
    {
        "name": "MASJID MANDAPALLY",
        "main_category": "Mosque",
        "address": "5J6M+9RQ MASJID MANDAPALLY, Mandapalle, Telangana 504203",
        "detailed_address": {
            "ward": null,
            "street": "5J6M+9RQ",
            "city": "Mandapalle",
            "postal_code": "504203",
            "state": "Telangana",
            "country_code": "IN"
        },
        "images": [
            {
                "about": "All",
                "link": "https://lh5.googleusercontent.com/p/AF1QipPJkXs-KvUYK0-Qai61xIf042SacAzbEIH9hpM2=w529-h298-k-no"
            },
            {
                "about": "Street View & 360deg",
                "link": "https://streetviewpixels-pa.googleapis.com/v1/thumbnail?panoid=V93N4Zo2HgwJd_wi9O5tPw&cb_client=maps_sv.tactile.gps&w=224&h=298&yaw=247.71721&pitch=0&thumbfov=100"
            }
        ],
        "link": "https://www.google.com/maps/place/MASJID+MANDAPALLY/data=!4m7!3m6!1s0x3bcd81bf89d808fb:0x96838058f2313d83!8m2!3d19.1609524!4d78.634599!16s%2Fg%2F11j0wdqpdx!19sChIJ-wjYib-BzTsRgz0x8liAg5Y?authuser=0&hl=en&rclk=1",
        "coordinates": {
            "latitude": 19.1609524,
            "longitude": 78.634599
        }
    },
    {
        "name": "masjid",
        "main_category": "Mosque",
        "address": "masjid, Maddipadaga, Telangana 504202",
        "detailed_address": {
            "ward": null,
            "street": null,
            "city": "Maddipadaga",
            "postal_code": "504202",
            "state": "Telangana",
            "country_code": "IN"
        },
        "images": [
            {
                "about": "All",
                "link": "https://lh5.googleusercontent.com/p/AF1QipPBAhATuAUiMM3bWDI2nhj_0pcfJo-TRC_99CxJ=w397-h298-k-no"
            },
            {
                "about": "By owner",
                "link": "https://lh5.googleusercontent.com/p/AF1QipPBAhATuAUiMM3bWDI2nhj_0pcfJo-TRC_99CxJ=w397-h298-k-no"
            },
            {
                "about": "Street View & 360deg",
                "link": "https://streetviewpixels-pa.googleapis.com/v1/thumbnail?panoid=cQMbSXPzICN93AxaMWA6zA&cb_client=maps_sv.tactile.gps&w=224&h=298&yaw=112.70996&pitch=0&thumbfov=100"
            }
        ],
        "link": "https://www.google.com/maps/place/masjid/data=!4m7!3m6!1s0x3bcd7a21c7cc2cbb:0xe9e11285f8ad7748!8m2!3d19.0577667!4d78.7512222!16s%2Fg%2F11fxxk97n4!19sChIJuyzMxyF6zTsRSHet-IUS4ek?authuser=0&hl=en&rclk=1",
        "coordinates": {
            "latitude": 19.0577667,
            "longitude": 78.7512222
        }
    },
    {
        "name": "Jama Masjid Kaddam",
        "main_category": "Mosque",
        "address": "4Q2J+H79 Jama Masjid Kaddam, Market Road, Kadam Project, Telangana 504202",
        "detailed_address": {
            "ward": null,
            "street": "4Q2J+H79, Market Road",
            "city": "Kadam Project",
            "postal_code": "504202",
            "state": "Telangana",
            "country_code": "IN"
        },
        "images": [
            {
                "about": "All",
                "link": "https://lh5.googleusercontent.com/p/AF1QipO1OlYO9RzRQKlxFdXVS0yZ9KA9nft13EhotUjH=w397-h298-k-no"
            },
            {
                "about": "Street View & 360deg",
                "link": "https://streetviewpixels-pa.googleapis.com/v1/thumbnail?panoid=8KRJEsUMM-Qryt1YKfTnmw&cb_client=maps_sv.tactile.gps&w=224&h=298&yaw=63.53963&pitch=0&thumbfov=100"
            },
            {
                "about": "Videos",
                "link": "https://lh5.googleusercontent.com/p/AF1QipPt9Oils_LH2dmaFR4Irf05HzdIiUV9ZKce21so=w224-h442-k-no"
            }
        ],
        "link": "https://www.google.com/maps/place/Jama+Masjid+Kaddam/data=!4m7!3m6!1s0x3bcd7b8a08ff16e3:0x7cb5de71052ef6fa!8m2!3d19.1014217!4d78.7807301!16s%2Fg%2F11fb0p26qc!19sChIJ4xb_CIp7zTsR-vYuBXHetXw?authuser=0&hl=en&rclk=1",
        "coordinates": {
            "latitude": 19.1014217,
            "longitude": 78.7807301
        }
    },
    {
        "name": "Masjid E Fatima Yousuf",
        "main_category": "Mosque",
        "address": "3WG8+XMP Masjid E Fatima Yousuf, Revojipet New, Revojipet (Old), Telangana 504202",
        "detailed_address": {
            "ward": null,
            "street": "3WG8+XMP",
            "city": "Revojipet New, Revojipet (Old)",
            "postal_code": "504202",
            "state": "Telangana",
            "country_code": "IN"
        },
        "images": [
            {
                "about": "All",
                "link": "https://lh5.googleusercontent.com/p/AF1QipN1p7OTMjxWJivvD3RWPioNyKiqrk_1CdlBVI5s=w529-h298-k-no"
            }
        ],
        "link": "https://www.google.com/maps/place/Masjid+E+Fatima+Yousuf/data=!4m7!3m6!1s0x3bcd6551fa8de007:0x1f6da9a6fdded8d8!8m2!3d19.0776595!4d78.9174451!16s%2Fg%2F11rmz_sv6c!19sChIJB-CN-lFlzTsR2Nje_aapbR8?authuser=0&hl=en&rclk=1",
        "coordinates": {
            "latitude": 19.0776595,
            "longitude": 78.9174451
        }
    },
    {
        "name": "MASJID E QUBA",
        "main_category": "Religious organization",
        "address": "3MF9+XHQ MASJID E QUBA, Nirmal - Mancherial Rd, Sathnapalle, Patha Yellapur, Telangana 504203",
        "detailed_address": {
            "ward": null,
            "street": "3MF9+XHQ, Nirmal - Mancherial Rd",
            "city": "Sathnapalle, Patha Yellapur",
            "postal_code": "504203",
            "state": "Telangana",
            "country_code": "IN"
        },
        "images": [
            {
                "about": "All",
                "link": "https://streetviewpixels-pa.googleapis.com/v1/thumbnail?panoid=ZHNvpSLQgpASYpr_vTKtHQ&cb_client=maps_sv.tactile.gps&w=224&h=298&yaw=10.236848&pitch=0&thumbfov=100"
            },
            {
                "about": "Street View & 360deg",
                "link": "https://streetviewpixels-pa.googleapis.com/v1/thumbnail?panoid=ZHNvpSLQgpASYpr_vTKtHQ&cb_client=maps_sv.tactile.gps&w=224&h=298&yaw=10.236848&pitch=0&thumbfov=100"
            }
        ],
        "link": "https://www.google.com/maps/place/MASJID+E+QUBA/data=!4m7!3m6!1s0x3bcd79d4e1edfa03:0x39f1bc98d2663e23!8m2!3d19.074966!4d78.6689897!16s%2Fg%2F11jmh9d8st!19sChIJA_rt4dR5zTsRIz5m0pi88Tk?authuser=0&hl=en&rclk=1",
        "coordinates": {
            "latitude": 19.074966,
            "longitude": 78.6689897
        }
    },
    {
        "name": "Jama Masjid",
        "main_category": "Mosque",
        "address": "3GCJ+95Q Jama Masjid, Kothasangvi(RC), Dimmadurthy, Telangana 504310",
        "detailed_address": {
            "ward": null,
            "street": "3GCJ+95Q",
            "city": "Kothasangvi(RC), Dimmadurthy",
            "postal_code": null,
            "state": "Telangana",
            "country_code": "IN"
        },
        "images": [],
        "link": "https://www.google.com/maps/place/Jama+Masjid/data=!4m7!3m6!1s0x3bcd8505e6c6eae1:0xd408ba91882127a3!8m2!3d19.070963!4d78.5304924!16s%2Fg%2F11t1dp83y3!19sChIJ4erG5gWFzTsRoychiJG6CNQ?authuser=0&hl=en&rclk=1",
        "coordinates": {
            "latitude": 19.070963,
            "longitude": 78.5304924
        }
    },
    {
        "name": "AL SAYYEDA AMENA MOUSQUE",
        "main_category": "Mosque",
        "address": "2M4C+M5F AL SAYYEDA AMENA MOUSQUE, Obulapur, Telangana 505331",
        "detailed_address": {
            "ward": null,
            "street": "2M4C+M5F",
            "city": "Obulapur",
            "postal_code": "505331",
            "state": "Telangana",
            "country_code": "IN"
        },
        "images": [],
        "link": "https://www.google.com/maps/place/AL+SAYYEDA+AMENA+MOUSQUE/data=!4m7!3m6!1s0x3bcd77b049a964b7:0xa52f8598b0b6b09e!8m2!3d19.0066967!4d78.6704081!16s%2Fg%2F11qpy96v5q!19sChIJt2SpSbB3zTsRnrC2sJiFL6U?authuser=0&hl=en&rclk=1",
        "coordinates": {
            "latitude": 19.0066967,
            "longitude": 78.6704081
        }
    },
    {
        "name": "Masjid",
        "main_category": "Mosque",
        "address": "WM27+H5P Masjid, Khanapur Rd, Hussen Nagar, Telangana 505331",
        "detailed_address": {
            "ward": null,
            "street": "WM27+H5P, Khanapur Rd",
            "city": "Hussen Nagar",
            "postal_code": "505331",
            "state": "Telangana",
            "country_code": "IN"
        },
        "images": [
            {
                "about": "All",
                "link": "https://streetviewpixels-pa.googleapis.com/v1/thumbnail?panoid=hKXJmO81ALdbwzY0e3HIxw&cb_client=maps_sv.tactile.gps&w=224&h=298&yaw=81.74761&pitch=0&thumbfov=100"
            },
            {
                "about": "Street View & 360deg",
                "link": "https://streetviewpixels-pa.googleapis.com/v1/thumbnail?panoid=hKXJmO81ALdbwzY0e3HIxw&cb_client=maps_sv.tactile.gps&w=224&h=298&yaw=81.74761&pitch=0&thumbfov=100"
            }
        ],
        "link": "https://www.google.com/maps/place/Masjid/data=!4m7!3m6!1s0x3bcd75e0b881e6ef:0x5f1e37d02cc852d7!8m2!3d18.9014598!4d78.6629432!16s%2Fg%2F11rsq9m10k!19sChIJ7-aBuOB1zTsR11LILNA3Hl8?authuser=0&hl=en&rclk=1",
        "coordinates": {
            "latitude": 18.901459799999998,
            "longitude": 78.6629432
        }
    },
    {
        "name": "MASJID",
        "main_category": "Mosque",
        "address": "2PW9+WP9 MASJID, Lingapur, Telangana 504202",
        "detailed_address": {
            "ward": null,
            "street": "2PW9+WP9",
            "city": "Lingapur",
            "postal_code": "504202",
            "state": "Telangana",
            "country_code": "IN"
        },
        "images": [],
        "link": "https://www.google.com/maps/place/MASJID/data=!4m7!3m6!1s0x3bcd79ab085b9819:0xd6538f30239f99c!8m2!3d19.0472775!4d78.7193685!16s%2Fg%2F11rkf1p6nc!19sChIJGZhbCKt5zTsRnPk5AvM4ZQ0?authuser=0&hl=en&rclk=1",
        "coordinates": {
            "latitude": 19.0472775,
            "longitude": 78.7193685
        }
    },
    {
        "name": "Masjid",
        "main_category": "Mosque",
        "address": "2M85+P5 Masjid, Badankurthy, Telangana 504203",
        "detailed_address": {
            "ward": null,
            "street": "2M85+P5",
            "city": "Badankurthy",
            "postal_code": null,
            "state": "Telangana",
            "country_code": "IN"
        },
        "images": [
            {
                "about": "All",
                "link": "https://streetviewpixels-pa.googleapis.com/v1/thumbnail?panoid=_hN44lbzeX9F5OuUmYtXDw&cb_client=maps_sv.tactile.gps&w=224&h=298&yaw=266.63605&pitch=0&thumbfov=100"
            },
            {
                "about": "Street View & 360deg",
                "link": "https://streetviewpixels-pa.googleapis.com/v1/thumbnail?panoid=_hN44lbzeX9F5OuUmYtXDw&cb_client=maps_sv.tactile.gps&w=224&h=298&yaw=266.63605&pitch=0&thumbfov=100"
            }
        ],
        "link": "https://www.google.com/maps/place/Masjid/data=!4m7!3m6!1s0x3bcd773e41058563:0xd5fb5238132b70c8!8m2!3d19.0167991!4d78.6579268!16s%2Fg%2F11q47zr4hf!19sChIJY4UFQT53zTsRyHArEzhS-9U?authuser=0&hl=en&rclk=1",
        "coordinates": {
            "latitude": 19.0167991,
            "longitude": 78.6579268
        }
    },
    {
        "name": "Jama masjid kawal",
        "main_category": "Mosque",
        "address": "5X97+M8M Jama masjid kawal, Kawal, Telangana 504205",
        "detailed_address": {
            "ward": null,
            "street": "5X97+M8M",
            "city": "Kawal",
            "postal_code": "504205",
            "state": "Telangana",
            "country_code": "IN"
        },
        "images": [
            {
                "about": "All",
                "link": "https://lh5.googleusercontent.com/p/AF1QipMXusNH4XCR44lGjxWf8tLh2J_r4oCcA5suEn3j=w224-h510-k-no"
            },
            {
                "about": "By owner",
                "link": "https://lh5.googleusercontent.com/p/AF1QipMXusNH4XCR44lGjxWf8tLh2J_r4oCcA5suEn3j=w224-h510-k-no"
            }
        ],
        "link": "https://www.google.com/maps/place/Jama+masjid+kawal/data=!4m7!3m6!1s0x3bcd61db9faed409:0xc8e57351b72be292!8m2!3d19.1707652!4d78.9627696!16s%2Fg%2F11tgfrbxkx!19sChIJCdSun9thzTsRkuIrt1Fz5cg?authuser=0&hl=en&rclk=1",
        "coordinates": {
            "latitude": 19.170765199999998,
            "longitude": 78.9627696
        }
    },
    {
        "name": "Community Hall",
        "main_category": "Mosque",
        "address": "2WW5+6JR Community Hall, Godserial, Telangana 504202",
        "detailed_address": {
            "ward": null,
            "street": "2WW5+6JR",
            "city": "Godserial",
            "postal_code": null,
            "state": "Telangana",
            "country_code": "IN"
        },
        "images": [],
        "link": "https://www.google.com/maps/place/Community+Hall/data=!4m7!3m6!1s0x3bcd6533481136a9:0x70724a69a268e136!8m2!3d19.0456115!4d78.9090214!16s%2Fg%2F11swmqtzks!19sChIJqTYRSDNlzTsRNuFoomlKcnA?authuser=0&hl=en&rclk=1",
        "coordinates": {
            "latitude": 19.0456115,
            "longitude": 78.9090214
        }
    },
    {
        "name": "Maszid",
        "main_category": "Mosque",
        "address": "WRQJ+FV9 Maszid, Bhoopathipur, Telangana 505460",
        "detailed_address": {
            "ward": null,
            "street": "WRQJ+FV9",
            "city": "Bhoopathipur",
            "postal_code": "505460",
            "state": "Telangana",
            "country_code": "IN"
        },
        "images": [
            {
                "about": "All",
                "link": "https://streetviewpixels-pa.googleapis.com/v1/thumbnail?panoid=7qOGScMh4DZMvzBqfJTpAA&cb_client=maps_sv.tactile.gps&w=224&h=298&yaw=45.188793&pitch=0&thumbfov=100"
            },
            {
                "about": "Street View & 360deg",
                "link": "https://streetviewpixels-pa.googleapis.com/v1/thumbnail?panoid=7qOGScMh4DZMvzBqfJTpAA&cb_client=maps_sv.tactile.gps&w=224&h=298&yaw=45.188793&pitch=0&thumbfov=100"
            }
        ],
        "link": "https://www.google.com/maps/place/Maszid/data=!4m7!3m6!1s0x3bcd739cf323adb7:0xd43dafd32a372a54!8m2!3d18.9386736!4d78.8322355!16s%2Fg%2F11q_c6cq6l!19sChIJt60j85xzzTsRVCo3KtOvPdQ?authuser=0&hl=en&rclk=1",
        "coordinates": {
            "latitude": 18.938673599999998,
            "longitude": 78.8322355
        }
    },
    {
        "name": "Shaik ramzan house",
        "main_category": "Mosque",
        "address": "2MR3+F9H Shaik ramzan house, Bellala Rd, Khanapur, Telangana 504203",
        "detailed_address": {
            "ward": null,
            "street": "2MR3+F9H, Bellala Rd",
            "city": "Khanapur",
            "postal_code": "504203",
            "state": "Telangana",
            "country_code": "IN"
        },
        "images": [
            {
                "about": "All",
                "link": "https://streetviewpixels-pa.googleapis.com/v1/thumbnail?panoid=NJrwpMnlp0lHaP6SSL37-A&cb_client=maps_sv.tactile.gps&w=224&h=298&yaw=250.88914&pitch=0&thumbfov=100"
            },
            {
                "about": "Street View & 360deg",
                "link": "https://streetviewpixels-pa.googleapis.com/v1/thumbnail?panoid=NJrwpMnlp0lHaP6SSL37-A&cb_client=maps_sv.tactile.gps&w=224&h=298&yaw=250.88914&pitch=0&thumbfov=100"
            }
        ],
        "link": "https://www.google.com/maps/place/Shaik+ramzan+house/data=!4m7!3m6!1s0x3bcd836c26cfec25:0xc7af4e766b0fc008!8m2!3d19.0419906!4d78.6533768!16s%2Fg%2F11vc5_fghn!19sChIJJezPJmyDzTsRCMAPa3ZOr8c?authuser=0&hl=en&rclk=1",
        "coordinates": {
            "latitude": 19.0419906,
            "longitude": 78.65337679999999
        }
    },
    {
        "name": "Jame masjid ailapur",
        "main_category": "Mosque",
        "address": "Jame masjid ailapur, Near, Nehru road, Besthawada, Ailapur, Telangana 505330",
        "detailed_address": {
            "ward": "Besthawada",
            "street": "Near, Nehru road",
            "city": "Ailapur",
            "postal_code": null,
            "state": "Telangana",
            "country_code": "IN"
        },
        "images": [
            {
                "about": "All",
                "link": "https://lh5.googleusercontent.com/p/AF1QipO6XyR5RpEzXfeReyntIQsso15pMbc1HDUIbJ0B=w529-h298-k-no"
            }
        ],
        "link": "https://www.google.com/maps/place/Jame+masjid+ailapur/data=!4m7!3m6!1s0x3bcd75c30dfe83a9:0xf653dc0ed627e550!8m2!3d18.870281!4d78.6985201!16s%2Fg%2F11rv9160kx!19sChIJqYP-DcN1zTsRUOUn1g7cU_Y?authuser=0&hl=en&rclk=1",
        "coordinates": {
            "latitude": 18.870281,
            "longitude": 78.6985201
        }
    },
    {
        "name": "Madina masjid Barkathpura",
        "main_category": "Mosque",
        "address": "RJXG+MFR Madina masjid Barkathpura, Dubbawada, Metpally, Telangana 505325",
        "detailed_address": {
            "ward": "Dubbawada",
            "street": "RJXG+MFR",
            "city": "Metpally",
            "postal_code": null,
            "state": "Telangana",
            "country_code": "IN"
        },
        "images": [],
        "link": "https://www.google.com/maps/place/Madina+masjid+Barkathpura/data=!4m7!3m6!1s0x3bcd9f4801e8bc27:0x5caa990365141f06!8m2!3d18.8492342!4d78.6261455!16s%2Fg%2F11q9tc79vm!19sChIJJ7zoAUifzTsRBh8UZQOZqlw?authuser=0&hl=en&rclk=1",
        "coordinates": {
            "latitude": 18.849234199999998,
            "longitude": 78.62614549999999
        }
    },
    {
        "name": "masjid",
        "main_category": "Mosque",
        "address": "WQP8+PJH masjid, Regunta, Telangana 505331",
        "detailed_address": {
            "ward": null,
            "street": "WQP8+PJH",
            "city": "Regunta",
            "postal_code": "505331",
            "state": "Telangana",
            "country_code": "IN"
        },
        "images": [],
        "link": "https://www.google.com/maps/place/masjid/data=!4m7!3m6!1s0x3bcd73e10f087a0d:0xb743367ca6f6556b!8m2!3d18.9368128!4d78.7666167!16s%2Fg%2F11hbt4fzsw!19sChIJDXoID-FzzTsRa1X2pnw2Q7c?authuser=0&hl=en&rclk=1",
        "coordinates": {
            "latitude": 18.9368128,
            "longitude": 78.7666167
        }
    },
    {
        "name": "Mootapally Masjid",
        "main_category": "Mosque",
        "address": "WRW3+85V Mootapally Masjid, Mootapalle, Telangana 505460",
        "detailed_address": {
            "ward": null,
            "street": "WRW3+85V",
            "city": "Mootapalle",
            "postal_code": "505460",
            "state": "Telangana",
            "country_code": "IN"
        },
        "images": [
            {
                "about": "All",
                "link": "https://streetviewpixels-pa.googleapis.com/v1/thumbnail?panoid=qPbQEd4ZtdkgXZFLwZ-iig&cb_client=maps_sv.tactile.gps&w=224&h=298&yaw=3.2574725&pitch=0&thumbfov=100"
            },
            {
                "about": "Street View & 360deg",
                "link": "https://streetviewpixels-pa.googleapis.com/v1/thumbnail?panoid=qPbQEd4ZtdkgXZFLwZ-iig&cb_client=maps_sv.tactile.gps&w=224&h=298&yaw=3.2574725&pitch=0&thumbfov=100"
            }
        ],
        "link": "https://www.google.com/maps/place/Mootapally+Masjid/data=!4m7!3m6!1s0x3bcd71db465b554b:0xddbad2d7da006c8b!8m2!3d18.9458573!4d78.8029347!16s%2Fg%2F11hz77v8xp!19sChIJS1VbRttxzTsRi2wA2tfSut0?authuser=0&hl=en&rclk=1",
        "coordinates": {
            "latitude": 18.9458573,
            "longitude": 78.8029347
        }
    },
    {
        "name": "Masjid Rajura",
        "main_category": "Mosque",
        "address": "4HXQ+W63 Masjid Rajura, Rajura khanapoor, Nirmal, Telangana",
        "detailed_address": {
            "ward": null,
            "street": "4HXQ+W63, Rajura khanapoor",
            "city": "Nirmal, Rajura",
            "postal_code": null,
            "state": "Telangana",
            "country_code": "IN"
        },
        "images": [
            {
                "about": "All",
                "link": "https://lh5.googleusercontent.com/p/AF1QipON_4DPvXxK5DSfh3N12frSdzOcx4DHXwjEKCuw=w529-h298-k-no"
            }
        ],
        "link": "https://www.google.com/maps/place/Masjid+Rajura/data=!4m7!3m6!1s0x3bcd813978190703:0x445a0506188ff42f!8m2!3d19.1497513!4d78.5880551!16s%2Fg%2F11q941lptr!19sChIJAwcZeDmBzTsRL_SPGAYFWkQ?authuser=0&hl=en&rclk=1",
        "coordinates": {
            "latitude": 19.1497513,
            "longitude": 78.58805509999999
        }
    }
]