[
    {
        "name": "Nurpur Jame Masjid",
        "main_category": "Mosque",
        "address": "Nurpur Jame Masjid, Kadamtala - Kachari Gaon Road, Kalagangerpar, North Tripura, Kadamtala, Tripura 799261",
        "detailed_address": {
            "ward": null,
            "street": "Kadamtala - Kachari Gaon Road, Kalagangerpar, North Tripura",
            "city": "Kadamtala",
            "postal_code": "799261",
            "state": "Tripura",
            "country_code": "IN"
        },
        "images": [
            {
                "about": "All",
                "link": "https://lh5.googleusercontent.com/p/AF1QipNylNZJQ6OHQxvqZjSjY54Yjy7sORaigzHVgwIY=w529-h298-k-no"
            },
            {
                "about": "Dome",
                "link": "https://lh5.googleusercontent.com/p/AF1QipMtPzyM9l8sYLvD_yeUYHVSPXMCVOOjXEDxoxLJ=w476-h298-k-no"
            },
            {
                "about": "By owner",
                "link": "https://lh5.googleusercontent.com/p/AF1QipNcFAylMRX030Wiif_30NRsP_TRyqA13Evd5SAF=w476-h298-k-no"
            }
        ],
        "link": "https://www.google.com/maps/place/Nurpur+Jame+Masjid/data=!4m7!3m6!1s0x3751ea314ddecdfb:0xbdd38515fdea39c1!8m2!3d24.4676182!4d92.2092473!16s%2Fg%2F11f3b1vcps!19sChIJ-83eTTHqUTcRwTnq_RWF070?authuser=0&hl=en&rclk=1",
        "coordinates": {
            "latitude": 24.4676182,
            "longitude": 92.2092473
        }
    },
    {
        "name": "Jama Mashjid",
        "main_category": "Mosque",
        "address": "Jama Mashjid, Power House Quater Complex, Dharmanagar, Tripura 799250",
        "detailed_address": {
            "ward": "Power House Quater Complex",
            "street": null,
            "city": "Dharmanagar",
            "postal_code": null,
            "state": "Tripura",
            "country_code": "IN"
        },
        "images": [
            {
                "about": "All",
                "link": "https://lh5.googleusercontent.com/p/AF1QipPSLPvoJTvHRVRMZL256kZiwXFKibzxz4aG5y76=w660-h298-k-no"
            },
            {
                "about": "Videos",
                "link": "https://lh5.googleusercontent.com/p/AF1QipOGedk_JxKkcHb9_jjGd_q1PLtTXgqBw4rTLZw6=w224-h398-k-no"
            }
        ],
        "link": "https://www.google.com/maps/place/Jama+Mashjid/data=!4m7!3m6!1s0x3751ece86e0c67c7:0x686ac5010e19fc73!8m2!3d24.3789502!4d92.1663227!16s%2Fg%2F11xl66zjc!19sChIJx2cMbujsUTcRc_wZDgHFamg?authuser=0&hl=en&rclk=1",
        "coordinates": {
            "latitude": 24.3789502,
            "longitude": 92.1663227
        }
    },
    {
        "name": "Arush electronic",
        "main_category": "Mosque",
        "address": "Arush electronic, Jama Masjid, Dakshin Kadamtala old Post office Road, nearby Kadamtala, Dharmanagar, Tripura 799261",
        "detailed_address": {
            "ward": null,
            "street": "Jama Masjid, Dakshin Kadamtala old Post office Road, nearby Kadamtala",
            "city": "Dharmanagar, Saraspur",
            "postal_code": "799261",
            "state": "Tripura",
            "country_code": "IN"
        },
        "images": [
            {
                "about": "All",
                "link": "https://streetviewpixels-pa.googleapis.com/v1/thumbnail?panoid=za3sEsfK5blEWp-KDcAmzg&cb_client=maps_sv.tactile.gps&w=224&h=298&yaw=204.09837&pitch=0&thumbfov=100"
            },
            {
                "about": "Street View & 360deg",
                "link": "https://streetviewpixels-pa.googleapis.com/v1/thumbnail?panoid=za3sEsfK5blEWp-KDcAmzg&cb_client=maps_sv.tactile.gps&w=224&h=298&yaw=204.09837&pitch=0&thumbfov=100"
            }
        ],
        "link": "https://www.google.com/maps/place/Arush+electronic/data=!4m7!3m6!1s0x3751ebd21c621957:0x84ad8165abca8e7!8m2!3d24.4549684!4d92.2146011!16s%2Fg%2F11d_77q0t7!19sChIJVxliHNLrUTcR56i8WhbYSgg?authuser=0&hl=en&rclk=1",
        "coordinates": {
            "latitude": 24.4549684,
            "longitude": 92.2146011
        }
    },
    {
        "name": "Latugoan Idgah Masjid",
        "main_category": "Mosque",
        "address": "9527+674 Latugoan Idgah Masjid, Padmapur, Dharmanagar, Radhapur, Tripura 799253",
        "detailed_address": {
            "ward": "Padmapur",
            "street": "9527+674",
            "city": "Dharmanagar, Radhapur",
            "postal_code": "799253",
            "state": "Tripura",
            "country_code": "IN"
        },
        "images": [],
        "link": "https://www.google.com/maps/place/Latugoan+Idgah+Masjid/data=!4m7!3m6!1s0x3751ed3dbc73916d:0x727af0c7a8ec9be3!8m2!3d24.3505172!4d92.1632127!16s%2Fg%2F11f3q_767g!19sChIJbZFzvD3tUTcR45vsqMfwenI?authuser=0&hl=en&rclk=1",
        "coordinates": {
            "latitude": 24.3505172,
            "longitude": 92.1632127
        }
    },
    {
        "name": "Kalacherra Bazar Masjid",
        "main_category": "Mosque",
        "address": "96X4+9XQ Kalacherra Bazar Masjid, Hurua, Tripura 799251",
        "detailed_address": {
            "ward": null,
            "street": "96X4+9XQ",
            "city": "Hurua",
            "postal_code": "799251",
            "state": "Tripura",
            "country_code": "IN"
        },
        "images": [
            {
                "about": "All",
                "link": "https://lh5.googleusercontent.com/p/AF1QipOk4Rf9Q6r05yfOjoJmu53ixyEZUApickyerIeu=w529-h298-k-no"
            }
        ],
        "link": "https://www.google.com/maps/place/Kalacherra+Bazar+Masjid/data=!4m7!3m6!1s0x3751ed1623953d53:0x96722268f0969240!8m2!3d24.3984516!4d92.2074802!16s%2Fg%2F11mn074kvc!19sChIJUz2VIxbtUTcRQJKW8GgicpY?authuser=0&hl=en&rclk=1",
        "coordinates": {
            "latitude": 24.398451599999998,
            "longitude": 92.20748019999999
        }
    },
    {
        "name": "Bishnupur Jame Masjid",
        "main_category": "Mosque",
        "address": "F547+HC4 Bishnupur Jame Masjid, Bishnupur, Dharmanagar, 799261",
        "detailed_address": {
            "ward": null,
            "street": "F547+HC4, Bishnupur",
            "city": "Dharmanagar, Bishnupur",
            "postal_code": "799261",
            "state": "Tripura",
            "country_code": "IN"
        },
        "images": [
            {
                "about": "All",
                "link": "https://lh5.googleusercontent.com/p/AF1QipNosophHurbAdQwgvNl98YqE2FAo-qDv1NA3K92=w397-h298-k-no"
            }
        ],
        "link": "https://www.google.com/maps/place/Bishnupur+Jame+Masjid/data=!4m7!3m6!1s0x3751eb21ec5f55f5:0xc8972540b22ead41!8m2!3d24.4563997!4d92.1635655!16s%2Fg%2F11gfgrt9q_!19sChIJ9VVf7CHrUTcRQa0uskAll8g?authuser=0&hl=en&rclk=1",
        "coordinates": {
            "latitude": 24.4563997,
            "longitude": 92.16356549999999
        }
    },
    {
        "name": "East Batarasi, Jame Masjid",
        "main_category": "Mosque",
        "address": "East Batarasi, Jame Masjid, Kameswar Post, North Tripura District, near Batarasi High School, East Batarasi, Tripura 799253",
        "detailed_address": {
            "ward": null,
            "street": "Kameswar Post, North Tripura District, near Batarasi High School",
            "city": "East Batarasi, Kameswar",
            "postal_code": "799253",
            "state": "Tripura",
            "country_code": "IN"
        },
        "images": [
            {
                "about": "All",
                "link": "https://lh5.googleusercontent.com/p/AF1QipMY2qDPW_foc71dtbn08k2O44DM1e4TsVMHFt_r=w224-h298-k-no"
            }
        ],
        "link": "https://www.google.com/maps/place/East+Batarasi,+Jame+Masjid/data=!4m7!3m6!1s0x3751edaa68f83c35:0xdf7a5039fba358c!8m2!3d24.3621498!4d92.1852963!16s%2Fg%2F11f00hv6mb!19sChIJNTz4aKrtUTcRjDW6nwOl9w0?authuser=0&hl=en&rclk=1",
        "coordinates": {
            "latitude": 24.362149799999997,
            "longitude": 92.18529629999999
        }
    },
    {
        "name": "Latugoan sunni jame masjid",
        "main_category": "Mosque",
        "address": "Latugoan sunni jame masjid, Unnamed Road, Dharmanagar, Dhupirband, Tripura 799253",
        "detailed_address": {
            "ward": null,
            "street": "Unnamed Road",
            "city": "Dharmanagar, Dhupirband",
            "postal_code": "799253",
            "state": "Tripura",
            "country_code": "IN"
        },
        "images": [
            {
                "about": "All",
                "link": "https://lh5.googleusercontent.com/p/AF1QipMu9oT61jr07dhtUa4lQZ-tOKjhAh_UH4H9KRQ=w224-h298-k-no"
            }
        ],
        "link": "https://www.google.com/maps/place/Latugoan+sunni+jame+masjid/data=!4m7!3m6!1s0x3751ed861720aca5:0x14bde11d9eeec467!8m2!3d24.3538075!4d92.1724392!16s%2Fg%2F11h1mbfz91!19sChIJpawgF4btUTcRZ8Tunh3hvRQ?authuser=0&hl=en&rclk=1",
        "coordinates": {
            "latitude": 24.3538075,
            "longitude": 92.1724392
        }
    },
    {
        "name": "West Sakaibari Jame Mosjid pshcim saakaaibaadd'ii jbaame msjid",
        "main_category": "Mosque",
        "address": "94PV+CH3 West Sakaibari Jame Mosjid pshcim saakaaibaadd'ii jbaame msjid, Sakaibari Ln, Dharmanagar, Baruakandi, Tripura 799251",
        "detailed_address": {
            "ward": null,
            "street": "94PV+CH3, Sakaibari Ln",
            "city": "Dharmanagar, Baruakandi",
            "postal_code": "799251",
            "state": "Tripura",
            "country_code": "IN"
        },
        "images": [
            {
                "about": "All",
                "link": "https://lh5.googleusercontent.com/p/AF1QipNlAVaOLBWjvDg8yOvNrmLrRUDcFYEORZS7pf-g=w397-h298-k-no"
            }
        ],
        "link": "https://www.google.com/maps/place/West+Sakaibari+Jame+Mosjid+%E0%A6%AA%E0%A6%B6%E0%A7%8D%E0%A6%9A%E0%A6%BF%E0%A6%AE+%E0%A6%B8%E0%A6%BE%E0%A6%95%E0%A6%BE%E0%A6%87%E0%A6%AC%E0%A6%BE%E0%A6%A1%E0%A6%BC%E0%A7%80+%E0%A6%9C%E0%A7%8D%E0%A6%AC%E0%A6%BE%E0%A6%AE%E0%A7%87+%E0%A6%AE%E0%A6%B8%E0%A7%8D%E0%A6%9C%E0%A6%BF%E0%A6%A6/data=!4m7!3m6!1s0x3751edf5c5d4f519:0x253a07e6eaa17433!8m2!3d24.3860096!4d92.1439174!16s%2Fg%2F11gtyt11l3!19sChIJGfXUxfXtUTcRM3Sh6uYHOiU?authuser=0&hl=en&rclk=1",
        "coordinates": {
            "latitude": 24.386009599999998,
            "longitude": 92.14391739999999
        }
    },
    {
        "name": "Kalacherra Boro Masjid",
        "main_category": "Mosque",
        "address": "96W4+R8C Kalacherra Boro Masjid, Hurua, Tripura 799251",
        "detailed_address": {
            "ward": null,
            "street": "96W4+R8C",
            "city": "Hurua",
            "postal_code": null,
            "state": "Tripura",
            "country_code": "IN"
        },
        "images": [
            {
                "about": "All",
                "link": "https://lh5.googleusercontent.com/p/AF1QipOiMamYe_l453WE0MR5iIw95sKJmLvEgnljztOF=w397-h298-k-no"
            },
            {
                "about": "Latest",
                "link": "https://lh5.googleusercontent.com/p/AF1QipPV0f8ryiPiY7nTykjVOpegCYmJpINoW81GyGs3=w662-h298-k-no"
            }
        ],
        "link": "https://www.google.com/maps/place/Kalacherra+Boro+Masjid/data=!4m7!3m6!1s0x3751ed7a2a8ffd71:0xabd0c52f125eab06!8m2!3d24.3970628!4d92.2057687!16s%2Fg%2F11n07bptvm!19sChIJcf2PKnrtUTcRBqteEi_F0Ks?authuser=0&hl=en&rclk=1",
        "coordinates": {
            "latitude": 24.3970628,
            "longitude": 92.2057687
        }
    },
    {
        "name": "Sabajpur Jame Masjid saabaajpur jaame msjid",
        "main_category": "Mosque",
        "address": "954R+356 Sabajpur Jame Masjid saabaajpur jaame msjid, Sabajpur, missiontilla bazar, Dharmanagar, Tripura",
        "detailed_address": {
            "ward": null,
            "street": "954R+356, Sabajpur, missiontilla bazar",
            "city": "Dharmanagar, Dhupirband",
            "postal_code": null,
            "state": "Tripura",
            "country_code": "IN"
        },
        "images": [
            {
                "about": "All",
                "link": "https://lh5.googleusercontent.com/p/AF1QipPyN5OSR_S25TOYLcr6wLTFo8c08-TgsWvOpYVv=w397-h298-k-no"
            },
            {
                "about": "Dome",
                "link": "https://lh5.googleusercontent.com/p/AF1QipOzXQLCustYq-zrhW-Kr8hbZGCdyMzQg9BL9_N1=w224-h397-k-no"
            },
            {
                "about": "Videos",
                "link": "https://lh5.googleusercontent.com/p/AF1QipMNhOAAWMjWRFYQFBMlEJ9503ucj9A0RNnovxtL=w541-h298-k-no"
            }
        ],
        "link": "https://www.google.com/maps/place/Sabajpur+Jame+Masjid+%E0%A6%B8%E0%A6%BE%E0%A6%AC%E0%A6%BE%E0%A6%9C%E0%A6%AA%E0%A7%81%E0%A6%B0+%E0%A6%9C%E0%A6%BE%E0%A6%AE%E0%A7%87+%E0%A6%AE%E0%A6%B8%E0%A6%9C%E0%A6%BF%E0%A6%A6/data=!4m7!3m6!1s0x3751edaf41809fb1:0x6bcd024b25cc5bec!8m2!3d24.3551591!4d92.1903866!16s%2Fg%2F11f0wlzffy!19sChIJsZ-AQa_tUTcR7FvMJUsCzWs?authuser=0&hl=en&rclk=1",
        "coordinates": {
            "latitude": 24.355159099999998,
            "longitude": 92.1903866
        }
    },
    {
        "name": "Paschim Kalacharra Masjid",
        "main_category": "Mosque",
        "address": "Paschim Kalacharra Masjid, Kalacherra H.S School Rd, Hurua, Tripura 799251",
        "detailed_address": {
            "ward": null,
            "street": "Kalacherra H.S School Rd",
            "city": "Hurua",
            "postal_code": "799251",
            "state": "Tripura",
            "country_code": "IN"
        },
        "images": [
            {
                "about": "All",
                "link": "https://lh5.googleusercontent.com/p/AF1QipMa5eSGnNX1LCEYXhbMa1IklqDsgs2i9hOs0wFt=w224-h471-k-no"
            }
        ],
        "link": "https://www.google.com/maps/place/Paschim+Kalacharra+Masjid/data=!4m7!3m6!1s0x3751ed8e000dee07:0xeee0d346b7dcd65e!8m2!3d24.3978683!4d92.2022692!16s%2Fg%2F11ql1t9vlt!19sChIJB-4NAI7tUTcRXtbct0bT4O4?authuser=0&hl=en&rclk=1",
        "coordinates": {
            "latitude": 24.3978683,
            "longitude": 92.20226919999999
        }
    },
    {
        "name": "Latugoan Meher Jame Masjid",
        "main_category": "Mosque",
        "address": "9529+W79 Latugoan Meher Jame Masjid, Latugoan Rd, Dharmanagar, Dhupirband, Tripura 799253",
        "detailed_address": {
            "ward": null,
            "street": "9529+W79, Latugoan Rd",
            "city": "Dharmanagar, Dhupirband",
            "postal_code": "799253",
            "state": "Tripura",
            "country_code": "IN"
        },
        "images": [
            {
                "about": "All",
                "link": "https://lh5.googleusercontent.com/p/AF1QipN-tjpPslW3y8qhY7fz_aGR2GjoSckGNfxxjlhZ=w224-h298-k-no"
            },
            {
                "about": "Dome",
                "link": "https://lh5.googleusercontent.com/p/AF1QipPO9oBrOn4VZRK3fuz1F63prg4Ap7-ocIntafL5=w397-h298-k-no"
            }
        ],
        "link": "https://www.google.com/maps/place/Latugoan+Meher+Jame+Masjid/data=!4m7!3m6!1s0x3751ed050782ce43:0x5343e45dc56ef4d1!8m2!3d24.3522867!4d92.168248!16s%2Fg%2F11mv51jk45!19sChIJQ86CBwXtUTcR0fRuxV3kQ1M?authuser=0&hl=en&rclk=1",
        "coordinates": {
            "latitude": 24.3522867,
            "longitude": 92.16824799999999
        }
    },
    {
        "name": "Eidgah Kalacharra",
        "main_category": "Mosque",
        "address": "96X3+3H8 Eidgah Kalacharra, Hurua, Tripura 799251",
        "detailed_address": {
            "ward": null,
            "street": "96X3+3H8",
            "city": "Hurua",
            "postal_code": "799251",
            "state": "Tripura",
            "country_code": "IN"
        },
        "images": [
            {
                "about": "All",
                "link": "https://lh5.googleusercontent.com/p/AF1QipPlRerlCaeZE5_1GQqLQ63ngFAPhrdFEDzvY8gy=w224-h398-k-no"
            },
            {
                "about": "Videos",
                "link": "https://lh5.googleusercontent.com/p/AF1QipNHFNs3S_PhkTSvEbRxJm0tmPggiKATjKe1m8sl=w224-h398-k-no"
            }
        ],
        "link": "https://www.google.com/maps/place/Eidgah+Kalacharra/data=!4m7!3m6!1s0x3751ed0a7a7c21bd:0x66ea2d50dc365505!8m2!3d24.3976606!4d92.2039386!16s%2Fg%2F11qngrfnc8!19sChIJvSF8egrtUTcRBVU23FAt6mY?authuser=0&hl=en&rclk=1",
        "coordinates": {
            "latitude": 24.3976606,
            "longitude": 92.2039386
        }
    },
    {
        "name": "Rajbari Jama Masjid",
        "main_category": "Mosque",
        "address": "95GC+6XP Rajbari Jama Masjid, Dharmanagar, Tripura 799250",
        "detailed_address": {
            "ward": null,
            "street": "95GC+6XP",
            "city": "Dharmanagar",
            "postal_code": null,
            "state": "Tripura",
            "country_code": "IN"
        },
        "images": [],
        "link": "https://www.google.com/maps/place/Rajbari+Jama+Masjid/data=!4m7!3m6!1s0x3751edc4f4844da3:0x3faab0a6f82a973e!8m2!3d24.375589!4d92.1724572!16s%2Fg%2F11hmz2y854!19sChIJo02E9MTtUTcRPpcq-Kawqj8?authuser=0&hl=en&rclk=1",
        "coordinates": {
            "latitude": 24.375588999999998,
            "longitude": 92.1724572
        }
    },
    {
        "name": "Office Tilla Masjid",
        "main_category": "Mosque",
        "address": "95G5+6WP Office Tilla Masjid, near HDFC Bank, Padmapur, Dharmanagar, Tripura 799253",
        "detailed_address": {
            "ward": "Padmapur",
            "street": "95G5+6WP, near HDFC Bank",
            "city": "Dharmanagar",
            "postal_code": "799253",
            "state": "Tripura",
            "country_code": "IN"
        },
        "images": [
            {
                "about": "All",
                "link": "https://streetviewpixels-pa.googleapis.com/v1/thumbnail?panoid=XvvWqflhadQYItF4QMjcag&cb_client=maps_sv.tactile.gps&w=224&h=298&yaw=72.94208&pitch=0&thumbfov=100"
            },
            {
                "about": "Street View & 360deg",
                "link": "https://streetviewpixels-pa.googleapis.com/v1/thumbnail?panoid=XvvWqflhadQYItF4QMjcag&cb_client=maps_sv.tactile.gps&w=224&h=298&yaw=72.94208&pitch=0&thumbfov=100"
            }
        ],
        "link": "https://www.google.com/maps/place/Office+Tilla+Masjid/data=!4m7!3m6!1s0x3751ed026cce1131:0xf6b48204c4d21f0d!8m2!3d24.3755921!4d92.1598381!16s%2Fg%2F11j2p3n422!19sChIJMRHObALtUTcRDR_SxASCtPY?authuser=0&hl=en&rclk=1",
        "coordinates": {
            "latitude": 24.3755921,
            "longitude": 92.1598381
        }
    },
    {
        "name": "Dharmanagar City Idgah",
        "main_category": "Mosque",
        "address": "95J8+H22 Dharmanagar City Idgah, DNV Rd, Power House Quater Complex, Dharmanagar, Tripura 799250",
        "detailed_address": {
            "ward": "Power House Quater Complex",
            "street": "95J8+H22, DNV Rd",
            "city": "Dharmanagar",
            "postal_code": null,
            "state": "Tripura",
            "country_code": "IN"
        },
        "images": [
            {
                "about": "All",
                "link": "https://lh5.googleusercontent.com/p/AF1QipOeK_dnfeMdtEucFDPq1Us5lxTf6VFJRkW0izDc=w529-h298-k-no"
            }
        ],
        "link": "https://www.google.com/maps/place/Dharmanagar+City+Idgah/data=!4m7!3m6!1s0x3751ede1f4ddb761:0x987ba8faa3e73f2!8m2!3d24.3813799!4d92.165029!16s%2Fg%2F11k65zpnbh!19sChIJYbfd9OHtUTcR8nM-qo-6hwk?authuser=0&hl=en&rclk=1",
        "coordinates": {
            "latitude": 24.3813799,
            "longitude": 92.16502899999999
        }
    },
    {
        "name": "Nutan Bazar Masjid",
        "main_category": "Mosque",
        "address": "C55H+MMV Nutan Bazar Masjid, Bhagyapur, Tripura 799251",
        "detailed_address": {
            "ward": null,
            "street": "C55H+MMV",
            "city": "Bhagyapur",
            "postal_code": "799251",
            "state": "Tripura",
            "country_code": "IN"
        },
        "images": [
            {
                "about": "All",
                "link": "https://streetviewpixels-pa.googleapis.com/v1/thumbnail?panoid=WYfR07v_Uxn0lhdt-VpwIQ&cb_client=maps_sv.tactile.gps&w=224&h=298&yaw=205.99608&pitch=0&thumbfov=100"
            },
            {
                "about": "Street View & 360deg",
                "link": "https://streetviewpixels-pa.googleapis.com/v1/thumbnail?panoid=WYfR07v_Uxn0lhdt-VpwIQ&cb_client=maps_sv.tactile.gps&w=224&h=298&yaw=205.99608&pitch=0&thumbfov=100"
            }
        ],
        "link": "https://www.google.com/maps/place/Nutan+Bazar+Masjid/data=!4m7!3m6!1s0x3751ed27842aed5d:0xffc2f519043a1586!8m2!3d24.4092262!4d92.1791671!16s%2Fg%2F11kdmk3c1z!19sChIJXe0qhCftUTcRhhU6BBn1wv8?authuser=0&hl=en&rclk=1",
        "coordinates": {
            "latitude": 24.4092262,
            "longitude": 92.1791671
        }
    },
    {
        "name": "Latugoan Jama Masjid",
        "main_category": "Mosque",
        "address": "953C+CFM Latugoan Jama Masjid, Latugoan, Dharmanagar, Dhupirband, Tripura 799253",
        "detailed_address": {
            "ward": "Latugoan",
            "street": "953C+CFM, Latugoan",
            "city": "Dharmanagar, Dhupirband",
            "postal_code": "799253",
            "state": "Tripura",
            "country_code": "IN"
        },
        "images": [],
        "link": "https://www.google.com/maps/place/Latugoan+Jama+Masjid/data=!4m7!3m6!1s0x3751edcd2abc7b05:0xb4e56dd063a8ec5d!8m2!3d24.3535764!4d92.1711693!16s%2Fg%2F11jk2ynzj5!19sChIJBXu8Ks3tUTcRXeyoY9Bt5bQ?authuser=0&hl=en&rclk=1",
        "coordinates": {
            "latitude": 24.353576399999998,
            "longitude": 92.1711693
        }
    },
    {
        "name": "Dhupirband Jaame Masjid.",
        "main_category": "Mosque",
        "address": "9527+563 Dhupirband Jaame Masjid., Dhupirband, Radhapur, Tripura 799253",
        "detailed_address": {
            "ward": null,
            "street": "9527+563",
            "city": "Dhupirband, Radhapur",
            "postal_code": "799253",
            "state": "Tripura",
            "country_code": "IN"
        },
        "images": [
            {
                "about": "All",
                "link": "https://lh5.googleusercontent.com/p/AF1QipOpPLpXDUEO0vWsIcQcmdav0W5XbzmKTq7ybcms=w224-h298-k-no"
            }
        ],
        "link": "https://www.google.com/maps/place/Dhupirband+Jaame+Masjid./data=!4m7!3m6!1s0x3751ed14408fbedb:0x83a2b2eba89763f3!8m2!3d24.3503888!4d92.1630359!16s%2Fg%2F11gdcl6_zf!19sChIJ276PQBTtUTcR82OXqOuyooM?authuser=0&hl=en&rclk=1",
        "coordinates": {
            "latitude": 24.350388799999998,
            "longitude": 92.1630359
        }
    },
    {
        "name": "Khadimpara Eidgah Ground",
        "main_category": "Mosque",
        "address": "C6HQ+5R7 Khadimpara Eidgah Ground, Khadimpara East, Uttar Fulbari Churaibari Rd, Dharmanagar, Tripura 799262",
        "detailed_address": {
            "ward": null,
            "street": "C6HQ+5R7, Khadimpara East, Uttar Fulbari Churaibari Rd",
            "city": "Dharmanagar",
            "postal_code": "799262",
            "state": "Tripura",
            "country_code": "IN"
        },
        "images": [
            {
                "about": "All",
                "link": "https://lh5.googleusercontent.com/p/AF1QipO7kUNcYVcGlzUDIwENUaKNsMur3Yz8MY4yWGIp=w397-h298-k-no"
            },
            {
                "about": "Videos",
                "link": "https://lh5.googleusercontent.com/p/AF1QipPLffKopw1ei2LcoSfcRI39UpAg416MaFcRrA4b=w529-h298-k-no"
            }
        ],
        "link": "https://www.google.com/maps/place/Khadimpara+Eidgah+Ground/data=!4m7!3m6!1s0x3751e9adb65c19c1:0x2405a9fb31547f0a!8m2!3d24.4279045!4d92.2395386!16s%2Fg%2F11pz071bpf!19sChIJwRlctq3pUTcRCn9UMfupBSQ?authuser=0&hl=en&rclk=1",
        "coordinates": {
            "latitude": 24.4279045,
            "longitude": 92.23953859999999
        }
    },
    {
        "name": "Elania Jamia E Mashjid (elniiy'aa jaame msjid) Poshcim Chandrapur",
        "main_category": "Mosque",
        "address": "C42P+GF Elania Jamia E Mashjid (elniiy'aa jaame msjid) Poshcim Chandrapur, Baruakandi, Tripura 799251",
        "detailed_address": {
            "ward": null,
            "street": "C42P+GF",
            "city": "Baruakandi",
            "postal_code": null,
            "state": "Tripura",
            "country_code": "IN"
        },
        "images": [
            {
                "about": "All",
                "link": "https://lh5.googleusercontent.com/p/AF1QipOW54120QsvnlKvfg9miJc9JjV3jc9rvn5NzEsD=w397-h298-k-no"
            },
            {
                "about": "Dome",
                "link": "https://lh5.googleusercontent.com/p/AF1QipOW54120QsvnlKvfg9miJc9JjV3jc9rvn5NzEsD=w397-h298-k-no"
            }
        ],
        "link": "https://www.google.com/maps/place/Elania+Jamia+E+Mashjid+%28%E0%A6%8F%E0%A6%B2%E0%A6%A8%E0%A7%80%E0%A6%AF%E0%A6%BC%E0%A6%BE+%E0%A6%9C%E0%A6%BE%E0%A6%AE%E0%A7%87+%E0%A6%AE%E0%A6%B8%E0%A6%9C%E0%A6%BF%E0%A6%A6%29+Poshcim+Chandrapur/data=!4m7!3m6!1s0x37519323cb61e4dd:0x8a8caf2af2f552ed!8m2!3d24.4012548!4d92.1361999!16s%2Fg%2F11pcmqz1dd!19sChIJ3eRhyyOTUTcR7VL18iqvjIo?authuser=0&hl=en&rclk=1",
        "coordinates": {
            "latitude": 24.4012548,
            "longitude": 92.1361999
        }
    },
    {
        "name": "Yekubnagar baitussalam Jamia masjid",
        "main_category": "Mosque",
        "address": "C579+F53 Yekubnagar baitussalam Jamia masjid, Bhagyapur, Tripura 799251",
        "detailed_address": {
            "ward": null,
            "street": "C579+F53",
            "city": "Bhagyapur",
            "postal_code": "799251",
            "state": "Tripura",
            "country_code": "IN"
        },
        "images": [
            {
                "about": "All",
                "link": "https://lh5.googleusercontent.com/p/AF1QipMIIORF5CzLX4AenejFMinCDWsrTV0udpqZgAc7=w662-h298-k-no"
            }
        ],
        "link": "https://www.google.com/maps/place/Yekubnagar+baitussalam+Jamia+masjid/data=!4m7!3m6!1s0x3751edf3325ff1bf:0x8a192aedf555480f!8m2!3d24.41364!4d92.1679119!16s%2Fg%2F11nmt7m6qv!19sChIJv_FfMvPtUTcRD0hV9e0qGYo?authuser=0&hl=en&rclk=1",
        "coordinates": {
            "latitude": 24.413639999999997,
            "longitude": 92.1679119
        }
    },
    {
        "name": "Purba Sakaibari Jame Masjid",
        "main_category": "Mosque",
        "address": "Purba Sakaibari Jame Masjid, DG Road, Purba, Sakaibari Rd",
        "detailed_address": {
            "ward": null,
            "street": "DG Road, Purba, Sakaibari Rd",
            "city": "Baruakandi, Dharmanagar",
            "postal_code": null,
            "state": "Tripura",
            "country_code": "IN"
        },
        "images": [],
        "link": "https://www.google.com/maps/place/Purba+Sakaibari+Jame+Masjid/data=!4m7!3m6!1s0x3751ed2a7728aa23:0xa9d14e7f4fa02d77!8m2!3d24.3838682!4d92.1532516!16s%2Fg%2F11pv6xtv8z!19sChIJI6oodyrtUTcRdy2gT39O0ak?authuser=0&hl=en&rclk=1",
        "coordinates": {
            "latitude": 24.3838682,
            "longitude": 92.15325159999999
        }
    },
    {
        "name": "Dhupirband Jama Masjid",
        "main_category": "Mosque",
        "address": "85W9+P7R Dhupirband Jama Masjid, dhupirbond, Dharmanagar - Panisagar Rd",
        "detailed_address": {
            "ward": null,
            "street": "85W9+P7R, dhupirbond, Dharmanagar - Panisagar Rd",
            "city": "Dhupirband",
            "postal_code": null,
            "state": "Tripura",
            "country_code": "IN"
        },
        "images": [],
        "link": "https://www.google.com/maps/place/Dhupirband+Jama+Masjid/data=!4m7!3m6!1s0x3751edbd4bc8b80d:0x860e3b661bd75a71!8m2!3d24.346865!4d92.1681293!16s%2Fg%2F11h8bcgfkx!19sChIJDbjIS73tUTcRcVrXG2Y7DoY?authuser=0&hl=en&rclk=1",
        "coordinates": {
            "latitude": 24.346864999999998,
            "longitude": 92.16812929999999
        }
    },
    {
        "name": "Jannatul Ferdus Mosque",
        "main_category": "Mosque",
        "address": "9567+MQ4 Jannatul Ferdus Mosque, APJ Abdul Kalam Rd, Dharmanagar, Radhapur, Tripura 799253",
        "detailed_address": {
            "ward": null,
            "street": "9567+MQ4, APJ Abdul Kalam Rd",
            "city": "Dharmanagar, Radhapur",
            "postal_code": "799253",
            "state": "Tripura",
            "country_code": "IN"
        },
        "images": [],
        "link": "https://www.google.com/maps/place/Jannatul+Ferdus+Mosque/data=!4m7!3m6!1s0x3751ed7a3960bf33:0xb01a306544cf6273!8m2!3d24.3616374!4d92.1644545!16s%2Fg%2F11rcbnk_46!19sChIJM79gOXrtUTcRc2LPRGUwGrA?authuser=0&hl=en&rclk=1",
        "coordinates": {
            "latitude": 24.3616374,
            "longitude": 92.16445449999999
        }
    },
    {
        "name": "Jama Masjid",
        "main_category": "Mosque",
        "address": "85XF+G9Q Jama Masjid, Dhupirband, Tripura 799253",
        "detailed_address": {
            "ward": null,
            "street": "85XF+G9Q",
            "city": "Dhupirband",
            "postal_code": "799253",
            "state": "Tripura",
            "country_code": "IN"
        },
        "images": [],
        "link": "https://www.google.com/maps/place/Jama+Masjid/data=!4m7!3m6!1s0x3751ed3d762e2c89:0x184a62c7acfa5f0d!8m2!3d24.348831!4d92.1734842!16s%2Fg%2F11jr9fqw78!19sChIJiSwudj3tUTcRDV_6rMdiShg?authuser=0&hl=en&rclk=1",
        "coordinates": {
            "latitude": 24.348831,
            "longitude": 92.17348419999999
        }
    },
    {
        "name": "Purba Kalachara Jame Masjid",
        "main_category": "Mosque",
        "address": "96W5+G6C Purba Kalachara Jame Masjid, New Jagatpur Rd, Hurua, Tripura 799251",
        "detailed_address": {
            "ward": null,
            "street": "96W5+G6C, New Jagatpur Rd",
            "city": "Hurua",
            "postal_code": "799251",
            "state": "Tripura",
            "country_code": "IN"
        },
        "images": [
            {
                "about": "All",
                "link": "https://lh5.googleusercontent.com/p/AF1QipPBXrSmJSpQFJ3XmPK8vxIRueEFh2UhalmtXX8=w529-h298-k-no"
            }
        ],
        "link": "https://www.google.com/maps/place/Purba+Kalachara+Jame+Masjid/data=!4m7!3m6!1s0x3751ed5f9d4590a5:0x7c36f725fbd45e31!8m2!3d24.396311!4d92.2080186!16s%2Fg%2F11mx9gbtrh!19sChIJpZBFnV_tUTcRMV7U-yX3Nnw?authuser=0&hl=en&rclk=1",
        "coordinates": {
            "latitude": 24.396310999999997,
            "longitude": 92.2080186
        }
    },
    {
        "name": "Sanicherra Jama Masjid",
        "main_category": "Mosque",
        "address": "Sanicherra, Sanicherra Jama Masjid, Ganganagar, Tripura 799262",
        "detailed_address": {
            "ward": null,
            "street": "Sanicherra",
            "city": "Ganganagar",
            "postal_code": null,
            "state": "Tripura",
            "country_code": "IN"
        },
        "images": [],
        "link": "https://www.google.com/maps/place/Sanicherra+Jama+Masjid/data=!4m7!3m6!1s0x3751edec09d254c1:0xd243e92129088092!8m2!3d24.3707384!4d92.2209626!16s%2Fg%2F11h54_2vqk!19sChIJwVTSCeztUTcRkoAIKSHpQ9I?authuser=0&hl=en&rclk=1",
        "coordinates": {
            "latitude": 24.3707384,
            "longitude": 92.2209626
        }
    },
    {
        "name": "Ramnagar grami masjid raamngr graame msjid",
        "main_category": "Mosque",
        "address": "Ramnagar grami masjid raamngr graame msjid, Ramnagar, Panisagar, Ramnagar, Tripura 799260",
        "detailed_address": {
            "ward": "Ramnagar",
            "street": null,
            "city": "Panisagar, Ramnagar",
            "postal_code": "799260",
            "state": "Tripura",
            "country_code": "IN"
        },
        "images": [
            {
                "about": "All",
                "link": "https://lh5.googleusercontent.com/p/AF1QipNWkJzjxLJ7YOpSAdfZAdWYoOL61kowGWmYqSlG=w231-h298-k-no"
            }
        ],
        "link": "https://www.google.com/maps/place/Ramnagar+grami+masjid+%E0%A6%B0%E0%A6%BE%E0%A6%AE%E0%A6%A8%E0%A6%97%E0%A6%B0+%E0%A6%97%E0%A7%8D%E0%A6%B0%E0%A6%BE%E0%A6%AE%E0%A7%87+%E0%A6%AE%E0%A6%B8%E0%A6%9C%E0%A6%BF%E0%A6%A6/data=!4m7!3m6!1s0x3751f3989378262f:0x3522960952c4a233!8m2!3d24.3085752!4d92.1703905!16s%2Fg%2F11mnkftdsq!19sChIJLyZ4k5jzUTcRM6LEUgmWIjU?authuser=0&hl=en&rclk=1",
        "coordinates": {
            "latitude": 24.3085752,
            "longitude": 92.1703905
        }
    },
    {
        "name": "jaamiraalaa kbrsthaan",
        "main_category": "Cemetery",
        "address": "95JH+WF5 jaamiraalaa kbrsthaan, College Rd, Dharmanagar, Tripura 799250",
        "detailed_address": {
            "ward": null,
            "street": "95JH+WF5, College Rd",
            "city": "Dharmanagar",
            "postal_code": "799250",
            "state": "Tripura",
            "country_code": "IN"
        },
        "images": [],
        "link": "https://www.google.com/maps/place/%E0%A6%9C%E0%A6%BE%E0%A6%AE%E0%A6%BF%E0%A6%B0%E0%A6%BE%E0%A6%B2%E0%A6%BE+%E0%A6%95%E0%A6%AC%E0%A6%B0%E0%A6%B8%E0%A7%8D%E0%A6%A5%E0%A6%BE%E0%A6%A8/data=!4m7!3m6!1s0x3751eddabe82dbc9:0xf9b83747aa2263cb!8m2!3d24.382267!4d92.178725!16s%2Fg%2F11n05mbmph!19sChIJyduCvtrtUTcRy2Miqkc3uPk?authuser=0&hl=en&rclk=1",
        "coordinates": {
            "latitude": 24.382267,
            "longitude": 92.178725
        }
    },
    {
        "name": "Dharmanagar Markaz",
        "main_category": "Mosque",
        "address": "95H3+8WH Dharmanagar Markaz, Baruakandi",
        "detailed_address": {
            "ward": "Algapur",
            "street": "95H3+8WH, Dharmanagar Markaz",
            "city": "Baruakandi",
            "postal_code": null,
            "state": "Tripura",
            "country_code": "IN"
        },
        "images": [
            {
                "about": "All",
                "link": "https://lh5.googleusercontent.com/p/AF1QipN73APXAfuRBh-xkJbUlBLEvohvPmzqJP_Xv8Io=w397-h298-k-no"
            }
        ],
        "link": "https://www.google.com/maps/place/Dharmanagar+Markaz/data=!4m7!3m6!1s0x3751ed51aca77ddb:0x98d4fa5d2621b494!8m2!3d24.3783242!4d92.1548473!16s%2Fg%2F11lkx2lttx!19sChIJ232nrFHtUTcRlLQhJl361Jg?authuser=0&hl=en&rclk=1",
        "coordinates": {
            "latitude": 24.378324199999998,
            "longitude": 92.1548473
        }
    },
    {
        "name": "Kameswar Jama Masjid",
        "main_category": "Mosque",
        "address": "95GH+6F2 Kameswar Jama Masjid, Dharmanagar, Tripura 799250",
        "detailed_address": {
            "ward": null,
            "street": "95GH+6F2",
            "city": "Dharmanagar",
            "postal_code": null,
            "state": "Tripura",
            "country_code": "IN"
        },
        "images": [],
        "link": "https://www.google.com/maps/place/Kameswar+Jama+Masjid/data=!4m7!3m6!1s0x3751edea9b47b691:0xe4d92f1bcbaf6da8!8m2!3d24.3755026!4d92.1786504!16s%2Fg%2F11s4x9l6hd!19sChIJkbZHm-rtUTcRqG2vyxsv2eQ?authuser=0&hl=en&rclk=1",
        "coordinates": {
            "latitude": 24.375502599999997,
            "longitude": 92.1786504
        }
    },
    {
        "name": "Jamirala Jama Masjid",
        "main_category": "Mosque",
        "address": "95HF+4Q9 Jamirala Jama Masjid, Dharmanagar, Tripura 799250",
        "detailed_address": {
            "ward": null,
            "street": "95HF+4Q9",
            "city": "Dharmanagar",
            "postal_code": null,
            "state": "Tripura",
            "country_code": "IN"
        },
        "images": [],
        "link": "https://www.google.com/maps/place/Jamirala+Jama+Masjid/data=!4m7!3m6!1s0x3751ed4650dbf969:0x344640a8afcab2b4!8m2!3d24.3777984!4d92.1744959!16s%2Fg%2F11s4x9zj65!19sChIJafnbUEbtUTcRtLLKr6hARjQ?authuser=0&hl=en&rclk=1",
        "coordinates": {
            "latitude": 24.3777984,
            "longitude": 92.1744959
        }
    },
    {
        "name": "Jama Masjid",
        "main_category": "Mosque",
        "address": "9597+2WP Jama Masjid, Dharmanagar, Tripura 799253",
        "detailed_address": {
            "ward": null,
            "street": "9597+2WP",
            "city": "Dharmanagar",
            "postal_code": null,
            "state": "Tripura",
            "country_code": "IN"
        },
        "images": [],
        "link": "https://www.google.com/maps/place/Jama+Masjid/data=!4m7!3m6!1s0x3751edea92ab9535:0x45004abcc4d4edbe!8m2!3d24.3675781!4d92.164837!16s%2Fg%2F11k65_gn27!19sChIJNZWrkurtUTcRvu3UxLxKAEU?authuser=0&hl=en&rclk=1",
        "coordinates": {
            "latitude": 24.3675781,
            "longitude": 92.16483699999999
        }
    },
    {
        "name": "South Fulbari Latifiya Darus Sunnah Madrssa",
        "main_category": "Mosque",
        "address": "95H3+8WH South Fulbari Latifiya Darus Sunnah Madrssa, Algapur, Dharmanagar, Baruakandi, Tripura 799253",
        "detailed_address": {
            "ward": "Algapur",
            "street": "95H3+8WH",
            "city": "Dharmanagar, Baruakandi",
            "postal_code": null,
            "state": "Tripura",
            "country_code": "IN"
        },
        "images": [
            {
                "about": "All",
                "link": "https://lh5.googleusercontent.com/p/AF1QipN8jujp5ZzuUfSyLbOf3xZ_bqKJVVwANvZrvoJo=w405-h298-k-no"
            }
        ],
        "link": "https://www.google.com/maps/place/South+Fulbari+Latifiya+Darus+Sunnah+Madrssa/data=!4m7!3m6!1s0x3751edfa44cbf537:0x5a612dee1933a178!8m2!3d24.3783242!4d92.1548473!16s%2Fg%2F11tsp47mqf!19sChIJN_XLRPrtUTcReKEzGe4tYVo?authuser=0&hl=en&rclk=1",
        "coordinates": {
            "latitude": 24.378324199999998,
            "longitude": 92.1548473
        }
    },
    {
        "name": "WEST DHUPIRBAND JAMA MASJID",
        "main_category": "Mosque",
        "address": "85W8+G6X WEST DHUPIRBAND JAMA MASJID, Dhupirband, Tripura 799253",
        "detailed_address": {
            "ward": null,
            "street": "85W8+G6X",
            "city": "Dhupirband",
            "postal_code": "799253",
            "state": "Tripura",
            "country_code": "IN"
        },
        "images": [],
        "link": "https://www.google.com/maps/place/WEST+DHUPIRBAND+JAMA+MASJID/data=!4m7!3m6!1s0x3751edebe3250285:0x6e19fd5c28d437db!8m2!3d24.346355!4d92.1656065!16s%2Fg%2F11s3wp0wgm!19sChIJhQIl4-vtUTcR2zfUKFz9GW4?authuser=0&hl=en&rclk=1",
        "coordinates": {
            "latitude": 24.346355,
            "longitude": 92.1656065
        }
    },
    {
        "name": "Signal Bosti North Jama Masjid",
        "main_category": "Housing development",
        "address": "9559+GM Signal Bosti North Jama Masjid, Dharmanagar, Radhapur, Tripura 799253",
        "detailed_address": {
            "ward": null,
            "street": "9559+GM",
            "city": "Dharmanagar, Radhapur",
            "postal_code": null,
            "state": "Tripura",
            "country_code": "IN"
        },
        "images": [],
        "link": "https://www.google.com/maps/place/Signal+Bosti+North+Jama+Masjid/data=!4m7!3m6!1s0x3751ed4e95317abd:0xf636996b90d8bfb5!8m2!3d24.3588071!4d92.1691702!16s%2Fg%2F11t6yq8tv1!19sChIJvXoxlU7tUTcRtb_YkGuZNvY?authuser=0&hl=en&rclk=1",
        "coordinates": {
            "latitude": 24.3588071,
            "longitude": 92.1691702
        }
    }
]