[
    {
        "name": "MASJID A NOOR",
        "main_category": "Mosque",
        "address": "62QG+HW3 MASJID A NOOR, Ullapalem Rd, Pakir Palem, Singarayakonda, Andhra Pradesh 523101",
        "detailed_address": {
            "ward": "Pakir Palem",
            "street": "62QG+HW3, Ullapalem Rd",
            "city": "Singarayakonda",
            "postal_code": "523101",
            "state": "Andhra Pradesh",
            "country_code": "IN"
        },
        "images": [
            {
                "about": "All",
                "link": "https://lh5.googleusercontent.com/p/AF1QipPlGIUsbl_3I0mU_zbf6bfJEJ2CcOsMJN2laIW4=w224-h298-k-no"
            }
        ],
        "link": "https://www.google.com/maps/place/MASJID+A+NOOR/data=!4m7!3m6!1s0x3a4b0bec54c75319:0x786b0105345259fa!8m2!3d15.2388856!4d80.0273028!16s%2Fg%2F11g0mkh90x!19sChIJGVPHVOwLSzoR-llSNAUBa3g?authuser=0&hl=en&rclk=1",
        "coordinates": {
            "latitude": 15.2388856,
            "longitude": 80.0273028
        }
    },
    {
        "name": "Mosque",
        "main_category": "Mosque",
        "address": "722C+PFV Mosque, Singarayakonda, Andhra Pradesh 523101",
        "detailed_address": {
            "ward": null,
            "street": "722C+PFV",
            "city": "Singarayakonda",
            "postal_code": "523101",
            "state": "Andhra Pradesh",
            "country_code": "IN"
        },
        "images": [
            {
                "about": "All",
                "link": "https://lh5.googleusercontent.com/p/AF1QipODYIFpZHlec_XgVng_jsnjDlkIz7YJc5g6oWUk=w224-h298-k-no"
            },
            {
                "about": "Dome",
                "link": "https://lh5.googleusercontent.com/p/AF1QipNZ3usOQL0qZ8W9cATN4jDubOCHlHnk4m22-ko9=w503-h298-k-no"
            }
        ],
        "link": "https://www.google.com/maps/place/Mosque/data=!4m7!3m6!1s0x3a4b0b9292895823:0x9951d9c7aabae56!8m2!3d15.2518524!4d80.0211573!16s%2Fg%2F1tfr8m3h!19sChIJI1iJkpILSzoRVq6repwdlQk?authuser=0&hl=en&rclk=1",
        "coordinates": {
            "latitude": 15.251852399999999,
            "longitude": 80.0211573
        }
    },
    {
        "name": "Jamia Maajid",
        "main_category": "Mosque",
        "address": "62QJ+X5V Jamia Maajid, Unnamed Road, Pakir Palem, Singarayakonda, Ravivaripalem, Andhra Pradesh 523104",
        "detailed_address": {
            "ward": "Pakir Palem",
            "street": "62QJ+X5V, Unnamed Road",
            "city": "Singarayakonda, Ravivaripalem",
            "postal_code": "523104",
            "state": "Andhra Pradesh",
            "country_code": "IN"
        },
        "images": [
            {
                "about": "All",
                "link": "https://streetviewpixels-pa.googleapis.com/v1/thumbnail?panoid=uPfEwafmxpjiv3FbQXBomA&cb_client=maps_sv.tactile.gps&w=224&h=298&yaw=30.024822&pitch=0&thumbfov=100"
            },
            {
                "about": "Street View & 360deg",
                "link": "https://streetviewpixels-pa.googleapis.com/v1/thumbnail?panoid=uPfEwafmxpjiv3FbQXBomA&cb_client=maps_sv.tactile.gps&w=224&h=298&yaw=30.024822&pitch=0&thumbfov=100"
            }
        ],
        "link": "https://www.google.com/maps/place/Jamia+Maajid/data=!4m7!3m6!1s0x3a4b0bf1aaed3e3b:0x5793d57b6af1bfe7!8m2!3d15.2399858!4d80.0304202!16s%2Fg%2F11f66j1_k_!19sChIJOz7tqvELSzoR57_xanvVk1c?authuser=0&hl=en&rclk=1",
        "coordinates": {
            "latitude": 15.2399858,
            "longitude": 80.0304202
        }
    },
    {
        "name": "Masjid E Abubakar Balaji Nagar 5 line Singarayakonda",
        "main_category": "Mosque",
        "address": "62R7+H93 Masjid E Abubakar Balaji Nagar 5 line Singarayakonda, Unnamed Road, Singarayakonda, Andhra Pradesh 523101",
        "detailed_address": {
            "ward": null,
            "street": "62R7+H93, Unnamed Road",
            "city": "Singarayakonda",
            "postal_code": "523101",
            "state": "Andhra Pradesh",
            "country_code": "IN"
        },
        "images": [
            {
                "about": "All",
                "link": "https://streetviewpixels-pa.googleapis.com/v1/thumbnail?panoid=1K0bpeYZM65xY_KXYrK_8w&cb_client=maps_sv.tactile.gps&w=224&h=298&yaw=302.22128&pitch=0&thumbfov=100"
            },
            {
                "about": "Street View & 360deg",
                "link": "https://streetviewpixels-pa.googleapis.com/v1/thumbnail?panoid=1K0bpeYZM65xY_KXYrK_8w&cb_client=maps_sv.tactile.gps&w=224&h=298&yaw=302.22128&pitch=0&thumbfov=100"
            }
        ],
        "link": "https://www.google.com/maps/place/Masjid+E+Abubakar+Balaji+Nagar+5+line+Singarayakonda/data=!4m7!3m6!1s0x3a4b0b706453ceb5:0x14ded3758ab0cef!8m2!3d15.2413769!4d80.013424!16s%2Fg%2F11h5s2vm1b!19sChIJtc5TZHALSzoR7wyrWDftTQE?authuser=0&hl=en&rclk=1",
        "coordinates": {
            "latitude": 15.241376899999999,
            "longitude": 80.013424
        }
    },
    {
        "name": "Makka Masjid",
        "main_category": "Mosque",
        "address": "7229+FXJ Makka Masjid, Singarayakonda, Andhra Pradesh 523101",
        "detailed_address": {
            "ward": null,
            "street": "7229+FXJ",
            "city": "Singarayakonda",
            "postal_code": "523101",
            "state": "Andhra Pradesh",
            "country_code": "IN"
        },
        "images": [],
        "link": "https://www.google.com/maps/place/Makka+Masjid/data=!4m7!3m6!1s0x3a4b0b8d7e50394b:0x3bfe35399e387126!8m2!3d15.2512211!4d80.0198952!16s%2Fg%2F11ddxwl06k!19sChIJSzlQfo0LSzoRJnE4njk1_js?authuser=0&hl=en&rclk=1",
        "coordinates": {
            "latitude": 15.251221099999999,
            "longitude": 80.0198952
        }
    },
    {
        "name": "Masjid A umar",
        "main_category": "Mosque",
        "address": "62W8+M2P Masjid A umar, Singarayakonda, Andhra Pradesh 523101",
        "detailed_address": {
            "ward": null,
            "street": "62W8+M2P",
            "city": "Singarayakonda",
            "postal_code": "523101",
            "state": "Andhra Pradesh",
            "country_code": "IN"
        },
        "images": [
            {
                "about": "All",
                "link": "https://lh5.googleusercontent.com/p/AF1QipPfDLjHzdDC6HttK3DKcBBrOasaAMdcKfuTQulm=w638-h298-k-no"
            },
            {
                "about": "Dome",
                "link": "https://lh5.googleusercontent.com/p/AF1QipPq7bZPgLrVVQhyiRXJUFbmOgAIn9Ipx_1F7a7E=w224-h479-k-no"
            },
            {
                "about": "Street View & 360deg",
                "link": "https://streetviewpixels-pa.googleapis.com/v1/thumbnail?panoid=riI3OeLtD3T0TFO7tKbCvQ&cb_client=maps_sv.tactile.gps&w=224&h=298&yaw=223.94159&pitch=0&thumbfov=100"
            }
        ],
        "link": "https://www.google.com/maps/place/Masjid+A+umar/data=!4m7!3m6!1s0x3a4b0bbb142c572d:0xee799e1917f7324!8m2!3d15.247924!4d80.0140752!16s%2Fg%2F11rwlggrgq!19sChIJLVcsFLsLSzoRJHN_keGZ5w4?authuser=0&hl=en&rclk=1",
        "coordinates": {
            "latitude": 15.247924,
            "longitude": 80.0140752
        }
    },
    {
        "name": "Makka Masjid",
        "main_category": "Mosque",
        "address": "7228+6F6 Makka Masjid, Singarayakonda, Andhra Pradesh 523101",
        "detailed_address": {
            "ward": null,
            "street": "7228+6F6",
            "city": "Singarayakonda",
            "postal_code": "523101",
            "state": "Andhra Pradesh",
            "country_code": "IN"
        },
        "images": [
            {
                "about": "All",
                "link": "https://lh5.googleusercontent.com/p/AF1QipMyXVjfyH6FAjp4HH-HpR2kthaBYJqPOPaoGqrY=w662-h298-k-no"
            },
            {
                "about": "Street View & 360deg",
                "link": "https://streetviewpixels-pa.googleapis.com/v1/thumbnail?panoid=Ll6IRitZCoeaoLAilx1IKg&cb_client=maps_sv.tactile.gps&w=224&h=298&yaw=230.89282&pitch=0&thumbfov=100"
            }
        ],
        "link": "https://www.google.com/maps/place/Makka+Masjid/data=!4m7!3m6!1s0x3a4b0b8c596ce807:0x461875c1de69ff95!8m2!3d15.2505346!4d80.016153!16s%2Fg%2F11dzt3nz4s!19sChIJB-hsWYwLSzoRlf9p3sF1GEY?authuser=0&hl=en&rclk=1",
        "coordinates": {
            "latitude": 15.2505346,
            "longitude": 80.016153
        }
    },
    {
        "name": "Madina Masjid",
        "main_category": "Mosque",
        "address": "62X8+PGC Madina Masjid, shadikhana Road, Singarayakonda, Andhra Pradesh 523101",
        "detailed_address": {
            "ward": null,
            "street": "62X8+PGC, shadikhana Road",
            "city": "Singarayakonda",
            "postal_code": "523101",
            "state": "Andhra Pradesh",
            "country_code": "IN"
        },
        "images": [
            {
                "about": "All",
                "link": "https://lh5.googleusercontent.com/p/AF1QipPjYTjSLPGjE2FP7zREkVWfqN2bml7s7NMTPlFD=w613-h298-k-no"
            },
            {
                "about": "Street View & 360deg",
                "link": "https://streetviewpixels-pa.googleapis.com/v1/thumbnail?panoid=6qCLqOTQfRLBXKMyC2uRKw&cb_client=maps_sv.tactile.gps&w=224&h=298&yaw=264.8317&pitch=0&thumbfov=100"
            }
        ],
        "link": "https://www.google.com/maps/place/Madina+Masjid/data=!4m7!3m6!1s0x3a4b0b1e327f616f:0x974caf3b93d570a3!8m2!3d15.2493052!4d80.0162735!16s%2Fg%2F11gy3mmgp3!19sChIJb2F_Mh4LSzoRo3DVkzuvTJc?authuser=0&hl=en&rclk=1",
        "coordinates": {
            "latitude": 15.249305199999998,
            "longitude": 80.0162735
        }
    }
]