[
    {
        "name": "Mosque msjd",
        "main_category": "Mosque",
        "address": "Q3JR+372 Mosque msjd, Venkateswara Temple St, Paralakhemundi, Odisha 761200",
        "detailed_address": {
            "ward": null,
            "street": "Q3JR+372, Venkateswara Temple St",
            "city": "Paralakhemundi",
            "postal_code": "761200",
            "state": "Odisha",
            "country_code": "IN"
        },
        "images": [
            {
                "about": "All",
                "link": "https://lh5.googleusercontent.com/p/AF1QipNpbR9hNJpfiWM8oS9StuyhMWEMSXZLYBLN1Urb=w224-h398-k-no"
            }
        ],
        "link": "https://www.google.com/maps/place/Mosque+%D9%85%D8%B3%D8%AC%D8%AF%E2%80%AD/data=!4m7!3m6!1s0x3a3cf768a98515e9:0xa5ec2a61384f9010!8m2!3d18.7801289!4d84.0906356!16s%2Fg%2F1262gn785!19sChIJ6RWFqWj3PDoREJBPOGEq7KU?authuser=0&hl=en&rclk=1",
        "coordinates": {
            "latitude": 18.780128899999998,
            "longitude": 84.0906356
        }
    },
    {
        "name": "Madina Maszid",
        "main_category": "Mosque",
        "address": "Q3HR+R3P Madina Maszid, Paralakhemundi, Odisha 761200",
        "detailed_address": {
            "ward": null,
            "street": "Q3HR+R3P",
            "city": "Paralakhemundi",
            "postal_code": null,
            "state": "Odisha",
            "country_code": "IN"
        },
        "images": [
            {
                "about": "All",
                "link": "https://lh5.googleusercontent.com/p/AF1QipOYlnmOfUtTsKr6T18ZvABldNL9j-4GMZIrCbv_=w542-h298-k-no"
            }
        ],
        "link": "https://www.google.com/maps/place/Madina+Maszid/data=!4m7!3m6!1s0x3a3cf76f52efff45:0x7573838ccd175b29!8m2!3d18.7795776!4d84.090188!16s%2Fg%2F11hchwl0gv!19sChIJRf_vUm_3PDoRKVsXzYyDc3U?authuser=0&hl=en&rclk=1",
        "coordinates": {
            "latitude": 18.7795776,
            "longitude": 84.090188
        }
    },
    {
        "name": "Noorani Masjid",
        "main_category": "Mosque",
        "address": "Q3GX+48 Noorani Masjid, Paralakhemundi, Odisha 761200",
        "detailed_address": {
            "ward": null,
            "street": "Q3GX+48",
            "city": "Paralakhemundi",
            "postal_code": null,
            "state": "Odisha",
            "country_code": "IN"
        },
        "images": [
            {
                "about": "All",
                "link": "https://lh5.googleusercontent.com/p/AF1QipO2cqqsPtpMZShWWu2V2ajd18zuOz6KjaQt5uO8=w529-h298-k-no"
            }
        ],
        "link": "https://www.google.com/maps/place/Noorani+Masjid/data=!4m7!3m6!1s0x3a3cf749c0efe70d:0xdb976e85015312e!8m2!3d18.7753226!4d84.0982579!16s%2Fg%2F11snyp0kzk!19sChIJDefvwEn3PDoRLjEVUOh2uQ0?authuser=0&hl=en&rclk=1",
        "coordinates": {
            "latitude": 18.7753226,
            "longitude": 84.0982579
        }
    },
    {
        "name": "Jamia masjid",
        "main_category": "Mosque",
        "address": "Q3HR+42M Jamia masjid, Erdola St, Paralakhemundi, Odisha 761200",
        "detailed_address": {
            "ward": null,
            "street": "Q3HR+42M, Erdola St",
            "city": "Paralakhemundi",
            "postal_code": "761200",
            "state": "Odisha",
            "country_code": "IN"
        },
        "images": [],
        "link": "https://www.google.com/maps/place/Jamia+masjid/data=!4m7!3m6!1s0x3a3cf776a58ce1b7:0x397ef8d483485da3!8m2!3d18.7777133!4d84.0898718!16s%2Fg%2F11k44wwtxr!19sChIJt-GMpXb3PDoRo11Ig9T4fjk?authuser=0&hl=en&rclk=1",
        "coordinates": {
            "latitude": 18.7777133,
            "longitude": 84.0898718
        }
    }
]