[
    {
        "name": "Masjid-ur-Rahma",
        "main_category": "Mosque",
        "address": "Masjid-ur-Rahma, Bypass road, Payyanur Near BKM Hospital, Payyanur, Kerala 670307",
        "detailed_address": {
            "ward": null,
            "street": "Bypass road, Payyanur Near BKM Hospital",
            "city": "Payyanur",
            "postal_code": "670307",
            "state": "Kerala",
            "country_code": "IN"
        },
        "images": [
            {
                "about": "All",
                "link": "https://lh5.googleusercontent.com/p/AF1QipM8DiMneE-QJvRRM2AjIiUZ-_pIjp86Psqg8346=w297-h298-k-no"
            },
            {
                "about": "By owner",
                "link": "https://lh5.googleusercontent.com/p/AF1QipNNUiXjIYyAUv4TxNOhKvaPKR7SWpwynuU4cl5e=w485-h298-k-no"
            }
        ],
        "link": "https://www.google.com/maps/place/Masjid-ur-Rahma/data=!4m7!3m6!1s0x3ba46c35a7a6b569:0xce5cae447f74e935!8m2!3d12.1065849!4d75.2042904!16s%2Fg%2F11bw5xtp3_!19sChIJabWmpzVspDsRNel0f0SuXM4?authuser=0&hl=en&rclk=1",
        "coordinates": {
            "latitude": 12.1065849,
            "longitude": 75.20429039999999
        }
    },
    {
        "name": "Badar Juma Masjid, Keloth",
        "main_category": "Mosque",
        "address": "4632+MFP Badar Juma Masjid, Keloth, Payyanur, Kerala 670307",
        "detailed_address": {
            "ward": null,
            "street": "4632+MFP",
            "city": "Payyanur",
            "postal_code": "670307",
            "state": "Kerala",
            "country_code": "IN"
        },
        "images": [
            {
                "about": "All",
                "link": "https://lh5.googleusercontent.com/p/AF1QipPjn6LCgT9lzidq_h1jbOTV83VEsGI_MjJipQgN=w224-h298-k-no"
            },
            {
                "about": "Street View & 360deg",
                "link": "https://streetviewpixels-pa.googleapis.com/v1/thumbnail?panoid=a9aFWVaAlnHuXmriqRL-zQ&cb_client=maps_sv.tactile.gps&w=224&h=298&yaw=290.5992&pitch=0&thumbfov=100"
            }
        ],
        "link": "https://www.google.com/maps/place/Badar+Juma+Masjid,+Keloth/data=!4m7!3m6!1s0x3ba46dcaa9d97947:0xa70108bb7979b168!8m2!3d12.1042031!4d75.2012028!16s%2Fg%2F124t21_x0!19sChIJR3nZqcptpDsRaLF5ebsIAac?authuser=0&hl=en&rclk=1",
        "coordinates": {
            "latitude": 12.1042031,
            "longitude": 75.20120279999999
        }
    },
    {
        "name": "Perumba Juma Masjid",
        "main_category": "Mosque",
        "address": "4688+5M9 Perumba Juma Masjid, Payyanur, Kerala 670307",
        "detailed_address": {
            "ward": null,
            "street": "4688+5M9",
            "city": "Payyanur",
            "postal_code": "670307",
            "state": "Kerala",
            "country_code": "IN"
        },
        "images": [
            {
                "about": "All",
                "link": "https://lh5.googleusercontent.com/p/AF1QipOFPOyA62g4t7O0DX8HEJjb7A4IHYsqrU0fhHC3=w397-h298-k-no"
            },
            {
                "about": "Dome",
                "link": "https://lh5.googleusercontent.com/p/AF1QipPOUfu_ZK8IzL9x2DDrxwNEhwe2OUnaJwrD4lYf=w224-h298-k-no"
            },
            {
                "about": "Videos",
                "link": "https://lh5.googleusercontent.com/p/AF1QipPPiJsFfNgtxKkTXD2kkkjupXTimzSFY7v_0g5X=w529-h298-k-no"
            }
        ],
        "link": "https://www.google.com/maps/place/Perumba+Juma+Masjid/data=!4m7!3m6!1s0x3ba46c3b104476d7:0x9892e5eebfe01278!8m2!3d12.1154069!4d75.2167324!16s%2Fg%2F1hjgl_40r!19sChIJ13ZEEDtspDsReBLgv-7lkpg?authuser=0&hl=en&rclk=1",
        "coordinates": {
            "latitude": 12.1154069,
            "longitude": 75.2167324
        }
    },
    {
        "name": "Salafi Masjid",
        "main_category": "Mosque",
        "address": "4645+953 Salafi Masjid, Payyanur, Kerala 670307",
        "detailed_address": {
            "ward": null,
            "street": "4645+953",
            "city": "Payyanur",
            "postal_code": "670307",
            "state": "Kerala",
            "country_code": "IN"
        },
        "images": [
            {
                "about": "All",
                "link": "https://lh5.googleusercontent.com/p/AF1QipPI3HGG_QjCYdTIuEOGltRFSD49x0WQoTisnkk8=w224-h298-k-no"
            }
        ],
        "link": "https://www.google.com/maps/place/Salafi+Masjid/data=!4m7!3m6!1s0x3ba46c360b732d43:0x18763fc8785f05f5!8m2!3d12.1058896!4d75.2079262!16s%2Fg%2F1v6wmrjk!19sChIJQy1zCzZspDsR9QVfeMg_dhg?authuser=0&hl=en&rclk=1",
        "coordinates": {
            "latitude": 12.1058896,
            "longitude": 75.2079262
        }
    },
    {
        "name": "Jalaliyya Juma Masjid",
        "main_category": "Mosque",
        "address": "462H+V5R Jalaliyya Juma Masjid, Edat, Kunhimangalam, Kerala 670327",
        "detailed_address": {
            "ward": "Edat",
            "street": "462H+V5R",
            "city": "Kunhimangalam",
            "postal_code": "670327",
            "state": "Kerala",
            "country_code": "IN"
        },
        "images": [
            {
                "about": "All",
                "link": "https://lh5.googleusercontent.com/p/AF1QipM2UfULBEo2SThW7lt6gQ3nCp7fsjmN_orLzVf5=w397-h298-k-no"
            },
            {
                "about": "Street View & 360deg",
                "link": "https://streetviewpixels-pa.googleapis.com/v1/thumbnail?panoid=nMrL5_gD5_zsj8HUIIL9Zw&cb_client=maps_sv.tactile.gps&w=224&h=298&yaw=234.72409&pitch=0&thumbfov=100"
            }
        ],
        "link": "https://www.google.com/maps/place/Jalaliyya+Juma+Masjid/data=!4m7!3m6!1s0x3ba46c6bb182f0d9:0xc4f91d322c5d234a!8m2!3d12.102227!4d75.2278871!16s%2Fg%2F11c5b2rhr1!19sChIJ2fCCsWtspDsRSiNdLDId-cQ?authuser=0&hl=en&rclk=1",
        "coordinates": {
            "latitude": 12.102227,
            "longitude": 75.22788709999999
        }
    },
    {
        "name": "Thayineri Juma Masjid",
        "main_category": "Mosque",
        "address": "458X+XVH Thayineri Juma Masjid, Thayineri Road, Thrikaripur, Kerala 670307",
        "detailed_address": {
            "ward": null,
            "street": "458X+XVH, Thayineri Road",
            "city": "Thrikaripur",
            "postal_code": "670307",
            "state": "Kerala",
            "country_code": "IN"
        },
        "images": [
            {
                "about": "All",
                "link": "https://lh5.googleusercontent.com/p/AF1QipOnghfkQOy6YYmlQSLbAu9GB5YYl_Z8yDcE_1FC=w224-h298-k-no"
            },
            {
                "about": "Dome",
                "link": "https://lh5.googleusercontent.com/p/AF1QipP2gwjoSFHoxv4M0XVL7je1ZbylPLAHrfW4rVRd=w511-h298-k-no"
            },
            {
                "about": "Street View & 360deg",
                "link": "https://streetviewpixels-pa.googleapis.com/v1/thumbnail?panoid=WbQwuE5jO8E-CfX1slZmjg&cb_client=maps_sv.tactile.gps&w=224&h=298&yaw=329.09305&pitch=0&thumbfov=100"
            }
        ],
        "link": "https://www.google.com/maps/place/Thayineri+Juma+Masjid/data=!4m7!3m6!1s0x3ba46dcd38896aa1:0x95151f63dc9e61fc!8m2!3d12.1174373!4d75.1997447!16s%2Fg%2F1tg9fz_c!19sChIJoWqJOM1tpDsR_GGe3GMfFZU?authuser=0&hl=en&rclk=1",
        "coordinates": {
            "latitude": 12.117437299999999,
            "longitude": 75.1997447
        }
    },
    {
        "name": "Kavvayi Juma Masjid",
        "main_category": "Mosque",
        "address": "35VJ+875 Kavvayi Juma Masjid, kavvayi, Payyanur, Kerala 670307",
        "detailed_address": {
            "ward": null,
            "street": "35VJ+875, kavvayi",
            "city": "Payyanur",
            "postal_code": "670307",
            "state": "Kerala",
            "country_code": "IN"
        },
        "images": [
            {
                "about": "All",
                "link": "https://lh5.googleusercontent.com/p/AF1QipMYtf27X2e8gsXTzslB2wY5HfAVipSgdQyZLqVz=w645-h298-k-no"
            },
            {
                "about": "Street View & 360deg",
                "link": "https://lh5.googleusercontent.com/p/AF1QipNk_I_FstfYsjiI8_GbSLHoGKnwbqn-qSDqTI3Y=w224-h298-k-no-pi0-ya339-ro-0-fo100"
            }
        ],
        "link": "https://www.google.com/maps/place/Kavvayi+Juma+Masjid/data=!4m7!3m6!1s0x3ba46dbd20bb7cb5:0xf7a9e9e5559b7048!8m2!3d12.0932654!4d75.1807332!16s%2Fg%2F11g6s886fg!19sChIJtXy7IL1tpDsRSHCbVeXpqfc?authuser=0&hl=en&rclk=1",
        "coordinates": {
            "latitude": 12.0932654,
            "longitude": 75.18073319999999
        }
    },
    {
        "name": "Payyanur town Juma Masjid",
        "main_category": "Mosque",
        "address": "4645+PH9 Payyanur town Juma Masjid, Payyanur, Kerala 670307",
        "detailed_address": {
            "ward": null,
            "street": "4645+PH9",
            "city": "Payyanur",
            "postal_code": "670307",
            "state": "Kerala",
            "country_code": "IN"
        },
        "images": [
            {
                "about": "All",
                "link": "https://lh5.googleusercontent.com/p/AF1QipOffG5oXLlBZQDSWh5KgaQpUEGaArjeO17atSfT=w224-h298-k-no"
            },
            {
                "about": "Street View & 360deg",
                "link": "https://streetviewpixels-pa.googleapis.com/v1/thumbnail?panoid=mRUNU4HfhrKt8bs_4xOzaA&cb_client=maps_sv.tactile.gps&w=224&h=298&yaw=1.1514305&pitch=0&thumbfov=100"
            }
        ],
        "link": "https://www.google.com/maps/place/Payyanur+town+Juma+Masjid/data=!4m7!3m6!1s0x3ba46c3668bbb08d:0x1d6dda15ad388556!8m2!3d12.1067952!4d75.2089828!16s%2Fg%2F124sy21s8!19sChIJjbC7aDZspDsRVoU4rRXabR0?authuser=0&hl=en&rclk=1",
        "coordinates": {
            "latitude": 12.106795199999999,
            "longitude": 75.2089828
        }
    },
    {
        "name": "Payyanur Gate Juma Masjid",
        "main_category": "Mosque",
        "address": "35XV+2HR Payyanur Gate Juma Masjid, Payyanur, Kerala 670307",
        "detailed_address": {
            "ward": null,
            "street": "35XV+2HR",
            "city": "Payyanur",
            "postal_code": "670307",
            "state": "Kerala",
            "country_code": "IN"
        },
        "images": [
            {
                "about": "All",
                "link": "https://lh5.googleusercontent.com/p/AF1QipNi0Ic0-E0JnkwtH230CbQ2hf55dsLKuOb4hFb7=w397-h298-k-no"
            },
            {
                "about": "Street View & 360deg",
                "link": "https://streetviewpixels-pa.googleapis.com/v1/thumbnail?panoid=E2IqRAD0K9qYzI_pKOqILw&cb_client=maps_sv.tactile.gps&w=224&h=298&yaw=132.9625&pitch=0&thumbfov=100"
            }
        ],
        "link": "https://www.google.com/maps/place/Payyanur+Gate+Juma+Masjid/data=!4m7!3m6!1s0x3ba46db14842c0bb:0x637c57ce7c49a862!8m2!3d12.0976162!4d75.1938783!16s%2Fg%2F124t0q3d9!19sChIJu8BCSLFtpDsRYqhJfM5XfGM?authuser=0&hl=en&rclk=1",
        "coordinates": {
            "latitude": 12.0976162,
            "longitude": 75.1938783
        }
    },
    {
        "name": "Kara Masjid",
        "main_category": "Mosque",
        "address": "45CX+6H3 Kara Masjid, Payyanur, Kerala 670307",
        "detailed_address": {
            "ward": null,
            "street": "45CX+6H3",
            "city": "Payyanur",
            "postal_code": "670307",
            "state": "Kerala",
            "country_code": "IN"
        },
        "images": [
            {
                "about": "All",
                "link": "https://streetviewpixels-pa.googleapis.com/v1/thumbnail?panoid=VzNvowvnE9_smLjV9P2WvQ&cb_client=maps_sv.tactile.gps&w=224&h=298&yaw=50.901028&pitch=0&thumbfov=100"
            },
            {
                "about": "Street View & 360deg",
                "link": "https://streetviewpixels-pa.googleapis.com/v1/thumbnail?panoid=VzNvowvnE9_smLjV9P2WvQ&cb_client=maps_sv.tactile.gps&w=224&h=298&yaw=50.901028&pitch=0&thumbfov=100"
            }
        ],
        "link": "https://www.google.com/maps/place/Kara+Masjid/data=!4m7!3m6!1s0x3ba46dd37b055387:0xd24851caa05c2721!8m2!3d12.1205203!4d75.1989063!16s%2Fg%2F11cs4fnsnm!19sChIJh1MFe9NtpDsRISdcoMpRSNI?authuser=0&hl=en&rclk=1",
        "coordinates": {
            "latitude": 12.120520299999999,
            "longitude": 75.19890629999999
        }
    },
    {
        "name": "Muhyuddin Masjid",
        "main_category": "Mosque",
        "address": "4669+9C2 Muhyuddin Masjid, Perumba, Payyanur, Kerala 670307",
        "detailed_address": {
            "ward": "Perumba",
            "street": "4669+9C2",
            "city": "Payyanur",
            "postal_code": "670307",
            "state": "Kerala",
            "country_code": "IN"
        },
        "images": [
            {
                "about": "All",
                "link": "https://lh5.googleusercontent.com/p/AF1QipNb9mk1tEVlj_1dx6c_E8gWn5E7xcGgs9xlW2MR=w397-h298-k-no"
            },
            {
                "about": "Dome",
                "link": "https://lh5.googleusercontent.com/p/AF1QipMBuhn5SMpH6919qSWpnjAtcNVqUdrKzQST4tvd=w224-h298-k-no"
            },
            {
                "about": "Videos",
                "link": "https://lh5.googleusercontent.com/p/AF1QipNzuXEEnIKnDOhBm42tz5G_jNQxHkjyGAfknrWB=w224-h398-k-no"
            },
            {
                "about": "Street View & 360deg",
                "link": "https://streetviewpixels-pa.googleapis.com/v1/thumbnail?panoid=6IqDX5uVJl_TGccTjzbdmQ&cb_client=maps_sv.tactile.gps&w=224&h=298&yaw=295.33862&pitch=0&thumbfov=100"
            }
        ],
        "link": "https://www.google.com/maps/place/Muhyuddin+Masjid/data=!4m7!3m6!1s0x3ba46c3954fdb12b:0x51373f2b2cbd8a1!8m2!3d12.1108816!4d75.2185066!16s%2Fg%2F1hjgt9mqq!19sChIJK7H9VDlspDsRodjLsvJzEwU?authuser=0&hl=en&rclk=1",
        "coordinates": {
            "latitude": 12.110881599999999,
            "longitude": 75.2185066
        }
    },
    {
        "name": "Maniyara Juma Masjid",
        "main_category": "Mosque",
        "address": "47CG+HRQ Maniyara Juma Masjid, Payyannur-Maniyara Rd, Payyanur, Maniyara, Kerala 670307",
        "detailed_address": {
            "ward": null,
            "street": "47CG+HRQ, Payyannur-Maniyara Rd",
            "city": "Payyanur, Maniyara",
            "postal_code": "670307",
            "state": "Kerala",
            "country_code": "IN"
        },
        "images": [
            {
                "about": "All",
                "link": "https://lh5.googleusercontent.com/p/AF1QipMHTidTBHtolfMx0kFf4SEBX8jUkZRswg9LK2tG=w529-h298-k-no"
            }
        ],
        "link": "https://www.google.com/maps/place/Maniyara+Juma+Masjid/data=!4m7!3m6!1s0x3ba46bdb7c3f83ed:0xa32517f92396c181!8m2!3d12.1214568!4d75.277123!16s%2Fg%2F11g6_6gzcc!19sChIJ7YM_fNtrpDsRgcGWI_kXJaM?authuser=0&hl=en&rclk=1",
        "coordinates": {
            "latitude": 12.121456799999999,
            "longitude": 75.277123
        }
    },
    {
        "name": "RIFAI JUMA MASJID PUNCHAKKAD",
        "main_category": "Mosque",
        "address": "35JV+GMC RIFAI JUMA MASJID PUNCHAKKAD, Ezhimala Payyanur Rd, Kerala 670307",
        "detailed_address": {
            "ward": null,
            "street": "35JV+GMC, Ezhimala Payyanur Rd",
            "city": null,
            "postal_code": "670307",
            "state": "Kerala",
            "country_code": "IN"
        },
        "images": [
            {
                "about": "All",
                "link": "https://lh5.googleusercontent.com/p/AF1QipOr5H3y80rjsZMsN_t5KHqfw185Mv2WuYqqGBfE=w224-h298-k-no"
            },
            {
                "about": "Street View & 360deg",
                "link": "https://streetviewpixels-pa.googleapis.com/v1/thumbnail?panoid=sxsbSfzN9HLrocJPmdra8w&cb_client=maps_sv.tactile.gps&w=224&h=298&yaw=266.91455&pitch=0&thumbfov=100"
            },
            {
                "about": "Videos",
                "link": "https://lh5.googleusercontent.com/p/AF1QipPtL0jXh-yt_9Ujm5OqdqCYOxFAVkAdgsgzstP4=w224-h398-k-no"
            }
        ],
        "link": "https://www.google.com/maps/place/RIFAI+JUMA+MASJID+PUNCHAKKAD/data=!4m7!3m6!1s0x3ba46da9de9890dd:0xb9bc6f5efbd748f!8m2!3d12.0813149!4d75.1941365!16s%2Fg%2F1ptyp9dmh!19sChIJ3ZCY3qltpDsRj3S97_XGmws?authuser=0&hl=en&rclk=1",
        "coordinates": {
            "latitude": 12.081314899999999,
            "longitude": 75.1941365
        }
    },
    {
        "name": "JUMA MASJID",
        "main_category": "Mosque",
        "address": "4643+PJ4 JUMA MASJID, Payyanur, Kerala 670307",
        "detailed_address": {
            "ward": null,
            "street": "4643+PJ4",
            "city": "Payyanur",
            "postal_code": "670307",
            "state": "Kerala",
            "country_code": "IN"
        },
        "images": [],
        "link": "https://www.google.com/maps/place/JUMA+MASJID%F0%9F%99%8F/data=!4m7!3m6!1s0x3ba46c35a820167b:0x7a5a5107eefaf8ba!8m2!3d12.1067582!4d75.2040655!16s%2Fg%2F11c2q8q8kh!19sChIJexYgqDVspDsRuvj67gdRWno?authuser=0&hl=en&rclk=1",
        "coordinates": {
            "latitude": 12.1067582,
            "longitude": 75.2040655
        }
    },
    {
        "name": "Muhyudheen Masjid",
        "main_category": "Mosque",
        "address": "35QJ+XFF Muhyudheen Masjid, Kavvayi, Payyanur, Kerala",
        "detailed_address": {
            "ward": null,
            "street": "35QJ+XFF, Kavvayi",
            "city": "Payyanur",
            "postal_code": null,
            "state": "Kerala",
            "country_code": "IN"
        },
        "images": [
            {
                "about": "All",
                "link": "https://streetviewpixels-pa.googleapis.com/v1/thumbnail?panoid=G-xNvVxOSlloG_7ZG557DQ&cb_client=maps_sv.tactile.gps&w=224&h=298&yaw=24.993666&pitch=0&thumbfov=100"
            },
            {
                "about": "Street View & 360deg",
                "link": "https://streetviewpixels-pa.googleapis.com/v1/thumbnail?panoid=G-xNvVxOSlloG_7ZG557DQ&cb_client=maps_sv.tactile.gps&w=224&h=298&yaw=24.993666&pitch=0&thumbfov=100"
            }
        ],
        "link": "https://www.google.com/maps/place/Muhyudheen+Masjid/data=!4m7!3m6!1s0x3ba46da240000001:0xbeee7b75c30b1543!8m2!3d12.0899467!4d75.1811875!16s%2Fg%2F11dyv9p1pk!19sChIJAQAAQKJtpDsRQxULw3V77r4?authuser=0&hl=en&rclk=1",
        "coordinates": {
            "latitude": 12.089946699999999,
            "longitude": 75.1811875
        }
    },
    {
        "name": "Noor Masjid",
        "main_category": "Mosque",
        "address": "4662+63P Noor Masjid, Thayineri Road, Payyanur, Kerala 670307",
        "detailed_address": {
            "ward": null,
            "street": "4662+63P, Thayineri Road",
            "city": "Payyanur",
            "postal_code": "670307",
            "state": "Kerala",
            "country_code": "IN"
        },
        "images": [],
        "link": "https://www.google.com/maps/place/Noor+Masjid/data=!4m7!3m6!1s0x3ba46dcc871b4df5:0x6c9c7e8a9a191db0!8m2!3d12.1105821!4d75.2001886!16s%2Fg%2F11bzt4hvt1!19sChIJ9U0bh8xtpDsRsB0Zmop-nGw?authuser=0&hl=en&rclk=1",
        "coordinates": {
            "latitude": 12.1105821,
            "longitude": 75.20018859999999
        }
    },
    {
        "name": "Sunni Masjid (Skssf)",
        "main_category": "Mosque",
        "address": "4645+736 Sunni Masjid (Skssf), Payyanur, Kerala 670307",
        "detailed_address": {
            "ward": null,
            "street": "4645+736",
            "city": "Payyanur",
            "postal_code": "670307",
            "state": "Kerala",
            "country_code": "IN"
        },
        "images": [
            {
                "about": "All",
                "link": "https://lh5.googleusercontent.com/p/AF1QipOlFgd-V0163wwhPNMkxlXDxrP0hjZCtgUrFuSr=w224-h298-k-no"
            },
            {
                "about": "Street View & 360deg",
                "link": "https://streetviewpixels-pa.googleapis.com/v1/thumbnail?panoid=upXQ-0bbagXxROt5y7q_vg&cb_client=maps_sv.tactile.gps&w=224&h=298&yaw=101.82936&pitch=0&thumbfov=100"
            }
        ],
        "link": "https://www.google.com/maps/place/Sunni+Masjid+%28Skssf%29/data=!4m7!3m6!1s0x3ba46c360884e587:0x8d05db4e2fdbb3fe!8m2!3d12.1056697!4d75.2076459!16s%2Fg%2F124srx3g_!19sChIJh-WECDZspDsR_rPbL07bBY0?authuser=0&hl=en&rclk=1",
        "coordinates": {
            "latitude": 12.1056697,
            "longitude": 75.2076459
        }
    },
    {
        "name": "Ya'koob Yousuf Masjid",
        "main_category": "Mosque",
        "address": "455X+Q73 Ya'koob Yousuf Masjid, Thayineri Road, Payyanur, Kerala 670307",
        "detailed_address": {
            "ward": null,
            "street": "455X+Q73, Thayineri Road",
            "city": "Payyanur",
            "postal_code": "670307",
            "state": "Kerala",
            "country_code": "IN"
        },
        "images": [],
        "link": "https://www.google.com/maps/place/Ya%27koob+Yousuf+Masjid/data=!4m7!3m6!1s0x3ba46dcb824573bd:0xfa6d85bd903571bc!8m2!3d12.1093816!4d75.1981796!16s%2Fg%2F11bztdp9hq!19sChIJvXNFgsttpDsRvHE1kL2Fbfo?authuser=0&hl=en&rclk=1",
        "coordinates": {
            "latitude": 12.109381599999999,
            "longitude": 75.1981796
        }
    },
    {
        "name": "Badar Masjid",
        "main_category": "Mosque",
        "address": "4658+5VQ Badar Masjid, Payyanur, Kerala 670307",
        "detailed_address": {
            "ward": null,
            "street": "4658+5VQ",
            "city": "Payyanur",
            "postal_code": "670307",
            "state": "Kerala",
            "country_code": "IN"
        },
        "images": [
            {
                "about": "All",
                "link": "https://lh5.googleusercontent.com/p/AF1QipNPJoLphbY31433hzieThszxU3GQhzzubupXLBk=w224-h298-k-no"
            }
        ],
        "link": "https://www.google.com/maps/place/Badar+Masjid/data=!4m7!3m6!1s0x3ba46c38e073c8f3:0x74605c7d6577024c!8m2!3d12.1079714!4d75.2172441!16s%2Fg%2F11g7yc8hng!19sChIJ88hz4DhspDsRTAJ3ZX1cYHQ?authuser=0&hl=en&rclk=1",
        "coordinates": {
            "latitude": 12.1079714,
            "longitude": 75.2172441
        }
    },
    {
        "name": "RifaIyyah Masjid",
        "main_category": "Mosque",
        "address": "46GF+GVW RifaIyyah Masjid, Korom Rd, Perumba, Payyanur, Korom, Kerala 670307",
        "detailed_address": {
            "ward": "Perumba",
            "street": "46GF+GVW, Korom Rd",
            "city": "Payyanur, Korom",
            "postal_code": "670307",
            "state": "Kerala",
            "country_code": "IN"
        },
        "images": [
            {
                "about": "All",
                "link": "https://lh5.googleusercontent.com/p/AF1QipOiwvJ6t1mdEXZUwIQSpdcBFz_Ytkp_4Qjw-gAc=w529-h298-k-no"
            },
            {
                "about": "Street View & 360deg",
                "link": "https://streetviewpixels-pa.googleapis.com/v1/thumbnail?panoid=bYX3-ZFd7FTtFnEKCopDog&cb_client=maps_sv.tactile.gps&w=224&h=298&yaw=255.94579&pitch=0&thumbfov=100"
            }
        ],
        "link": "https://www.google.com/maps/place/RifaIyyah+Masjid/data=!4m7!3m6!1s0x3ba46c1f8a3b51c3:0xbc4334d0104740df!8m2!3d12.1263564!4d75.2246952!16s%2Fg%2F11ggnb94_g!19sChIJw1E7ih9spDsR30BHENA0Q7w?authuser=0&hl=en&rclk=1",
        "coordinates": {
            "latitude": 12.126356399999999,
            "longitude": 75.2246952
        }
    },
    {
        "name": "BILAL MASJID PAYYANNUR",
        "main_category": "Mosque",
        "address": "4645+636 BILAL MASJID PAYYANNUR, Payyanur, Kerala 670307",
        "detailed_address": {
            "ward": null,
            "street": "4645+636",
            "city": "Payyanur",
            "postal_code": "670307",
            "state": "Kerala",
            "country_code": "IN"
        },
        "images": [
            {
                "about": "All",
                "link": "https://streetviewpixels-pa.googleapis.com/v1/thumbnail?panoid=ze9ZCrbGRlBBo4tWehiwAQ&cb_client=maps_sv.tactile.gps&w=224&h=298&yaw=105.609474&pitch=0&thumbfov=100"
            },
            {
                "about": "Street View & 360deg",
                "link": "https://streetviewpixels-pa.googleapis.com/v1/thumbnail?panoid=ze9ZCrbGRlBBo4tWehiwAQ&cb_client=maps_sv.tactile.gps&w=224&h=298&yaw=105.609474&pitch=0&thumbfov=100"
            }
        ],
        "link": "https://www.google.com/maps/place/BILAL+MASJID+PAYYANNUR/data=!4m7!3m6!1s0x3ba46c360f82a26b:0xcc07ce687a4cc915!8m2!3d12.105538!4d75.2076471!16s%2Fg%2F11c5z_dtq1!19sChIJa6KCDzZspDsRFclMemjOB8w?authuser=0&hl=en&rclk=1",
        "coordinates": {
            "latitude": 12.105538,
            "longitude": 75.2076471
        }
    },
    {
        "name": "HAIDROSE MASJID",
        "main_category": "Mosque",
        "address": "35RP+P4V HAIDROSE MASJID, Kavvayi, Payyanur, Kerala 671311",
        "detailed_address": {
            "ward": "Kavvayi",
            "street": "35RP+P4V",
            "city": "Payyanur",
            "postal_code": null,
            "state": "Kerala",
            "country_code": "IN"
        },
        "images": [
            {
                "about": "All",
                "link": "https://streetviewpixels-pa.googleapis.com/v1/thumbnail?panoid=GKjdTLYv5qVHKZ_pbs39vA&cb_client=maps_sv.tactile.gps&w=224&h=298&yaw=165.46619&pitch=0&thumbfov=100"
            },
            {
                "about": "Street View & 360deg",
                "link": "https://streetviewpixels-pa.googleapis.com/v1/thumbnail?panoid=GKjdTLYv5qVHKZ_pbs39vA&cb_client=maps_sv.tactile.gps&w=224&h=298&yaw=165.46619&pitch=0&thumbfov=100"
            }
        ],
        "link": "https://www.google.com/maps/place/HAIDROSE+MASJID/data=!4m7!3m6!1s0x3ba46ddf4b6a39dd:0xd1668386ce9ab91e!8m2!3d12.0918642!4d75.1852905!16s%2Fg%2F11ghqcg0j6!19sChIJ3TlqS99tpDsRHrmazoaDZtE?authuser=0&hl=en&rclk=1",
        "coordinates": {
            "latitude": 12.0918642,
            "longitude": 75.1852905
        }
    },
    {
        "name": "Masjid A.P",
        "main_category": "Mosque",
        "address": "4657+FRX Masjid A.P, Payyanur, Kerala 670307",
        "detailed_address": {
            "ward": null,
            "street": "4657+FRX",
            "city": "Payyanur",
            "postal_code": "670307",
            "state": "Kerala",
            "country_code": "IN"
        },
        "images": [
            {
                "about": "All",
                "link": "https://streetviewpixels-pa.googleapis.com/v1/thumbnail?panoid=LjW7uys8HclTp_NdW-ZQ7g&cb_client=maps_sv.tactile.gps&w=224&h=298&yaw=175.95119&pitch=0&thumbfov=100"
            },
            {
                "about": "Street View & 360deg",
                "link": "https://streetviewpixels-pa.googleapis.com/v1/thumbnail?panoid=LjW7uys8HclTp_NdW-ZQ7g&cb_client=maps_sv.tactile.gps&w=224&h=298&yaw=175.95119&pitch=0&thumbfov=100"
            }
        ],
        "link": "https://www.google.com/maps/place/Masjid+A.P/data=!4m7!3m6!1s0x3ba46c39e5080e41:0xa7535c566ed21984!8m2!3d12.1087424!4d75.2146222!16s%2Fg%2F11fy4xzwkw!19sChIJQQ4I5TlspDsRhBnSblZcU6c?authuser=0&hl=en&rclk=1",
        "coordinates": {
            "latitude": 12.108742399999999,
            "longitude": 75.2146222
        }
    },
    {
        "name": "SYED NOOR AL BUKHARY MASJID",
        "main_category": "Mosque",
        "address": "SYED NOOR AL BUKHARY MASJID, near Railway station, Kotty, Payyanur, Kerala 670307",
        "detailed_address": {
            "ward": "Kotty",
            "street": "near Railway station",
            "city": "Payyanur",
            "postal_code": "670307",
            "state": "Kerala",
            "country_code": "IN"
        },
        "images": [
            {
                "about": "All",
                "link": "https://lh5.googleusercontent.com/p/AF1QipN_LLeT6lIEi_mMQf__HSq_4lw8dlvbbvFxkn1Y=w224-h298-k-no"
            },
            {
                "about": "Street View & 360deg",
                "link": "https://streetviewpixels-pa.googleapis.com/v1/thumbnail?panoid=Kil5mJZCbhXnUqDlCpuhSA&cb_client=maps_sv.tactile.gps&w=224&h=298&yaw=96.39666&pitch=0&thumbfov=100"
            }
        ],
        "link": "https://www.google.com/maps/place/SYED+NOOR+AL+BUKHARY+MASJID/data=!4m7!3m6!1s0x3ba46d2d47115e71:0x184ccd637388fd17!8m2!3d12.0906537!4d75.1943419!16s%2Fg%2F11pwp_zm0l!19sChIJcV4RRy1tpDsRF_2Ic2PNTBg?authuser=0&hl=en&rclk=1",
        "coordinates": {
            "latitude": 12.090653699999999,
            "longitude": 75.1943419
        }
    },
    {
        "name": "Badar Juma Masjid Moorikovval",
        "main_category": "Mosque",
        "address": "46C5+JFV Badar Juma Masjid Moorikovval, Annur Rd, Payyanur, Kerala 670307",
        "detailed_address": {
            "ward": null,
            "street": "46C5+JFV, Annur Rd",
            "city": "Payyanur",
            "postal_code": "670307",
            "state": "Kerala",
            "country_code": "IN"
        },
        "images": [
            {
                "about": "All",
                "link": "https://streetviewpixels-pa.googleapis.com/v1/thumbnail?panoid=VW-sLBfspOqPG5yDGGHrLA&cb_client=maps_sv.tactile.gps&w=224&h=298&yaw=272.41937&pitch=0&thumbfov=100"
            },
            {
                "about": "Street View & 360deg",
                "link": "https://streetviewpixels-pa.googleapis.com/v1/thumbnail?panoid=VW-sLBfspOqPG5yDGGHrLA&cb_client=maps_sv.tactile.gps&w=224&h=298&yaw=272.41937&pitch=0&thumbfov=100"
            }
        ],
        "link": "https://www.google.com/maps/place/Badar+Juma+Masjid+Moorikovval/data=!4m7!3m6!1s0x3ba46ddc2f0f4fbd:0xc66b53ef24bd7353!8m2!3d12.1216207!4d75.2086597!16s%2Fg%2F11kt47pgny!19sChIJvU8PL9xtpDsRU3O9JO9Ta8Y?authuser=0&hl=en&rclk=1",
        "coordinates": {
            "latitude": 12.1216207,
            "longitude": 75.2086597
        }
    },
    {
        "name": "Mosque",
        "main_category": "Mosque",
        "address": "468C+WPW Mosque, Payyanur, Kerala 670307",
        "detailed_address": {
            "ward": null,
            "street": "468C+WPW",
            "city": "Payyanur",
            "postal_code": "670307",
            "state": "Kerala",
            "country_code": "IN"
        },
        "images": [
            {
                "about": "All",
                "link": "https://streetviewpixels-pa.googleapis.com/v1/thumbnail?panoid=syMZ0AJwcy3H9Vzf_obCfA&cb_client=maps_sv.tactile.gps&w=224&h=298&yaw=275.9205&pitch=0&thumbfov=100"
            },
            {
                "about": "Street View & 360deg",
                "link": "https://streetviewpixels-pa.googleapis.com/v1/thumbnail?panoid=syMZ0AJwcy3H9Vzf_obCfA&cb_client=maps_sv.tactile.gps&w=224&h=298&yaw=275.9205&pitch=0&thumbfov=100"
            }
        ],
        "link": "https://www.google.com/maps/place/Mosque/data=!4m7!3m6!1s0x3ba46d1e606c9cb1:0xa23f0b68d3313370!8m2!3d12.1168404!4d75.2210659!16s%2Fg%2F11k5447ndq!19sChIJsZxsYB5tpDsRcDMx02gLP6I?authuser=0&hl=en&rclk=1",
        "coordinates": {
            "latitude": 12.1168404,
            "longitude": 75.2210659
        }
    },
    {
        "name": "MUHYUDHEEN MASJID vadippuram",
        "main_category": "Mosque",
        "address": "35VP+3C9 MUHYUDHEEN MASJID vadippuram, Kavvayi, Payyanur, Kerala 671311",
        "detailed_address": {
            "ward": "Kavvayi",
            "street": "35VP+3C9",
            "city": "Payyanur",
            "postal_code": null,
            "state": "Kerala",
            "country_code": "IN"
        },
        "images": [
            {
                "about": "All",
                "link": "https://streetviewpixels-pa.googleapis.com/v1/thumbnail?panoid=xM8G8PSUWilHIsuavW10YQ&cb_client=maps_sv.tactile.gps&w=224&h=298&yaw=144.13022&pitch=0&thumbfov=100"
            },
            {
                "about": "Street View & 360deg",
                "link": "https://streetviewpixels-pa.googleapis.com/v1/thumbnail?panoid=xM8G8PSUWilHIsuavW10YQ&cb_client=maps_sv.tactile.gps&w=224&h=298&yaw=144.13022&pitch=0&thumbfov=100"
            }
        ],
        "link": "https://www.google.com/maps/place/MUHYUDHEEN+MASJID+vadippuram/data=!4m7!3m6!1s0x3ba46d20996671f9:0x16387b5be0f361f6!8m2!3d12.0926703!4d75.1861053!16s%2Fg%2F11f7bqc9cb!19sChIJ-XFmmSBtpDsR9mHz4Ft7OBY?authuser=0&hl=en&rclk=1",
        "coordinates": {
            "latitude": 12.0926703,
            "longitude": 75.1861053
        }
    },
    {
        "name": "Jamath Masjid",
        "main_category": "Mosque",
        "address": "467C+8V8 Jamath Masjid, Payyanur, Kerala 670307",
        "detailed_address": {
            "ward": null,
            "street": "467C+8V8",
            "city": "Payyanur",
            "postal_code": "670307",
            "state": "Kerala",
            "country_code": "IN"
        },
        "images": [
            {
                "about": "All",
                "link": "https://lh5.googleusercontent.com/p/AF1QipO3C0nNtnTHZCVdB0DVeXJtgsisxirO1MTEZnM7=w224-h410-k-no"
            },
            {
                "about": "Street View & 360deg",
                "link": "https://streetviewpixels-pa.googleapis.com/v1/thumbnail?panoid=L06AfwYJa05roqQa46SA_Q&cb_client=maps_sv.tactile.gps&w=224&h=298&yaw=167.51054&pitch=0&thumbfov=100"
            }
        ],
        "link": "https://www.google.com/maps/place/Jamath+Masjid/data=!4m7!3m6!1s0x3ba46d4ac1dabe9f:0x604363ee62e8e2e8!8m2!3d12.1129145!4d75.2215587!16s%2Fg%2F11s1s4d3h_!19sChIJn77awUptpDsR6OLoYu5jQ2A?authuser=0&hl=en&rclk=1",
        "coordinates": {
            "latitude": 12.112914499999999,
            "longitude": 75.2215587
        }
    },
    {
        "name": "Thayineri Juma Masjid",
        "main_category": "Baha'i house of worship",
        "address": "35WV+V9R Thayineri Juma Masjid, Payyanur, Kerala 670307",
        "detailed_address": {
            "ward": null,
            "street": "35WV+V9R",
            "city": "Payyanur",
            "postal_code": null,
            "state": "Kerala",
            "country_code": "IN"
        },
        "images": [
            {
                "about": "All",
                "link": "https://streetviewpixels-pa.googleapis.com/v1/thumbnail?panoid=SakI9ESysGWrnPKiG9JsPA&cb_client=maps_sv.tactile.gps&w=224&h=298&yaw=244.1349&pitch=0&thumbfov=100"
            },
            {
                "about": "Street View & 360deg",
                "link": "https://streetviewpixels-pa.googleapis.com/v1/thumbnail?panoid=SakI9ESysGWrnPKiG9JsPA&cb_client=maps_sv.tactile.gps&w=224&h=298&yaw=244.1349&pitch=0&thumbfov=100"
            }
        ],
        "link": "https://www.google.com/maps/place/Thayineri+Juma+Masjid/data=!4m7!3m6!1s0x3ba46dc2bf4cd629:0xa0e5d359716803d8!8m2!3d12.0972416!4d75.1933906!16s%2Fg%2F11vkhg4f6r!19sChIJKdZMv8JtpDsR2ANocVnT5aA?authuser=0&hl=en&rclk=1",
        "coordinates": {
            "latitude": 12.0972416,
            "longitude": 75.1933906
        }
    }
]