[
    {
        "name": "Paharkua Masjid",
        "main_category": "Mosque",
        "address": "2P22+X4H Paharkua Masjid, Parbatsar - Bidiyad Rd, Gunawati, Makrana, Rajasthan 341505",
        "detailed_address": {
            "ward": "Gunawati",
            "street": "2P22+X4H, Parbatsar - Bidiyad Rd",
            "city": "Makrana",
            "postal_code": "341505",
            "state": "Rajasthan",
            "country_code": "IN"
        },
        "images": [
            {
                "about": "All",
                "link": "https://lh5.googleusercontent.com/p/AF1QipOX6JAbHciAzyOJVxNklwseqjFhfVwaTqjso5R_=w397-h298-k-no"
            },
            {
                "about": "Street View & 360deg",
                "link": "https://streetviewpixels-pa.googleapis.com/v1/thumbnail?panoid=ItIuFUatAAwL0eW4QtuZ1g&cb_client=maps_sv.tactile.gps&w=224&h=298&yaw=94.71822&pitch=0&thumbfov=100"
            }
        ],
        "link": "https://www.google.com/maps/place/Paharkua+Masjid/data=!4m7!3m6!1s0x396b9c10c14df653:0xb9f688083e07b832!8m2!3d27.0024379!4d74.700372!16s%2Fg%2F11hb2qk5qd!19sChIJU_ZNwRCcazkRMrgHPgiI9rk?authuser=0&hl=en&rclk=1",
        "coordinates": {
            "latitude": 27.0024379,
            "longitude": 74.700372
        }
    },
    {
        "name": "TAKIYA MASJID PARBATSAR",
        "main_category": "Mosque",
        "address": "VQP7+4FV TAKIYA MASJID PARBATSAR, Parbatsar, Rajasthan 341512",
        "detailed_address": {
            "ward": null,
            "street": "VQP7+4FV",
            "city": "Parbatsar",
            "postal_code": "341512",
            "state": "Rajasthan",
            "country_code": "IN"
        },
        "images": [
            {
                "about": "All",
                "link": "https://lh5.googleusercontent.com/p/AF1QipN1jwfitxByL7I-ZEDpaAUuMcgqyRCDbTNu_6eg=w224-h298-k-no"
            },
            {
                "about": "Videos",
                "link": "https://lh5.googleusercontent.com/p/AF1QipO2J0bMU14Rl9g6n7OM981P4PoN80BG8bEHoG4-=w224-h398-k-no"
            }
        ],
        "link": "https://www.google.com/maps/place/TAKIYA+MASJID+PARBATSAR/data=!4m7!3m6!1s0x396b91ceea628e13:0x9b5eec001e38e98a!8m2!3d26.8853578!4d74.7636574!16s%2Fg%2F11grptmcvy!19sChIJE45i6s6RazkRiuk4HgDsXps?authuser=0&hl=en&rclk=1",
        "coordinates": {
            "latitude": 26.885357799999998,
            "longitude": 74.7636574
        }
    },
    {
        "name": "Fejane Madeena Masjid",
        "main_category": "Mosque",
        "address": "VQJ6+PHM Fejane Madeena Masjid, Parbatsar, Rajasthan 341512",
        "detailed_address": {
            "ward": null,
            "street": "VQJ6+PHM",
            "city": "Parbatsar",
            "postal_code": "341512",
            "state": "Rajasthan",
            "country_code": "IN"
        },
        "images": [
            {
                "about": "All",
                "link": "https://lh5.googleusercontent.com/p/AF1QipNN5vWBl0qrTxUypp1v-Bp0trl_6SrbxvqGDtmq=w397-h298-k-no"
            },
            {
                "about": "Dome",
                "link": "https://lh5.googleusercontent.com/p/AF1QipNN5vWBl0qrTxUypp1v-Bp0trl_6SrbxvqGDtmq=w397-h298-k-no"
            }
        ],
        "link": "https://www.google.com/maps/place/Fejane+Madeena+Masjid/data=!4m7!3m6!1s0x396b917e588e9df7:0xeab2f5ed26e10484!8m2!3d26.8818461!4d74.7614181!16s%2Fg%2F11jwbq_0g0!19sChIJ952OWH6RazkRhAThJu31suo?authuser=0&hl=en&rclk=1",
        "coordinates": {
            "latitude": 26.881846099999997,
            "longitude": 74.7614181
        }
    },
    {
        "name": "masjid noori hasan..faizane madina",
        "main_category": "School",
        "address": "VQJ6+QJ8 masjid noori hasan..faizane madina, madara gosiya Road, Parbatsar, Rajasthan 341512",
        "detailed_address": {
            "ward": null,
            "street": "VQJ6+QJ8, madara gosiya Road",
            "city": "Parbatsar",
            "postal_code": "341512",
            "state": "Rajasthan",
            "country_code": "IN"
        },
        "images": [],
        "link": "https://www.google.com/maps/place/masjid+noori+hasan..faizane+madina/data=!4m7!3m6!1s0x396b916c23b272bb:0x6d4c1b91ed400427!8m2!3d26.8819115!4d74.7615889!16s%2Fg%2F11gmw6v70n!19sChIJu3KyI2yRazkRJwRA7ZEbTG0?authuser=0&hl=en&rclk=1",
        "coordinates": {
            "latitude": 26.881911499999998,
            "longitude": 74.76158889999999
        }
    }
]