[
    {
        "name": "Jama Masjid",
        "main_category": "Mosque",
        "address": "6CW4+77X Jama Masjid, Ganj Rd, Katra Bazar, Sabalgarh, Madhya Pradesh 476229",
        "detailed_address": {
            "ward": "Katra Bazar",
            "street": "6CW4+77X, Ganj Rd",
            "city": "Sabalgarh",
            "postal_code": "476229",
            "state": "Madhya Pradesh",
            "country_code": "IN"
        },
        "images": [
            {
                "about": "All",
                "link": "https://lh5.googleusercontent.com/p/AF1QipMdhHMukptI_9Jy1iW8WM3h8IEMxTrQk3tcNZQX=w224-h489-k-no"
            }
        ],
        "link": "https://www.google.com/maps/place/Jama+Masjid/data=!4m7!3m6!1s0x39716deda371bd89:0x322fa61af6a7cd33!8m2!3d26.2457335!4d77.4057479!16s%2Fg%2F11q8gysgx5!19sChIJib1xo-1tcTkRM82n9hqmLzI?authuser=0&hl=en&rclk=1",
        "coordinates": {
            "latitude": 26.2457335,
            "longitude": 77.4057479
        }
    },
    {
        "name": "Line Wali Masjid",
        "main_category": "Place of worship",
        "address": "6CW6+WW3 Line Wali Masjid, near overhead water tank, Sabalgarh, Madhya Pradesh 476229",
        "detailed_address": {
            "ward": null,
            "street": "6CW6+WW3, near overhead water tank",
            "city": "Sabalgarh",
            "postal_code": "476229",
            "state": "Madhya Pradesh",
            "country_code": "IN"
        },
        "images": [
            {
                "about": "All",
                "link": "https://lh5.googleusercontent.com/p/AF1QipNwL9551dmY522asV2sYtTRqnO1wwNVQwKLaxBs=w529-h298-k-no"
            },
            {
                "about": "Street View & 360deg",
                "link": "https://streetviewpixels-pa.googleapis.com/v1/thumbnail?panoid=UMJEp53_tDqGeaCP4XGtVg&cb_client=maps_sv.tactile.gps&w=224&h=298&yaw=63.367958&pitch=0&thumbfov=100"
            }
        ],
        "link": "https://www.google.com/maps/place/Line+Wali+Masjid/data=!4m7!3m6!1s0x39716d31dd9902ef:0xbd168e2ab29cce83!8m2!3d26.247267!4d77.4123101!16s%2Fg%2F11g8_0_sq2!19sChIJ7wKZ3TFtcTkRg86csiqOFr0?authuser=0&hl=en&rclk=1",
        "coordinates": {
            "latitude": 26.247266999999997,
            "longitude": 77.4123101
        }
    },
    {
        "name": "shaahii kilaa msjid sblgddh'",
        "main_category": "Mosque",
        "address": "shaahii kilaa msjid sblgddh', Sabalgarh, Madhya Pradesh 476229",
        "detailed_address": {
            "ward": null,
            "street": null,
            "city": "Sabalgarh",
            "postal_code": "476229",
            "state": "Madhya Pradesh",
            "country_code": "IN"
        },
        "images": [
            {
                "about": "All",
                "link": "https://streetviewpixels-pa.googleapis.com/v1/thumbnail?panoid=NvN5laVv2GknW7XE89Wybw&cb_client=maps_sv.tactile.gps&w=224&h=298&yaw=80.65753&pitch=0&thumbfov=100"
            },
            {
                "about": "Street View & 360deg",
                "link": "https://streetviewpixels-pa.googleapis.com/v1/thumbnail?panoid=NvN5laVv2GknW7XE89Wybw&cb_client=maps_sv.tactile.gps&w=224&h=298&yaw=80.65753&pitch=0&thumbfov=100"
            }
        ],
        "link": "https://www.google.com/maps/place/%E0%A4%B6%E0%A4%BE%E0%A4%B9%E0%A5%80+%E0%A4%95%E0%A4%BF%E0%A4%B2%E0%A4%BE+%E0%A4%AE%E0%A4%B8%E0%A5%8D%E0%A4%9C%E0%A4%BF%E0%A4%A6+%E0%A4%B8%E0%A4%AC%E0%A4%B2%E0%A4%97%E0%A4%A2%E0%A4%BC/data=!4m7!3m6!1s0x39716de82b4a9ee3:0x860391d24a7fb7cc!8m2!3d26.2469517!4d77.4070222!16s%2Fg%2F11vb198wk8!19sChIJ455KK-htcTkRzLd_StKRA4Y?authuser=0&hl=en&rclk=1",
        "coordinates": {
            "latitude": 26.2469517,
            "longitude": 77.4070222
        }
    },
    {
        "name": "Dargah masjid",
        "main_category": "Mosque",
        "address": "6CW3+4F7 Dargah masjid, Purana Sarafa, Sabalgarh, Madhya Pradesh 476229",
        "detailed_address": {
            "ward": "Purana Sarafa",
            "street": "6CW3+4F7",
            "city": "Sabalgarh",
            "postal_code": "476229",
            "state": "Madhya Pradesh",
            "country_code": "IN"
        },
        "images": [
            {
                "about": "All",
                "link": "https://lh5.googleusercontent.com/p/AF1QipNZeQcWeBCKTTkNqvw6qxVao6RgjKOL5ObTeW1n=w663-h298-k-no"
            }
        ],
        "link": "https://www.google.com/maps/place/Dargah+masjid/data=!4m7!3m6!1s0x39716df846795e95:0xada68f1667b38606!8m2!3d26.2452876!4d77.4036645!16s%2Fg%2F11p_2jl15m!19sChIJlV55RvhtcTkRBoazZxaPpq0?authuser=0&hl=en&rclk=1",
        "coordinates": {
            "latitude": 26.245287599999997,
            "longitude": 77.40366449999999
        }
    },
    {
        "name": "Nai masjid sabalgarh",
        "main_category": "Primary school",
        "address": "P6RG+699 Nai masjid sabalgarh, Sabalgarh, Kaltariya, Rajasthan 321023",
        "detailed_address": {
            "ward": null,
            "street": "P6RG+699",
            "city": "Sabalgarh, Kaltariya",
            "postal_code": "321023",
            "state": "Rajasthan",
            "country_code": "IN"
        },
        "images": [],
        "link": "https://www.google.com/maps/place/Nai+masjid+sabalgarh/data=!4m7!3m6!1s0x397321acdd07020d:0x9eb1ccfdb834f333!8m2!3d27.7405267!4d77.2259917!16s%2Fg%2F11q2z37_hk!19sChIJDQIH3awhczkRM_M0uP3MsZ4?authuser=0&hl=en&rclk=1",
        "coordinates": {
            "latitude": 27.7405267,
            "longitude": 77.2259917
        }
    },
    {
        "name": "Usmani masjid(kherla)",
        "main_category": "Place of worship",
        "address": "7CQ6+3RX Usmani masjid(kherla), Sabalgarh, Kherla, Madhya Pradesh 476229",
        "detailed_address": {
            "ward": null,
            "street": "7CQ6+3RX",
            "city": "Sabalgarh, Kherla",
            "postal_code": "476229",
            "state": "Madhya Pradesh",
            "country_code": "IN"
        },
        "images": [],
        "link": "https://www.google.com/maps/place/Usmani+masjid%28kherla%29/data=!4m7!3m6!1s0x39716d66c8539def:0x52b8549e7867cc61!8m2!3d26.287747!4d77.412094!16s%2Fg%2F11v5j75q3f!19sChIJ751TyGZtcTkRYcxneJ5UuFI?authuser=0&hl=en&rclk=1",
        "coordinates": {
            "latitude": 26.287747,
            "longitude": 77.412094
        }
    }
]