[
    {
        "name": "Narwar Masjid",
        "main_category": "Mosque",
        "address": "3W86+9WJ Narwar Masjid, Narwar, Bolasa, Madhya Pradesh 456664",
        "detailed_address": {
            "ward": null,
            "street": "3W86+9WJ",
            "city": "Narwar, Bolasa",
            "postal_code": "456664",
            "state": "Madhya Pradesh",
            "country_code": "IN"
        },
        "images": [
            {
                "about": "All",
                "link": "https://lh5.googleusercontent.com/p/AF1QipN5WdN4y9_k-CWoH3yzYHqut9nlYnI6MUftySH7=w529-h298-k-no"
            },
            {
                "about": "Videos",
                "link": "https://lh5.googleusercontent.com/p/AF1QipMaXp9w7F2VPsnPmUq44U9hdOBshCgiYcx6DNKS=w224-h395-k-no"
            }
        ],
        "link": "https://www.google.com/maps/place/Narwar+Masjid/data=!4m7!3m6!1s0x3963126ff0a2cdf9:0x1a1c111e6c97a54c!8m2!3d23.0659546!4d75.912253!16s%2Fg%2F11cryd8k35!19sChIJ-c2i8G8SYzkRTKWXbB4RHBo?authuser=0&hl=en&rclk=1",
        "coordinates": {
            "latitude": 23.065954599999998,
            "longitude": 75.91225299999999
        }
    },
    {
        "name": "Jama Masjid",
        "main_category": "Mosque",
        "address": "Jama Masjid, Jama Masjid, Nayatakhedi,, Narwar Ujjain, Madhya Pradesh 456664",
        "detailed_address": {
            "ward": null,
            "street": "Jama Masjid, Nayatakhedi,",
            "city": "Narwar Ujjain, Narwar",
            "postal_code": "456664",
            "state": "Madhya Pradesh",
            "country_code": "IN"
        },
        "images": [
            {
                "about": "All",
                "link": "https://lh5.googleusercontent.com/p/AF1QipPZwYmxvFjYDC4m0bC70BIfj-9tbGy_CycbFlJc=w224-h298-k-no"
            }
        ],
        "link": "https://www.google.com/maps/place/Jama+Masjid/data=!4m7!3m6!1s0x396312637be374ff:0x8a880113b3c01eec!8m2!3d23.072815!4d75.914008!16s%2Fg%2F11bw61jwsf!19sChIJ_3Tje2MSYzkR7B7AsxMBiIo?authuser=0&hl=en&rclk=1",
        "coordinates": {
            "latitude": 23.072815,
            "longitude": 75.914008
        }
    },
    {
        "name": "jama masjid Narwar",
        "main_category": "Mosque",
        "address": "JWV6+8CM jama masjid Narwar, Narwar, Madhya Pradesh 473880",
        "detailed_address": {
            "ward": null,
            "street": "JWV6+8CM",
            "city": "Narwar",
            "postal_code": "473880",
            "state": "Madhya Pradesh",
            "country_code": "IN"
        },
        "images": [
            {
                "about": "All",
                "link": "https://lh5.googleusercontent.com/p/AF1QipPpvMDEjQlTVuy7vm74YfG4Qu8dT2xFQP_IiN7u=w224-h398-k-no"
            },
            {
                "about": "Dome",
                "link": "https://lh5.googleusercontent.com/p/AF1QipPpvMDEjQlTVuy7vm74YfG4Qu8dT2xFQP_IiN7u=w224-h398-k-no"
            },
            {
                "about": "Street View & 360deg",
                "link": "https://streetviewpixels-pa.googleapis.com/v1/thumbnail?panoid=bL0Hz02-yf1nUF9THgsbdw&cb_client=maps_sv.tactile.gps&w=224&h=298&yaw=312.49124&pitch=0&thumbfov=100"
            }
        ],
        "link": "https://www.google.com/maps/place/jama+masjid+Narwar/data=!4m7!3m6!1s0x3970cd51652e0bdd:0xc6bc230b5c1bd778!8m2!3d25.6433467!4d77.9110381!16s%2Fg%2F11g4khgq4f!19sChIJ3QsuZVHNcDkReNcbXAsjvMY?authuser=0&hl=en&rclk=1",
        "coordinates": {
            "latitude": 25.6433467,
            "longitude": 77.9110381
        }
    },
    {
        "name": "Macca Masjid Narwar",
        "main_category": "Mosque",
        "address": "3W96+5C3 Macca Masjid Narwar, Narwar, Madhya Pradesh 456664",
        "detailed_address": {
            "ward": null,
            "street": "3W96+5C3",
            "city": "Narwar",
            "postal_code": "456664",
            "state": "Madhya Pradesh",
            "country_code": "IN"
        },
        "images": [
            {
                "about": "All",
                "link": "https://streetviewpixels-pa.googleapis.com/v1/thumbnail?panoid=eU0DmllCKNxFjE6wvJ7niA&cb_client=maps_sv.tactile.gps&w=224&h=298&yaw=52.934837&pitch=0&thumbfov=100"
            },
            {
                "about": "Street View & 360deg",
                "link": "https://streetviewpixels-pa.googleapis.com/v1/thumbnail?panoid=eU0DmllCKNxFjE6wvJ7niA&cb_client=maps_sv.tactile.gps&w=224&h=298&yaw=52.934837&pitch=0&thumbfov=100"
            }
        ],
        "link": "https://www.google.com/maps/place/Macca+Masjid+Narwar/data=!4m7!3m6!1s0x39631399ea228651:0x3a2bdc51bde0674b!8m2!3d23.0679515!4d75.9110822!16s%2Fg%2F11q3vgc0hk!19sChIJUYYi6pkTYzkRS2fgvVHcKzo?authuser=0&hl=en&rclk=1",
        "coordinates": {
            "latitude": 23.0679515,
            "longitude": 75.9110822
        }
    },
    {
        "name": "Noor masjid",
        "main_category": "Mosque",
        "address": "JWR6+M42 Noor masjid, Narwar - Shivpuri Rd, Narwar, Urwaha, Madhya Pradesh 473880",
        "detailed_address": {
            "ward": null,
            "street": "JWR6+M42, Narwar - Shivpuri Rd",
            "city": "Narwar, Urwaha",
            "postal_code": "473880",
            "state": "Madhya Pradesh",
            "country_code": "IN"
        },
        "images": [
            {
                "about": "All",
                "link": "https://lh5.googleusercontent.com/p/AF1QipNNnmHzyHtpDXeQp7YPpyeOQcKotZ7EsePb0KZL=w224-h470-k-no"
            }
        ],
        "link": "https://www.google.com/maps/place/Noor+masjid/data=!4m7!3m6!1s0x3970cd6516fb38af:0x35c0a17b9b09a17f!8m2!3d25.6414977!4d77.9093682!16s%2Fg%2F11sczxn_z7!19sChIJrzj7FmXNcDkRf6EJm3uhwDU?authuser=0&hl=en&rclk=1",
        "coordinates": {
            "latitude": 25.6414977,
            "longitude": 77.9093682
        }
    }
]