[
    {
        "name": "Kurjee Masjid (Kurjee Jama Masjid)",
        "main_category": "Mosque",
        "address": "J4R4+HRH Kurjee Masjid (Kurjee Jama Masjid), Kurji Masjid Gali, Kurji, Patna, Bihar 800010",
        "detailed_address": {
            "ward": "Kurji",
            "street": "J4R4+HRH, Kurji Masjid Gali",
            "city": "Patna",
            "postal_code": "800010",
            "state": "Bihar",
            "country_code": "IN"
        },
        "images": [
            {
                "about": "All",
                "link": "https://lh5.googleusercontent.com/p/AF1QipMJnCHO2KSxfJBsKHHuAfQYvZaxrwHlKCH12xJL=w224-h298-k-no"
            },
            {
                "about": "Videos",
                "link": "https://lh5.googleusercontent.com/p/AF1QipM2BrPDC95Coa5rJzbNB1hz-8LxKonlRmN9Z4yy=w224-h398-k-no"
            }
        ],
        "link": "https://www.google.com/maps/place/Kurjee+Masjid+%28Kurjee+Jama+Masjid%29/data=!4m7!3m6!1s0x39ed59d81203a37d:0x6b7919ff935deea1!8m2!3d25.6414442!4d85.1071143!16s%2Fg%2F11b6gflp94!19sChIJfaMDEthZ7TkRoe5dk_8ZeWs?authuser=0&hl=en&rclk=1",
        "coordinates": {
            "latitude": 25.6414442,
            "longitude": 85.10711429999999
        }
    },
    {
        "name": "Arzaani Masjid",
        "main_category": "Mosque",
        "address": "J55J+X8C Arzaani Masjid, New Azimabad Colony, Sandalpur, Bihar 800004",
        "detailed_address": {
            "ward": "Sandalpur",
            "street": "J55J+X8C, New Azimabad Colony",
            "city": "Sandalpur, Patna",
            "postal_code": "800004",
            "state": "Bihar",
            "country_code": "IN"
        },
        "images": [
            {
                "about": "All",
                "link": "https://lh5.googleusercontent.com/p/AF1QipNbAiSdQ5EQXDyRVmE3yeySOf49zcfrvQpcjSbg=w224-h407-k-no"
            },
            {
                "about": "Street View & 360deg",
                "link": "https://streetviewpixels-pa.googleapis.com/v1/thumbnail?panoid=WlyBLYVjI-9hlwFY1nfqxg&cb_client=maps_sv.tactile.gps&w=224&h=298&yaw=134.02159&pitch=0&thumbfov=100"
            },
            {
                "about": "Videos",
                "link": "https://lh5.googleusercontent.com/p/AF1QipMoRE0jeo4qzoOOcvCOqVj3sCXL8wIS4Mtx4LEX=w224-h398-k-no"
            }
        ],
        "link": "https://www.google.com/maps/place/Arzaani+Masjid/data=!4m7!3m6!1s0x39ed58c9c28ea79b:0xa8f4acb44e568a4f!8m2!3d25.6099354!4d85.180777!16s%2Fg%2F11cls7z4xz!19sChIJm6eOwslY7TkRT4pWTrSs9Kg?authuser=0&hl=en&rclk=1",
        "coordinates": {
            "latitude": 25.609935399999998,
            "longitude": 85.18077699999999
        }
    },
    {
        "name": "Madrasa Tanzeemul Muslemeen Jama Masjid",
        "main_category": "Mosque",
        "address": "J2GR+R79 Madrasa Tanzeemul Muslemeen Jama Masjid, Saguna Danapur Main Rd, Danapur Jama Masjid, Moinpura, Danapur Cantt, Patna, Bihar 801503",
        "detailed_address": {
            "ward": "Tarachak",
            "street": "J2GR+R79, Saguna Danapur Main Rd, Danapur Jama Masjid, Moinpura, Danapur Cantt",
            "city": "Patna",
            "postal_code": "801503",
            "state": "Bihar",
            "country_code": "IN"
        },
        "images": [
            {
                "about": "All",
                "link": "https://lh5.googleusercontent.com/p/AF1QipP0omTBxyQ-nLGzwb_fl6sb34W5Wb-KXRy9BkLA=w224-h398-k-no"
            }
        ],
        "link": "https://www.google.com/maps/place/Madrasa+Tanzeemul+Muslemeen+Jama+Masjid/data=!4m7!3m6!1s0x39ed568a6439ef4b:0x63a8e9409505a960!8m2!3d25.6270259!4d85.040746!16s%2Fg%2F1hm4t_3g1!19sChIJS-85ZIpW7TkRYKkFlUDpqGM?authuser=0&hl=en&rclk=1",
        "coordinates": {
            "latitude": 25.6270259,
            "longitude": 85.040746
        }
    },
    {
        "name": "Jama masjid aropur",
        "main_category": "Mosque",
        "address": "FXF7+R6M Jama masjid aropur, Niserpura, Bihar 801109",
        "detailed_address": {
            "ward": null,
            "street": "FXF7+R6M",
            "city": "Niserpura",
            "postal_code": "801109",
            "state": "Bihar",
            "country_code": "IN"
        },
        "images": [
            {
                "about": "All",
                "link": "https://lh5.googleusercontent.com/p/AF1QipO_MQ8tZNDToCB5Ps1kCpHmX3_QbKV-Pf8pAxw8=w224-h298-k-no"
            },
            {
                "about": "Videos",
                "link": "https://lh5.googleusercontent.com/p/AF1QipOTnivDzc2l8DguvCamsx__kfMjp70IfANinjKu=w224-h389-k-no"
            }
        ],
        "link": "https://www.google.com/maps/place/Jama+masjid+aropur/data=!4m7!3m6!1s0x39f2adf133904fab:0x7307277f271aeb15!8m2!3d25.4745912!4d84.9630552!16s%2Fg%2F11h80k7z3k!19sChIJq0-QM_Gt8jkRFesaJ38nB3M?authuser=0&hl=en&rclk=1",
        "coordinates": {
            "latitude": 25.4745912,
            "longitude": 84.9630552
        }
    },
    {
        "name": "Maqdum Pur Jama Masjid",
        "main_category": "Mosque",
        "address": "Maqdum Pur Jama Masjid, maqdumpur 80113, Kaji Sarai Kako-Imaliya Rd, Bihar",
        "detailed_address": {
            "ward": null,
            "street": "maqdumpur 80113, Kaji Sarai Kako-Imaliya Rd",
            "city": "Baluwa",
            "postal_code": null,
            "state": "Bihar",
            "country_code": "IN"
        },
        "images": [
            {
                "about": "All",
                "link": "https://lh5.googleusercontent.com/p/AF1QipOqlrBKCyQqn-pIcGy1N7GCudK540FCjfSHsrNT=w529-h298-k-no"
            }
        ],
        "link": "https://www.google.com/maps/place/Maqdum+Pur+Jama+Masjid/data=!4m7!3m6!1s0x39ed55a3a191573f:0xbe081998fc8ec65d!8m2!3d25.6052263!4d84.9892886!16s%2Fg%2F11gbkswnk4!19sChIJP1eRoaNV7TkRXcaO_JgZCL4?authuser=0&hl=en&rclk=1",
        "coordinates": {
            "latitude": 25.605226299999998,
            "longitude": 84.9892886
        }
    }
]