[
    {
        "name": "Madani masjid",
        "main_category": "Mosque",
        "address": "H927+6VV Madani masjid, Basaveshwar Nagar, Navalgund, Karnataka 582208",
        "detailed_address": {
            "ward": "Basaveshwar Nagar",
            "street": "H927+6VV",
            "city": "Navalgund",
            "postal_code": "582208",
            "state": "Karnataka",
            "country_code": "IN"
        },
        "images": [
            {
                "about": "All",
                "link": "https://lh5.googleusercontent.com/p/AF1QipOTVgFtq4M_pDhSi8aM29s9Epw0Kz9iCglI47zb=w629-h298-k-no"
            },
            {
                "about": "Street View & 360deg",
                "link": "https://streetviewpixels-pa.googleapis.com/v1/thumbnail?panoid=5eRY1XIT5ITXjvcszksYGA&cb_client=maps_sv.tactile.gps&w=224&h=298&yaw=104.09387&pitch=0&thumbfov=100"
            },
            {
                "about": "Videos",
                "link": "https://lh5.googleusercontent.com/p/AF1QipOOBaiAeWBrQow5dZNklmmRwnpExvm955QWkoba=w298-h298-k-no"
            }
        ],
        "link": "https://www.google.com/maps/place/Madani+masjid/data=!4m7!3m6!1s0x3bb8e97bf81c22b9:0x6485ffb5b3aceef4!8m2!3d15.5506213!4d75.364673!16s%2Fg%2F11fjs3swx0!19sChIJuSIc-HvpuDsR9O6ss7X_hWQ?authuser=0&hl=en&rclk=1",
        "coordinates": {
            "latitude": 15.5506213,
            "longitude": 75.364673
        }
    },
    {
        "name": "Jumma Masjid",
        "main_category": "Mosque",
        "address": "H963+J33 Jumma Masjid, Navalgund, Karnataka 582208",
        "detailed_address": {
            "ward": null,
            "street": "H963+J33",
            "city": "Navalgund",
            "postal_code": "582208",
            "state": "Karnataka",
            "country_code": "IN"
        },
        "images": [
            {
                "about": "All",
                "link": "https://lh5.googleusercontent.com/p/AF1QipNws9c-lICUDp80jrf7A4l5Jq-ub-yTCJzcDOtE=w224-h482-k-no"
            },
            {
                "about": "Dome",
                "link": "https://lh5.googleusercontent.com/p/AF1QipNJHBp4cNCisjg57MMrJqwSlMxl6anhv_B5i_Dw=w224-h482-k-no"
            },
            {
                "about": "Videos",
                "link": "https://lh5.googleusercontent.com/p/AF1QipP76icU3tWxHcLMHKYG_4ma-DlSLLqJW_1ZL58p=w224-h407-k-no"
            },
            {
                "about": "Street View & 360deg",
                "link": "https://streetviewpixels-pa.googleapis.com/v1/thumbnail?panoid=0-uVuaGvyYV8quwGQtybiA&cb_client=maps_sv.tactile.gps&w=224&h=298&yaw=91.21094&pitch=0&thumbfov=100"
            }
        ],
        "link": "https://www.google.com/maps/place/Jumma+Masjid/data=!4m7!3m6!1s0x3bb8e9fa06dc7349:0xa2b84c770800078c!8m2!3d15.5615153!4d75.3526671!16s%2Fg%2F11dfjzbd51!19sChIJSXPcBvrpuDsRjAcACHdMuKI?authuser=0&hl=en&rclk=1",
        "coordinates": {
            "latitude": 15.5615153,
            "longitude": 75.35266709999999
        }
    },
    {
        "name": "Fate Masjid",
        "main_category": "Mosque",
        "address": "H964+578 Fate Masjid, Navalgund, Karnataka 582208",
        "detailed_address": {
            "ward": null,
            "street": "H964+578",
            "city": "Navalgund",
            "postal_code": "582208",
            "state": "Karnataka",
            "country_code": "IN"
        },
        "images": [
            {
                "about": "All",
                "link": "https://streetviewpixels-pa.googleapis.com/v1/thumbnail?panoid=hu74ldPXMccX_TRXLlAksw&cb_client=maps_sv.tactile.gps&w=224&h=298&yaw=277.48087&pitch=0&thumbfov=100"
            },
            {
                "about": "Street View & 360deg",
                "link": "https://streetviewpixels-pa.googleapis.com/v1/thumbnail?panoid=hu74ldPXMccX_TRXLlAksw&cb_client=maps_sv.tactile.gps&w=224&h=298&yaw=277.48087&pitch=0&thumbfov=100"
            },
            {
                "about": "Videos",
                "link": "https://lh5.googleusercontent.com/p/AF1QipOBBVESVeF8A1_5RoKt94ZH_yGR0zn2X6Edhkx4=w518-h298-k-no"
            }
        ],
        "link": "https://www.google.com/maps/place/Fate+Masjid/data=!4m7!3m6!1s0x3bb8e9f0e193159d:0x888773adec35209d!8m2!3d15.5604204!4d75.3556957!16s%2Fg%2F11d_bgp01d!19sChIJnRWT4fDpuDsRnSA17K1zh4g?authuser=0&hl=en&rclk=1",
        "coordinates": {
            "latitude": 15.5604204,
            "longitude": 75.3556957
        }
    },
    {
        "name": "Hazrat Malangasha Wali Durgha",
        "main_category": "Mosque",
        "address": "H942+QX4 Hazrat Malangasha Wali Durgha, Navalgund, Karnataka 582208",
        "detailed_address": {
            "ward": null,
            "street": "H942+QX4",
            "city": "Navalgund",
            "postal_code": "582208",
            "state": "Karnataka",
            "country_code": "IN"
        },
        "images": [
            {
                "about": "All",
                "link": "https://lh5.googleusercontent.com/p/AF1QipNxheTDe8adu9ruz6NzwdNHeO1ljNNDdLo7zPec=w397-h298-k-no"
            }
        ],
        "link": "https://www.google.com/maps/place/Hazrat+Malangasha+Wali+Durgha/data=!4m7!3m6!1s0x3bb8e9faaf3f4567:0xcf325ac341d915ce!8m2!3d15.556881!4d75.3524422!16s%2Fg%2F11c6wsvb1t!19sChIJZ0U_r_rpuDsRzhXZQcNaMs8?authuser=0&hl=en&rclk=1",
        "coordinates": {
            "latitude": 15.556880999999999,
            "longitude": 75.3524422
        }
    },
    {
        "name": "Noorani masjid",
        "main_category": "Mosque",
        "address": "Noorani masjid, Jamakhana Kendara, Navalgund, Karnataka 582208",
        "detailed_address": {
            "ward": null,
            "street": "Jamakhana Kendara",
            "city": "Navalgund",
            "postal_code": "582208",
            "state": "Karnataka",
            "country_code": "IN"
        },
        "images": [],
        "link": "https://www.google.com/maps/place/Noorani+masjid/data=!4m7!3m6!1s0x3bb8e9d86d01b3cb:0x886e3e43038e5a54!8m2!3d15.5556556!4d75.349371!16s%2Fg%2F11g_x0mpzp!19sChIJy7MBbdjpuDsRVFqOA0M-bog?authuser=0&hl=en&rclk=1",
        "coordinates": {
            "latitude": 15.5556556,
            "longitude": 75.34937099999999
        }
    },
    {
        "name": "Bilal Masjid Markaz",
        "main_category": "Mosque",
        "address": "H965+F7C Bilal Masjid Markaz, Navalgund, Karnataka 582208",
        "detailed_address": {
            "ward": null,
            "street": "H965+F7C",
            "city": "Navalgund",
            "postal_code": "582208",
            "state": "Karnataka",
            "country_code": "IN"
        },
        "images": [
            {
                "about": "All",
                "link": "https://lh5.googleusercontent.com/p/AF1QipO-X3YB8k1Fev5tmd1yjRx0l2dSLw1BgH9YNPgI=w529-h298-k-no"
            },
            {
                "about": "Street View & 360deg",
                "link": "https://streetviewpixels-pa.googleapis.com/v1/thumbnail?panoid=JmeXS0xu_6N9b_43hWCl-g&cb_client=maps_sv.tactile.gps&w=224&h=298&yaw=36.545856&pitch=0&thumbfov=100"
            }
        ],
        "link": "https://www.google.com/maps/place/Bilal+Masjid+Markaz/data=!4m7!3m6!1s0x3bb8e95626d9bc77:0x8dc1c8d07b06f218!8m2!3d15.5611906!4d75.3581292!16s%2Fg%2F11g__27j8d!19sChIJd7zZJlbpuDsRGPIGe9DIwY0?authuser=0&hl=en&rclk=1",
        "coordinates": {
            "latitude": 15.5611906,
            "longitude": 75.3581292
        }
    },
    {
        "name": "Aksa masjid",
        "main_category": "Mosque",
        "address": "G9X7+V96 Aksa masjid, Basaveshwar Nagar, Navalgund, Karnataka 582208",
        "detailed_address": {
            "ward": "Basaveshwar Nagar",
            "street": "G9X7+V96",
            "city": "Navalgund",
            "postal_code": "582208",
            "state": "Karnataka",
            "country_code": "IN"
        },
        "images": [
            {
                "about": "All",
                "link": "https://streetviewpixels-pa.googleapis.com/v1/thumbnail?panoid=Z_0SGuMIhES2XffKCVxP8g&cb_client=maps_sv.tactile.gps&w=224&h=298&yaw=149.8972&pitch=0&thumbfov=100"
            },
            {
                "about": "Street View & 360deg",
                "link": "https://streetviewpixels-pa.googleapis.com/v1/thumbnail?panoid=Z_0SGuMIhES2XffKCVxP8g&cb_client=maps_sv.tactile.gps&w=224&h=298&yaw=149.8972&pitch=0&thumbfov=100"
            }
        ],
        "link": "https://www.google.com/maps/place/Aksa+masjid/data=!4m7!3m6!1s0x3bb8e98577f473a3:0x2d3b18ccd7b5d91b!8m2!3d15.5496664!4d75.3633917!16s%2Fg%2F11g_x4l0km!19sChIJo3P0d4XpuDsRG9m118wYOy0?authuser=0&hl=en&rclk=1",
        "coordinates": {
            "latitude": 15.5496664,
            "longitude": 75.3633917
        }
    },
    {
        "name": "Navalgund Eidga",
        "main_category": "Mosque",
        "address": "H85V+GXM Navalgund Eidga, Navalgund, Karnataka 582208",
        "detailed_address": {
            "ward": null,
            "street": "H85V+GXM",
            "city": "Navalgund",
            "postal_code": "582208",
            "state": "Karnataka",
            "country_code": "IN"
        },
        "images": [],
        "link": "https://www.google.com/maps/place/Navalgund+Eidga/data=!4m7!3m6!1s0x3bb8e9fc59e44d65:0x9a717ab21c0077e4!8m2!3d15.5588452!4d75.3449077!16s%2Fg%2F11f32ngvhk!19sChIJZU3kWfzpuDsR5HcAHLJ6cZo?authuser=0&hl=en&rclk=1",
        "coordinates": {
            "latitude": 15.558845199999999,
            "longitude": 75.3449077
        }
    },
    {
        "name": "Mecca masjid",
        "main_category": "Mosque",
        "address": "H962+4Q8 Mecca masjid, Navalgund, Karnataka 582208",
        "detailed_address": {
            "ward": null,
            "street": "H962+4Q8",
            "city": "Navalgund",
            "postal_code": "582208",
            "state": "Karnataka",
            "country_code": "IN"
        },
        "images": [
            {
                "about": "All",
                "link": "https://streetviewpixels-pa.googleapis.com/v1/thumbnail?panoid=dWmZE8UvLZ_NxFaIlKr9BQ&cb_client=maps_sv.tactile.gps&w=224&h=298&yaw=103.174904&pitch=0&thumbfov=100"
            },
            {
                "about": "Street View & 360deg",
                "link": "https://streetviewpixels-pa.googleapis.com/v1/thumbnail?panoid=dWmZE8UvLZ_NxFaIlKr9BQ&cb_client=maps_sv.tactile.gps&w=224&h=298&yaw=103.174904&pitch=0&thumbfov=100"
            }
        ],
        "link": "https://www.google.com/maps/place/Mecca+masjid/data=!4m7!3m6!1s0x3bb8e971d95ced4b:0x2dea37d5979d1059!8m2!3d15.5602847!4d75.3519508!16s%2Fg%2F11r4j3y72n!19sChIJS-1c2XHpuDsRWRCdl9U36i0?authuser=0&hl=en&rclk=1",
        "coordinates": {
            "latitude": 15.560284699999999,
            "longitude": 75.3519508
        }
    },
    {
        "name": "Sayedpur masjid",
        "main_category": "Mosque",
        "address": "H944+WMC Sayedpur masjid, National Highway 218, Navalgund, Karnataka 582208",
        "detailed_address": {
            "ward": null,
            "street": "H944+WMC, National Highway 218",
            "city": "Navalgund",
            "postal_code": "582208",
            "state": "Karnataka",
            "country_code": "IN"
        },
        "images": [
            {
                "about": "All",
                "link": "https://lh5.googleusercontent.com/p/AF1QipPSe4mt9AqoES-74zro53PKPooKGqbZAQZ1HRSr=w224-h398-k-no"
            },
            {
                "about": "Street View & 360deg",
                "link": "https://streetviewpixels-pa.googleapis.com/v1/thumbnail?panoid=70zDapJPl5xpAscmoCM8KA&cb_client=maps_sv.tactile.gps&w=224&h=298&yaw=220.05185&pitch=0&thumbfov=100"
            }
        ],
        "link": "https://www.google.com/maps/place/Sayedpur+masjid/data=!4m7!3m6!1s0x3bb8e970ba5020f5:0x4cf2d803e2b8957b!8m2!3d15.5573221!4d75.3566451!16s%2Fg%2F11l3c2z5sk!19sChIJ9SBQunDpuDsRe5W44gPY8kw?authuser=0&hl=en&rclk=1",
        "coordinates": {
            "latitude": 15.557322099999999,
            "longitude": 75.3566451
        }
    }
]