[
    {
        "name": "Masjid-E-Hanfipet",
        "main_category": "Mosque",
        "address": "QM2P+PH8 Masjid-E-Hanfipet, Velpur Rd, Venkatarayapuram, Tanuku, Andhra Pradesh 534211",
        "detailed_address": {
            "ward": "Venkatarayapuram",
            "street": "QM2P+PH8, Velpur Rd",
            "city": "Tanuku",
            "postal_code": "534211",
            "state": "Andhra Pradesh",
            "country_code": "IN"
        },
        "images": [
            {
                "about": "All",
                "link": "https://streetviewpixels-pa.googleapis.com/v1/thumbnail?panoid=C5qa18uZ-ljvOfsNSZ5O6g&cb_client=maps_sv.tactile.gps&w=224&h=298&yaw=81.800026&pitch=0&thumbfov=100"
            },
            {
                "about": "Street View & 360deg",
                "link": "https://streetviewpixels-pa.googleapis.com/v1/thumbnail?panoid=C5qa18uZ-ljvOfsNSZ5O6g&cb_client=maps_sv.tactile.gps&w=224&h=298&yaw=81.800026&pitch=0&thumbfov=100"
            }
        ],
        "link": "https://www.google.com/maps/place/Masjid-E-Hanfipet/data=!4m7!3m6!1s0x3a37b7f942bd2891:0xdbd17ec8184f99b3!8m2!3d16.751791!4d81.686441!16s%2Fg%2F1pyqs3g32!19sChIJkSi9Qvm3NzoRs5lPGMh-0ds?authuser=0&hl=en&rclk=1",
        "coordinates": {
            "latitude": 16.751791,
            "longitude": 81.686441
        }
    },
    {
        "name": "Sirat E Mustaqeem Masjid",
        "main_category": "Mosque",
        "address": "PMXM+FR2 Sirat E Mustaqeem Masjid, Venkiatrayapuram, Tanuku, Andhra Pradesh 534211",
        "detailed_address": {
            "ward": "Venkiatrayapuram",
            "street": "PMXM+FR2",
            "city": "Tanuku",
            "postal_code": "534211",
            "state": "Andhra Pradesh",
            "country_code": "IN"
        },
        "images": [
            {
                "about": "All",
                "link": "https://lh5.googleusercontent.com/p/AF1QipPxoP45QFhth5qVVew419Hy6glA5spGIC0iksRF=w224-h398-k-no"
            }
        ],
        "link": "https://www.google.com/maps/place/Sirat+E+Mustaqeem+Masjid/data=!4m7!3m6!1s0x3a37b7fc3ef9e3bf:0x5a6e05d79fa8f8ae!8m2!3d16.748635!4d81.6845249!16s%2Fg%2F1pyqjr2cs!19sChIJv-P5Pvy3NzoRrvion9cFblo?authuser=0&hl=en&rclk=1",
        "coordinates": {
            "latitude": 16.748635,
            "longitude": 81.6845249
        }
    },
    {
        "name": "Masjid E Noor",
        "main_category": "Mosque",
        "address": "QM5V+452 Masjid E Noor, Timmarajupuram, Tanuku, Andhra Pradesh 534211",
        "detailed_address": {
            "ward": "Timmarajupuram",
            "street": "QM5V+452",
            "city": "Tanuku",
            "postal_code": "534211",
            "state": "Andhra Pradesh",
            "country_code": "IN"
        },
        "images": [
            {
                "about": "All",
                "link": "https://lh5.googleusercontent.com/p/AF1QipOz_88pLOnUJAZWww2QOPgJwEfhkOO7E3zTVrYq=w397-h298-k-no"
            }
        ],
        "link": "https://www.google.com/maps/place/Masjid+E+Noor/data=!4m7!3m6!1s0x3a37b81d3c2deb47:0xa9ea32934dc4807b!8m2!3d16.7577504!4d81.6929053!16s%2Fg%2F11fz2cjh0q!19sChIJR-stPB24NzoRe4DETZMy6qk?authuser=0&hl=en&rclk=1",
        "coordinates": {
            "latitude": 16.7577504,
            "longitude": 81.69290529999999
        }
    },
    {
        "name": "Masjid e Mohammadia",
        "main_category": "Mosque",
        "address": "Masjid e Mohammadia, 1, Alamuru - Tanuku Rd, Old Town, Tanuku, Timmarajupuram, Tanuku, Andhra Pradesh 534211",
        "detailed_address": {
            "ward": "Old Town, Tanuku, Timmarajupuram",
            "street": "1, Alamuru - Tanuku Rd",
            "city": "Tanuku",
            "postal_code": "534211",
            "state": "Andhra Pradesh",
            "country_code": "IN"
        },
        "images": [
            {
                "about": "All",
                "link": "https://lh5.googleusercontent.com/p/AF1QipN0bMuXCb76KYeDp5aERpvFDq1Ko-FAeJE1Z4KT=w224-h389-k-no"
            },
            {
                "about": "Street View & 360deg",
                "link": "https://streetviewpixels-pa.googleapis.com/v1/thumbnail?panoid=WL5w9gs_-aqbWsSYR_4WPg&cb_client=maps_sv.tactile.gps&w=224&h=298&yaw=1.7736363&pitch=0&thumbfov=100"
            },
            {
                "about": "Videos",
                "link": "https://lh5.googleusercontent.com/p/AF1QipN9OSaEtRSB9w2GrjDOD4Ho_qQ8ovzM4SOOOt4G=w224-h389-k-no"
            }
        ],
        "link": "https://www.google.com/maps/place/Masjid+e+Mohammadia/data=!4m7!3m6!1s0x3a37b997485fb7e9:0x3dd27f2dd8920346!8m2!3d16.7478416!4d81.6940775!16s%2Fg%2F11fq9x_bf7!19sChIJ6bdfSJe5NzoRRgOS2C1_0j0?authuser=0&hl=en&rclk=1",
        "coordinates": {
            "latitude": 16.7478416,
            "longitude": 81.69407749999999
        }
    },
    {
        "name": "Mosque",
        "main_category": "Mosque",
        "address": "Mosque, Masjid Complex, Venkatarayapuram, Tanuku, Andhra Pradesh 534211",
        "detailed_address": {
            "ward": "Venkatarayapuram",
            "street": "Masjid Complex",
            "city": "Tanuku",
            "postal_code": "534211",
            "state": "Andhra Pradesh",
            "country_code": "IN"
        },
        "images": [
            {
                "about": "All",
                "link": "https://streetviewpixels-pa.googleapis.com/v1/thumbnail?panoid=C5qa18uZ-ljvOfsNSZ5O6g&cb_client=maps_sv.tactile.gps&w=224&h=298&yaw=117.40736&pitch=0&thumbfov=100"
            },
            {
                "about": "Street View & 360deg",
                "link": "https://streetviewpixels-pa.googleapis.com/v1/thumbnail?panoid=C5qa18uZ-ljvOfsNSZ5O6g&cb_client=maps_sv.tactile.gps&w=224&h=298&yaw=117.40736&pitch=0&thumbfov=100"
            }
        ],
        "link": "https://www.google.com/maps/place/Mosque/data=!4m7!3m6!1s0x3a37b7f942ffa78f:0xad6c507004b4e758!8m2!3d16.7517246!4d81.6864294!16s%2Fg%2F1vm78wlx!19sChIJj6f_Qvm3NzoRWOe0BHBQbK0?authuser=0&hl=en&rclk=1",
        "coordinates": {
            "latitude": 16.7517246,
            "longitude": 81.6864294
        }
    },
    {
        "name": "Chivatam Masjid",
        "main_category": "Mosque",
        "address": "QMGH+35J Chivatam Masjid, Chivatam, Tanuku, Andhra Pradesh 534216",
        "detailed_address": {
            "ward": "Chivatam",
            "street": "QMGH+35J",
            "city": "Tanuku",
            "postal_code": "534216",
            "state": "Andhra Pradesh",
            "country_code": "IN"
        },
        "images": [
            {
                "about": "All",
                "link": "https://lh5.googleusercontent.com/p/AF1QipPMF9tafr1aieE0TpyZ_sBfJrWVKH7G8kbFd10z=w397-h298-k-no"
            },
            {
                "about": "Street View & 360deg",
                "link": "https://streetviewpixels-pa.googleapis.com/v1/thumbnail?panoid=p3sRkO_uqFXsPmSnzDVgPA&cb_client=maps_sv.tactile.gps&w=224&h=298&yaw=87.58501&pitch=0&thumbfov=100"
            }
        ],
        "link": "https://www.google.com/maps/place/Chivatam+Masjid/data=!4m7!3m6!1s0x3a37b791a3932741:0x3716a11bc300b285!8m2!3d16.775206!4d81.677899!16s%2Fg%2F1pyqft8p3!19sChIJQSeTo5G3NzoRhbIAwxuhFjc?authuser=0&hl=en&rclk=1",
        "coordinates": {
            "latitude": 16.775206,
            "longitude": 81.677899
        }
    },
    {
        "name": "Mosque jaamiya",
        "main_category": "Mosque",
        "address": "QM3V+56V Mosque jaamiya, Timmarajupuram, Tanuku, Andhra Pradesh 534211",
        "detailed_address": {
            "ward": "Timmarajupuram",
            "street": "QM3V+56V",
            "city": "Tanuku",
            "postal_code": "534211",
            "state": "Andhra Pradesh",
            "country_code": "IN"
        },
        "images": [
            {
                "about": "All",
                "link": "https://lh5.googleusercontent.com/p/AF1QipPE6CmAcIm9znPFXBxliTqEOBsC7G6QL8fOCFR3=w529-h298-k-no"
            },
            {
                "about": "Dome",
                "link": "https://lh5.googleusercontent.com/p/AF1QipPE6CmAcIm9znPFXBxliTqEOBsC7G6QL8fOCFR3=w529-h298-k-no"
            },
            {
                "about": "Street View & 360deg",
                "link": "https://streetviewpixels-pa.googleapis.com/v1/thumbnail?panoid=tH7Jgsq9rytveaRZ0AtaDw&cb_client=maps_sv.tactile.gps&w=224&h=298&yaw=226.13168&pitch=0&thumbfov=100"
            }
        ],
        "link": "https://www.google.com/maps/place/Mosque+jaamiya/data=!4m7!3m6!1s0x3a37b8025ae37b89:0x5f129a5ac38d566a!8m2!3d16.7529799!4d81.6930602!16s%2Fg%2F124szn96n!19sChIJiXvjWgK4NzoRalaNw1qaEl8?authuser=0&hl=en&rclk=1",
        "coordinates": {
            "latitude": 16.7529799,
            "longitude": 81.69306019999999
        }
    },
    {
        "name": "Masjid-e-Noor",
        "main_category": "Mosque",
        "address": "PMP8+J2F Masjid-e-Noor, Pydiparru, Tanuku, Mandapaka Rural, Andhra Pradesh 534218",
        "detailed_address": {
            "ward": "Pydiparru",
            "street": "PMP8+J2F",
            "city": "Tanuku, Mandapaka Rural",
            "postal_code": "534218",
            "state": "Andhra Pradesh",
            "country_code": "IN"
        },
        "images": [
            {
                "about": "All",
                "link": "https://lh5.googleusercontent.com/p/AF1QipOwn2kqrV32yNA30S5EK0FcAWcwCh_Irum8fXJr=w423-h298-k-no"
            },
            {
                "about": "Dome",
                "link": "https://lh5.googleusercontent.com/p/AF1QipOwn2kqrV32yNA30S5EK0FcAWcwCh_Irum8fXJr=w423-h298-k-no"
            }
        ],
        "link": "https://www.google.com/maps/place/Masjid-e-Noor/data=!4m7!3m6!1s0x3a37c9689e1beb5d:0x61847af2b162ae2a!8m2!3d16.73657!4d81.6650523!16s%2Fg%2F11h196_cjl!19sChIJXesbnmjJNzoRKq5isfJ6hGE?authuser=0&hl=en&rclk=1",
        "coordinates": {
            "latitude": 16.73657,
            "longitude": 81.6650523
        }
    }
]