[
    {
        "name": "Idgah Masjid",
        "main_category": "Place of worship",
        "address": "W54H+9HM Idgah Masjid, Idgah Mohalla, Rajputana Mohalla, Dehri, Bihar 821307",
        "detailed_address": {
            "ward": "Idgah Mohalla, Rajputana Mohalla",
            "street": "W54H+9HM",
            "city": "Dehri",
            "postal_code": "821307",
            "state": "Bihar",
            "country_code": "IN"
        },
        "images": [
            {
                "about": "All",
                "link": "https://lh5.googleusercontent.com/p/AF1QipM1P_dP0tvVmo_lSB27BC-bsO6Viu5rgcM3VlyI=w224-h298-k-no"
            },
            {
                "about": "Videos",
                "link": "https://lh5.googleusercontent.com/p/AF1QipNJcuaJqG7rgGqSbzeviop43p1j8Wdf6SL5ndhn=w518-h298-k-no"
            }
        ],
        "link": "https://www.google.com/maps/place/Idgah+Masjid/data=!4m7!3m6!1s0x398daeb6f245aaa7:0xcd22fd1b8b4adc33!8m2!3d24.9059613!4d84.1789184!16s%2Fg%2F11b7tsq7jv!19sChIJp6pF8raujTkRM9xKixv9Is0?authuser=0&hl=en&rclk=1",
        "coordinates": {
            "latitude": 24.905961299999998,
            "longitude": 84.1789184
        }
    },
    {
        "name": "Sagiriya Masjid, Dehri",
        "main_category": "Mosque",
        "address": "Sagiriya Masjid, Dehri, Neel Kothi, Gandhi Nagar, Dehri, Bihar 821307",
        "detailed_address": {
            "ward": "Gandhi Nagar",
            "street": "Neel Kothi",
            "city": "Dehri",
            "postal_code": null,
            "state": "Bihar",
            "country_code": "IN"
        },
        "images": [
            {
                "about": "All",
                "link": "https://lh5.googleusercontent.com/p/AF1QipPSC1Gq_Eg7ncNKPVZgE5iOoSC8eSLIbDrubQ43=w224-h398-k-no"
            }
        ],
        "link": "https://www.google.com/maps/place/Sagiriya+Masjid,+Dehri/data=!4m7!3m6!1s0x398daf8192376821:0x477a913e7ffc0c18!8m2!3d24.903135!4d84.1842778!16s%2Fg%2F11jy2cd0hc!19sChIJIWg3koGvjTkRGAz8fz6Rekc?authuser=0&hl=en&rclk=1",
        "coordinates": {
            "latitude": 24.903135,
            "longitude": 84.18427779999999
        }
    },
    {
        "name": "Masjid, Dehri",
        "main_category": "Social welfare center",
        "address": "3H3M+9W5 Masjid, Dehri, Unnamed Road, Uttar Pradesh 223103",
        "detailed_address": {
            "ward": null,
            "street": "3H3M+9W5, Unnamed Road",
            "city": "Dehari",
            "postal_code": "223103",
            "state": "Uttar Pradesh",
            "country_code": "IN"
        },
        "images": [
            {
                "about": "All",
                "link": "https://lh5.googleusercontent.com/p/AF1QipOkMmWfGYBTAGk2yQhtUTuNwBlaotIbyrmYhArm=w224-h298-k-no"
            }
        ],
        "link": "https://www.google.com/maps/place/Masjid,+Dehri/data=!4m7!3m6!1s0x39905d3840000001:0x93682cb991617c3!8m2!3d26.0533997!4d82.5848464!16s%2Fg%2F11gfbnyk68!19sChIJAQAAQDhdkDkRwxcWmcuCNgk?authuser=0&hl=en&rclk=1",
        "coordinates": {
            "latitude": 26.0533997,
            "longitude": 82.58484639999999
        }
    },
    {
        "name": "Gaura Noori masjid",
        "main_category": "Mosque",
        "address": "9JV2+HPV Gaura Noori masjid, Dehri, Bihar 802206",
        "detailed_address": {
            "ward": null,
            "street": "9JV2+HPV",
            "city": "Dehri",
            "postal_code": "802206",
            "state": "Bihar",
            "country_code": "IN"
        },
        "images": [],
        "link": "https://www.google.com/maps/place/Gaura+Noori+masjid/data=!4m7!3m6!1s0x398d67940a21299d:0x6384ee76bac65a0a!8m2!3d25.3939989!4d84.6018007!16s%2Fg%2F11j8m6tt4y!19sChIJnSkhCpRnjTkRClrGunbuhGM?authuser=0&hl=en&rclk=1",
        "coordinates": {
            "latitude": 25.3939989,
            "longitude": 84.6018007
        }
    },
    {
        "name": "New dilliyan Dehri on sone Masjid",
        "main_category": "Mosque",
        "address": "New dilliyan Dehri on sone Masjid, petrol pump, New Dillian, Dehri, Bihar 821305",
        "detailed_address": {
            "ward": "New Dillian",
            "street": "petrol pump",
            "city": "Dehri",
            "postal_code": "821305",
            "state": "Bihar",
            "country_code": "IN"
        },
        "images": [
            {
                "about": "All",
                "link": "https://lh5.googleusercontent.com/p/AF1QipMXR32CEYrZjpGiLKPe0LDavp2ALSeCCLwytWA=w224-h298-k-no"
            },
            {
                "about": "Dome",
                "link": "https://lh5.googleusercontent.com/p/AF1QipPy-dTgOuT-OuK6P2qyxh0JMUvYoGw66Zk2u_s=w224-h398-k-no"
            }
        ],
        "link": "https://www.google.com/maps/place/New+dilliyan+Dehri+on+sone+Masjid/data=!4m7!3m6!1s0x398daf734e02fa6b:0xcab47977ecba2fb7!8m2!3d24.9083727!4d84.1746212!16s%2Fg%2F11s79fpw28!19sChIJa_oCTnOvjTkRty-67Hd5tMo?authuser=0&hl=en&rclk=1",
        "coordinates": {
            "latitude": 24.908372699999997,
            "longitude": 84.17462119999999
        }
    }
]