[
    {
        "name": "JAMA MASJID PACHNAUR",
        "main_category": "Mosque",
        "address": "JAMA MASJID PACHNAUR, mashjid road, Pachnaur, Bharwari, Bihar 843316",
        "detailed_address": {
            "ward": null,
            "street": "mashjid road",
            "city": "Pachnaur, Bharwari",
            "postal_code": "843316",
            "state": "Bihar",
            "country_code": "IN"
        },
        "images": [
            {
                "about": "All",
                "link": "https://lh5.googleusercontent.com/p/AF1QipMIkfnRc7YAV-vJbsoNFkFX7vFKbbdLKwx614ic=w224-h398-k-no"
            },
            {
                "about": "By owner",
                "link": "https://lh5.googleusercontent.com/p/AF1QipN-nyi_RpGVZM8nzB-KGNSCNbBJsb8ZFZtusXrp=w224-h398-k-no"
            },
            {
                "about": "Videos",
                "link": "https://lh5.googleusercontent.com/p/AF1QipPqQbRo8lqiG23xHfWZd9JH8rWze-dtHd6fg37h=w529-h298-k-no"
            },
            {
                "about": "Street View & 360deg",
                "link": "https://lh5.googleusercontent.com/p/AF1QipMZroJrScBxf5JBWC_2varzpNOhTSHml_8VtFCR=w224-h298-k-no-pi-20-ya80-ro0-fo100"
            }
        ],
        "link": "https://www.google.com/maps/place/JAMA+MASJID+PACHNAUR/data=!4m7!3m6!1s0x39ece3f5844bcab5:0x615c00dafdfa1f8e!8m2!3d26.403297!4d85.4253851!16s%2Fg%2F11s7ws4gsf!19sChIJtcpLhPXj7DkRjh_6_doAXGE?authuser=0&hl=en&rclk=1",
        "coordinates": {
            "latitude": 26.403297,
            "longitude": 85.4253851
        }
    },
    {
        "name": "Sadak Wali Masjid",
        "main_category": "Mosque",
        "address": "HF5V+V56 Sadak Wali Masjid, Bharwari, Uttar Pradesh 212201",
        "detailed_address": {
            "ward": null,
            "street": "HF5V+V56",
            "city": "Bharwari",
            "postal_code": "212201",
            "state": "Uttar Pradesh",
            "country_code": "IN"
        },
        "images": [
            {
                "about": "All",
                "link": "https://lh5.googleusercontent.com/p/AF1QipOuxFK8OJzVikYONALUVfG7FRnzwAYghUdqql26=w224-h298-k-no"
            },
            {
                "about": "Dome",
                "link": "https://lh5.googleusercontent.com/p/AF1QipPeG7okiWobd_MgYO96-Ghn2oSwCgw0Vfp78Lbb=w375-h298-k-no"
            },
            {
                "about": "Street View & 360deg",
                "link": "https://streetviewpixels-pa.googleapis.com/v1/thumbnail?panoid=NpCklV3GY9xxlO01QPhWqw&cb_client=maps_sv.tactile.gps&w=224&h=298&yaw=48.30441&pitch=0&thumbfov=100"
            }
        ],
        "link": "https://www.google.com/maps/place/Sadak+Wali+Masjid/data=!4m7!3m6!1s0x399b284a8e852543:0x36de246949563181!8m2!3d25.5596544!4d81.4928949!16s%2Fg%2F11bwl3gndd!19sChIJQyWFjkoomzkRgTFWSWkk3jY?authuser=0&hl=en&rclk=1",
        "coordinates": {
            "latitude": 25.5596544,
            "longitude": 81.4928949
        }
    },
    {
        "name": "Maroofpur Masjid",
        "main_category": "Mosque",
        "address": "HFFX+33X Maroofpur Masjid, SH 94, Bharwari, Uttar Pradesh 212201",
        "detailed_address": {
            "ward": null,
            "street": "HFFX+33X, SH 94",
            "city": "Bharwari",
            "postal_code": "212201",
            "state": "Uttar Pradesh",
            "country_code": "IN"
        },
        "images": [
            {
                "about": "All",
                "link": "https://lh5.googleusercontent.com/p/AF1QipP717BLqFLdmoP5KVNdCfAwaGJ6e8CbDm5QrzCT=w224-h298-k-no"
            }
        ],
        "link": "https://www.google.com/maps/place/Maroofpur+Masjid/data=!4m7!3m6!1s0x399b2903dd9e5bc7:0xd7c5b449dc063511!8m2!3d25.5727363!4d81.4977314!16s%2Fg%2F11h3c9ynxq!19sChIJx1ue3QMpmzkRETUG3Em0xdc?authuser=0&hl=en&rclk=1",
        "coordinates": {
            "latitude": 25.5727363,
            "longitude": 81.49773139999999
        }
    },
    {
        "name": "Jama Masjid jm` msjd",
        "main_category": "Mosque",
        "address": "CC38+6VJ Jama Masjid jm` msjd, maulanagar bandh to indian chok road, Belsand, Bihar",
        "detailed_address": {
            "ward": null,
            "street": "CC38+6VJ, maulanagar bandh to indian chok road",
            "city": "Belsand, Bharwari",
            "postal_code": null,
            "state": "Bihar",
            "country_code": "IN"
        },
        "images": [
            {
                "about": "All",
                "link": "https://streetviewpixels-pa.googleapis.com/v1/thumbnail?panoid=AOnarU0NQ-lMX8SAsPfzuw&cb_client=maps_sv.tactile.gps&w=224&h=298&yaw=190.13693&pitch=0&thumbfov=100"
            },
            {
                "about": "Street View & 360deg",
                "link": "https://streetviewpixels-pa.googleapis.com/v1/thumbnail?panoid=AOnarU0NQ-lMX8SAsPfzuw&cb_client=maps_sv.tactile.gps&w=224&h=298&yaw=190.13693&pitch=0&thumbfov=100"
            }
        ],
        "link": "https://www.google.com/maps/place/Jama+Masjid+%D8%AC%D8%A7%D9%85%D8%B9+%D9%85%D8%B3%D8%AC%D8%AF%E2%80%AD/data=!4m7!3m6!1s0x39ece3229cdbc6a9:0x4aad48fd7b2288c!8m2!3d26.4030927!4d85.4171323!16s%2Fg%2F11gfb3f0wf!19sChIJqcbbnCLj7DkRjCiy14_UqgQ?authuser=0&hl=en&rclk=1",
        "coordinates": {
            "latitude": 26.4030927,
            "longitude": 85.41713229999999
        }
    },
    {
        "name": "Makka Masjid",
        "main_category": "Mosque",
        "address": "Makka Masjid, Anjahi bazar Bhairaw kerana ke bagal, Bharwari, Uttar Pradesh 212201",
        "detailed_address": {
            "ward": null,
            "street": "Anjahi bazar Bhairaw kerana ke bagal",
            "city": "Bharwari",
            "postal_code": "212201",
            "state": "Uttar Pradesh",
            "country_code": "IN"
        },
        "images": [
            {
                "about": "All",
                "link": "https://lh5.googleusercontent.com/p/AF1QipPA0TzMdwKNSH9GP0hv_Aa_G0HVr1fdR39OsxKt=w529-h298-k-no"
            },
            {
                "about": "By owner",
                "link": "https://lh5.googleusercontent.com/p/AF1QipPA0TzMdwKNSH9GP0hv_Aa_G0HVr1fdR39OsxKt=w529-h298-k-no"
            }
        ],
        "link": "https://www.google.com/maps/place/Makka+Masjid/data=!4m7!3m6!1s0x399b2908f725b331:0x75f5b14c2286b1c!8m2!3d25.5615249!4d81.4912017!16s%2Fg%2F11q4hd3cdz!19sChIJMbMl9wgpmzkRHGsowhRbXwc?authuser=0&hl=en&rclk=1",
        "coordinates": {
            "latitude": 25.5615249,
            "longitude": 81.49120169999999
        }
    },
    {
        "name": "Dargah Shah Sahab Hzrat Ibad Ullah",
        "main_category": "Mosque",
        "address": "HF5P+W64 Dargah Shah Sahab Hzrat Ibad Ullah, Bharwari, Uttar Pradesh 212201",
        "detailed_address": {
            "ward": null,
            "street": "HF5P+W64",
            "city": "Bharwari",
            "postal_code": "212201",
            "state": "Uttar Pradesh",
            "country_code": "IN"
        },
        "images": [],
        "link": "https://www.google.com/maps/place/Dargah+Shah+Sahab+Hzrat+Ibad+Ullah/data=!4m7!3m6!1s0x399b284cffffffff:0x26bc69ea716b9025!8m2!3d25.5597535!4d81.485588!16s%2Fg%2F11c58s_gsw!19sChIJ_____0womzkRJZBrceppvCY?authuser=0&hl=en&rclk=1",
        "coordinates": {
            "latitude": 25.5597535,
            "longitude": 81.48558799999999
        }
    },
    {
        "name": "SUNNI MASJID",
        "main_category": "Mosque",
        "address": "GFMV+GGM SUNNI MASJID, Bharwari, Mohammadpur Aswa, Uttar Pradesh 212201",
        "detailed_address": {
            "ward": null,
            "street": "GFMV+GGM",
            "city": "Bharwari, Mohammadpur Aswa",
            "postal_code": "212201",
            "state": "Uttar Pradesh",
            "country_code": "IN"
        },
        "images": [
            {
                "about": "All",
                "link": "https://streetviewpixels-pa.googleapis.com/v1/thumbnail?panoid=0v09loiOv73H8FfrfFMfNg&cb_client=maps_sv.tactile.gps&w=224&h=298&yaw=60.692764&pitch=0&thumbfov=100"
            },
            {
                "about": "Street View & 360deg",
                "link": "https://streetviewpixels-pa.googleapis.com/v1/thumbnail?panoid=0v09loiOv73H8FfrfFMfNg&cb_client=maps_sv.tactile.gps&w=224&h=298&yaw=60.692764&pitch=0&thumbfov=100"
            }
        ],
        "link": "https://www.google.com/maps/place/SUNNI+MASJID/data=!4m7!3m6!1s0x399b296d7103e361:0x7f91dae687dc9eb1!8m2!3d25.5338364!4d81.4937993!16s%2Fg%2F11scyb3whl!19sChIJYeMDcW0pmzkRsZ7ch-bakX8?authuser=0&hl=en&rclk=1",
        "coordinates": {
            "latitude": 25.5338364,
            "longitude": 81.49379929999999
        }
    },
    {
        "name": "Maulanagar badi masjid",
        "main_category": "Housing complex",
        "address": "CC39+33Q Maulanagar badi masjid, Bharwari, Bihar 843316",
        "detailed_address": {
            "ward": null,
            "street": "CC39+33Q",
            "city": "Bharwari",
            "postal_code": "843316",
            "state": "Bihar",
            "country_code": "IN"
        },
        "images": [],
        "link": "https://www.google.com/maps/place/Maulanagar+badi+masjid/data=!4m7!3m6!1s0x39ece36dc3ad72a3:0x4f885d2daeb9ea62!8m2!3d26.4028088!4d85.4176479!16s%2Fg%2F11v15zhqgc!19sChIJo3Ktw23j7DkRYuq5ri1diE8?authuser=0&hl=en&rclk=1",
        "coordinates": {
            "latitude": 26.4028088,
            "longitude": 85.41764789999999
        }
    }
]