[
    {
        "name": "Sunni Jama Masjid (Boisar)",
        "main_category": "Mosque",
        "address": "QQX6+R7Q Sunni Jama Masjid (Boisar), Main Rd, Sainath Nagar, Bhandarwada, Boisar, Maharashtra 401501",
        "detailed_address": {
            "ward": "Sainath Nagar, Bhandarwada",
            "street": "QQX6+R7Q, Main Rd",
            "city": "Boisar",
            "postal_code": "401501",
            "state": "Maharashtra",
            "country_code": "IN"
        },
        "images": [
            {
                "about": "All",
                "link": "https://lh5.googleusercontent.com/p/AF1QipOhiUlptOLrpurNpIUD6s-6OvI7EEmkhmg7N3TQ=w397-h298-k-no"
            },
            {
                "about": "Videos",
                "link": "https://lh5.googleusercontent.com/p/AF1QipNTA3oQjM06FnObOSSXXTW2viEvotUvVXnXjcV1=w224-h407-k-no"
            }
        ],
        "link": "https://www.google.com/maps/place/Sunni+Jama+Masjid+%28Boisar%29/data=!4m7!3m6!1s0x3be71ef9c619d275:0xe338496d3f493355!8m2!3d19.7995887!4d72.7607295!16s%2Fg%2F11cllk2rk4!19sChIJddIZxvke5zsRVTNJP21JOOM?authuser=0&hl=en&rclk=1",
        "coordinates": {
            "latitude": 19.799588699999997,
            "longitude": 72.7607295
        }
    },
    {
        "name": "MASJID AL HIRA, Ahl al hadith (MOSQUE)",
        "main_category": "Mosque",
        "address": "MASJID AL HIRA, Ahl al hadith (MOSQUE), 7, Navapur Rd, Churi Compound, Mahavir Nagar, Boisar, Maharashtra 401501",
        "detailed_address": {
            "ward": "Churi Compound, Mahavir Nagar",
            "street": "7, Navapur Rd",
            "city": "Boisar",
            "postal_code": "401501",
            "state": "Maharashtra",
            "country_code": "IN"
        },
        "images": [
            {
                "about": "All",
                "link": "https://lh5.googleusercontent.com/p/AF1QipMtxITj6KEeFwzZ3lATr3dwmoGH4LUmr_vXfdeM=w529-h298-k-no"
            }
        ],
        "link": "https://www.google.com/maps/place/MASJID+AL+HIRA,+Ahl+al+hadith+%28MOSQUE%29/data=!4m7!3m6!1s0x3be71e50893b1aa1:0xd819c22e51093a65!8m2!3d19.797974!4d72.748786!16s%2Fg%2F11gb3qzs6d!19sChIJoRo7iVAe5zsRZToJUS7CGdg?authuser=0&hl=en&rclk=1",
        "coordinates": {
            "latitude": 19.797974,
            "longitude": 72.748786
        }
    },
    {
        "name": "Masjid-E-Noor",
        "main_category": "Mosque",
        "address": "Masjid-E-Noor, plot no 31 OPP CHANDAR DECORATIVE, Chitralaya, Boisar, Maharashtra 401504",
        "detailed_address": {
            "ward": "Chitralaya",
            "street": "plot no 31 OPP CHANDAR DECORATIVE",
            "city": "Boisar, Katkar",
            "postal_code": "401504",
            "state": "Maharashtra",
            "country_code": "IN"
        },
        "images": [
            {
                "about": "All",
                "link": "https://lh5.googleusercontent.com/p/AF1QipNu4PCi1uPzED8Kj_nCRd9ydgadSmlyv6-4i49H=w646-h298-k-no"
            }
        ],
        "link": "https://www.google.com/maps/place/Masjid-E-Noor/data=!4m7!3m6!1s0x3be71e52a6854cf7:0xf087af24124ece1b!8m2!3d19.8075708!4d72.7455597!16s%2Fg%2F11cls9921w!19sChIJ90yFplIe5zsRG85OEiSvh_A?authuser=0&hl=en&rclk=1",
        "coordinates": {
            "latitude": 19.8075708,
            "longitude": 72.7455597
        }
    },
    {
        "name": "Masjid-e-Abdullah",
        "main_category": "Mosque",
        "address": "QQM8+P8X Masjid-e-Abdullah, Hindustan Garage, Boisar, Maharashtra",
        "detailed_address": {
            "ward": null,
            "street": "QQM8+P8X, Hindustan Garage",
            "city": "Boisar",
            "postal_code": null,
            "state": "Maharashtra",
            "country_code": "IN"
        },
        "images": [
            {
                "about": "All",
                "link": "https://lh5.googleusercontent.com/p/AF1QipOxbeTNq8xe0Zhgk3_4tpN2TA1qkpI0yYKWpRnl=w529-h298-k-no"
            }
        ],
        "link": "https://www.google.com/maps/place/Masjid-e-Abdullah/data=!4m7!3m6!1s0x3be71e8c54d57ae7:0x3140aab0f3201ff6!8m2!3d19.7843714!4d72.7658536!16s%2Fg%2F11c7428j2x!19sChIJ53rVVIwe5zsR9h8g87CqQDE?authuser=0&hl=en&rclk=1",
        "coordinates": {
            "latitude": 19.784371399999998,
            "longitude": 72.7658536
        }
    },
    {
        "name": "juma masjid awadh nagar",
        "main_category": "Mosque",
        "address": "QPWX+R5P juma masjid awadh nagar, Awadh Nagar, Boisar, Maharashtra 401501",
        "detailed_address": {
            "ward": "Awadh Nagar",
            "street": "QPWX+R5P",
            "city": "Boisar",
            "postal_code": "401501",
            "state": "Maharashtra",
            "country_code": "IN"
        },
        "images": [
            {
                "about": "All",
                "link": "https://lh5.googleusercontent.com/p/AF1QipMK-KIdq4gnPyLkDKlGJD_CN0qxd3szCubhLSv-=w428-h298-k-no"
            }
        ],
        "link": "https://www.google.com/maps/place/juma+masjid+awadh+nagar/data=!4m7!3m6!1s0x3be71e5a8035a393:0xaea86b729010f9f6!8m2!3d19.7970853!4d72.7479656!16s%2Fg%2F11g9q6hd8r!19sChIJk6M1gFoe5zsR9vkQkHJrqK4?authuser=0&hl=en&rclk=1",
        "coordinates": {
            "latitude": 19.7970853,
            "longitude": 72.7479656
        }
    },
    {
        "name": "Bhaiyapada Masjid",
        "main_category": "Mosque",
        "address": "RP4W+8Q9 Bhaiyapada Masjid, Boisar, Katkar, Maharashtra 401501",
        "detailed_address": {
            "ward": null,
            "street": "RP4W+8Q9",
            "city": "Boisar, Katkar",
            "postal_code": "401501",
            "state": "Maharashtra",
            "country_code": "IN"
        },
        "images": [],
        "link": "https://www.google.com/maps/place/Bhaiyapada+Masjid/data=!4m7!3m6!1s0x3be71f12fe5bb533:0x557f24fddfc1ff5e!8m2!3d19.8057822!4d72.7469873!16s%2Fg%2F11ghp0q2t0!19sChIJM7Vb_hIf5zsRXv_B3_0kf1U?authuser=0&hl=en&rclk=1",
        "coordinates": {
            "latitude": 19.8057822,
            "longitude": 72.7469873
        }
    },
    {
        "name": "Ahl Al Hadith Masjid Khwateen (Salafi Mosque For Female)",
        "main_category": "Mosque",
        "address": "QPXX+7CH Ahl Al Hadith Masjid Khwateen (Salafi Mosque For Female), Churi Compound, Awadh Nagar, Boisar, Maharashtra 401501",
        "detailed_address": {
            "ward": "Churi Compound, Awadh Nagar",
            "street": "QPXX+7CH",
            "city": "Boisar",
            "postal_code": "401501",
            "state": "Maharashtra",
            "country_code": "IN"
        },
        "images": [
            {
                "about": "All",
                "link": "https://lh5.googleusercontent.com/p/AF1QipP06x1-0dLh3g1mgaF9VS4O1n6PhDQvmHAqkdFO=w224-h298-k-no"
            }
        ],
        "link": "https://www.google.com/maps/place/Ahl+Al+Hadith+Masjid+Khwateen+%28Salafi+Mosque+For+Female%29/data=!4m7!3m6!1s0x3be71f18e0ce7055:0x5f6cd0ced2209be5!8m2!3d19.7981863!4d72.748607!16s%2Fg%2F11gnp1mhb6!19sChIJVXDO4Bgf5zsR5Zsg0s7QbF8?authuser=0&hl=en&rclk=1",
        "coordinates": {
            "latitude": 19.798186299999998,
            "longitude": 72.74860699999999
        }
    },
    {
        "name": "Darul Uloom Gausiya & Charitable Trust",
        "main_category": "Mosque",
        "address": "Darul Uloom Gausiya & Charitable Trust, Bhaiyapada, Tarapur Rd, Awadh Nagar, Boisar, Maharashtra 401501",
        "detailed_address": {
            "ward": "Awadh Nagar",
            "street": "Bhaiyapada, Tarapur Rd",
            "city": "Boisar",
            "postal_code": "401501",
            "state": "Maharashtra",
            "country_code": "IN"
        },
        "images": [
            {
                "about": "All",
                "link": "https://lh5.googleusercontent.com/p/AF1QipP1sCdVxXH7-iCLdrLToY7UEOs4pwuAL7rTVfKC=w397-h298-k-no"
            },
            {
                "about": "By owner",
                "link": "https://lh5.googleusercontent.com/p/AF1QipOx90rZliFojaueaRLYEfw7D2Md5MSPm-DhHL9E=w224-h380-k-no"
            },
            {
                "about": "Videos",
                "link": "https://lh5.googleusercontent.com/p/AF1QipNJn52AS5cPiqQKTWxwY8c-3QctNjjTQ1JEXnIq=w224-h398-k-no"
            }
        ],
        "link": "https://www.google.com/maps/place/Darul+Uloom+Gausiya+%26+Charitable+Trust/data=!4m7!3m6!1s0x3be71fbfebc9a521:0xb64bda77911561a9!8m2!3d19.8020293!4d72.7466601!16s%2Fg%2F11ghfnvk39!19sChIJIaXJ678f5zsRqWEVkXfaS7Y?authuser=0&hl=en&rclk=1",
        "coordinates": {
            "latitude": 19.802029299999997,
            "longitude": 72.7466601
        }
    },
    {
        "name": "Sunni Jama Masjid",
        "main_category": "Mosque",
        "address": "RQ77+V7R Sunni Jama Masjid, Dhanani Nagar Rd, Boisar, Maharashtra 401501",
        "detailed_address": {
            "ward": null,
            "street": "RQ77+V7R, Dhanani Nagar Rd",
            "city": "Boisar",
            "postal_code": "401501",
            "state": "Maharashtra",
            "country_code": "IN"
        },
        "images": [
            {
                "about": "All",
                "link": "https://lh5.googleusercontent.com/p/AF1QipOe8-MDsmvUnKznnTtBE_2c_3bqdc4XxlqHJUvd=w224-h298-k-no"
            },
            {
                "about": "Videos",
                "link": "https://lh5.googleusercontent.com/p/AF1QipMSr0MM-IkKc0_yixH2F4uGSJ17JzKGohKV1cyf=w224-h398-k-no"
            }
        ],
        "link": "https://www.google.com/maps/place/Sunni+Jama+Masjid/data=!4m7!3m6!1s0x3be71f9ac84f1a7f:0x6c9f7375fd9d92ae!8m2!3d19.8147359!4d72.7631264!16s%2Fg%2F11g1928nkd!19sChIJfxpPyJof5zsRrpKd_XVzn2w?authuser=0&hl=en&rclk=1",
        "coordinates": {
            "latitude": 19.8147359,
            "longitude": 72.76312639999999
        }
    },
    {
        "name": "Masjid Barelvi (Mosque)",
        "main_category": "Mosque",
        "address": "Masjid Barelvi (Mosque), Dhodi pooja, Pratapgarh, bhagwan nagar, Boisar, Maharashtra 401501",
        "detailed_address": {
            "ward": "Pratapgarh, bhagwan nagar",
            "street": "Dhodi pooja",
            "city": "Boisar",
            "postal_code": "401501",
            "state": "Maharashtra",
            "country_code": "IN"
        },
        "images": [
            {
                "about": "All",
                "link": "https://lh5.googleusercontent.com/p/AF1QipMx8ZAWU06Rd7FhjHfenz3IOBiDnSQmy1ujmcT1=w265-h298-k-no"
            }
        ],
        "link": "https://www.google.com/maps/place/Masjid+Barelvi+%28Mosque%29/data=!4m7!3m6!1s0x3be71f1dd5d76c0b:0xf8e2490dd28114c2!8m2!3d19.799696!4d72.7539868!16s%2Fg%2F11fkcyym9q!19sChIJC2zX1R0f5zsRwhSB0g1J4vg?authuser=0&hl=en&rclk=1",
        "coordinates": {
            "latitude": 19.799696,
            "longitude": 72.75398679999999
        }
    },
    {
        "name": "Sunni Jama Masjid",
        "main_category": "Mosque",
        "address": "RQ83+JR7 Sunni Jama Masjid, Boisar, Mohammad Nagar, Katkar, Maharashtra 401501",
        "detailed_address": {
            "ward": "Mohammad Nagar",
            "street": "RQ83+JR7, Boisar",
            "city": "Katkar",
            "postal_code": "401501",
            "state": "Maharashtra",
            "country_code": "IN"
        },
        "images": [],
        "link": "https://www.google.com/maps/place/Sunni+Jama+Masjid/data=!4m7!3m6!1s0x3be71f4fe12927af:0x23e61608f638de70!8m2!3d19.8165471!4d72.7545369!16s%2Fg%2F11f775g82j!19sChIJrycp4U8f5zsRcN449ggW5iM?authuser=0&hl=en&rclk=1",
        "coordinates": {
            "latitude": 19.816547099999998,
            "longitude": 72.75453689999999
        }
    },
    {
        "name": "Masjid",
        "main_category": "Mosque",
        "address": "QQW4+2X9 Masjid, Sanjay Nagar, Mahavir Nagar, Boisar, Maharashtra 401501",
        "detailed_address": {
            "ward": "Sanjay Nagar, Mahavir Nagar",
            "street": "QQW4+2X9",
            "city": "Boisar",
            "postal_code": "401501",
            "state": "Maharashtra",
            "country_code": "IN"
        },
        "images": [],
        "link": "https://www.google.com/maps/place/Masjid/data=!4m7!3m6!1s0x3be71fd268156ea9:0x922a101a36e15faf!8m2!3d19.7950288!4d72.7574757!16s%2Fg%2F11h63jh39w!19sChIJqW4VaNIf5zsRr1_hNhoQKpI?authuser=0&hl=en&rclk=1",
        "coordinates": {
            "latitude": 19.7950288,
            "longitude": 72.7574757
        }
    },
    {
        "name": "Masjid And Madarsa Rizwiya Trust Awadhnagar (Ahle Sunnat Wa Jamaat, Barelvi)",
        "main_category": "Mosque",
        "address": "QPWX+PJ5 Masjid And Madarsa Rizwiya Trust Awadhnagar (Ahle Sunnat Wa Jamaat, Barelvi), Boisar, Maharashtra 401501",
        "detailed_address": {
            "ward": null,
            "street": "QPWX+PJ5",
            "city": "Boisar",
            "postal_code": null,
            "state": "Maharashtra",
            "country_code": "IN"
        },
        "images": [
            {
                "about": "All",
                "link": "https://lh5.googleusercontent.com/p/AF1QipO2fEgIwH9exWfERQDMSRoofsGnC2apV0Q_CPeW=w529-h298-k-no"
            }
        ],
        "link": "https://www.google.com/maps/place/Masjid+And+Madarsa+Rizwiya+Trust+Awadhnagar+%28Ahle+Sunnat+Wa+Jamaat,+Barelvi%29/data=!4m7!3m6!1s0x3be71f50510c5c8d:0x5c06dfa48fa95d76!8m2!3d19.7967593!4d72.7491051!16s%2Fg%2F11gxnq92_y!19sChIJjVwMUVAf5zsRdl2pj6TfBlw?authuser=0&hl=en&rclk=1",
        "coordinates": {
            "latitude": 19.796759299999998,
            "longitude": 72.7491051
        }
    },
    {
        "name": "Dargah",
        "main_category": "Mosque",
        "address": "Dargah, Colour City, Katkarpada Rd, Boisar, Maharashtra 401501",
        "detailed_address": {
            "ward": null,
            "street": "Colour City, Katkarpada Rd",
            "city": "Boisar",
            "postal_code": "401501",
            "state": "Maharashtra",
            "country_code": "IN"
        },
        "images": [],
        "link": "https://www.google.com/maps/place/Dargah/data=!4m7!3m6!1s0x3be71f23a1d83c17:0xbded27d2c6f0c626!8m2!3d19.8109312!4d72.7593133!16s%2Fg%2F11j11hnxr5!19sChIJFzzYoSMf5zsRJsbwxtIn7b0?authuser=0&hl=en&rclk=1",
        "coordinates": {
            "latitude": 19.8109312,
            "longitude": 72.7593133
        }
    },
    {
        "name": "Masjid and madarsa barkatiya gulshane raza",
        "main_category": "Mosque",
        "address": "RP2C+52G Masjid and madarsa barkatiya gulshane raza, Tarapur M.I.D.C., Shivaji Nagar, Boisar, Salwad, Maharashtra 401504",
        "detailed_address": {
            "ward": "Tarapur M.I.D.C., Shivaji Nagar",
            "street": "RP2C+52G",
            "city": "Boisar, Salwad",
            "postal_code": "401504",
            "state": "Maharashtra",
            "country_code": "IN"
        },
        "images": [
            {
                "about": "All",
                "link": "https://lh5.googleusercontent.com/p/AF1QipP_huKW9KfPi1D1vzeL62Hp_gyAvP7MZUA4yyD2=w529-h298-k-no"
            }
        ],
        "link": "https://www.google.com/maps/place/Masjid+and+madarsa+barkatiya+gulshane+raza/data=!4m7!3m6!1s0x3be71f24d3f792dd:0xef31796832cff0c4!8m2!3d19.8004336!4d72.7200847!16s%2Fg%2F11khb6c9fn!19sChIJ3ZL30yQf5zsRxPDPMmh5Me8?authuser=0&hl=en&rclk=1",
        "coordinates": {
            "latitude": 19.800433599999998,
            "longitude": 72.7200847
        }
    },
    {
        "name": "Boisar IJTEMAH GAH",
        "main_category": "Mosque",
        "address": "Boisar IJTEMAH GAH, J-184, MIDC Rd, Tarapur M.I.D.C., Vijay Colony, Vanipada, Boisar, Maharashtra 401501",
        "detailed_address": {
            "ward": "Tarapur M.I.D.C., Vijay Colony, Vanipada",
            "street": "J-184, MIDC Rd",
            "city": "Boisar",
            "postal_code": "401501",
            "state": "Maharashtra",
            "country_code": "IN"
        },
        "images": [],
        "link": "https://www.google.com/maps/place/Boisar+IJTEMAH+GAH/data=!4m7!3m6!1s0x3be71fad0250d443:0x57b705bef8378fbc!8m2!3d19.7871697!4d72.7535431!16s%2Fg%2F11y207ttwm!19sChIJQ9RQAq0f5zsRvI83-L4Ft1c?authuser=0&hl=en&rclk=1",
        "coordinates": {
            "latitude": 19.7871697,
            "longitude": 72.7535431
        }
    }
]