[
    {
        "name": "Jumma Big Mosque",
        "main_category": "Mosque",
        "address": "5Q75+88C Jumma Big Mosque, SH 36, Batlagundu, Pattiveeranpatti, Tamil Nadu 624202",
        "detailed_address": {
            "ward": null,
            "street": "5Q75+88C, SH 36",
            "city": "Batlagundu, Pattiveeranpatti",
            "postal_code": "624202",
            "state": "Tamil Nadu",
            "country_code": "IN"
        },
        "images": [
            {
                "about": "All",
                "link": "https://lh5.googleusercontent.com/p/AF1QipO21ZwI9wX875eZfM7hZIJ4zRmSmYRQ9oAwhSD6=w239-h298-k-no"
            },
            {
                "about": "Latest",
                "link": "https://lh5.googleusercontent.com/p/AF1QipN4kKnC-mfU-yxhDxSkDb-ZCxXte2alPGNxKDtL=w397-h298-k-no"
            },
            {
                "about": "Videos",
                "link": "https://lh5.googleusercontent.com/p/AF1QipM6K3i5xo6ENS6yFWtSKpXmRo79tRKQN38kkc7z=w536-h298-k-no"
            },
            {
                "about": "Street View & 360deg",
                "link": "https://streetviewpixels-pa.googleapis.com/v1/thumbnail?panoid=ci7gyHPWmejzMiTnlox2yA&cb_client=maps_sv.tactile.gps&w=224&h=298&yaw=235.6944&pitch=0&thumbfov=100"
            }
        ],
        "link": "https://www.google.com/maps/place/Jumma+Big+Mosque/data=!4m7!3m6!1s0x3b074f77df7ee181:0xcdb34b971989d09b!8m2!3d10.1633029!4d77.7582698!16s%2Fg%2F1pzr2k8gt!19sChIJgeF-33dPBzsRm9CJGZdLs80?authuser=0&hl=en&rclk=1",
        "coordinates": {
            "latitude": 10.1633029,
            "longitude": 77.7582698
        }
    },
    {
        "name": "Batlagundu Terra Masjid (THENI - DINDIGUL) Main Road",
        "main_category": "Mosque",
        "address": "Batlagundu Terra Masjid (THENI - DINDIGUL) Main Road, DINDIGUL MAIN ROAD,BATLAGUNDU, SH 36, Pattiveeranpatti, Tamil Nadu 624202",
        "detailed_address": {
            "ward": null,
            "street": "DINDIGUL MAIN ROAD,BATLAGUNDU, SH 36",
            "city": "Pattiveeranpatti",
            "postal_code": "624202",
            "state": "Tamil Nadu",
            "country_code": "IN"
        },
        "images": [
            {
                "about": "All",
                "link": "https://lh5.googleusercontent.com/p/AF1QipMDe1SWNK2BQ7cdIwV84anHZ4eNVZ3-PZJuQT2x=w224-h303-k-no"
            },
            {
                "about": "Videos",
                "link": "https://lh5.googleusercontent.com/p/AF1QipOXAsACe8qUEZ91eDg6NmGwkePOVnKsPN7-Zldx=w224-h389-k-no"
            }
        ],
        "link": "https://www.google.com/maps/place/Batlagundu+Terra+Masjid+%28THENI+-+DINDIGUL%29+Main+Road/data=!4m7!3m6!1s0x3b074f98bff501a7:0xce3e18ea6b107a8!8m2!3d10.1704167!4d77.7666975!16s%2Fg%2F1pzsvnmq0!19sChIJpwH1v5hPBzsRqAexpo7h4ww?authuser=0&hl=en&rclk=1",
        "coordinates": {
            "latitude": 10.170416699999999,
            "longitude": 77.76669749999999
        }
    },
    {
        "name": "Gandhinagar Masjid",
        "main_category": "Place of worship",
        "address": "Gandhinagar Masjid, --27,, 1-5-27, Gandhinagar Rd, Batlagundu, Tamil Nadu 624202",
        "detailed_address": {
            "ward": null,
            "street": "--27,, 1-5-27, Gandhinagar Rd",
            "city": "Batlagundu, Pattiveeranpatti",
            "postal_code": "624202",
            "state": "Tamil Nadu",
            "country_code": "IN"
        },
        "images": [
            {
                "about": "All",
                "link": "https://lh5.googleusercontent.com/p/AF1QipNz6V_270gxhAzQG4Qg3EINYwxXwvTB-crxZP_y=w224-h298-k-no"
            },
            {
                "about": "Videos",
                "link": "https://lh5.googleusercontent.com/p/AF1QipOhZtxYUUpbCDw0C_Nlp-HxngGvWsJqCbT_U9Yt=w224-h398-k-no"
            }
        ],
        "link": "https://www.google.com/maps/place/Gandhinagar+Masjid/data=!4m7!3m6!1s0x3b074f9b5d19a9a7:0xb3f4b6c44344c846!8m2!3d10.1694094!4d77.7579381!16s%2Fg%2F11b7w7rqq5!19sChIJp6kZXZtPBzsRRshEQ8S29LM?authuser=0&hl=en&rclk=1",
        "coordinates": {
            "latitude": 10.1694094,
            "longitude": 77.75793809999999
        }
    },
    {
        "name": "Firdousiya Masjid",
        "main_category": "Mosque",
        "address": "Firdousiya Masjid, 624202, 17-13-10B, Gandhinagar Rd Gandhi Nagar, [no name, Gandhinagar Rd, Gandhi Nagar, [no name], Batlagundu, Tamil Nadu 624202",
        "detailed_address": {
            "ward": "Gandhi Nagar, [no name]",
            "street": "624202, 17-13-10B, Gandhinagar Rd Gandhi Nagar, [no name, Gandhinagar Rd",
            "city": "Batlagundu, Pattiveeranpatti",
            "postal_code": "624202",
            "state": "Tamil Nadu",
            "country_code": "IN"
        },
        "images": [
            {
                "about": "All",
                "link": "https://lh5.googleusercontent.com/p/AF1QipN_uwNti-Amxat0FA_ENRPxt3v-oxmbGxl3vv89=w224-h497-k-no"
            }
        ],
        "link": "https://www.google.com/maps/place/Firdousiya+Masjid/data=!4m7!3m6!1s0x3b074f82c2bb7ebf:0x297bdccfd574b863!8m2!3d10.16523!4d77.7552783!16s%2Fg%2F11g81rfbsw!19sChIJv367woJPBzsRY7h01c_ceyk?authuser=0&hl=en&rclk=1",
        "coordinates": {
            "latitude": 10.16523,
            "longitude": 77.7552783
        }
    },
    {
        "name": "TNTJ MOSQUE",
        "main_category": "Mosque",
        "address": "5QC2+49Q TNTJ MOSQUE, Unnamed Road, E.B.Colony, Kamarajapuram, Batlagundu, Tamil Nadu 624202",
        "detailed_address": {
            "ward": "E.B.Colony, Kamarajapuram",
            "street": "5QC2+49Q, Unnamed Road",
            "city": "Batlagundu",
            "postal_code": "624202",
            "state": "Tamil Nadu",
            "country_code": "IN"
        },
        "images": [],
        "link": "https://www.google.com/maps/place/TNTJ+MOSQUE/data=!4m7!3m6!1s0x3b074f04836c7ee5:0xbf61d8a194f6691b!8m2!3d10.1703486!4d77.7509817!16s%2Fg%2F11lh4wg0tz!19sChIJ5X5sgwRPBzsRG2n2lKHYYb8?authuser=0&hl=en&rclk=1",
        "coordinates": {
            "latitude": 10.170348599999999,
            "longitude": 77.7509817
        }
    },
    {
        "name": "Allapitchai ravuthar pallivasal",
        "main_category": "Mosque",
        "address": "5Q73+GJ Allapitchai ravuthar pallivasal, Batlagundu, Tamil Nadu 624202",
        "detailed_address": {
            "ward": null,
            "street": "5Q73+GJ",
            "city": "Batlagundu",
            "postal_code": null,
            "state": "Tamil Nadu",
            "country_code": "IN"
        },
        "images": [
            {
                "about": "All",
                "link": "https://lh5.googleusercontent.com/p/AF1QipMm9YFV3Ed6ZBWDgfK2wEgMmEQz7G8bDLOX7JVk=w224-h298-k-no"
            }
        ],
        "link": "https://www.google.com/maps/place/Allapitchai+ravuthar+pallivasal/data=!4m7!3m6!1s0x3b074f9add72d22b:0x231afa76c471a3f4!8m2!3d10.1638174!4d77.7540807!16s%2Fg%2F11p678my1g!19sChIJK9Jy3ZpPBzsR9KNxxHb6GiM?authuser=0&hl=en&rclk=1",
        "coordinates": {
            "latitude": 10.1638174,
            "longitude": 77.7540807
        }
    },
    {
        "name": "KS TRUST MASJID GANDHI NAGAR",
        "main_category": "Mosque",
        "address": "5Q95+J87 KS TRUST MASJID GANDHI NAGAR, Batlagundu, Pattiveeranpatti, Tamil Nadu 624202",
        "detailed_address": {
            "ward": null,
            "street": "5Q95+J87",
            "city": "Batlagundu, Pattiveeranpatti",
            "postal_code": "624202",
            "state": "Tamil Nadu",
            "country_code": "IN"
        },
        "images": [
            {
                "about": "All",
                "link": "https://lh5.googleusercontent.com/p/AF1QipObC2c09Injg9_TgZVa9tcUtqMdk5KYynM_EBfd=w224-h298-k-no"
            }
        ],
        "link": "https://www.google.com/maps/place/KS+TRUST+MASJID+GANDHI+NAGAR/data=!4m7!3m6!1s0x3b074fc54e492521:0xc74c843fc50830d0!8m2!3d10.1690315!4d77.7583084!16s%2Fg%2F11h7jcs7vp!19sChIJISVJTsVPBzsR0DAIxT-ETMc?authuser=0&hl=en&rclk=1",
        "coordinates": {
            "latitude": 10.1690315,
            "longitude": 77.75830839999999
        }
    },
    {
        "name": "Haji Asan Rowther masjid",
        "main_category": "Mosque",
        "address": "Haji Asan Rowther masjid, 5QG6+G29 Pattiveeranpatti, Tamil Nadu Pattiveeranpatti, Batlagundu Bypass Rd, Batlagundu, Tamil Nadu 624202",
        "detailed_address": {
            "ward": null,
            "street": "5QG6+G29 Pattiveeranpatti, Tamil Nadu Pattiveeranpatti, Batlagundu Bypass Rd",
            "city": "Batlagundu, Pattiveeranpatti",
            "postal_code": "624202",
            "state": "Tamil Nadu",
            "country_code": "IN"
        },
        "images": [
            {
                "about": "All",
                "link": "https://lh5.googleusercontent.com/p/AF1QipOE9OIfwLdvsdmEtP3XU6jgYKRetoYCIJw4zGTk=w397-h298-k-no"
            },
            {
                "about": "By owner",
                "link": "https://lh5.googleusercontent.com/p/AF1QipNkj4u7cXWl9PgCRE9Jdf03NJaf6QMxhl46AgHK=w527-h298-k-no"
            }
        ],
        "link": "https://www.google.com/maps/place/Haji+Asan+Rowther+masjid/data=!4m7!3m6!1s0x3b074f05d92ae747:0x87558fe73d62eefe!8m2!3d10.1759226!4d77.7600754!16s%2Fg%2F11t4bsvfh9!19sChIJR-cq2QVPBzsR_u5iPeePVYc?authuser=0&hl=en&rclk=1",
        "coordinates": {
            "latitude": 10.1759226,
            "longitude": 77.76007539999999
        }
    },
    {
        "name": "iitukaa pllllivaacl",
        "main_category": "Mosque",
        "address": "5Q73+H7 iitukaa pllllivaacl, Batlagundu, Tamil Nadu 624202",
        "detailed_address": {
            "ward": null,
            "street": "5Q73+H7",
            "city": "Batlagundu",
            "postal_code": null,
            "state": "Tamil Nadu",
            "country_code": "IN"
        },
        "images": [],
        "link": "https://www.google.com/maps/place/%E0%AE%88%E0%AE%A4%E0%AF%81%E0%AE%95%E0%AE%BE+%E0%AE%AA%E0%AE%B3%E0%AF%8D%E0%AE%B3%E0%AE%BF%E0%AE%B5%E0%AE%BE%E0%AE%9A%E0%AE%B2%E0%AF%8D/data=!4m7!3m6!1s0x3b074f3de63c3709:0x58b02b1fb81d0905!8m2!3d10.1639784!4d77.7531769!16s%2Fg%2F11p678zscs!19sChIJCTc85j1PBzsRBQkduB8rsFg?authuser=0&hl=en&rclk=1",
        "coordinates": {
            "latitude": 10.1639784,
            "longitude": 77.7531769
        }
    },
    {
        "name": "Kanzur Rashad Masjid",
        "main_category": "Mosque",
        "address": "5P7Q+72R Kanzur Rashad Masjid, Chennai - Theni Hwy, Kattakkamanpatti, Batlagundu, Tamil Nadu 624202",
        "detailed_address": {
            "ward": "Kattakkamanpatti",
            "street": "5P7Q+72R, Chennai - Theni Hwy",
            "city": "Batlagundu",
            "postal_code": "624202",
            "state": "Tamil Nadu",
            "country_code": "IN"
        },
        "images": [
            {
                "about": "All",
                "link": "https://streetviewpixels-pa.googleapis.com/v1/thumbnail?panoid=gZUvi8vc64WbBeqVeOGBbw&cb_client=maps_sv.tactile.gps&w=224&h=298&yaw=209.81944&pitch=0&thumbfov=100"
            },
            {
                "about": "Street View & 360deg",
                "link": "https://streetviewpixels-pa.googleapis.com/v1/thumbnail?panoid=gZUvi8vc64WbBeqVeOGBbw&cb_client=maps_sv.tactile.gps&w=224&h=298&yaw=209.81944&pitch=0&thumbfov=100"
            }
        ],
        "link": "https://www.google.com/maps/place/Kanzur+Rashad+Masjid%F0%9F%95%8C/data=!4m7!3m6!1s0x3b074545e6816d6d:0x1857bbd88b3101c9!8m2!3d10.1635279!4d77.738019!16s%2Fg%2F11sv46yklh!19sChIJbW2B5kVFBzsRyQExi9i7Vxg?authuser=0&hl=en&rclk=1",
        "coordinates": {
            "latitude": 10.1635279,
            "longitude": 77.738019
        }
    }
]