[
    {
        "name": "Masjid Faizane Ghausia and Madarsa",
        "main_category": "Mosque",
        "address": "Masjid Faizane Ghausia and Madarsa, D-100, Maulana Azad Rd, Shaheen Bagh, Jamia Nagar, Okhla, New Delhi, Delhi 110025",
        "detailed_address": {
            "ward": "Shaheen Bagh, Jamia Nagar, Okhla",
            "street": "D-100, Maulana Azad Rd",
            "city": "New Delhi",
            "postal_code": "110025",
            "state": "Delhi",
            "country_code": "IN"
        },
        "images": [
            {
                "about": "All",
                "link": "https://lh5.googleusercontent.com/p/AF1QipNN4kIdxPJ8HtjW4MLBB2Go3Bh1hQ_E2pjA1Tak=w397-h298-k-no"
            },
            {
                "about": "Videos",
                "link": "https://lh5.googleusercontent.com/p/AF1QipMhX_IeZHNF_fDoHi-lzdcCMN08HnYKvWYSJQyK=w224-h407-k-no"
            }
        ],
        "link": "https://www.google.com/maps/place/Masjid+Faizane+Ghausia+and+Madarsa/data=!4m7!3m6!1s0x390ce41ba6415db1:0xa9911783ddc9514d!8m2!3d28.5472543!4d77.3012896!16s%2Fg%2F11b6pk_b3y!19sChIJsV1BphvkDDkRTVHJ3YMXkak?authuser=0&hl=en&rclk=1",
        "coordinates": {
            "latitude": 28.5472543,
            "longitude": 77.30128959999999
        }
    },
    {
        "name": "Jama Masjid",
        "main_category": "Mosque",
        "address": "Jama Masjid, Masjid, Deoria Vaikunthpur Road, Deoria Meer, Zamania, Uttar Pradesh 274001",
        "detailed_address": {
            "ward": null,
            "street": "Masjid, Deoria Vaikunthpur Road",
            "city": "Deoria Meer, Zamania",
            "postal_code": "274001",
            "state": "Uttar Pradesh",
            "country_code": "IN"
        },
        "images": [
            {
                "about": "All",
                "link": "https://lh5.googleusercontent.com/p/AF1QipN8Ii1pdKoFSQv7HIfGgg0oRakAqH77Oo-5RoyS=w529-h298-k-no"
            },
            {
                "about": "Videos",
                "link": "https://lh5.googleusercontent.com/p/AF1QipPl6PbIwsR-n5TZrvLK8uSZPGc2K_aKFSin8tSe=w397-h298-k-no"
            }
        ],
        "link": "https://www.google.com/maps/place/Jama+Masjid/data=!4m7!3m6!1s0x398e072cb73c7eaf:0xbbf93399a3d7b20d!8m2!3d25.4264016!4d83.5560466!16s%2Fg%2F11c1p65kjt!19sChIJr348tywHjjkRDbLXo5kz-bs?authuser=0&hl=en&rclk=1",
        "coordinates": {
            "latitude": 25.4264016,
            "longitude": 83.5560466
        }
    },
    {
        "name": "Hussaini Masjid",
        "main_category": "Mosque",
        "address": "CHJ6+V36 Hussaini Masjid, Zamania, Uttar Pradesh 232329",
        "detailed_address": {
            "ward": null,
            "street": "CHJ6+V36",
            "city": "Zamania",
            "postal_code": null,
            "state": "Uttar Pradesh",
            "country_code": "IN"
        },
        "images": [
            {
                "about": "All",
                "link": "https://lh5.googleusercontent.com/p/AF1QipPBRToA_sXmBl_48yVCZIRDs0Oc_D30n7A5AcC-=w224-h398-k-no"
            }
        ],
        "link": "https://www.google.com/maps/place/Hussaini+Masjid/data=!4m7!3m6!1s0x398e0194cfbf1fbf:0x593fc8fe2376dc80!8m2!3d25.4321742!4d83.5601533!16s%2Fg%2F11ghx50qdw!19sChIJvx-_z5QBjjkRgNx2I_7IP1k?authuser=0&hl=en&rclk=1",
        "coordinates": {
            "latitude": 25.4321742,
            "longitude": 83.5601533
        }
    },
    {
        "name": "Shahi Jama Masjid Zamania Kasba",
        "main_category": "Mosque",
        "address": "CH93+MJ9 Shahi Jama Masjid Zamania Kasba, Zamania, Dharammarpur Uparwar, Uttar Pradesh 232329",
        "detailed_address": {
            "ward": null,
            "street": "CH93+MJ9",
            "city": "Zamania, Dharammarpur Uparwar",
            "postal_code": "232329",
            "state": "Uttar Pradesh",
            "country_code": "IN"
        },
        "images": [
            {
                "about": "All",
                "link": "https://lh5.googleusercontent.com/p/AF1QipOQlUUf9k7euIwKA95wWdK9uEAW5zFhW0BpzJRh=w224-h398-k-no"
            },
            {
                "about": "Dome",
                "link": "https://lh5.googleusercontent.com/p/AF1QipO2OmUlAfhUK7uEGtFnr4S4elcRjCFBr0GZNcst=w529-h298-k-no"
            }
        ],
        "link": "https://www.google.com/maps/place/Shahi+Jama+Masjid+Zamania+Kasba/data=!4m7!3m6!1s0x398e07da75086c7f:0x16ba48dff4f6bca!8m2!3d25.4191529!4d83.5541107!16s%2Fg%2F11mbprtgtx!19sChIJf2wIddoHjjkRymtP_42kawE?authuser=0&hl=en&rclk=1",
        "coordinates": {
            "latitude": 25.4191529,
            "longitude": 83.5541107
        }
    },
    {
        "name": "Madina Masjid",
        "main_category": "Mosque",
        "address": "Madina Masjid, D-48, Block D, Ghazipur Dairy Farm, Ghazipur, New Delhi, Delhi, 110091",
        "detailed_address": {
            "ward": "Block D, Ghazipur Dairy Farm, Ghazipur",
            "street": "D-48",
            "city": "New Delhi, Delhi",
            "postal_code": "110091",
            "state": "Delhi",
            "country_code": "IN"
        },
        "images": [
            {
                "about": "All",
                "link": "https://streetviewpixels-pa.googleapis.com/v1/thumbnail?panoid=z7EQF4LyQSNfkUh73G_73g&cb_client=maps_sv.tactile.gps&w=224&h=298&yaw=215.92293&pitch=0&thumbfov=100"
            },
            {
                "about": "Street View & 360deg",
                "link": "https://streetviewpixels-pa.googleapis.com/v1/thumbnail?panoid=z7EQF4LyQSNfkUh73G_73g&cb_client=maps_sv.tactile.gps&w=224&h=298&yaw=215.92293&pitch=0&thumbfov=100"
            }
        ],
        "link": "https://www.google.com/maps/place/Madina+Masjid/data=!4m7!3m6!1s0x390ce548fc888fc1:0x578c85ac4eac7ff4!8m2!3d28.6275238!4d77.3254562!16s%2Fg%2F11s5jw5pb4!19sChIJwY-I_EjlDDkR9H-sTqyFjFc?authuser=0&hl=en&rclk=1",
        "coordinates": {
            "latitude": 28.6275238,
            "longitude": 77.32545619999999
        }
    },
    {
        "name": "Ayat Kirana Store",
        "main_category": "Mosque",
        "address": "Ayat Kirana Store, Budhdhipur Durahia Road, near Bangle wali masjid, Zamania, Uttar Pradesh 232329",
        "detailed_address": {
            "ward": null,
            "street": "Budhdhipur Durahia Road, near Bangle wali masjid",
            "city": "Zamania",
            "postal_code": "232329",
            "state": "Uttar Pradesh",
            "country_code": "IN"
        },
        "images": [
            {
                "about": "All",
                "link": "https://lh5.googleusercontent.com/p/AF1QipN5L1wZBLAJJvJ4sdZ9mriEmAhYBI8NyVOlu89O=w224-h484-k-no"
            },
            {
                "about": "By owner",
                "link": "https://lh5.googleusercontent.com/p/AF1QipNCpiI8E9aEuGgYi5g9W4Og_jcqLCQsrn768sxF=w644-h298-k-no"
            }
        ],
        "link": "https://www.google.com/maps/place/Ayat+Kirana+Store/data=!4m7!3m6!1s0x398e07f1a474d607:0xa200c53145a0787d!8m2!3d25.4245486!4d83.5576421!16s%2Fg%2F11nyqkfjg1!19sChIJB9Z0pPEHjjkRfXigRTHFAKI?authuser=0&hl=en&rclk=1",
        "coordinates": {
            "latitude": 25.424548599999998,
            "longitude": 83.5576421
        }
    },
    {
        "name": "Jaama Masjid",
        "main_category": "Mosque",
        "address": "9GFV+R7H Jaama Masjid, Ilaychipur Rd, Zamania Station, Uttar Pradesh 232331",
        "detailed_address": {
            "ward": null,
            "street": "9GFV+R7H, Ilaychipur Rd",
            "city": "Zamania Station",
            "postal_code": "232331",
            "state": "Uttar Pradesh",
            "country_code": "IN"
        },
        "images": [
            {
                "about": "All",
                "link": "https://lh5.googleusercontent.com/p/AF1QipME3SchLdPs5RdonPU2g4If4gsqr6bKNr3fGUlk=w529-h298-k-no"
            },
            {
                "about": "Street View & 360deg",
                "link": "https://streetviewpixels-pa.googleapis.com/v1/thumbnail?panoid=0WrI2rKYIZcnzxL67W48_A&cb_client=maps_sv.tactile.gps&w=224&h=298&yaw=295.25388&pitch=0&thumbfov=100"
            },
            {
                "about": "Videos",
                "link": "https://lh5.googleusercontent.com/p/AF1QipPYGtMk9WZhit8DVDo8XX695NpypXUVJDlrmGSR=w224-h398-k-no"
            }
        ],
        "link": "https://www.google.com/maps/place/Jaama+Masjid/data=!4m7!3m6!1s0x398e07fdc56afa63:0x97179a8dde8081d0!8m2!3d25.3745596!4d83.5432326!16s%2Fg%2F11srjk25pw!19sChIJY_pqxf0HjjkR0IGA3o2aF5c?authuser=0&hl=en&rclk=1",
        "coordinates": {
            "latitude": 25.374559599999998,
            "longitude": 83.5432326
        }
    },
    {
        "name": "Masjid Sardar Khan Sadar Bazar",
        "main_category": "Mosque",
        "address": "CHC4+J8P Masjid Sardar Khan Sadar Bazar, Zamania, Uttar Pradesh 232329",
        "detailed_address": {
            "ward": null,
            "street": "CHC4+J8P",
            "city": "Zamania",
            "postal_code": null,
            "state": "Uttar Pradesh",
            "country_code": "IN"
        },
        "images": [
            {
                "about": "All",
                "link": "https://lh5.googleusercontent.com/p/AF1QipN1OXrdO5cgrK6xUv-zftOtjGYRPQFOG5383FSp=w224-h398-k-no"
            }
        ],
        "link": "https://www.google.com/maps/place/Masjid+Sardar+Khan+Sadar+Bazar/data=!4m7!3m6!1s0x398e07ad53205fcf:0x1e10cc230685bc08!8m2!3d25.4215798!4d83.5558428!16s%2Fg%2F11h2k2g68v!19sChIJz18gU60HjjkRCLyFBiPMEB4?authuser=0&hl=en&rclk=1",
        "coordinates": {
            "latitude": 25.4215798,
            "longitude": 83.5558428
        }
    },
    {
        "name": "Masjid Sardar Khan",
        "main_category": "Mosque",
        "address": "CH94+W39 Masjid Sardar Khan, Zamania, Uttar Pradesh 232329",
        "detailed_address": {
            "ward": null,
            "street": "CH94+W39",
            "city": "Zamania",
            "postal_code": null,
            "state": "Uttar Pradesh",
            "country_code": "IN"
        },
        "images": [],
        "link": "https://www.google.com/maps/place/Masjid+Sardar+Khan/data=!4m7!3m6!1s0x398e07b95952694b:0xa6e026cad47ba5ee!8m2!3d25.419778!4d83.5552321!16s%2Fg%2F11gywcjmnk!19sChIJS2lSWbkHjjkR7qV71Mom4KY?authuser=0&hl=en&rclk=1",
        "coordinates": {
            "latitude": 25.419777999999997,
            "longitude": 83.5552321
        }
    },
    {
        "name": "Masjid e Ahle Sunnat",
        "main_category": "Mosque",
        "address": "9GFV+R8Q Masjid e Ahle Sunnat, Zamania Station, Uttar Pradesh 232331",
        "detailed_address": {
            "ward": null,
            "street": "9GFV+R8Q",
            "city": "Zamania Station",
            "postal_code": null,
            "state": "Uttar Pradesh",
            "country_code": "IN"
        },
        "images": [
            {
                "about": "All",
                "link": "https://lh5.googleusercontent.com/p/AF1QipPdfDWx34N0Q49JCvYqnu5O6SGxMOh0KKvS2mDr=w529-h298-k-no"
            },
            {
                "about": "Street View & 360deg",
                "link": "https://streetviewpixels-pa.googleapis.com/v1/thumbnail?panoid=aht4PSPI8klCt2qGR1tCfw&cb_client=maps_sv.tactile.gps&w=224&h=298&yaw=307.64325&pitch=0&thumbfov=100"
            }
        ],
        "link": "https://www.google.com/maps/place/Masjid+e+Ahle+Sunnat/data=!4m7!3m6!1s0x398e07a8b24e829f:0xbe64d91c30952fc2!8m2!3d25.3745822!4d83.5433575!16s%2Fg%2F11srkz2c2k!19sChIJn4JOsqgHjjkRwi-VMBzZZL4?authuser=0&hl=en&rclk=1",
        "coordinates": {
            "latitude": 25.3745822,
            "longitude": 83.5433575
        }
    },
    {
        "name": "Masjid-e-Bilal..Naibazar",
        "main_category": "Mosque",
        "address": "8GPP+54J Masjid-e-Bilal..Naibazar, Khargasipur, Zamania, Khargasi Pur, Uttar Pradesh 232331",
        "detailed_address": {
            "ward": null,
            "street": "8GPP+54J, Khargasipur",
            "city": "Zamania, Khargasi Pur",
            "postal_code": "232331",
            "state": "Uttar Pradesh",
            "country_code": "IN"
        },
        "images": [
            {
                "about": "All",
                "link": "https://streetviewpixels-pa.googleapis.com/v1/thumbnail?panoid=xeYTGwIHpdQAJsTvDYr3wg&cb_client=maps_sv.tactile.gps&w=224&h=298&yaw=283.02356&pitch=0&thumbfov=100"
            },
            {
                "about": "Street View & 360deg",
                "link": "https://streetviewpixels-pa.googleapis.com/v1/thumbnail?panoid=xeYTGwIHpdQAJsTvDYr3wg&cb_client=maps_sv.tactile.gps&w=224&h=298&yaw=283.02356&pitch=0&thumbfov=100"
            }
        ],
        "link": "https://www.google.com/maps/place/Masjid-e-Bilal..Naibazar/data=!4m7!3m6!1s0x398e074cf02767fd:0x1e29745d2ecc7a65!8m2!3d25.3363467!4d83.5349067!16s%2Fg%2F11sxwwx0fw!19sChIJ_Wcn8EwHjjkRZXrMLl10KR4?authuser=0&hl=en&rclk=1",
        "coordinates": {
            "latitude": 25.3363467,
            "longitude": 83.5349067
        }
    },
    {
        "name": "Chhotu Khan Masjid",
        "main_category": "Museum",
        "address": "Chhotu Khan Masjid, pathan toli, Road, Zamania, Uttar Pradesh 232329",
        "detailed_address": {
            "ward": null,
            "street": "pathan toli, Road",
            "city": "Zamania",
            "postal_code": "232329",
            "state": "Uttar Pradesh",
            "country_code": "IN"
        },
        "images": [],
        "link": "https://www.google.com/maps/place/Chhotu+Khan+Masjid/data=!4m7!3m6!1s0x398e074f4c585f67:0xedaccd8f8459ec80!8m2!3d25.4242382!4d83.5567238!16s%2Fg%2F11gvy0yg44!19sChIJZ19YTE8HjjkRgOxZhI_NrO0?authuser=0&hl=en&rclk=1",
        "coordinates": {
            "latitude": 25.424238199999998,
            "longitude": 83.5567238
        }
    },
    {
        "name": "Masjid Qaziji zamania",
        "main_category": "Mosque",
        "address": "CHF4+M2Q Masjid Qaziji zamania, Zamania Market Rd, Zamania, Uttar Pradesh 232329",
        "detailed_address": {
            "ward": null,
            "street": "CHF4+M2Q, Zamania Market Rd",
            "city": "Zamania",
            "postal_code": "232329",
            "state": "Uttar Pradesh",
            "country_code": "IN"
        },
        "images": [],
        "link": "https://www.google.com/maps/place/Masjid+Qaziji+zamania/data=!4m7!3m6!1s0x398e074fae0c696b:0x8dd7d5d7ac772ed3!8m2!3d25.4242096!4d83.5551246!16s%2Fg%2F11r7s1b5jm!19sChIJa2kMrk8HjjkR0y53rNfV140?authuser=0&hl=en&rclk=1",
        "coordinates": {
            "latitude": 25.424209599999998,
            "longitude": 83.5551246
        }
    },
    {
        "name": "Noori masjid Ahlesunnat wal jama-at",
        "main_category": "Mosque",
        "address": "Noori masjid Ahlesunnat wal jama-at, Lodipur, zamania kasba ward no-12, Zamania, Uttar Pradesh 232329",
        "detailed_address": {
            "ward": null,
            "street": "Lodipur, zamania kasba ward no-12",
            "city": "Zamania, Dharammarpur Uparwar",
            "postal_code": "232329",
            "state": "Uttar Pradesh",
            "country_code": "IN"
        },
        "images": [
            {
                "about": "All",
                "link": "https://lh5.googleusercontent.com/p/AF1QipNtph_YoEBMvr2j9-zJ-F0EJnSF8fI8lx8XYTwj=w224-h485-k-no"
            },
            {
                "about": "Dome",
                "link": "https://lh5.googleusercontent.com/p/AF1QipNtph_YoEBMvr2j9-zJ-F0EJnSF8fI8lx8XYTwj=w224-h485-k-no"
            }
        ],
        "link": "https://www.google.com/maps/place/Noori+masjid+Ahlesunnat+wal+jama-at/data=!4m7!3m6!1s0x398e07d8d716b49d:0x73f485e17415ffa0!8m2!3d25.4160788!4d83.5542392!16s%2Fg%2F11rd2sgz2d!19sChIJnbQW19gHjjkRoP8VdOGF9HM?authuser=0&hl=en&rclk=1",
        "coordinates": {
            "latitude": 25.416078799999998,
            "longitude": 83.5542392
        }
    },
    {
        "name": "Jamah Masjid Badi",
        "main_category": "Mosque",
        "address": "G8J7+7F5 Jamah Masjid Badi, JJ Colony, Madanpur Khadar, New Delhi, Delhi 110076",
        "detailed_address": {
            "ward": "JJ Colony, Madanpur Khadar",
            "street": "G8J7+7F5",
            "city": "New Delhi",
            "postal_code": "110076",
            "state": "Delhi",
            "country_code": "IN"
        },
        "images": [
            {
                "about": "All",
                "link": "https://streetviewpixels-pa.googleapis.com/v1/thumbnail?panoid=3AU18BiwfXuDRKB7l4RVSQ&cb_client=maps_sv.tactile.gps&w=224&h=298&yaw=92.44473&pitch=0&thumbfov=100"
            },
            {
                "about": "Street View & 360deg",
                "link": "https://streetviewpixels-pa.googleapis.com/v1/thumbnail?panoid=3AU18BiwfXuDRKB7l4RVSQ&cb_client=maps_sv.tactile.gps&w=224&h=298&yaw=92.44473&pitch=0&thumbfov=100"
            }
        ],
        "link": "https://www.google.com/maps/place/Jamah+Masjid+Badi/data=!4m7!3m6!1s0x390ce7b78eb036b1:0x8f6236080c1ca163!8m2!3d28.5306406!4d77.3137464!16s%2Fg%2F11kk081p_j!19sChIJsTawjrfnDDkRY6EcDAg2Yo8?authuser=0&hl=en&rclk=1",
        "coordinates": {
            "latitude": 28.530640599999998,
            "longitude": 77.3137464
        }
    },
    {
        "name": "Masjid Banda Ali Khan",
        "main_category": "Mosque",
        "address": "CHF5+M32 Masjid Banda Ali Khan, U. P, Mohalla- Pathantoli, Qasba- Zamania, Distt, Zamania, Uttar Pradesh",
        "detailed_address": {
            "ward": null,
            "street": "CHF5+M32, U. P, Mohalla- Pathantoli, Qasba- Zamania, Distt",
            "city": "Zamania",
            "postal_code": null,
            "state": "Uttar Pradesh",
            "country_code": "IN"
        },
        "images": [],
        "link": "https://www.google.com/maps/place/Masjid+Banda+Ali+Khan/data=!4m7!3m6!1s0x398e072daaaaaaab:0x6ad2db03fcaddda4!8m2!3d25.4241289!4d83.5576441!16s%2Fg%2F11gfjsbkw9!19sChIJq6qqqi0HjjkRpN2t_APb0mo?authuser=0&hl=en&rclk=1",
        "coordinates": {
            "latitude": 25.4241289,
            "longitude": 83.55764409999999
        }
    },
    {
        "name": "Jama masjid",
        "main_category": "Mosque",
        "address": "Jama masjid, Dhanauta, Dhanautha, Zamania, Bahadurpur Ta. Chau. Ajma, Uttar Pradesh 232329",
        "detailed_address": {
            "ward": "Dhanautha",
            "street": "Dhanauta",
            "city": "Zamania, Bahadurpur Ta. Chau. Ajma",
            "postal_code": null,
            "state": "Uttar Pradesh",
            "country_code": "IN"
        },
        "images": [],
        "link": "https://www.google.com/maps/place/Jama+masjid/data=!4m7!3m6!1s0x398dfd2cc3a9e6cb:0xc552d1768567cd91!8m2!3d25.421597!4d83.5992602!16s%2Fg%2F11t6lkgnd9!19sChIJy-apwyz9jTkRkc1nhXbRUsU?authuser=0&hl=en&rclk=1",
        "coordinates": {
            "latitude": 25.421597,
            "longitude": 83.59926019999999
        }
    },
    {
        "name": "OFFICE Shahi Jama masjid",
        "main_category": "Association or organization",
        "address": "CH93+MJ9 OFFICE Shahi Jama masjid, Zamania, Dharammarpur Uparwar, Uttar Pradesh 232329",
        "detailed_address": {
            "ward": null,
            "street": "CH93+MJ9",
            "city": "Zamania, Dharammarpur Uparwar",
            "postal_code": "232329",
            "state": "Uttar Pradesh",
            "country_code": "IN"
        },
        "images": [
            {
                "about": "All",
                "link": "https://lh5.googleusercontent.com/p/AF1QipOZmFmnwaLYoMQrf7Rln0xBS1Zsa9g39iFhRsem=w242-h298-k-no"
            }
        ],
        "link": "https://www.google.com/maps/place/OFFICE+Shahi+Jama+masjid/data=!4m7!3m6!1s0x398e07e9e5857a5d:0x4901e1be8c48fd5d!8m2!3d25.4190627!4d83.5542554!16s%2Fg%2F11ryt2msnt!19sChIJXXqF5ekHjjkRXf1IjL7hAUk?authuser=0&hl=en&rclk=1",
        "coordinates": {
            "latitude": 25.419062699999998,
            "longitude": 83.5542554
        }
    }
]