[
    {
        "name": "Banglewali Masjid Nizamuddin Delhi",
        "main_category": "Mosque",
        "address": "H6RV+Q92 Banglewali Masjid Nizamuddin Delhi, Nizamuddin, Nizamuddin West, New Delhi, Delhi 110013",
        "detailed_address": {
            "ward": "Nizamuddin, Nizamuddin West",
            "street": "H6RV+Q92",
            "city": "New Delhi",
            "postal_code": "110013",
            "state": "Delhi",
            "country_code": "IN"
        },
        "images": [
            {
                "about": "All",
                "link": "https://lh5.googleusercontent.com/p/AF1QipNe1xcCZ6Q-amcxs-zs-lJrn1OM77-oBZF47-jl=w397-h298-k-no"
            },
            {
                "about": "Latest",
                "link": "https://lh5.googleusercontent.com/p/AF1QipOY4RtxaCUf9OzSD6FYQb2OeIVY95w3NXfm-mqK=w397-h298-k-no"
            },
            {
                "about": "Videos",
                "link": "https://lh5.googleusercontent.com/p/AF1QipNgqS1xLBOcihHRo4bcIsz1_ex46Re_Sg8MZiLZ=w224-h398-k-no"
            },
            {
                "about": "Street View & 360deg",
                "link": "https://streetviewpixels-pa.googleapis.com/v1/thumbnail?panoid=yNC0vIEYQY6WzJ-ON1bJcQ&cb_client=maps_sv.tactile.gps&w=224&h=298&yaw=305.36465&pitch=0&thumbfov=100"
            }
        ],
        "link": "https://www.google.com/maps/place/Banglewali+Masjid+Nizamuddin+Delhi/data=!4m7!3m6!1s0x390ce3a6d502fcdd:0x815ff619eadff235!8m2!3d28.5918991!4d77.2433834!16s%2Fm%2F04ybd07!19sChIJ3fwC1abjDDkRNfLf6hn2X4E?authuser=0&hl=en&rclk=1",
        "coordinates": {
            "latitude": 28.5918991,
            "longitude": 77.2433834
        }
    },
    {
        "name": "NOORANI MASJID NOORI COLONY",
        "main_category": "Mosque",
        "address": "F4CR+JQ3 NOORANI MASJID NOORI COLONY, Manasa, Madhya Pradesh 458110",
        "detailed_address": {
            "ward": null,
            "street": "F4CR+JQ3",
            "city": "Manasa",
            "postal_code": "458110",
            "state": "Madhya Pradesh",
            "country_code": "IN"
        },
        "images": [],
        "link": "https://www.google.com/maps/place/NOORANI+MASJID+NOORI+COLONY/data=!4m7!3m6!1s0x3965dcc7c3ae34f1:0x5ce4b0db118f15c9!8m2!3d24.471505!4d75.1419102!16s%2Fg%2F11gbfdyc8r!19sChIJ8TSuw8fcZTkRyRWPEduw5Fw?authuser=0&hl=en&rclk=1",
        "coordinates": {
            "latitude": 24.471505,
            "longitude": 75.1419102
        }
    },
    {
        "name": "Masjid Manasa",
        "main_category": "Mosque",
        "address": "F4HW+MC7 Masjid Manasa, Rampura Naka, Manasa, Madhya Pradesh 458110",
        "detailed_address": {
            "ward": "Rampura Naka",
            "street": "F4HW+MC7",
            "city": "Manasa",
            "postal_code": "458110",
            "state": "Madhya Pradesh",
            "country_code": "IN"
        },
        "images": [
            {
                "about": "All",
                "link": "https://lh5.googleusercontent.com/p/AF1QipOj-dpSd5DTD4tDre9gmMyVan7u3u2Q7ErHkaTe=w224-h298-k-no"
            },
            {
                "about": "Street View & 360deg",
                "link": "https://streetviewpixels-pa.googleapis.com/v1/thumbnail?panoid=Y4zT0S4Geyi7v9oCvGuRUA&cb_client=maps_sv.tactile.gps&w=224&h=298&yaw=321.5506&pitch=0&thumbfov=100"
            }
        ],
        "link": "https://www.google.com/maps/place/Masjid+Manasa/data=!4m7!3m6!1s0x3965dd1d345e36d1:0x16181b767d343a02!8m2!3d24.4791553!4d75.1460482!16s%2Fg%2F11f70_38zz!19sChIJ0TZeNB3dZTkRAjo0fXYbGBY?authuser=0&hl=en&rclk=1",
        "coordinates": {
            "latitude": 24.4791553,
            "longitude": 75.1460482
        }
    },
    {
        "name": "Manasa khali char para jame masjid ( jaame msjid)",
        "main_category": "Mosque",
        "address": "7Q74+V8R Manasa khali char para jame masjid ( jaame msjid), Sachea Khali, West Bengal 743329",
        "detailed_address": {
            "ward": null,
            "street": "7Q74+V8R",
            "city": "Sachea Khali",
            "postal_code": "743329",
            "state": "West Bengal",
            "country_code": "IN"
        },
        "images": [],
        "link": "https://www.google.com/maps/place/Manasa+khali+char+para+jame+masjid+%28+%E0%A6%9C%E0%A6%BE%E0%A6%AE%E0%A7%87+%E0%A6%AE%E0%A6%B8%E0%A6%9C%E0%A6%BF%E0%A6%A6%29/data=!4m7!3m6!1s0x3a021f2b6c5e3827:0x182c784eef9cc1e8!8m2!3d22.2647319!4d88.7557644!16s%2Fg%2F11rd9d1w67!19sChIJJzhebCsfAjoR6MGc7054LBg?authuser=0&hl=en&rclk=1",
        "coordinates": {
            "latitude": 22.264731899999997,
            "longitude": 88.75576439999999
        }
    },
    {
        "name": "Jama Masjid",
        "main_category": "Mosque",
        "address": "F4HR+9V2 Jama Masjid, Emili Bhag, Manasa, Madhya Pradesh 458110",
        "detailed_address": {
            "ward": "Emili Bhag",
            "street": "F4HR+9V2",
            "city": "Manasa",
            "postal_code": "458110",
            "state": "Madhya Pradesh",
            "country_code": "IN"
        },
        "images": [
            {
                "about": "All",
                "link": "https://streetviewpixels-pa.googleapis.com/v1/thumbnail?panoid=MqJlpJtLUD-4rGbImRUUVQ&cb_client=maps_sv.tactile.gps&w=224&h=298&yaw=17.512365&pitch=0&thumbfov=100"
            },
            {
                "about": "Street View & 360deg",
                "link": "https://streetviewpixels-pa.googleapis.com/v1/thumbnail?panoid=MqJlpJtLUD-4rGbImRUUVQ&cb_client=maps_sv.tactile.gps&w=224&h=298&yaw=17.512365&pitch=0&thumbfov=100"
            }
        ],
        "link": "https://www.google.com/maps/place/Jama+Masjid/data=!4m7!3m6!1s0x3965dcc59d2aab59:0x180cd5c8b86e26ef!8m2!3d24.4783816!4d75.1421332!16s%2Fg%2F11gbqb6vjb!19sChIJWasqncXcZTkR7yZuuMjVDBg?authuser=0&hl=en&rclk=1",
        "coordinates": {
            "latitude": 24.4783816,
            "longitude": 75.1421332
        }
    }
]