[
    {
        "name": "Masjid",
        "main_category": "Mosque",
        "address": "MX7J+788 Masjid, Khera, Rajasthan 322234",
        "detailed_address": {
            "ward": null,
            "street": "MX7J+788",
            "city": "Khera",
            "postal_code": "322234",
            "state": "Rajasthan",
            "country_code": "IN"
        },
        "images": [
            {
                "about": "All",
                "link": "https://lh5.googleusercontent.com/p/AF1QipNIbfl-NciNDdqazbxQJWCKnDYvojhIAOsvscni=w224-h331-k-no"
            }
        ],
        "link": "https://www.google.com/maps/place/Masjid/data=!4m7!3m6!1s0x397226766d52c827:0xd455f556f622a4c3!8m2!3d26.6631519!4d76.9808283!16s%2Fg%2F11g8tkz30f!19sChIJJ8hSbXYmcjkRw6Qi9lb1VdQ?authuser=0&hl=en&rclk=1",
        "coordinates": {
            "latitude": 26.6631519,
            "longitude": 76.9808283
        }
    },
    {
        "name": "Naugaja Masjid",
        "main_category": "Mosque",
        "address": "Naugaja Masjid, mohallha naugaja, Madina Colony, Dholpur, Rajasthan 328001",
        "detailed_address": {
            "ward": "Madina Colony",
            "street": "mohallha naugaja",
            "city": "Dholpur",
            "postal_code": "328001",
            "state": "Rajasthan",
            "country_code": "IN"
        },
        "images": [
            {
                "about": "All",
                "link": "https://lh5.googleusercontent.com/p/AF1QipPoQ6O4wucryhXKUD5D9Z0fXOZq0Pzkdgn73ssu=w529-h298-k-no"
            },
            {
                "about": "Videos",
                "link": "https://lh5.googleusercontent.com/p/AF1QipMkybg3kGYyjwqcZ7Xkhq3sRQvK5QRZHAkIicOh=w529-h298-k-no"
            }
        ],
        "link": "https://www.google.com/maps/place/Naugaja+Masjid/data=!4m7!3m6!1s0x3973ffa35412e58b:0x616f7c3d26218cbf!8m2!3d26.689117!4d77.8999031!16s%2Fg%2F11g8p8gb0l!19sChIJi-USVKP_czkRv4whJj18b2E?authuser=0&hl=en&rclk=1",
        "coordinates": {
            "latitude": 26.689117,
            "longitude": 77.8999031
        }
    },
    {
        "name": "Peer Ki Masjid & Madarsa",
        "main_category": "School",
        "address": "V5VC+XHF Peer Ki Masjid & Madarsa, Ward Number 24, Rajakhera, Rajasthan 328025",
        "detailed_address": {
            "ward": "Ward Number 24",
            "street": "V5VC+XHF",
            "city": "Rajakhera",
            "postal_code": "328025",
            "state": "Rajasthan",
            "country_code": "IN"
        },
        "images": [
            {
                "about": "All",
                "link": "https://lh5.googleusercontent.com/p/AF1QipPpzCWgCfJ5fKjs8U1hQRNmGPKcprZ_leUkQKBt=w529-h298-k-no"
            },
            {
                "about": "Street View & 360deg",
                "link": "https://streetviewpixels-pa.googleapis.com/v1/thumbnail?panoid=veJnieLrin5cg71pfz29Aw&cb_client=maps_sv.tactile.gps&w=224&h=298&yaw=264.80405&pitch=0&thumbfov=100"
            }
        ],
        "link": "https://www.google.com/maps/place/Peer+Ki+Masjid+%26+Madarsa/data=!4m7!3m6!1s0x397410ef1ce063a5:0xabf08f48427d51f1!8m2!3d26.8949331!4d78.1714126!16s%2Fg%2F11cssybmxq!19sChIJpWPgHO8QdDkR8VF9QkiP8Ks?authuser=0&hl=en&rclk=1",
        "coordinates": {
            "latitude": 26.8949331,
            "longitude": 78.1714126
        }
    },
    {
        "name": "jahar khera masjid",
        "main_category": "Mosque",
        "address": "JJHQ+82F jahar khera masjid, Jahar Khera, Ulaheri, Rajasthan 301001",
        "detailed_address": {
            "ward": null,
            "street": "JJHQ+82F",
            "city": "Jahar Khera, Ulaheri",
            "postal_code": "301001",
            "state": "Rajasthan",
            "country_code": "IN"
        },
        "images": [
            {
                "about": "All",
                "link": "https://lh5.googleusercontent.com/p/AF1QipNERtNUSOgtFMFfrJRp-mLgCwdDPrga9S1D-s79=w224-h398-k-no"
            },
            {
                "about": "Street View & 360deg",
                "link": "https://streetviewpixels-pa.googleapis.com/v1/thumbnail?panoid=XwVetx6lky6ObYkvbKliPA&cb_client=maps_sv.tactile.gps&w=224&h=298&yaw=34.546055&pitch=0&thumbfov=100"
            },
            {
                "about": "Videos",
                "link": "https://lh5.googleusercontent.com/p/AF1QipNol8gebOCOhiPHlJ-IUT1iYKS0g6s1LgiGJgYI=w529-h298-k-no"
            }
        ],
        "link": "https://www.google.com/maps/place/jahar+khera+masjid/data=!4m7!3m6!1s0x3972981ee4e98265:0xdbdcbc661d224169!8m2!3d27.6283057!4d76.6375566!16s%2Fg%2F11f39ry3cj!19sChIJZYLp5B6YcjkRaUEiHWa83Ns?authuser=0&hl=en&rclk=1",
        "coordinates": {
            "latitude": 27.6283057,
            "longitude": 76.6375566
        }
    },
    {
        "name": "Raza Masjid",
        "main_category": "Mosque",
        "address": "247R+2P Raza Masjid, Jarauli, Uttar Pradesh 283125",
        "detailed_address": {
            "ward": null,
            "street": "247R+2P",
            "city": "Jarauli",
            "postal_code": null,
            "state": "Uttar Pradesh",
            "country_code": "IN"
        },
        "images": [
            {
                "about": "All",
                "link": "https://streetviewpixels-pa.googleapis.com/v1/thumbnail?panoid=t6Nzjd_WvhDeosYyZZI5EA&cb_client=maps_sv.tactile.gps&w=224&h=298&yaw=151.34396&pitch=0&thumbfov=100"
            },
            {
                "about": "Street View & 360deg",
                "link": "https://streetviewpixels-pa.googleapis.com/v1/thumbnail?panoid=t6Nzjd_WvhDeosYyZZI5EA&cb_client=maps_sv.tactile.gps&w=224&h=298&yaw=151.34396&pitch=0&thumbfov=100"
            }
        ],
        "link": "https://www.google.com/maps/place/Raza+Masjid/data=!4m7!3m6!1s0x397413a58cfa25df:0xaf5e0d59a6ae1996!8m2!3d27.0125138!4d78.1418406!16s%2Fg%2F11smbzr69h!19sChIJ3yX6jKUTdDkRlhmuplkNXq8?authuser=0&hl=en&rclk=1",
        "coordinates": {
            "latitude": 27.012513799999997,
            "longitude": 78.1418406
        }
    },
    {
        "name": "Juma masjid",
        "main_category": "Mosque",
        "address": "249F+JJQ Juma masjid, Shamsabad, Uttar Pradesh 283125",
        "detailed_address": {
            "ward": null,
            "street": "249F+JJQ",
            "city": "Shamsabad",
            "postal_code": "283125",
            "state": "Uttar Pradesh",
            "country_code": "IN"
        },
        "images": [
            {
                "about": "All",
                "link": "https://lh5.googleusercontent.com/p/AF1QipOwd0MHx_pwQOP9qqJV8vpUGQbDP5pGFQ2VbMOY=w224-h398-k-no"
            },
            {
                "about": "Videos",
                "link": "https://lh5.googleusercontent.com/p/AF1QipOwd0MHx_pwQOP9qqJV8vpUGQbDP5pGFQ2VbMOY=w224-h398-k-no"
            }
        ],
        "link": "https://www.google.com/maps/place/Juma+masjid/data=!4m7!3m6!1s0x397413dee583ac4f:0xd1271ee15e5a34c2!8m2!3d27.0192681!4d78.1231708!16s%2Fg%2F11jzq681r5!19sChIJT6yD5d4TdDkRwjRaXuEeJ9E?authuser=0&hl=en&rclk=1",
        "coordinates": {
            "latitude": 27.019268099999998,
            "longitude": 78.1231708
        }
    },
    {
        "name": "Jama Masjid, Chhoti Masjid and Dargah",
        "main_category": "Mosque",
        "address": "249F+96F Jama Masjid, Chhoti Masjid and Dargah, Shamsabad, Uttar Pradesh 283125",
        "detailed_address": {
            "ward": null,
            "street": "249F+96F",
            "city": "Shamsabad",
            "postal_code": "283125",
            "state": "Uttar Pradesh",
            "country_code": "IN"
        },
        "images": [],
        "link": "https://www.google.com/maps/place/Jama+Masjid,+Chhoti+Masjid+and+Dargah/data=!4m7!3m6!1s0x397413efbdcdbae1:0x7b7bedcfc8d85a89!8m2!3d27.0189464!4d78.1235912!16s%2Fg%2F11rcnws275!19sChIJ4brNve8TdDkRiVrYyM_te3s?authuser=0&hl=en&rclk=1",
        "coordinates": {
            "latitude": 27.018946399999997,
            "longitude": 78.12359119999999
        }
    },
    {
        "name": "Pathan masjid",
        "main_category": "Mosque",
        "address": "249F+JJH Pathan masjid, Shamsabad, Uttar Pradesh 283125",
        "detailed_address": {
            "ward": null,
            "street": "249F+JJH",
            "city": "Shamsabad",
            "postal_code": "283125",
            "state": "Uttar Pradesh",
            "country_code": "IN"
        },
        "images": [
            {
                "about": "All",
                "link": "https://lh5.googleusercontent.com/p/AF1QipPPqoEGbaZAhnYgKcQuvGjILUVVcKWRILD_LCVx=w224-h298-k-no"
            },
            {
                "about": "Dome",
                "link": "https://lh5.googleusercontent.com/p/AF1QipPPqoEGbaZAhnYgKcQuvGjILUVVcKWRILD_LCVx=w224-h298-k-no"
            },
            {
                "about": "Videos",
                "link": "https://lh5.googleusercontent.com/p/AF1QipPC29dna-3UMj-923rZCbfdrJHDyzqdg9052gBR=w529-h298-k-no"
            }
        ],
        "link": "https://www.google.com/maps/place/Pathan+masjid/data=!4m7!3m6!1s0x3974139f29d0093f:0x98913b4e815b1d6a!8m2!3d27.0190739!4d78.1241196!16s%2Fg%2F11t994r9f7!19sChIJPwnQKZ8TdDkRah1bgU47kZg?authuser=0&hl=en&rclk=1",
        "coordinates": {
            "latitude": 27.0190739,
            "longitude": 78.1241196
        }
    },
    {
        "name": "Kadri masjid",
        "main_category": "Mosque",
        "address": "V5HQ+39M Kadri masjid, Neemdara, Rajasthan 328025",
        "detailed_address": {
            "ward": null,
            "street": "V5HQ+39M",
            "city": "Neemdara",
            "postal_code": "328025",
            "state": "Rajasthan",
            "country_code": "IN"
        },
        "images": [],
        "link": "https://www.google.com/maps/place/Kadri+masjid/data=!4m7!3m6!1s0x39741143a1964e2f:0xc2f29b4775747215!8m2!3d26.877712!4d78.1884178!16s%2Fg%2F11vdn65f6j!19sChIJL06WoUMRdDkRFXJ0dUeb8sI?authuser=0&hl=en&rclk=1",
        "coordinates": {
            "latitude": 26.877712,
            "longitude": 78.1884178
        }
    },
    {
        "name": "jiilaanii msjid, Jeelani Masjid",
        "main_category": "Mosque",
        "address": "jiilaanii msjid, Jeelani Masjid, Nawaab Saahab Ka Baara, Rajakhera Rd, Bajaria, Dholpur, Rajasthan 328001",
        "detailed_address": {
            "ward": "Bajaria",
            "street": "Nawaab Saahab Ka Baara, Rajakhera Rd",
            "city": "Dholpur",
            "postal_code": "328001",
            "state": "Rajasthan",
            "country_code": "IN"
        },
        "images": [
            {
                "about": "All",
                "link": "https://streetviewpixels-pa.googleapis.com/v1/thumbnail?panoid=1nudh1GuQMCW5-6L9c41IA&cb_client=maps_sv.tactile.gps&w=224&h=298&yaw=226.30821&pitch=0&thumbfov=100"
            },
            {
                "about": "Street View & 360deg",
                "link": "https://streetviewpixels-pa.googleapis.com/v1/thumbnail?panoid=1nudh1GuQMCW5-6L9c41IA&cb_client=maps_sv.tactile.gps&w=224&h=298&yaw=226.30821&pitch=0&thumbfov=100"
            }
        ],
        "link": "https://www.google.com/maps/place/%E0%A4%9C%E0%A5%80%E0%A4%B2%E0%A4%BE%E0%A4%A8%E0%A5%80+%E0%A4%AE%E0%A4%B8%E0%A5%8D%E0%A4%9C%E0%A4%BF%E0%A4%A6,+Jeelani+Masjid/data=!4m7!3m6!1s0x3973ffc4fc2383e1:0x39d77c0e0908ebd4!8m2!3d26.7033339!4d77.8974884!16s%2Fg%2F11t80ym8n5!19sChIJ4YMj_MT_czkR1OsICQ581zk?authuser=0&hl=en&rclk=1",
        "coordinates": {
            "latitude": 26.7033339,
            "longitude": 77.8974884
        }
    },
    {
        "name": "Madina masjid mdiinaa msjid",
        "main_category": "Mosque",
        "address": "Madina masjid mdiinaa msjid, dalmeer khan, Shamsabad, Uttar Pradesh 283125",
        "detailed_address": {
            "ward": null,
            "street": "dalmeer khan",
            "city": "Shamsabad",
            "postal_code": "283125",
            "state": "Uttar Pradesh",
            "country_code": "IN"
        },
        "images": [],
        "link": "https://www.google.com/maps/place/Madina+masjid+%E0%A4%AE%E0%A4%A6%E0%A5%80%E0%A4%A8%E0%A4%BE+%E0%A4%AE%E0%A4%B8%E0%A5%8D%E0%A4%9C%E0%A4%BF%E0%A4%A6/data=!4m7!3m6!1s0x39741321c31acbb7:0xc8cdb505a71ee838!8m2!3d27.0167773!4d78.1236027!16s%2Fg%2F11qbcy47wl!19sChIJt8sawyETdDkROOgepwW1zcg?authuser=0&hl=en&rclk=1",
        "coordinates": {
            "latitude": 27.016777299999998,
            "longitude": 78.12360269999999
        }
    },
    {
        "name": "Rajakhera",
        "main_category": null,
        "address": "Rajakhera, Rajasthan",
        "detailed_address": {
            "ward": null,
            "street": null,
            "city": null,
            "postal_code": null,
            "state": "Rajasthan",
            "country_code": "IN"
        },
        "images": [],
        "link": "https://www.google.com/maps/place/Rajakhera/data=!4m7!3m6!1s0x39741b21ad508b41:0x2f2280be7add42ce!8m2!3d26.8973734!4d78.1701237!16s%2Fg%2F11rq2chr28!19sChIJQYtQrSEbdDkRzkLder6AIi8?authuser=0&hl=en&rclk=1",
        "coordinates": {
            "latitude": 26.8973734,
            "longitude": 78.17012369999999
        }
    },
    {
        "name": "Rajakhera",
        "main_category": null,
        "address": "Rajakhera, Rajasthan 328025",
        "detailed_address": {
            "ward": null,
            "street": null,
            "city": "Rajakhera",
            "postal_code": null,
            "state": "Rajasthan",
            "country_code": "IN"
        },
        "images": [
            {
                "about": "All",
                "link": "https://lh5.googleusercontent.com/p/AF1QipNU5-HyHHEncfMT0ELoGft2MzknDXJV6BgIRrKn=w224-h298-k-no"
            }
        ],
        "link": "https://www.google.com/maps/place/Rajakhera/data=!4m7!3m6!1s0x397410e51421c53f:0x5386109b5475c5e4!8m2!3d26.8946488!4d78.1706939!16zL20vMGY2Mmg5!19sChIJP8UhFOUQdDkR5MV1VJsQhlM?authuser=0&hl=en&rclk=1",
        "coordinates": {
            "latitude": 26.8946488,
            "longitude": 78.1706939
        }
    }
]