[
    {
        "name": "hazipur muslim polli jumma musjid",
        "main_category": "Mosque",
        "address": "RJGM+FHF hazipur muslim polli jumma musjid, Ramjibanpur-Bypass Rd, Hooghly District, Hazipur, West Bengal 712614",
        "detailed_address": {
            "ward": "Hazipur",
            "street": "RJGM+FHF, Ramjibanpur-Bypass Rd, Hooghly District",
            "city": "Hazipur",
            "postal_code": "712614",
            "state": "West Bengal",
            "country_code": "IN"
        },
        "images": [
            {
                "about": "All",
                "link": "https://lh5.googleusercontent.com/p/AF1QipMlloOVAPwqGAy87e9x5WV0RETpIF6JUao5VXLr=w224-h298-k-no"
            }
        ],
        "link": "https://www.google.com/maps/place/hazipur+muslim+polli+jumma+musjid/data=!4m7!3m6!1s0x39f81b6dd22d03df:0x7332057725ae35d8!8m2!3d22.8261796!4d87.6339161!16s%2Fg%2F11c5s3_q0s!19sChIJ3wMt0m0b-DkR2DWuJXcFMnM?authuser=0&hl=en&rclk=1",
        "coordinates": {
            "latitude": 22.8261796,
            "longitude": 87.6339161
        }
    },
    {
        "name": "mnohrpur jaame msjid",
        "main_category": "Mosque",
        "address": "RJJ2+X2R mnohrpur jaame msjid, Ramjibanpur, West Bengal 721242",
        "detailed_address": {
            "ward": null,
            "street": "RJJ2+X2R",
            "city": "Ramjibanpur",
            "postal_code": null,
            "state": "West Bengal",
            "country_code": "IN"
        },
        "images": [
            {
                "about": "All",
                "link": "https://lh5.googleusercontent.com/p/AF1QipMsRgeEJ9Dk5TuShSZ4hjLJQaY-uj02LCSsE5Ow=w662-h298-k-no"
            }
        ],
        "link": "https://www.google.com/maps/place/%E0%A6%AE%E0%A6%A8%E0%A7%8B%E0%A6%B9%E0%A6%B0%E0%A6%AA%E0%A7%81%E0%A6%B0+%E0%A6%9C%E0%A6%BE%E0%A6%AE%E0%A7%87+%E0%A6%AE%E0%A6%B8%E0%A6%9C%E0%A6%BF%E0%A6%A6/data=!4m7!3m6!1s0x39f81db572449fc9:0x8d6a7a2507ebdb55!8m2!3d22.832492!4d87.6000298!16s%2Fg%2F11hzn3tsmc!19sChIJyZ9EcrUd-DkRVdvrByV6ao0?authuser=0&hl=en&rclk=1",
        "coordinates": {
            "latitude": 22.832492,
            "longitude": 87.6000298
        }
    },
    {
        "name": "Bahadurpur Jameh Masjid",
        "main_category": "Mosque",
        "address": "Bahadurpur Jameh Masjid, Bahadurpur jameh Masjid ESTD-1994, Ramjibanpur, West Bengal 721242",
        "detailed_address": {
            "ward": null,
            "street": "Bahadurpur jameh Masjid ESTD-1994",
            "city": "Ramjibanpur, Bhadurpur",
            "postal_code": "721242",
            "state": "West Bengal",
            "country_code": "IN"
        },
        "images": [
            {
                "about": "All",
                "link": "https://lh5.googleusercontent.com/p/AF1QipOJ-HbXqNY1DTLXArFkGOgz0f2NeJOuK0gaHTcg=w395-h298-k-no"
            }
        ],
        "link": "https://www.google.com/maps/place/Bahadurpur+Jameh+Masjid/data=!4m7!3m6!1s0x39f81cf76aaaaaa9:0x6f580a600aecd584!8m2!3d22.8340043!4d87.5915496!16s%2Fg%2F11hbqxy777!19sChIJqaqqavcc-DkRhNXsCmAKWG8?authuser=0&hl=en&rclk=1",
        "coordinates": {
            "latitude": 22.8340043,
            "longitude": 87.5915496
        }
    },
    {
        "name": "Amdan Jamme Masjid",
        "main_category": "Mosque",
        "address": "RH5X+X33 Amdan Jamme Masjid, Ramjibanpur, West Bengal 721242",
        "detailed_address": {
            "ward": null,
            "street": "RH5X+X33",
            "city": "Ramjibanpur",
            "postal_code": "721242",
            "state": "West Bengal",
            "country_code": "IN"
        },
        "images": [],
        "link": "https://www.google.com/maps/place/Amdan+Jamme+Masjid/data=!4m7!3m6!1s0x39f81cc749d6fcc1:0x78f1e8f71ae3b1c!8m2!3d22.8098929!4d87.5976647!16s%2Fg%2F11dxb3mn8l!19sChIJwfzWSccc-DkRHDuucY8ejwc?authuser=0&hl=en&rclk=1",
        "coordinates": {
            "latitude": 22.809892899999998,
            "longitude": 87.5976647
        }
    },
    {
        "name": "Ramjibanpur Rameswarpur Masjid",
        "main_category": "Mosque",
        "address": "RJM7+FFQ Ramjibanpur Rameswarpur Masjid, Ramjibanpur, West Bengal 721242",
        "detailed_address": {
            "ward": null,
            "street": "RJM7+FFQ",
            "city": "Ramjibanpur",
            "postal_code": null,
            "state": "West Bengal",
            "country_code": "IN"
        },
        "images": [
            {
                "about": "All",
                "link": "https://lh5.googleusercontent.com/p/AF1QipONKu5gxPWaW9vg6nTwLSWDM3Pk2dBsPdB2nA2D=w529-h298-k-no"
            }
        ],
        "link": "https://www.google.com/maps/place/Ramjibanpur+Rameswarpur+Masjid/data=!4m7!3m6!1s0x39f81d094b72db11:0xbc40f568b00638d5!8m2!3d22.8337193!4d87.613725!16s%2Fg%2F11fjxdzhyh!19sChIJEdtySwkd-DkR1TgGsGj1QLw?authuser=0&hl=en&rclk=1",
        "coordinates": {
            "latitude": 22.8337193,
            "longitude": 87.613725
        }
    }
]