[
    {
        "name": "Sadak Wali Maszid",
        "main_category": "Mosque",
        "address": "53C7+FPW Sadak Wali Maszid, Shikarpur - Pahasau Link Rd, Pahasu, Uttar Pradesh 203396",
        "detailed_address": {
            "ward": null,
            "street": "53C7+FPW, Shikarpur - Pahasau Link Rd",
            "city": "Pahasu",
            "postal_code": "203396",
            "state": "Uttar Pradesh",
            "country_code": "IN"
        },
        "images": [
            {
                "about": "All",
                "link": "https://lh5.googleusercontent.com/p/AF1QipPYq_vmCuDytJWDOmc10OD5TuQFH2B6qKCUQR1i=w661-h298-k-no"
            },
            {
                "about": "Street View & 360deg",
                "link": "https://streetviewpixels-pa.googleapis.com/v1/thumbnail?panoid=viSC-7DY4qX9hnvjEpb4Lw&cb_client=maps_sv.tactile.gps&w=224&h=298&yaw=316.10693&pitch=0&thumbfov=100"
            },
            {
                "about": "Videos",
                "link": "https://lh5.googleusercontent.com/p/AF1QipMM67NAgvKUnpKda6YIF8ugLmAUqbQlRn8C_soX=w224-h398-k-no"
            }
        ],
        "link": "https://www.google.com/maps/place/Sadak+Wali+Maszid/data=!4m7!3m6!1s0x390b53200e27bd73:0x78bf72480c45a18d!8m2!3d28.1712257!4d78.0643435!16s%2Fg%2F11gbkx4mbb!19sChIJc70nDiBTCzkRjaFFDEhyv3g?authuser=0&hl=en&rclk=1",
        "coordinates": {
            "latitude": 28.171225699999997,
            "longitude": 78.06434349999999
        }
    },
    {
        "name": "JAMA MASJID",
        "main_category": "Mosque",
        "address": "53C5+JRG JAMA MASJID, Pahasu, Uttar Pradesh 203396",
        "detailed_address": {
            "ward": null,
            "street": "53C5+JRG",
            "city": "Pahasu",
            "postal_code": "203396",
            "state": "Uttar Pradesh",
            "country_code": "IN"
        },
        "images": [
            {
                "about": "All",
                "link": "https://lh5.googleusercontent.com/p/AF1QipPSEAuzxz5CMVXgTlE7XB5TsaNaJSlKg6FVQAHV=w397-h298-k-no"
            }
        ],
        "link": "https://www.google.com/maps/place/JAMA+MASJID/data=!4m7!3m6!1s0x390b5321ffa3e579:0x7b859b1bb914a082!8m2!3d28.1715681!4d78.0595703!16s%2Fg%2F11c2p7z8l8!19sChIJeeWj_yFTCzkRgqAUuRubhXs?authuser=0&hl=en&rclk=1",
        "coordinates": {
            "latitude": 28.1715681,
            "longitude": 78.05957029999999
        }
    },
    {
        "name": "Idgah Pahasu",
        "main_category": "Place of worship",
        "address": "53F4+FJR Idgah Pahasu, Pahasu, Uttar Pradesh 203396",
        "detailed_address": {
            "ward": null,
            "street": "53F4+FJR",
            "city": "Pahasu",
            "postal_code": "203396",
            "state": "Uttar Pradesh",
            "country_code": "IN"
        },
        "images": [
            {
                "about": "All",
                "link": "https://lh5.googleusercontent.com/p/AF1QipOgY89WwuyYw5nU8r-J3ZUtMD8FX-noAI6ZM9it=w529-h298-k-no"
            },
            {
                "about": "Videos",
                "link": "https://lh5.googleusercontent.com/p/AF1QipOsV2uxPQhQHlGsKOPvOEtfoiH6lJoAjAEp_7XH=w224-h397-k-no"
            }
        ],
        "link": "https://www.google.com/maps/place/Idgah+Pahasu/data=!4m7!3m6!1s0x390b53185716cb4d:0x55d9e226af1c335!8m2!3d28.1737468!4d78.0565042!16s%2Fg%2F11clvp0lkn!19sChIJTcsWVxhTCzkRNcPxaiKeXQU?authuser=0&hl=en&rclk=1",
        "coordinates": {
            "latitude": 28.1737468,
            "longitude": 78.05650419999999
        }
    },
    {
        "name": "Mohmmadi Maszid",
        "main_category": "Mosque",
        "address": "5397+RWX Mohmmadi Maszid, Pahasu, Uttar Pradesh 203396",
        "detailed_address": {
            "ward": null,
            "street": "5397+RWX",
            "city": "Pahasu",
            "postal_code": "203396",
            "state": "Uttar Pradesh",
            "country_code": "IN"
        },
        "images": [
            {
                "about": "All",
                "link": "https://lh5.googleusercontent.com/p/AF1QipM2BHdcemdY-ux310gtg0wMdCyJRiokSOqA5Wm2=w224-h398-k-no"
            },
            {
                "about": "Street View & 360deg",
                "link": "https://streetviewpixels-pa.googleapis.com/v1/thumbnail?panoid=fFofqp89lXUTnLfAoCRxsQ&cb_client=maps_sv.tactile.gps&w=224&h=298&yaw=27.115305&pitch=0&thumbfov=100"
            }
        ],
        "link": "https://www.google.com/maps/place/Mohmmadi+Maszid/data=!4m7!3m6!1s0x390b53207ea3f2df:0xe9fe96414f781017!8m2!3d28.1696077!4d78.0648518!16s%2Fg%2F11gf60vz_z!19sChIJ3_KjfiBTCzkRFxB4T0GW_uk?authuser=0&hl=en&rclk=1",
        "coordinates": {
            "latitude": 28.1696077,
            "longitude": 78.0648518
        }
    },
    {
        "name": "Laal masjid",
        "main_category": "Mosque",
        "address": "53C7+224 Laal masjid, near old hospital, Pahasu, Uttar Pradesh 203396",
        "detailed_address": {
            "ward": null,
            "street": "53C7+224, near old hospital",
            "city": "Pahasu",
            "postal_code": "203396",
            "state": "Uttar Pradesh",
            "country_code": "IN"
        },
        "images": [
            {
                "about": "All",
                "link": "https://streetviewpixels-pa.googleapis.com/v1/thumbnail?panoid=kIQCnNLmXd4HqFp5mp61fw&cb_client=maps_sv.tactile.gps&w=224&h=298&yaw=207.47026&pitch=0&thumbfov=100"
            },
            {
                "about": "Street View & 360deg",
                "link": "https://streetviewpixels-pa.googleapis.com/v1/thumbnail?panoid=kIQCnNLmXd4HqFp5mp61fw&cb_client=maps_sv.tactile.gps&w=224&h=298&yaw=207.47026&pitch=0&thumbfov=100"
            }
        ],
        "link": "https://www.google.com/maps/place/Laal+masjid/data=!4m7!3m6!1s0x390b53dd1177ba8f:0xd28ac87120b31ce!8m2!3d28.1700075!4d78.0625694!16s%2Fg%2F11qpjcyyf4!19sChIJj7p3Ed1TCzkRzjELEoesKA0?authuser=0&hl=en&rclk=1",
        "coordinates": {
            "latitude": 28.170007499999997,
            "longitude": 78.0625694
        }
    },
    {
        "name": "Manihara Wali Masjid",
        "main_category": "Mosque",
        "address": "53F6+XW5 Manihara Wali Masjid, Pahasu, Uttar Pradesh 203396",
        "detailed_address": {
            "ward": null,
            "street": "53F6+XW5",
            "city": "Pahasu",
            "postal_code": null,
            "state": "Uttar Pradesh",
            "country_code": "IN"
        },
        "images": [],
        "link": "https://www.google.com/maps/place/Manihara+Wali+Masjid/data=!4m7!3m6!1s0x390b53bbab371431:0x7a52023a56247302!8m2!3d28.1748942!4d78.0623466!16s%2Fg%2F11gvr_2m4z!19sChIJMRQ3q7tTCzkRAnMkVjoCUno?authuser=0&hl=en&rclk=1",
        "coordinates": {
            "latitude": 28.174894199999997,
            "longitude": 78.0623466
        }
    },
    {
        "name": "Shish Giran Masjid",
        "main_category": "School",
        "address": "53F7+6QV Shish Giran Masjid, Pahasu, Uttar Pradesh 203396",
        "detailed_address": {
            "ward": null,
            "street": "53F7+6QV",
            "city": "Pahasu",
            "postal_code": "203396",
            "state": "Uttar Pradesh",
            "country_code": "IN"
        },
        "images": [],
        "link": "https://www.google.com/maps/place/Shish+Giran+Masjid/data=!4m7!3m6!1s0x390b539af3999473:0x70aa85ead560aa4b!8m2!3d28.1731026!4d78.0644089!16s%2Fg%2F11hz6tbrps!19sChIJc5SZ85pTCzkRS6pg1eqFqnA?authuser=0&hl=en&rclk=1",
        "coordinates": {
            "latitude": 28.1731026,
            "longitude": 78.06440889999999
        }
    },
    {
        "name": "Masjid UMAR",
        "main_category": "Mosque",
        "address": "43G4+MG6 Masjid UMAR, Pahasu, Teyori, Uttar Pradesh 203396",
        "detailed_address": {
            "ward": null,
            "street": "43G4+MG6",
            "city": "Pahasu, Teyori",
            "postal_code": "203396",
            "state": "Uttar Pradesh",
            "country_code": "IN"
        },
        "images": [
            {
                "about": "All",
                "link": "https://lh5.googleusercontent.com/p/AF1QipOpmpovGEpSn2T1Ve66DX-Y7D9iM24RQauoQ50l=w224-h298-k-no"
            }
        ],
        "link": "https://www.google.com/maps/place/Masjid+UMAR/data=!4m7!3m6!1s0x3974adc9d4daf049:0x59dd718c927cd2f1!8m2!3d28.1266833!4d78.0557101!16s%2Fg%2F11v4hwp4j6!19sChIJSfDa1MmtdDkR8dJ8koxx3Vk?authuser=0&hl=en&rclk=1",
        "coordinates": {
            "latitude": 28.1266833,
            "longitude": 78.0557101
        }
    },
    {
        "name": "Bazaar wali masjid",
        "main_category": "Mosque",
        "address": "53C7+848 Bazaar wali masjid, Pahasu, Uttar Pradesh 203396",
        "detailed_address": {
            "ward": null,
            "street": "53C7+848",
            "city": "Pahasu",
            "postal_code": "203396",
            "state": "Uttar Pradesh",
            "country_code": "IN"
        },
        "images": [],
        "link": "https://www.google.com/maps/place/Bazaar+wali+masjid/data=!4m7!3m6!1s0x390b5387468b6e1d:0x7124904fddb44ecb!8m2!3d28.1707876!4d78.0628163!16s%2Fg%2F11kc26vql9!19sChIJHW6LRodTCzkRy0603U-QJHE?authuser=0&hl=en&rclk=1",
        "coordinates": {
            "latitude": 28.170787599999997,
            "longitude": 78.0628163
        }
    },
    {
        "name": "sadak wali masjid",
        "main_category": "Clothing store",
        "address": "sadak wali masjid, M S JEANS POINT, Pahasu, Uttar Pradesh 203396",
        "detailed_address": {
            "ward": null,
            "street": "M S JEANS POINT",
            "city": "Pahasu",
            "postal_code": "203396",
            "state": "Uttar Pradesh",
            "country_code": "IN"
        },
        "images": [
            {
                "about": "All",
                "link": "https://lh5.googleusercontent.com/p/AF1QipOqf7Jy0j3pj1__eIf_swk3MPKX2JjgdP-h_JAB=w224-h398-k-no"
            },
            {
                "about": "Inside",
                "link": "https://lh5.googleusercontent.com/p/AF1QipN1X5GFh5M8KXZtxVQhuRiT6oPw2kC87htQd7bc=w397-h298-k-no"
            },
            {
                "about": "By owner",
                "link": "https://lh5.googleusercontent.com/p/AF1QipOqf7Jy0j3pj1__eIf_swk3MPKX2JjgdP-h_JAB=w224-h398-k-no"
            }
        ],
        "link": "https://www.google.com/maps/place/sadak+wali+masjid/data=!4m7!3m6!1s0x390b53a299dd982f:0xd0b797a18bdb98ab!8m2!3d28.1744343!4d78.0625094!16s%2Fg%2F11h4y2m7jk!19sChIJL5jdmaJTCzkRq5jbi6GXt9A?authuser=0&hl=en&rclk=1",
        "coordinates": {
            "latitude": 28.174434299999998,
            "longitude": 78.0625094
        }
    }
]