[
    {
        "name": "Shahi Jama Mosque",
        "main_category": "Mosque",
        "address": "Shahi Jama Mosque, Sangola, Maharashtra 413307",
        "detailed_address": {
            "ward": null,
            "street": null,
            "city": "Sangola",
            "postal_code": null,
            "state": "Maharashtra",
            "country_code": "IN"
        },
        "images": [
            {
                "about": "All",
                "link": "https://lh5.googleusercontent.com/p/AF1QipPYUg-NlW5Q_dkeHcU1qq4ygcpUcSYrLjm-skg_=w529-h298-k-no"
            },
            {
                "about": "Dome",
                "link": "https://lh5.googleusercontent.com/p/AF1QipNoSrnJOJjiuvUm4ppDU1IHEKWqJG_L7za91DhS=w529-h298-k-no"
            }
        ],
        "link": "https://www.google.com/maps/place/Shahi+Jama+Mosque/data=!4m7!3m6!1s0x3bc6a652f03efa29:0xcce0ec6424ff9aca!8m2!3d17.4376584!4d75.1920182!16s%2Fg%2F1tds54gr!19sChIJKfo-8FKmxjsRypr_JGTs4Mw?authuser=0&hl=en&rclk=1",
        "coordinates": {
            "latitude": 17.4376584,
            "longitude": 75.19201819999999
        }
    },
    {
        "name": "Kali Masjid",
        "main_category": "Mosque",
        "address": "C5RV+2M7 Kali Masjid, Kole, Sangole, Sangola, Maharashtra 413307",
        "detailed_address": {
            "ward": "Kole",
            "street": "C5RV+2M7",
            "city": "Sangole, Sangola",
            "postal_code": "413307",
            "state": "Maharashtra",
            "country_code": "IN"
        },
        "images": [],
        "link": "https://www.google.com/maps/place/Kali+Masjid/data=!4m7!3m6!1s0x3bc6a7acb5fcfdfd:0xb0a6ab67a7e55cc3!8m2!3d17.440032!4d75.1941737!16s%2Fg%2F1vb9bj06!19sChIJ_f38taynxjsRw1zlp2erprA?authuser=0&hl=en&rclk=1",
        "coordinates": {
            "latitude": 17.440032,
            "longitude": 75.1941737
        }
    },
    {
        "name": "Madarsa",
        "main_category": "Mosque",
        "address": "C5JV+G3R Madarsa, Kadlas Naka, Sangola, Maharashtra 413307",
        "detailed_address": {
            "ward": "Kadlas Naka",
            "street": "C5JV+G3R",
            "city": "Sangola",
            "postal_code": "413307",
            "state": "Maharashtra",
            "country_code": "IN"
        },
        "images": [
            {
                "about": "All",
                "link": "https://lh5.googleusercontent.com/p/AF1QipP-xlPqprrgSbrzmkngE6V5KmPLtmu-zHHD4i3j=w397-h298-k-no"
            }
        ],
        "link": "https://www.google.com/maps/place/Madarsa/data=!4m7!3m6!1s0x3bc6a65100d94f27:0xf02abab221ec5722!8m2!3d17.4313502!4d75.1926486!16s%2Fg%2F11c2mkbh0q!19sChIJJ0_ZAFGmxjsRIlfsIbK6KvA?authuser=0&hl=en&rclk=1",
        "coordinates": {
            "latitude": 17.4313502,
            "longitude": 75.1926486
        }
    },
    {
        "name": "Noorani Masjid, Sangola",
        "main_category": "Mosque",
        "address": "C5MV+WJR Noorani Masjid, Sangola, Mujawar Galli, Kadlas Naka, Sangola, Maharashtra 413307",
        "detailed_address": {
            "ward": "Kadlas Naka",
            "street": "C5MV+WJR, Mujawar Galli",
            "city": "Sangola",
            "postal_code": "413307",
            "state": "Maharashtra",
            "country_code": "IN"
        },
        "images": [],
        "link": "https://www.google.com/maps/place/Noorani+Masjid,+Sangola/data=!4m7!3m6!1s0x3bc6a768a15c628d:0xf81c2c76adbffe7b!8m2!3d17.4348551!4d75.1940269!16s%2Fg%2F11fq6pz3gj!19sChIJjWJcoWinxjsRe_6_rXYsHPg?authuser=0&hl=en&rclk=1",
        "coordinates": {
            "latitude": 17.4348551,
            "longitude": 75.1940269
        }
    },
    {
        "name": "Safed Masjid",
        "main_category": "Mosque",
        "address": "C5QR+WV6 Safed Masjid, Sangola, Maharashtra 413307",
        "detailed_address": {
            "ward": null,
            "street": "C5QR+WV6",
            "city": "Sangola",
            "postal_code": "413307",
            "state": "Maharashtra",
            "country_code": "IN"
        },
        "images": [
            {
                "about": "All",
                "link": "https://lh5.googleusercontent.com/p/AF1QipNfCq7_UC-UeqUioTO4Kp4rRDpXhzaO3plSh3XY=w397-h298-k-no"
            }
        ],
        "link": "https://www.google.com/maps/place/Safed+Masjid/data=!4m7!3m6!1s0x3bc6a7ad2b7edb1b:0x43c6bf09ec4f8519!8m2!3d17.4397975!4d75.192141!16s%2Fg%2F11dzsrb_8t!19sChIJG9t-K62nxjsRGYVP7Am_xkM?authuser=0&hl=en&rclk=1",
        "coordinates": {
            "latitude": 17.4397975,
            "longitude": 75.19214099999999
        }
    },
    {
        "name": "Maneri malla or Garib Nawaz Masjid",
        "main_category": "Mosque",
        "address": "C6X4+2F Maneri malla or Garib Nawaz Masjid, Sangola, Maharashtra 413307",
        "detailed_address": {
            "ward": null,
            "street": "C6X4+2F",
            "city": "Sangola",
            "postal_code": "413307",
            "state": "Maharashtra",
            "country_code": "IN"
        },
        "images": [],
        "link": "https://www.google.com/maps/place/Maneri+malla+or+Garib+Nawaz+Masjid/data=!4m7!3m6!1s0x3bc6a7274109f41b:0x182a9a2b95e418a2!8m2!3d17.4467332!4d75.206761!16s%2Fg%2F11kq4r4pkd!19sChIJG_QJQSenxjsRohjklSuaKhg?authuser=0&hl=en&rclk=1",
        "coordinates": {
            "latitude": 17.4467332,
            "longitude": 75.206761
        }
    },
    {
        "name": "Gulshan-e-Sufiya Masjid",
        "main_category": "Mosque",
        "address": "Gulshan-e-Sufiya Masjid, Gulshane-e, Sufiya Masjid, Sangola, Maharashtra 413307",
        "detailed_address": {
            "ward": null,
            "street": "Gulshane-e, Sufiya Masjid",
            "city": "Sangola",
            "postal_code": "413307",
            "state": "Maharashtra",
            "country_code": "IN"
        },
        "images": [
            {
                "about": "All",
                "link": "https://lh5.googleusercontent.com/p/AF1QipMswQiGhzfm1Y8-Sp_9JqXVmIZ8Y1zdIpYch7oY=w639-h298-k-no"
            },
            {
                "about": "Latest",
                "link": "https://lh5.googleusercontent.com/p/AF1QipMbI70iWS-g9G0g5qPLdNZxG48M6AQBku5j-2H9=w224-h298-k-no"
            }
        ],
        "link": "https://www.google.com/maps/place/Gulshan-e-Sufiya+Masjid/data=!4m7!3m6!1s0x3bc6a74ad7608a75:0xd07149c0ad439d0f!8m2!3d17.4580907!4d75.1944885!16s%2Fg%2F11vdjqsyyx!19sChIJdYpg10qnxjsRD51DrcBJcdA?authuser=0&hl=en&rclk=1",
        "coordinates": {
            "latitude": 17.4580907,
            "longitude": 75.19448849999999
        }
    }
]