[
    {
        "name": "MADEENA MASJID ECHODA",
        "main_category": "Mosque",
        "address": "CFG3+256 MADEENA MASJID ECHODA, Ichoda, Telangana 504307",
        "detailed_address": {
            "ward": null,
            "street": "CFG3+256",
            "city": "Ichoda",
            "postal_code": "504307",
            "state": "Telangana",
            "country_code": "IN"
        },
        "images": [
            {
                "about": "All",
                "link": "https://lh5.googleusercontent.com/p/AF1QipMaPMXKDMaXjBrt-CwRr0A-q1_GzqhYBUUgB-zr=w224-h398-k-no"
            },
            {
                "about": "Latest",
                "link": "https://lh5.googleusercontent.com/p/AF1QipMaPMXKDMaXjBrt-CwRr0A-q1_GzqhYBUUgB-zr=w224-h398-k-no"
            },
            {
                "about": "Street View & 360deg",
                "link": "https://streetviewpixels-pa.googleapis.com/v1/thumbnail?panoid=4SLl4VxlHGbx5vpHkVmUHg&cb_client=maps_sv.tactile.gps&w=224&h=298&yaw=147.98671&pitch=0&thumbfov=100"
            }
        ],
        "link": "https://www.google.com/maps/place/MADEENA+MASJID+ECHODA/data=!4m7!3m6!1s0x3bd26f98044820f1:0xb0592db733389086!8m2!3d19.42503!4d78.4529037!16s%2Fg%2F11c3tqr4t1!19sChIJ8SBIBJhv0jsRhpA4M7ctWbA?authuser=0&hl=en&rclk=1",
        "coordinates": {
            "latitude": 19.42503,
            "longitude": 78.4529037
        }
    },
    {
        "name": "Jama Masjid Bazar Hathnoor",
        "main_category": "Mosque",
        "address": "F952+7MR Jama Masjid Bazar Hathnoor, Bazarhatnoor, Telangana 504304",
        "detailed_address": {
            "ward": null,
            "street": "F952+7MR",
            "city": "Bazarhatnoor",
            "postal_code": "504304",
            "state": "Telangana",
            "country_code": "IN"
        },
        "images": [],
        "link": "https://www.google.com/maps/place/Jama+Masjid+Bazar+Hathnoor/data=!4m7!3m6!1s0x3bd26c68c7cf939b:0xc6ede85c8413c632!8m2!3d19.4582258!4d78.3516474!16s%2Fg%2F11gdqfb5kj!19sChIJm5PPx2hs0jsRMsYThFzo7cY?authuser=0&hl=en&rclk=1",
        "coordinates": {
            "latitude": 19.458225799999997,
            "longitude": 78.35164739999999
        }
    },
    {
        "name": "Masjid -e- Dawathul Haq",
        "main_category": "Mosque",
        "address": "CFH2+G89 Masjid -e- Dawathul Haq, Ichoda Main Rd, Ichoda, Telangana 504307",
        "detailed_address": {
            "ward": null,
            "street": "CFH2+G89, Ichoda Main Rd",
            "city": "Ichoda",
            "postal_code": "504307",
            "state": "Telangana",
            "country_code": "IN"
        },
        "images": [
            {
                "about": "All",
                "link": "https://streetviewpixels-pa.googleapis.com/v1/thumbnail?panoid=TlJx0UgEp8ZpimzC7GcfQA&cb_client=maps_sv.tactile.gps&w=224&h=298&yaw=212.80678&pitch=0&thumbfov=100"
            },
            {
                "about": "Street View & 360deg",
                "link": "https://streetviewpixels-pa.googleapis.com/v1/thumbnail?panoid=TlJx0UgEp8ZpimzC7GcfQA&cb_client=maps_sv.tactile.gps&w=224&h=298&yaw=212.80678&pitch=0&thumbfov=100"
            }
        ],
        "link": "https://www.google.com/maps/place/Masjid+-e-+Dawathul+Haq/data=!4m7!3m6!1s0x3bd26fa240811f53:0x84ebb182ea5a35e4!8m2!3d19.4287993!4d78.4508528!16s%2Fg%2F11b75hw8dx!19sChIJUx-BQKJv0jsR5DVa6oKx64Q?authuser=0&hl=en&rclk=1",
        "coordinates": {
            "latitude": 19.428799299999998,
            "longitude": 78.45085279999999
        }
    },
    {
        "name": "Makka Masjid",
        "main_category": "Mosque",
        "address": "CFG3+QPG Makka Masjid, Ichoda, Telangana 504307",
        "detailed_address": {
            "ward": null,
            "street": "CFG3+QPG",
            "city": "Ichoda",
            "postal_code": "504307",
            "state": "Telangana",
            "country_code": "IN"
        },
        "images": [
            {
                "about": "All",
                "link": "https://lh5.googleusercontent.com/p/AF1QipMbXDp4an-5Ck3M1LeVWRN4IXm4KdVBr-_B4B5B=w397-h298-k-no"
            },
            {
                "about": "Street View & 360deg",
                "link": "https://streetviewpixels-pa.googleapis.com/v1/thumbnail?panoid=0CeQHIkPttv4CoiA8RxDrA&cb_client=maps_sv.tactile.gps&w=224&h=298&yaw=52.33259&pitch=0&thumbfov=100"
            }
        ],
        "link": "https://www.google.com/maps/place/Makka+Masjid/data=!4m7!3m6!1s0x3bd26f985b7ba91f:0xff30f7087fea8336!8m2!3d19.4269309!4d78.4543422!16s%2Fg%2F11fxx3q066!19sChIJH6l7W5hv0jsRNoPqfwj3MP8?authuser=0&hl=en&rclk=1",
        "coordinates": {
            "latitude": 19.4269309,
            "longitude": 78.4543422
        }
    },
    {
        "name": "JAMMA-E-MASJID",
        "main_category": "Mosque",
        "address": "7CX4+86J JAMMA-E-MASJID, Neradigonda 2, Telangana 504323",
        "detailed_address": {
            "ward": null,
            "street": "7CX4+86J",
            "city": "Neradigonda 2",
            "postal_code": "504323",
            "state": "Telangana",
            "country_code": "IN"
        },
        "images": [
            {
                "about": "All",
                "link": "https://streetviewpixels-pa.googleapis.com/v1/thumbnail?panoid=0K7VXaVStnwlxCK78AQ-jA&cb_client=maps_sv.tactile.gps&w=224&h=298&yaw=260.8777&pitch=0&thumbfov=100"
            },
            {
                "about": "Street View & 360deg",
                "link": "https://streetviewpixels-pa.googleapis.com/v1/thumbnail?panoid=0K7VXaVStnwlxCK78AQ-jA&cb_client=maps_sv.tactile.gps&w=224&h=298&yaw=260.8777&pitch=0&thumbfov=100"
            }
        ],
        "link": "https://www.google.com/maps/place/JAMMA-E-MASJID/data=!4m7!3m6!1s0x3bd2714a1f9ceb83:0xaeacfbdd07ea5319!8m2!3d19.2983415!4d78.4055211!16s%2Fg%2F11c2nkk_c_!19sChIJg-ucH0px0jsRGVPqB937rK4?authuser=0&hl=en&rclk=1",
        "coordinates": {
            "latitude": 19.2983415,
            "longitude": 78.4055211
        }
    },
    {
        "name": "Masjid E Umar Farooq",
        "main_category": "Mosque",
        "address": "CFG3+GFW Masjid E Umar Farooq, Ichoda, Telangana 504307",
        "detailed_address": {
            "ward": null,
            "street": "CFG3+GFW",
            "city": "Ichoda",
            "postal_code": "504307",
            "state": "Telangana",
            "country_code": "IN"
        },
        "images": [
            {
                "about": "All",
                "link": "https://streetviewpixels-pa.googleapis.com/v1/thumbnail?panoid=pvhLvJh4lJ2Ptton9FogZg&cb_client=maps_sv.tactile.gps&w=224&h=298&yaw=230.99861&pitch=0&thumbfov=100"
            },
            {
                "about": "Street View & 360deg",
                "link": "https://streetviewpixels-pa.googleapis.com/v1/thumbnail?panoid=pvhLvJh4lJ2Ptton9FogZg&cb_client=maps_sv.tactile.gps&w=224&h=298&yaw=230.99861&pitch=0&thumbfov=100"
            }
        ],
        "link": "https://www.google.com/maps/place/Masjid+E+Umar+Farooq/data=!4m7!3m6!1s0x3bd26f986a32f5f1:0xa79367774c71be95!8m2!3d19.4263502!4d78.4537135!16s%2Fg%2F11f03zm31b!19sChIJ8fUyaphv0jsRlb5xTHdnk6c?authuser=0&hl=en&rclk=1",
        "coordinates": {
            "latitude": 19.426350199999998,
            "longitude": 78.45371349999999
        }
    },
    {
        "name": "Jama masjid",
        "main_category": "Mosque",
        "address": "CFH3+8WC Jama masjid, Ichoda, Telangana 504307",
        "detailed_address": {
            "ward": null,
            "street": "CFH3+8WC",
            "city": "Ichoda",
            "postal_code": "504307",
            "state": "Telangana",
            "country_code": "IN"
        },
        "images": [
            {
                "about": "All",
                "link": "https://lh5.googleusercontent.com/p/AF1QipPwixJGN6XaZGjGCl9QfIMgJo5pjuEhrxNHkxPN=w529-h298-k-no"
            }
        ],
        "link": "https://www.google.com/maps/place/Jama+masjid/data=!4m7!3m6!1s0x3bd26fcb3b2536e3:0x24b38adada85879e!8m2!3d19.4283175!4d78.454781!16s%2Fg%2F11ppybzh_0!19sChIJ4zYlO8tv0jsRnoeF2tqKsyQ?authuser=0&hl=en&rclk=1",
        "coordinates": {
            "latitude": 19.4283175,
            "longitude": 78.454781
        }
    },
    {
        "name": "JAMA MASJID",
        "main_category": "Mosque",
        "address": "9829+4GF JAMA MASJID, Boath Buzurg, Telangana 504304",
        "detailed_address": {
            "ward": null,
            "street": "9829+4GF",
            "city": "Boath Buzurg",
            "postal_code": "504304",
            "state": "Telangana",
            "country_code": "IN"
        },
        "images": [
            {
                "about": "All",
                "link": "https://lh5.googleusercontent.com/p/AF1QipOMyYwCT_py64TUYE8118nl1Ch8zhvgA1OvLcN8=w224-h298-k-no"
            }
        ],
        "link": "https://www.google.com/maps/place/JAMA+MASJID/data=!4m7!3m6!1s0x3bd272e975f77229:0x9b59ab055d5647d2!8m2!3d19.3503023!4d78.3188004!16s%2Fg%2F11fy9g9qym!19sChIJKXL3dely0jsR0kdWXQWrWZs?authuser=0&hl=en&rclk=1",
        "coordinates": {
            "latitude": 19.3503023,
            "longitude": 78.3188004
        }
    },
    {
        "name": "Masjid",
        "main_category": "Mosque",
        "address": "99C5+Q23 Masjid, Unnamed Road, Kouta, Telangana 504304",
        "detailed_address": {
            "ward": null,
            "street": "99C5+Q23, Unnamed Road",
            "city": "Kouta",
            "postal_code": "504304",
            "state": "Telangana",
            "country_code": "IN"
        },
        "images": [
            {
                "about": "All",
                "link": "https://lh5.googleusercontent.com/p/AF1QipPaWWNNj7mw3JWm3BOCjVqNaAKc4vaTmfEl6Nnt=w224-h497-k-no"
            },
            {
                "about": "Videos",
                "link": "https://lh5.googleusercontent.com/p/AF1QipOLHOGqND_x-SEzKVG_SPhg0rumrajWzQqSsBuD=w224-h398-k-no"
            }
        ],
        "link": "https://www.google.com/maps/place/Masjid/data=!4m7!3m6!1s0x3bd273b7fe3f089d:0x6f89811a9f3116dc!8m2!3d19.3718832!4d78.3575559!16s%2Fg%2F11rclc79ch!19sChIJnQg__rdz0jsR3BYxnxqBiW8?authuser=0&hl=en&rclk=1",
        "coordinates": {
            "latitude": 19.3718832,
            "longitude": 78.3575559
        }
    },
    {
        "name": "Jama masjid",
        "main_category": "Mosque",
        "address": "9C9X+FR5 Jama masjid, Mukhra-B, Telangana 504307",
        "detailed_address": {
            "ward": null,
            "street": "9C9X+FR5",
            "city": "Mukhra-B",
            "postal_code": "504307",
            "state": "Telangana",
            "country_code": "IN"
        },
        "images": [
            {
                "about": "All",
                "link": "https://lh5.googleusercontent.com/p/AF1QipPdk6DLZacTN24R5V0MWWPyikO_-g5eCf0KiQzb=w529-h298-k-no"
            }
        ],
        "link": "https://www.google.com/maps/place/Jama+masjid/data=!4m7!3m6!1s0x3bd271baede69955:0x5d9ae47fedd0e556!8m2!3d19.3686472!4d78.4496168!16s%2Fg%2F11qb3ykyy3!19sChIJVZnm7bpx0jsRVuXQ7X_kml0?authuser=0&hl=en&rclk=1",
        "coordinates": {
            "latitude": 19.368647199999998,
            "longitude": 78.4496168
        }
    },
    {
        "name": "MASJID",
        "main_category": "Mosque",
        "address": "88VH+QXG MASJID, Boath Buzurg, Telangana 504304",
        "detailed_address": {
            "ward": null,
            "street": "88VH+QXG",
            "city": "Boath Buzurg",
            "postal_code": "504304",
            "state": "Telangana",
            "country_code": "IN"
        },
        "images": [],
        "link": "https://www.google.com/maps/place/MASJID/data=!4m7!3m6!1s0x3bd273a5ccb6c791:0xf37853e1363ccaa0!8m2!3d19.344726!4d78.330825!16s%2Fg%2F11snwzzbc5!19sChIJkce2zKVz0jsRoMo8NuFTePM?authuser=0&hl=en&rclk=1",
        "coordinates": {
            "latitude": 19.344725999999998,
            "longitude": 78.33082499999999
        }
    },
    {
        "name": "Masjid e Umar",
        "main_category": "Mosque",
        "address": "88W9+PMV Masjid e Umar, Boath Buzurg, Telangana 504304",
        "detailed_address": {
            "ward": null,
            "street": "88W9+PMV",
            "city": "Boath Buzurg",
            "postal_code": "504304",
            "state": "Telangana",
            "country_code": "IN"
        },
        "images": [],
        "link": "https://www.google.com/maps/place/Masjid+e+Umar/data=!4m7!3m6!1s0x3bd273af0b80cd5d:0x4344839cf7d24f12!8m2!3d19.3467375!4d78.319247!16s%2Fg%2F11t7b7gxtw!19sChIJXc2AC69z0jsREk_S95yDREM?authuser=0&hl=en&rclk=1",
        "coordinates": {
            "latitude": 19.3467375,
            "longitude": 78.31924699999999
        }
    },
    {
        "name": "Gulzar masjid",
        "main_category": "Mosque",
        "address": "88W7+PVX Gulzar masjid, beside Gulzaar Masjid, Boath Buzurg, Telangana 504304",
        "detailed_address": {
            "ward": null,
            "street": "88W7+PVX, beside Gulzaar Masjid",
            "city": "Boath Buzurg",
            "postal_code": "504304",
            "state": "Telangana",
            "country_code": "IN"
        },
        "images": [],
        "link": "https://www.google.com/maps/place/Gulzar+masjid/data=!4m7!3m6!1s0x3bd27302c48930b5:0xd6f8a49697d95467!8m2!3d19.3468045!4d78.3147885!16s%2Fg%2F11s8y5s4b7!19sChIJtTCJxAJz0jsRZ1TZl5ak-NY?authuser=0&hl=en&rclk=1",
        "coordinates": {
            "latitude": 19.346804499999998,
            "longitude": 78.31478849999999
        }
    },
    {
        "name": "Eid Gah and muslim burial ground",
        "main_category": "Mosque",
        "address": "F942+CJP Eid Gah and muslim burial ground, Bazarhatnoor Rd, Bazarhatnoor, Telangana 504304",
        "detailed_address": {
            "ward": null,
            "street": "F942+CJP, Bazarhatnoor Rd",
            "city": "Bazarhatnoor",
            "postal_code": "504304",
            "state": "Telangana",
            "country_code": "IN"
        },
        "images": [],
        "link": "https://www.google.com/maps/place/Eid+Gah+and+muslim+burial+ground/data=!4m7!3m6!1s0x3bd26c68f55bd4df:0x37802d22bc216b99!8m2!3d19.4560996!4d78.3515659!16s%2Fg%2F11cmv2275y!19sChIJ39Rb9Whs0jsRmWshvCItgDc?authuser=0&hl=en&rclk=1",
        "coordinates": {
            "latitude": 19.456099599999998,
            "longitude": 78.3515659
        }
    },
    {
        "name": "Masjid e Aqsa",
        "main_category": "Mosque",
        "address": "9CPV+55W Masjid e Aqsa, Islamnagar, Telangana 504307",
        "detailed_address": {
            "ward": null,
            "street": "9CPV+55W",
            "city": "Islamnagar",
            "postal_code": "504307",
            "state": "Telangana",
            "country_code": "IN"
        },
        "images": [],
        "link": "https://www.google.com/maps/place/Masjid+e+Aqsa/data=!4m7!3m6!1s0x3bd271c95b560a13:0xeac4c3253af1fd04!8m2!3d19.3854802!4d78.4429394!16s%2Fg%2F11vdh6g0fk!19sChIJEwpWW8lx0jsRBP3xOiXDxOo?authuser=0&hl=en&rclk=1",
        "coordinates": {
            "latitude": 19.3854802,
            "longitude": 78.4429394
        }
    },
    {
        "name": "JAMA MASJID SONALA",
        "main_category": "Mosque",
        "address": "C898+5MG JAMA MASJID SONALA, Sonala, Telangana 504304",
        "detailed_address": {
            "ward": null,
            "street": "C898+5MG",
            "city": "Sonala",
            "postal_code": "504304",
            "state": "Telangana",
            "country_code": "IN"
        },
        "images": [
            {
                "about": "All",
                "link": "https://lh5.googleusercontent.com/p/AF1QipN9SSvlpo20wl_bWKlJQhHmp1twWJalwOPumS3E=w224-h443-k-no"
            }
        ],
        "link": "https://www.google.com/maps/place/JAMA+MASJID+SONALA/data=!4m7!3m6!1s0x3bd26d23b3215fe7:0x2ecf57cb2074d1c0!8m2!3d19.4179334!4d78.3166892!16s%2Fg%2F11p1048s3j!19sChIJ518hsyNt0jsRwNF0IMtXzy4?authuser=0&hl=en&rclk=1",
        "coordinates": {
            "latitude": 19.4179334,
            "longitude": 78.3166892
        }
    },
    {
        "name": "JAMA MASJID KOKASMANNUR",
        "main_category": "Mosque",
        "address": "9CVG+R3P JAMA MASJID KOKASMANNUR, Kokasmannur, Telangana 504307",
        "detailed_address": {
            "ward": null,
            "street": "9CVG+R3P",
            "city": "Kokasmannur",
            "postal_code": "504307",
            "state": "Telangana",
            "country_code": "IN"
        },
        "images": [],
        "link": "https://www.google.com/maps/place/JAMA+MASJID+KOKASMANNUR/data=!4m7!3m6!1s0x3bd26f0bf72abcd9:0x2e252e9b84fb3fef!8m2!3d19.3945997!4d78.4251886!16s%2Fg%2F11gtc4ft5k!19sChIJ2bwq9wtv0jsR7z_7hJsuJS4?authuser=0&hl=en&rclk=1",
        "coordinates": {
            "latitude": 19.3945997,
            "longitude": 78.4251886
        }
    }
]