[
    {
        "name": "NASHTAWALA",
        "main_category": "Breakfast restaurant",
        "address": "NASHTAWALA, Pirpainti Road, Godda, Jharkhand 814133",
        "detailed_address": {
            "ward": null,
            "street": "Pirpainti Road",
            "city": "Godda",
            "postal_code": "814133",
            "state": "Jharkhand",
            "country_code": "IN"
        },
        "images": [
            {
                "about": "All",
                "link": "https://lh5.googleusercontent.com/p/AF1QipPGmn522j8Ofost_GDuVrbXZ6nyXp9rtZ861HY=w529-h298-k-no"
            },
            {
                "about": "Street View & 360deg",
                "link": "https://streetviewpixels-pa.googleapis.com/v1/thumbnail?panoid=_JqIbyC7vHu-x3IM06tWZA&cb_client=maps_sv.tactile.gps&w=224&h=298&yaw=123.6352&pitch=0&thumbfov=100"
            },
            {
                "about": "Videos",
                "link": "https://lh5.googleusercontent.com/p/AF1QipMPAwZ00tRlvVZPM2lrB7MfPblWfZMxNhpWrsE=w529-h298-k-no"
            }
        ],
        "link": "https://www.google.com/maps/place/NASHTAWALA/data=!4m7!3m6!1s0x39f0f529df460195:0x4e39774a7ca986cd!8m2!3d24.831004!4d87.2156177!16s%2Fg%2F11c317_5n_!19sChIJlQFG3yn18DkRzYapfEp3OU4?authuser=0&hl=en&rclk=1",
        "coordinates": {
            "latitude": 24.831004,
            "longitude": 87.2156177
        }
    },
    {
        "name": "Jama Masjid",
        "main_category": "Mosque",
        "address": "Jama Masjid, Godda, Kasba Godda, Jharkhand 814133",
        "detailed_address": {
            "ward": null,
            "street": null,
            "city": "Godda, Kasba Godda",
            "postal_code": "814133",
            "state": "Jharkhand",
            "country_code": "IN"
        },
        "images": [
            {
                "about": "All",
                "link": "https://lh5.googleusercontent.com/p/AF1QipNCeLbFK4bBErXjYLHwYxexJdDia6CpTlj1_3E=w472-h298-k-no"
            },
            {
                "about": "Dome",
                "link": "https://lh5.googleusercontent.com/p/AF1QipP-pOcvj6UezHh9JQVJjURDPXHEYkiPcUUMY9zP=w224-h298-k-no"
            },
            {
                "about": "Videos",
                "link": "https://lh5.googleusercontent.com/p/AF1QipMW_OkFU4sdFnmr-9PdzzOJ_N91aFrM-JqdDaOQ=w224-h398-k-no"
            },
            {
                "about": "By owner",
                "link": "https://lh5.googleusercontent.com/p/AF1QipMW_OkFU4sdFnmr-9PdzzOJ_N91aFrM-JqdDaOQ=w224-h398-k-no"
            }
        ],
        "link": "https://www.google.com/maps/place/Jama+Masjid/data=!4m7!3m6!1s0x39f0f4d08e6b9aa9:0xa5ca34c87be46775!8m2!3d24.8317928!4d87.2618328!16s%2Fg%2F1v6qg0sn!19sChIJqZprjtD08DkRdWfke8g0yqU?authuser=0&hl=en&rclk=1",
        "coordinates": {
            "latitude": 24.8317928,
            "longitude": 87.2618328
        }
    },
    {
        "name": "Masjide Noor (Chhoti Masjid)Asanbani.",
        "main_category": "Mosque",
        "address": "Masjide Noor (Chhoti Masjid)Asanbani., Near, Postmortem Rd, Danre, Asanbani, Godda, Jharkhand 814133",
        "detailed_address": {
            "ward": "Danre",
            "street": "Near, Postmortem Rd",
            "city": "Asanbani, Godda",
            "postal_code": "814133",
            "state": "Jharkhand",
            "country_code": "IN"
        },
        "images": [
            {
                "about": "All",
                "link": "https://lh5.googleusercontent.com/p/AF1QipNshi0kyvC1RqhGMT0I0OuiM9XUhkB6Civu0ps=w529-h298-k-no"
            }
        ],
        "link": "https://www.google.com/maps/place/Masjide+Noor+%28Chhoti+Masjid%29Asanbani./data=!4m7!3m6!1s0x39f0f4d1919095c5:0x3098902b49cace1c!8m2!3d24.8210122!4d87.2163042!16s%2Fg%2F11f_z__7yb!19sChIJxZWQkdH08DkRHM7KSSuQmDA?authuser=0&hl=en&rclk=1",
        "coordinates": {
            "latitude": 24.8210122,
            "longitude": 87.2163042
        }
    },
    {
        "name": "Asanbani masjid,godda",
        "main_category": "Mosque",
        "address": "R6F7+35F Asanbani masjid,godda, Fasia Dangal, Godda, Jharkhand 814133",
        "detailed_address": {
            "ward": "Fasia Dangal",
            "street": "R6F7+35F",
            "city": "Godda",
            "postal_code": "814133",
            "state": "Jharkhand",
            "country_code": "IN"
        },
        "images": [
            {
                "about": "All",
                "link": "https://lh5.googleusercontent.com/p/AF1QipPjoqG21tzyuQDfsWEL_nl5bwcVvcdHwzhr9nGP=w224-h398-k-no"
            },
            {
                "about": "Street View & 360deg",
                "link": "https://streetviewpixels-pa.googleapis.com/v1/thumbnail?panoid=FRxx_-BzE6Dqf1OzpIdGFQ&cb_client=maps_sv.tactile.gps&w=224&h=298&yaw=234.02768&pitch=0&thumbfov=100"
            },
            {
                "about": "Videos",
                "link": "https://lh5.googleusercontent.com/p/AF1QipOlEFtQ6l3u2lR41A2tE4YQwm5ujr0mpcLwtxzA=w224-h497-k-no"
            }
        ],
        "link": "https://www.google.com/maps/place/Asanbani+masjid,godda/data=!4m7!3m6!1s0x39f0f582f5160577:0x7b08b5fe77314645!8m2!3d24.8226774!4d87.2129092!16s%2Fg%2F11fhwytxql!19sChIJdwUW9YL18DkRRUYxd_61CHs?authuser=0&hl=en&rclk=1",
        "coordinates": {
            "latitude": 24.8226774,
            "longitude": 87.2129092
        }
    },
    {
        "name": "Masjidul Arab",
        "main_category": "Mosque",
        "address": "Masjidul Arab, East to the, Postmortem Rd, Danre, Asanbani, Godda, Jharkhand 814133",
        "detailed_address": {
            "ward": "Danre",
            "street": "East to the, Postmortem Rd",
            "city": "Asanbani, Godda",
            "postal_code": "814133",
            "state": "Jharkhand",
            "country_code": "IN"
        },
        "images": [
            {
                "about": "All",
                "link": "https://lh5.googleusercontent.com/p/AF1QipOrJ7tAMSBpKwQlBn9BYbpPh1tOHyyd9psgVuw=w471-h298-k-no"
            },
            {
                "about": "Street View & 360deg",
                "link": "https://lh5.googleusercontent.com/p/AF1QipM-k5n8UozmcdizTHmUkXHbfC5lPR1VbcJPC_I=w224-h298-k-no-pi-0-ya39-ro-0-fo100"
            },
            {
                "about": "Videos",
                "link": "https://lh5.googleusercontent.com/p/AF1QipMk0n3okN2pKgcQkWlGJSRdJs6f3V89XdQZZpk=w224-h398-k-no"
            }
        ],
        "link": "https://www.google.com/maps/place/Masjidul+Arab/data=!4m7!3m6!1s0x39f0f4cdf59add13:0x3148cd842635083d!8m2!3d24.8190774!4d87.2180976!16s%2Fg%2F11hb762fkx!19sChIJE92a9c308DkRPQg1JoTNSDE?authuser=0&hl=en&rclk=1",
        "coordinates": {
            "latitude": 24.819077399999998,
            "longitude": 87.2180976
        }
    },
    {
        "name": "Masjide Umar",
        "main_category": "Mosque",
        "address": "R697+MH5 Masjide Umar, Asanbani, Danre, Godda, Jharkhand 814133",
        "detailed_address": {
            "ward": "Asanbani, Danre",
            "street": "R697+MH5",
            "city": "Godda",
            "postal_code": "814133",
            "state": "Jharkhand",
            "country_code": "IN"
        },
        "images": [
            {
                "about": "All",
                "link": "https://lh5.googleusercontent.com/p/AF1QipOQw5tuvhdHTnt2YrNRL2GmSA-nY-Su12ASCTVr=w662-h298-k-no"
            },
            {
                "about": "Videos",
                "link": "https://lh5.googleusercontent.com/p/AF1QipOpP4QisoORnMw6C3LkBTH6McghzOdwTZv-wrPL=w529-h298-k-no"
            }
        ],
        "link": "https://www.google.com/maps/place/Masjide+Umar/data=!4m7!3m6!1s0x39f0f4d02815341d:0xc2c71f925e618345!8m2!3d24.8191444!4d87.2139992!16s%2Fg%2F11f3jnxx35!19sChIJHTQVKND08DkRRYNhXpIfx8I?authuser=0&hl=en&rclk=1",
        "coordinates": {
            "latitude": 24.8191444,
            "longitude": 87.21399919999999
        }
    },
    {
        "name": "Masjid",
        "main_category": "Mosque",
        "address": "R699+J7C Masjid, Asanbani, Danre, Godda, Jharkhand 814133",
        "detailed_address": {
            "ward": "Asanbani, Danre",
            "street": "R699+J7C",
            "city": "Godda",
            "postal_code": "814133",
            "state": "Jharkhand",
            "country_code": "IN"
        },
        "images": [
            {
                "about": "All",
                "link": "https://lh5.googleusercontent.com/p/AF1QipOQciURXr2q5tcXT1S7WgXE9w82xRiePz8xD7i3=w529-h298-k-no"
            },
            {
                "about": "Street View & 360deg",
                "link": "https://lh5.googleusercontent.com/p/AF1QipMaR1E1Fcyk-4tadvHH7joSbwVIEr31U8S3sZQ=w224-h298-k-no-pi-0-ya39-ro-0-fo100"
            },
            {
                "about": "Videos",
                "link": "https://lh5.googleusercontent.com/p/AF1QipMk0n3okN2pKgcQkWlGJSRdJs6f3V89XdQZZpk=w224-h398-k-no"
            }
        ],
        "link": "https://www.google.com/maps/place/Masjid/data=!4m7!3m6!1s0x39f0f4cdf570fa85:0x1dda8b5f141fb880!8m2!3d24.819075!4d87.218156!16s%2Fg%2F11f3219s85!19sChIJhfpw9c308DkRgLgfFF-L2h0?authuser=0&hl=en&rclk=1",
        "coordinates": {
            "latitude": 24.819074999999998,
            "longitude": 87.218156
        }
    },
    {
        "name": "Eidgah, Godda",
        "main_category": "Mosque",
        "address": "R6C6+RQ9 Eidgah, Godda, Fasia Dangal, Godda, Jharkhand 814133",
        "detailed_address": {
            "ward": "Fasia Dangal",
            "street": "R6C6+RQ9",
            "city": "Godda",
            "postal_code": "814133",
            "state": "Jharkhand",
            "country_code": "IN"
        },
        "images": [
            {
                "about": "All",
                "link": "https://lh5.googleusercontent.com/p/AF1QipP2jopxDphiGbIWz6mIjAfhC78mXr-ztXMv_mQ=w529-h298-k-no"
            },
            {
                "about": "Street View & 360deg",
                "link": "https://streetviewpixels-pa.googleapis.com/v1/thumbnail?panoid=gDsscrNpnJoOsNOCIhGyog&cb_client=maps_sv.tactile.gps&w=224&h=298&yaw=328.02948&pitch=0&thumbfov=100"
            },
            {
                "about": "Videos",
                "link": "https://lh5.googleusercontent.com/p/AF1QipNjTJakXLyqjNAmlJWHDUtvgx40kGdCqf1RhoBq=w224-h398-k-no"
            }
        ],
        "link": "https://www.google.com/maps/place/Eidgah,+Godda/data=!4m7!3m6!1s0x39f0f4da7fe9db87:0xabce201307d9e688!8m2!3d24.822043!4d87.2119838!16s%2Fg%2F11f24vq6r1!19sChIJh9vpf9r08DkRiObZBxMgzqs?authuser=0&hl=en&rclk=1",
        "coordinates": {
            "latitude": 24.822042999999997,
            "longitude": 87.2119838
        }
    },
    {
        "name": "Madina Masjid",
        "main_category": "Mosque",
        "address": "R696+R37 Madina Masjid, Madina Masjid Road, Fasia Dangal, Godda, Jharkhand 814133",
        "detailed_address": {
            "ward": "Fasia Dangal",
            "street": "R696+R37, Madina Masjid Road",
            "city": "Godda",
            "postal_code": "814133",
            "state": "Jharkhand",
            "country_code": "IN"
        },
        "images": [
            {
                "about": "All",
                "link": "https://lh5.googleusercontent.com/p/AF1QipM9D_fKCkOd_KzmgoJf5-QkioAYsdVT7gMshVxZ=w397-h298-k-no"
            }
        ],
        "link": "https://www.google.com/maps/place/Madina+Masjid/data=!4m7!3m6!1s0x39f0f513e0e5c21f:0x3a0255a81f1e799a!8m2!3d24.8195419!4d87.2101589!16s%2Fg%2F11gnpqwb8h!19sChIJH8Ll4BP18DkRmnkeH6hVAjo?authuser=0&hl=en&rclk=1",
        "coordinates": {
            "latitude": 24.819541899999997,
            "longitude": 87.2101589
        }
    },
    {
        "name": "Warsi Masjid",
        "main_category": "Mosque",
        "address": "R6F9+2RC Warsi Masjid, Jama Masjid Rd, Asanbani, Godda, Jharkhand 814133",
        "detailed_address": {
            "ward": null,
            "street": "R6F9+2RC, Jama Masjid Rd",
            "city": "Asanbani, Godda",
            "postal_code": "814133",
            "state": "Jharkhand",
            "country_code": "IN"
        },
        "images": [
            {
                "about": "All",
                "link": "https://lh5.googleusercontent.com/p/AF1QipMGGw7MgfJCqmgcby90p9OyFyxhNsroybZVGjA=w529-h298-k-no"
            }
        ],
        "link": "https://www.google.com/maps/place/Warsi+Masjid/data=!4m7!3m6!1s0x39f0f4d3a9e6fa3d:0x41ad78f0e2349d3f!8m2!3d24.8225693!4d87.2195014!16s%2Fg%2F11f3y05fc5!19sChIJPfrmqdP08DkRP5004vB4rUE?authuser=0&hl=en&rclk=1",
        "coordinates": {
            "latitude": 24.822569299999998,
            "longitude": 87.2195014
        }
    },
    {
        "name": "Jama Masjid Sarkanda",
        "main_category": "Mosque",
        "address": "R647+GX6 Jama Masjid Sarkanda, Godda - Dharampur Rd, Godda, Jharkhand 814133",
        "detailed_address": {
            "ward": null,
            "street": "R647+GX6, Godda - Dharampur Rd",
            "city": "Godda",
            "postal_code": "814133",
            "state": "Jharkhand",
            "country_code": "IN"
        },
        "images": [
            {
                "about": "All",
                "link": "https://streetviewpixels-pa.googleapis.com/v1/thumbnail?panoid=suJYf1W6S-zPB9oD0jUadQ&cb_client=maps_sv.tactile.gps&w=224&h=298&yaw=318.9636&pitch=0&thumbfov=100"
            },
            {
                "about": "Street View & 360deg",
                "link": "https://streetviewpixels-pa.googleapis.com/v1/thumbnail?panoid=suJYf1W6S-zPB9oD0jUadQ&cb_client=maps_sv.tactile.gps&w=224&h=298&yaw=318.9636&pitch=0&thumbfov=100"
            }
        ],
        "link": "https://www.google.com/maps/place/Jama+Masjid+Sarkanda/data=!4m7!3m6!1s0x39f0f57b1cc107cf:0x213ea883814e9fec!8m2!3d24.806276!4d87.214887!16s%2Fg%2F11h1hw1f0g!19sChIJzwfBHHv18DkR7J9OgYOoPiE?authuser=0&hl=en&rclk=1",
        "coordinates": {
            "latitude": 24.806276,
            "longitude": 87.21488699999999
        }
    },
    {
        "name": "Idgah Sunni Masjid, GODDA",
        "main_category": "Mosque",
        "address": "R6C6+RMV Idgah Sunni Masjid, GODDA, Fasiya Dangal Rd, Fasia Dangal, Godda, Jharkhand 814133",
        "detailed_address": {
            "ward": "Fasia Dangal",
            "street": "R6C6+RMV, Fasiya Dangal Rd",
            "city": "Godda",
            "postal_code": "814133",
            "state": "Jharkhand",
            "country_code": "IN"
        },
        "images": [
            {
                "about": "All",
                "link": "https://lh5.googleusercontent.com/p/AF1QipMsTId9rAVdu92YoX97jXh5lPWhChSHY_u-AM_k=w224-h398-k-no"
            }
        ],
        "link": "https://www.google.com/maps/place/Idgah+Sunni+Masjid,+GODDA/data=!4m7!3m6!1s0x39f0f574f0a074d5:0x6643780bb525e813!8m2!3d24.8221202!4d87.2116774!16s%2Fg%2F11kj_mhdj0!19sChIJ1XSg8HT18DkRE-gltQt4Q2Y?authuser=0&hl=en&rclk=1",
        "coordinates": {
            "latitude": 24.8221202,
            "longitude": 87.2116774
        }
    },
    {
        "name": "Madarsa Khawaja Garib Nawaz",
        "main_category": "Mosque",
        "address": "R696+M37 Madarsa Khawaja Garib Nawaz, Fasia Dangal, Godda, Jharkhand 814133",
        "detailed_address": {
            "ward": "Fasia Dangal",
            "street": "R696+M37",
            "city": "Godda",
            "postal_code": "814133",
            "state": "Jharkhand",
            "country_code": "IN"
        },
        "images": [],
        "link": "https://www.google.com/maps/place/Madarsa+Khawaja+Garib+Nawaz/data=!4m7!3m6!1s0x39f0f59180646f83:0xa5693f8d7cf823b1!8m2!3d24.8191623!4d87.210161!16s%2Fg%2F11gtzjg1fv!19sChIJg29kgJH18DkRsSP4fI0_aaU?authuser=0&hl=en&rclk=1",
        "coordinates": {
            "latitude": 24.8191623,
            "longitude": 87.210161
        }
    },
    {
        "name": "Shia Masjid, Godda",
        "main_category": "Mosque",
        "address": "R6H8+RRW Shia Masjid, Godda, Godda, Jharkhand 814133",
        "detailed_address": {
            "ward": null,
            "street": "R6H8+RRW",
            "city": "Godda",
            "postal_code": "814133",
            "state": "Jharkhand",
            "country_code": "IN"
        },
        "images": [
            {
                "about": "All",
                "link": "https://streetviewpixels-pa.googleapis.com/v1/thumbnail?panoid=ts1ScUQB8IeyRmIEhuJMXA&cb_client=maps_sv.tactile.gps&w=224&h=298&yaw=288.43216&pitch=0&thumbfov=100"
            },
            {
                "about": "Street View & 360deg",
                "link": "https://streetviewpixels-pa.googleapis.com/v1/thumbnail?panoid=ts1ScUQB8IeyRmIEhuJMXA&cb_client=maps_sv.tactile.gps&w=224&h=298&yaw=288.43216&pitch=0&thumbfov=100"
            }
        ],
        "link": "https://www.google.com/maps/place/Shia+Masjid,+Godda/data=!4m7!3m6!1s0x39f0f5f71bb52c25:0xf27266bb569cc6c!8m2!3d24.8296047!4d87.2170812!16s%2Fg%2F11q278h21f!19sChIJJSy1G_f18DkRbMxptWsmJw8?authuser=0&hl=en&rclk=1",
        "coordinates": {
            "latitude": 24.829604699999997,
            "longitude": 87.2170812
        }
    },
    {
        "name": "Fatmi Mosque",
        "main_category": "Mosque",
        "address": "R695+RG2 Fatmi Mosque, Fasia Dangal, Godda, Jharkhand 814133",
        "detailed_address": {
            "ward": "Fasia Dangal",
            "street": "R695+RG2",
            "city": "Godda",
            "postal_code": "814133",
            "state": "Jharkhand",
            "country_code": "IN"
        },
        "images": [],
        "link": "https://www.google.com/maps/place/Fatmi+Mosque/data=!4m7!3m6!1s0x39f0f508c08597e3:0xe805debb2bf7439e!8m2!3d24.8195223!4d87.2087737!16s%2Fg%2F11frdqscr1!19sChIJ45eFwAj18DkRnkP3K7veBeg?authuser=0&hl=en&rclk=1",
        "coordinates": {
            "latitude": 24.8195223,
            "longitude": 87.2087737
        }
    },
    {
        "name": "MINAR",
        "main_category": "Mosque",
        "address": "MINAR, Islampur Chanda, Basmati Nagar, Godda, Jharkhand 814133",
        "detailed_address": {
            "ward": "Basmati Nagar",
            "street": "Islampur Chanda",
            "city": "Godda",
            "postal_code": null,
            "state": "Jharkhand",
            "country_code": "IN"
        },
        "images": [],
        "link": "https://www.google.com/maps/place/MINAR/data=!4m7!3m6!1s0x39f0f5bed0f0ac87:0x3af5811c120eea99!8m2!3d24.8317064!4d87.2150755!16s%2Fg%2F11q3dt4dd9!19sChIJh6zw0L718DkRmeoOEhyB9To?authuser=0&hl=en&rclk=1",
        "coordinates": {
            "latitude": 24.831706399999998,
            "longitude": 87.2150755
        }
    }
]