[
    {
        "name": "Masjid Khilchipur",
        "main_category": "Mosque",
        "address": "3C3C+FV6 Masjid Khilchipur, Sherpur, Rajasthan 322027",
        "detailed_address": {
            "ward": null,
            "street": "3C3C+FV6",
            "city": "Sherpur",
            "postal_code": "322027",
            "state": "Rajasthan",
            "country_code": "IN"
        },
        "images": [
            {
                "about": "All",
                "link": "https://lh5.googleusercontent.com/p/AF1QipPDUP6UjsF6lamTG-DA3C0zqFlePPSRjr9JceCo=w224-h497-k-no"
            }
        ],
        "link": "https://www.google.com/maps/place/Masjid+Khilchipur/data=!4m7!3m6!1s0x396e27187079f7cf:0x95902c4dab431d5a!8m2!3d26.0536721!4d76.4221473!16s%2Fg%2F11jsr83qr8!19sChIJz_d5cBgnbjkRWh1Dq00skJU?authuser=0&hl=en&rclk=1",
        "coordinates": {
            "latitude": 26.0536721,
            "longitude": 76.42214729999999
        }
    },
    {
        "name": "Masjid Maqtab ilyaas narda baldi khilchipur",
        "main_category": "Mosque",
        "address": "2HWG+QXP Masjid Maqtab ilyaas narda baldi khilchipur, Khilchipur, Madhya Pradesh 465679",
        "detailed_address": {
            "ward": null,
            "street": "2HWG+QXP",
            "city": "Khilchipur",
            "postal_code": "465679",
            "state": "Madhya Pradesh",
            "country_code": "IN"
        },
        "images": [],
        "link": "https://www.google.com/maps/place/Masjid+Maqtab+ilyaas+narda+baldi+khilchipur/data=!4m7!3m6!1s0x397b31d2247c203d:0xf82f71d87b43b527!8m2!3d24.0480607!4d76.5773265!16s%2Fg%2F11pzv0tycy!19sChIJPSB8JNIxezkRJ7VDe9hxL_g?authuser=0&hl=en&rclk=1",
        "coordinates": {
            "latitude": 24.0480607,
            "longitude": 76.5773265
        }
    },
    {
        "name": "Makka masjid ahle sunnat wal jamat khilchipur ward. 5",
        "main_category": "Mosque",
        "address": "2HXG+CR4 Makka masjid ahle sunnat wal jamat khilchipur ward. 5, Khilchipur, Madhya Pradesh 465679",
        "detailed_address": {
            "ward": null,
            "street": "2HXG+CR4",
            "city": "Khilchipur",
            "postal_code": "465679",
            "state": "Madhya Pradesh",
            "country_code": "IN"
        },
        "images": [
            {
                "about": "All",
                "link": "https://lh5.googleusercontent.com/p/AF1QipNDU7qrFLwr2FxzmxDMD-fVKB4xeUt5si1Q-Uia=w662-h298-k-no"
            },
            {
                "about": "Dome",
                "link": "https://lh5.googleusercontent.com/p/AF1QipNNW8nRStas-Q-KRhvkU_TmPramqD6MvZNSeyfj=w224-h298-k-no"
            }
        ],
        "link": "https://www.google.com/maps/place/Makka+masjid+ahle+sunnat+wal+jamat+khilchipur+ward.+5/data=!4m7!3m6!1s0x397b319fbd4d1501:0x79aa2340e5f4a800!8m2!3d24.0485188!4d76.5770821!16s%2Fg%2F11kqmg6t_0!19sChIJARVNvZ8xezkRAKj05UAjqnk?authuser=0&hl=en&rclk=1",
        "coordinates": {
            "latitude": 24.0485188,
            "longitude": 76.5770821
        }
    },
    {
        "name": "msjid e yuusuph",
        "main_category": "Mosque",
        "address": "2HWG+2XF msjid e yuusuph, Khilchipur, Madhya Pradesh 465679",
        "detailed_address": {
            "ward": null,
            "street": "2HWG+2XF",
            "city": "Khilchipur",
            "postal_code": "465679",
            "state": "Madhya Pradesh",
            "country_code": "IN"
        },
        "images": [
            {
                "about": "All",
                "link": "https://lh5.googleusercontent.com/p/AF1QipPWgUQ0AWXVB8Ewyubys8zh9NEMD8cWR8BqMwfK=w529-h298-k-no"
            },
            {
                "about": "Videos",
                "link": "https://lh5.googleusercontent.com/p/AF1QipNLOu7WBbgP1yEsUtG-ccnlP9O78tWslfwG8Q4L=w224-h398-k-no"
            }
        ],
        "link": "https://www.google.com/maps/place/%E0%A4%AE%E0%A4%B8%E0%A5%8D%E0%A4%9C%E0%A4%BF%E0%A4%A6+%E0%A4%8F+%E0%A4%AF%E0%A5%82%E0%A4%B8%E0%A5%81%E0%A4%AB/data=!4m7!3m6!1s0x397b31d464bf7875:0xe29e84aa145af1d2!8m2!3d24.0451642!4d76.5775984!16s%2Fg%2F11sqh5pcdr!19sChIJdXi_ZNQxezkR0vFaFKqEnuI?authuser=0&hl=en&rclk=1",
        "coordinates": {
            "latitude": 24.0451642,
            "longitude": 76.5775984
        }
    },
    {
        "name": "Makka masjid Ahle sunnat wal jamat naharda coloni khilchipur",
        "main_category": "Mosque",
        "address": "2HXG+6VQ Makka masjid Ahle sunnat wal jamat naharda coloni khilchipur, Khilchipur, Madhya Pradesh 465679",
        "detailed_address": {
            "ward": null,
            "street": "2HXG+6VQ",
            "city": "Khilchipur",
            "postal_code": "465679",
            "state": "Madhya Pradesh",
            "country_code": "IN"
        },
        "images": [
            {
                "about": "All",
                "link": "https://lh5.googleusercontent.com/p/AF1QipMH6QMMHGc6x6YM9OzuSDZwIFGfW2cU5d-ICceo=w662-h298-k-no"
            },
            {
                "about": "Dome",
                "link": "https://lh5.googleusercontent.com/p/AF1QipOs1haPJF7bKnDrCJIncS5XKeTOj6_nNE_hhCi7=w662-h298-k-no"
            }
        ],
        "link": "https://www.google.com/maps/place/Makka+masjid+Ahle+sunnat+wal+jamat+naharda+coloni+khilchipur/data=!4m7!3m6!1s0x397b31c8d091e763:0x6641771d0a420233!8m2!3d24.0480754!4d76.5772416!16s%2Fg%2F11svw4vmyb!19sChIJY-eR0MgxezkRMwJCCh13QWY?authuser=0&hl=en&rclk=1",
        "coordinates": {
            "latitude": 24.0480754,
            "longitude": 76.5772416
        }
    }
]