[
    {
        "name": "Markaz Jama Masjid Todabhim",
        "main_category": "Mosque",
        "address": "WR96+MC8 Markaz Jama Masjid Todabhim, Todabhim, Rajasthan 321610",
        "detailed_address": {
            "ward": null,
            "street": "WR96+MC8",
            "city": "Todabhim",
            "postal_code": "321610",
            "state": "Rajasthan",
            "country_code": "IN"
        },
        "images": [
            {
                "about": "All",
                "link": "https://lh5.googleusercontent.com/p/AF1QipMXPS7lJa-8FSik7mb59cLYLdVBTgxmQvkUmsUT=w298-h298-k-no"
            }
        ],
        "link": "https://www.google.com/maps/place/Markaz+Jama+Masjid+Todabhim/data=!4m7!3m6!1s0x3972154e8cfc778f:0xbd6a5d63400a09f3!8m2!3d26.9191505!4d76.8110882!16s%2Fg%2F11bw5_cxcd!19sChIJj3f8jE4VcjkR8wkKQGNdar0?authuser=0&hl=en&rclk=1",
        "coordinates": {
            "latitude": 26.919150499999997,
            "longitude": 76.8110882
        }
    },
    {
        "name": "Masjid-Al-Aqsa (Ansariyan) Todabhim",
        "main_category": "Mosque",
        "address": "WR95+5Q9 Masjid-Al-Aqsa (Ansariyan) Todabhim, MDR63, Todabhim, Rajasthan 321611",
        "detailed_address": {
            "ward": null,
            "street": "WR95+5Q9, MDR63",
            "city": "Todabhim",
            "postal_code": "321611",
            "state": "Rajasthan",
            "country_code": "IN"
        },
        "images": [
            {
                "about": "All",
                "link": "https://lh5.googleusercontent.com/p/AF1QipNfYbvCzVbLrjHnito4i1ImjYCfgor-At0sqdWH=w224-h298-k-no"
            }
        ],
        "link": "https://www.google.com/maps/place/Masjid-Al-Aqsa+%28Ansariyan%29+Todabhim/data=!4m7!3m6!1s0x3972154eda23c3a1:0x2ec2f8ccc3b002cf!8m2!3d26.9179229!4d76.8094888!16s%2Fg%2F1jkvqlrsr!19sChIJocMj2k4VcjkRzwKww8z4wi4?authuser=0&hl=en&rclk=1",
        "coordinates": {
            "latitude": 26.917922899999997,
            "longitude": 76.8094888
        }
    },
    {
        "name": "Masjid-e-madarsa",
        "main_category": "Mosque",
        "address": "WR96+GVV Masjid-e-madarsa, Todabhim, Rajasthan 321610",
        "detailed_address": {
            "ward": null,
            "street": "WR96+GVV",
            "city": "Todabhim",
            "postal_code": "321610",
            "state": "Rajasthan",
            "country_code": "IN"
        },
        "images": [
            {
                "about": "All",
                "link": "https://lh5.googleusercontent.com/p/AF1QipM2IehMjol4rmiSizWIK7AYS7sTUhFxlMKHZXAP=w397-h298-k-no"
            }
        ],
        "link": "https://www.google.com/maps/place/Masjid-e-madarsa/data=!4m7!3m6!1s0x3972154e5cbcba01:0xb6461201fdce3c49!8m2!3d26.9188564!4d76.8121828!16s%2Fg%2F11ckr5mmp9!19sChIJAbq8XE4VcjkRSTzO_QESRrY?authuser=0&hl=en&rclk=1",
        "coordinates": {
            "latitude": 26.9188564,
            "longitude": 76.8121828
        }
    },
    {
        "name": "MADINA MASJID",
        "main_category": "Mosque",
        "address": "WR87+PCV MADINA MASJID, Todabhim, Rajasthan 321611",
        "detailed_address": {
            "ward": null,
            "street": "WR87+PCV",
            "city": "Todabhim",
            "postal_code": "321611",
            "state": "Rajasthan",
            "country_code": "IN"
        },
        "images": [
            {
                "about": "All",
                "link": "https://lh5.googleusercontent.com/p/AF1QipM68MZEMc4Tdr8kE925uZKzELasMe8EX3L5KLlA=w397-h298-k-no"
            },
            {
                "about": "Videos",
                "link": "https://lh5.googleusercontent.com/p/AF1QipPLYPKT8AQEBYVskA2Iu0pDZpZciC4LwqFS5lBg=w224-h398-k-no"
            }
        ],
        "link": "https://www.google.com/maps/place/MADINA+MASJID/data=!4m7!3m6!1s0x3972154fc39d5df1:0xfcd830ac80b33e97!8m2!3d26.9168669!4d76.8135373!16s%2Fg%2F11bxg57k6n!19sChIJ8V2dw08VcjkRlz6zgKww2Pw?authuser=0&hl=en&rclk=1",
        "coordinates": {
            "latitude": 26.9168669,
            "longitude": 76.8135373
        }
    },
    {
        "name": "Noorani masjid",
        "main_category": "Mosque",
        "address": "WRC6+777 Noorani masjid, Todabhim, Rajasthan 321610",
        "detailed_address": {
            "ward": null,
            "street": "WRC6+777",
            "city": "Todabhim",
            "postal_code": null,
            "state": "Rajasthan",
            "country_code": "IN"
        },
        "images": [
            {
                "about": "All",
                "link": "https://lh5.googleusercontent.com/p/AF1QipM5EIDvdRBNXvw3ITLDpvroK7TWs7C1mtzc2CpG=w447-h298-k-no"
            }
        ],
        "link": "https://www.google.com/maps/place/Noorani+masjid/data=!4m7!3m6!1s0x3972153542cdea97:0xb5e8444725d73765!8m2!3d26.9206604!4d76.810671!16s%2Fg%2F11v17_1yv8!19sChIJl-rNQjUVcjkRZTfXJUdE6LU?authuser=0&hl=en&rclk=1",
        "coordinates": {
            "latitude": 26.9206604,
            "longitude": 76.810671
        }
    },
    {
        "name": "Bilal masjid ansari mohalla",
        "main_category": "Mosque",
        "address": "Bilal masjid ansari mohalla, Todabhim, Rajasthan 321611",
        "detailed_address": {
            "ward": null,
            "street": null,
            "city": "Todabhim",
            "postal_code": null,
            "state": "Rajasthan",
            "country_code": "IN"
        },
        "images": [
            {
                "about": "All",
                "link": "https://lh5.googleusercontent.com/p/AF1QipOBBUMZ-hkA75RT1DkfVJIwOEp7FW-GwA-XFkRF=w396-h298-k-no"
            },
            {
                "about": "Dome",
                "link": "https://lh5.googleusercontent.com/p/AF1QipMAWwBCIL4DOICxikI7x-vIa-YGvwNcq3XWbvuw=w298-h298-k-no"
            }
        ],
        "link": "https://www.google.com/maps/place/Bilal+masjid+ansari+mohalla/data=!4m7!3m6!1s0x397215ee06952dbf:0x3061a0c109a0cdeb!8m2!3d26.9178566!4d76.808368!16s%2Fg%2F11kpz_59jh!19sChIJvy2VBu4VcjkR682gCcGgYTA?authuser=0&hl=en&rclk=1",
        "coordinates": {
            "latitude": 26.9178566,
            "longitude": 76.808368
        }
    },
    {
        "name": "Masjid ke samne wali gali",
        "main_category": "Housing complex",
        "address": "WR84+MQW Masjid ke samne wali gali, Todabhim, Rajasthan 321611",
        "detailed_address": {
            "ward": null,
            "street": "WR84+MQW",
            "city": "Todabhim",
            "postal_code": "321611",
            "state": "Rajasthan",
            "country_code": "IN"
        },
        "images": [],
        "link": "https://www.google.com/maps/place/Masjid+ke+samne+wali+gali/data=!4m7!3m6!1s0x397215bf4453b421:0x80018cda0a574be6!8m2!3d26.916801!4d76.8069411!16s%2Fg%2F11sx415r68!19sChIJIbRTRL8VcjkR5ktXCtqMAYA?authuser=0&hl=en&rclk=1",
        "coordinates": {
            "latitude": 26.916801,
            "longitude": 76.8069411
        }
    },
    {
        "name": "Masjid Kotpada",
        "main_category": "Mosque",
        "address": "WR87+7WM Masjid Kotpada, Todabhim, Rajasthan 321611",
        "detailed_address": {
            "ward": null,
            "street": "WR87+7WM",
            "city": "Todabhim",
            "postal_code": null,
            "state": "Rajasthan",
            "country_code": "IN"
        },
        "images": [],
        "link": "https://www.google.com/maps/place/Masjid+Kotpada/data=!4m7!3m6!1s0x39721599ed51b8e5:0xe3ac1e1715002753!8m2!3d26.9157191!4d76.8148092!16s%2Fg%2F11j8jzndz9!19sChIJ5bhR7ZkVcjkRUycAFRcerOM?authuser=0&hl=en&rclk=1",
        "coordinates": {
            "latitude": 26.9157191,
            "longitude": 76.8148092
        }
    },
    {
        "name": "Bishan pura masjid",
        "main_category": "Mosque",
        "address": "WVHC+8PQ Bishan pura masjid, Todabhim, Rajasthan 321611",
        "detailed_address": {
            "ward": null,
            "street": "WVHC+8PQ",
            "city": "Todabhim",
            "postal_code": "321611",
            "state": "Rajasthan",
            "country_code": "IN"
        },
        "images": [],
        "link": "https://www.google.com/maps/place/Bishan+pura+masjid/data=!4m7!3m6!1s0x39723f36aecff27d:0xf546b893c3631e65!8m2!3d26.9283482!4d76.8718623!16s%2Fg%2F11vf9_kw2c!19sChIJffLPrjY_cjkRZR5jw5O4RvU?authuser=0&hl=en&rclk=1",
        "coordinates": {
            "latitude": 26.9283482,
            "longitude": 76.87186229999999
        }
    },
    {
        "name": "iidgaah ttoddaabhiim",
        "main_category": "Mosque",
        "address": "WR82+PP5 iidgaah ttoddaabhiim, Makbara, Rajasthan 321611",
        "detailed_address": {
            "ward": null,
            "street": "WR82+PP5",
            "city": "Makbara",
            "postal_code": null,
            "state": "Rajasthan",
            "country_code": "IN"
        },
        "images": [],
        "link": "https://www.google.com/maps/place/%E0%A4%88%E0%A4%A6%E0%A4%97%E0%A4%BE%E0%A4%B9+%E0%A4%9F%E0%A5%8B%E0%A4%A1%E0%A4%BE%E0%A4%AD%E0%A5%80%E0%A4%AE/data=!4m7!3m6!1s0x397215db4c880f11:0x4e748a885336f8c0!8m2!3d26.9167606!4d76.8018526!16s%2Fg%2F11v156xcq9!19sChIJEQ-ITNsVcjkRwPg2U4iKdE4?authuser=0&hl=en&rclk=1",
        "coordinates": {
            "latitude": 26.9167606,
            "longitude": 76.80185259999999
        }
    }
]