[
    {
        "name": "Darbar Baba Dimpy Shah ji",
        "main_category": "Mosque",
        "address": "R549+4PF Darbar Baba Dimpy Shah ji, New Town, Moga, Punjab 142001",
        "detailed_address": {
            "ward": "New Town",
            "street": "R549+4PF",
            "city": "Moga",
            "postal_code": "142001",
            "state": "Punjab",
            "country_code": "IN"
        },
        "images": [
            {
                "about": "All",
                "link": "https://lh5.googleusercontent.com/p/AF1QipMZgvyO4uJ77mdpduCJ4DgqRThJdfUBrBFs4PD9=w224-h298-k-no"
            },
            {
                "about": "Dome",
                "link": "https://lh5.googleusercontent.com/p/AF1QipOf2_iZ4dg5RYkTKpdjXNMyMIEeZk_tKWmI01ID=w224-h298-k-no"
            },
            {
                "about": "By owner",
                "link": "https://lh5.googleusercontent.com/p/AF1QipPOpjolxwatx3k1pzs7CdhhdGhZImYVYUSWwgQp=w224-h336-k-no"
            },
            {
                "about": "Street View & 360deg",
                "link": "https://streetviewpixels-pa.googleapis.com/v1/thumbnail?panoid=ghp2xfK3KkyZvDGMOqEqlA&cb_client=maps_sv.tactile.gps&w=224&h=298&yaw=142.24991&pitch=0&thumbfov=100"
            }
        ],
        "link": "https://www.google.com/maps/place/Darbar+Baba+Dimpy+Shah+ji/data=!4m7!3m6!1s0x391a09edc9c02463:0x5de8bc7a0044465d!8m2!3d30.804945!4d75.169239!16s%2Fg%2F11s5ynj2q2!19sChIJYyTAye0JGjkRXUZEAHq86F0?authuser=0&hl=en&rclk=1",
        "coordinates": {
            "latitude": 30.804945,
            "longitude": 75.16923899999999
        }
    },
    {
        "name": "Noor e ilaahi masjid And Madarsa",
        "main_category": "Mosque",
        "address": "R5M6+38H Noor e ilaahi masjid And Madarsa, Jira Rd, Suraj Nagar, Moga, Punjab 142001",
        "detailed_address": {
            "ward": "Suraj Nagar",
            "street": "R5M6+38H, Jira Rd",
            "city": "Moga",
            "postal_code": "142001",
            "state": "Punjab",
            "country_code": "IN"
        },
        "images": [
            {
                "about": "All",
                "link": "https://lh5.googleusercontent.com/p/AF1QipN2SAOnjPwEYu6oTg4wWCEjsL8Ndic1PoEIutZU=w224-h298-k-no"
            },
            {
                "about": "Street View & 360deg",
                "link": "https://streetviewpixels-pa.googleapis.com/v1/thumbnail?panoid=Ws5Nb-0i14n-daorjdS4ZQ&cb_client=maps_sv.tactile.gps&w=224&h=298&yaw=208.51881&pitch=0&thumbfov=100"
            }
        ],
        "link": "https://www.google.com/maps/place/Noor+e+ilaahi+masjid+And+Madarsa/data=!4m7!3m6!1s0x391a0898cef12681:0xb99e110bc402f2d4!8m2!3d30.8326998!4d75.160864!16s%2Fg%2F11cpmp1nfk!19sChIJgSbxzpgIGjkR1PICxAsRnrk?authuser=0&hl=en&rclk=1",
        "coordinates": {
            "latitude": 30.8326998,
            "longitude": 75.160864
        }
    },
    {
        "name": "talwandi Masjid",
        "main_category": "Mosque",
        "address": "R6R7+QH8 talwandi Masjid, Unnamed Road, Talwandi Bhangerian, Moga, Punjab 142001",
        "detailed_address": {
            "ward": "Talwandi Bhangerian",
            "street": "R6R7+QH8, Unnamed Road",
            "city": "Moga",
            "postal_code": "142001",
            "state": "Punjab",
            "country_code": "IN"
        },
        "images": [
            {
                "about": "All",
                "link": "https://lh5.googleusercontent.com/p/AF1QipMwSFHMUUZOp-c7ZlWgVRd6qV78iC8aX3x251hw=w224-h298-k-no"
            }
        ],
        "link": "https://www.google.com/maps/place/talwandi+Masjid/data=!4m7!3m6!1s0x391a09d0a270d297:0xeee3667d7f629022!8m2!3d30.841908!4d75.2139564!16s%2Fg%2F11gk8xq5zs!19sChIJl9JwotAJGjkRIpBif31m4-4?authuser=0&hl=en&rclk=1",
        "coordinates": {
            "latitude": 30.841908,
            "longitude": 75.2139564
        }
    },
    {
        "name": "Osmani Gani Masjid",
        "main_category": "Mosque",
        "address": "Osmani Gani Masjid, Ahata Badan Singh, Krishna Nagar, Moga, Punjab 142001",
        "detailed_address": {
            "ward": "Ahata Badan Singh, Krishna Nagar",
            "street": null,
            "city": "Moga",
            "postal_code": "142001",
            "state": "Punjab",
            "country_code": "IN"
        },
        "images": [
            {
                "about": "All",
                "link": "https://lh5.googleusercontent.com/p/AF1QipPYXkUnMHLIhDTBqvNi3_ioE7JFYgRwiMUoBbE0=w224-h298-k-no"
            }
        ],
        "link": "https://www.google.com/maps/place/Osmani+Gani+Masjid/data=!4m7!3m6!1s0x391a09d71e605e01:0x7570919204c8612d!8m2!3d30.8151522!4d75.1766944!16s%2Fg%2F11slhtgb6x!19sChIJAV5gHtcJGjkRLWHIBJKRcHU?authuser=0&hl=en&rclk=1",
        "coordinates": {
            "latitude": 30.8151522,
            "longitude": 75.1766944
        }
    },
    {
        "name": "Dargah Baba Sakhi Sultan Ji",
        "main_category": "Mosque",
        "address": "Dargah Baba Sakhi Sultan Ji, 1177, Street Number 6, Vedant Nagar, Moga, Punjab 142001",
        "detailed_address": {
            "ward": "Vedant Nagar",
            "street": "1177, Street Number 6",
            "city": "Moga",
            "postal_code": "142001",
            "state": "Punjab",
            "country_code": "IN"
        },
        "images": [
            {
                "about": "All",
                "link": "https://lh5.googleusercontent.com/p/AF1QipNws2UJlyi4XLU0sURNI0QzOUftPtiIqFFtqVIA=w529-h298-k-no"
            },
            {
                "about": "Videos",
                "link": "https://lh5.googleusercontent.com/p/AF1QipNws2UJlyi4XLU0sURNI0QzOUftPtiIqFFtqVIA=w529-h298-k-no"
            }
        ],
        "link": "https://www.google.com/maps/place/Dargah+Baba+Sakhi+Sultan+Ji/data=!4m7!3m6!1s0x391a0883d4c7aec7:0xe6aa7dc85ed3fc61!8m2!3d30.8176061!4d75.1575057!16s%2Fg%2F11c6sn125v!19sChIJx67H1IMIGjkRYfzTXsh9quY?authuser=0&hl=en&rclk=1",
        "coordinates": {
            "latitude": 30.8176061,
            "longitude": 75.1575057
        }
    },
    {
        "name": "Jama masjid",
        "main_category": "Mosque",
        "address": "V6J6+QFF Jama masjid, Moga - Jalandhar Rd, Fatehgarh Korotana, Punjab 142001",
        "detailed_address": {
            "ward": null,
            "street": "V6J6+QFF, Moga - Jalandhar Rd",
            "city": "Fatehgarh Korotana",
            "postal_code": "142001",
            "state": "Punjab",
            "country_code": "IN"
        },
        "images": [
            {
                "about": "All",
                "link": "https://lh5.googleusercontent.com/p/AF1QipNJYwy9B7iw5L8d3Ha7Z8njoTAWlAaxcr4wPtJ2=w529-h298-k-no"
            },
            {
                "about": "Street View & 360deg",
                "link": "https://streetviewpixels-pa.googleapis.com/v1/thumbnail?panoid=g3EjKRhXfjmq8UtW395W-Q&cb_client=maps_sv.tactile.gps&w=224&h=298&yaw=293.45135&pitch=0&thumbfov=100"
            }
        ],
        "link": "https://www.google.com/maps/place/Jama+masjid/data=!4m7!3m6!1s0x391a0fa219e3fdc9:0x7b89b4c4f07882a3!8m2!3d30.8819408!4d75.2111594!16s%2Fg%2F11j2r8t2ry!19sChIJyf3jGaIPGjkRo4J48MS0iXs?authuser=0&hl=en&rclk=1",
        "coordinates": {
            "latitude": 30.8819408,
            "longitude": 75.2111594
        }
    },
    {
        "name": "Peer Baba Mosque",
        "main_category": "Place of worship",
        "address": "R559+263 Peer Baba Mosque, New Town, Moga, Punjab 142001",
        "detailed_address": {
            "ward": "New Town",
            "street": "R559+263",
            "city": "Moga",
            "postal_code": "142001",
            "state": "Punjab",
            "country_code": "IN"
        },
        "images": [],
        "link": "https://www.google.com/maps/place/Peer+Baba+Mosque/data=!4m7!3m6!1s0x391a08636229adeb:0x9e5aabe91385c00d!8m2!3d30.807518!4d75.168045!16s%2Fg%2F1pyqjh3z5!19sChIJ660pYmMIGjkRDcCFE-mrWp4?authuser=0&hl=en&rclk=1",
        "coordinates": {
            "latitude": 30.807517999999998,
            "longitude": 75.16804499999999
        }
    },
    {
        "name": "Jama Masjid",
        "main_category": "Mosque",
        "address": "R549+FRV Jama Masjid, Uccha Vehra, Kashmiri, Hakima Wali Gali, New Town, Moga, Punjab 142001",
        "detailed_address": {
            "ward": "New Town",
            "street": "R549+FRV, Uccha Vehra, Kashmiri, Hakima Wali Gali",
            "city": "Moga",
            "postal_code": "142001",
            "state": "Punjab",
            "country_code": "IN"
        },
        "images": [
            {
                "about": "All",
                "link": "https://lh5.googleusercontent.com/p/AF1QipMe7nWBoPuuttty3o5ZrEgVYq6GF8sK_O71PEll=w224-h398-k-no"
            }
        ],
        "link": "https://www.google.com/maps/place/Jama+Masjid/data=!4m7!3m6!1s0x391a09cb63097047:0x5d2fe5d5f1a9c3bb!8m2!3d30.8062367!4d75.1695347!16s%2Fg%2F11pf82h1vw!19sChIJR3AJY8sJGjkRu8Op8dXlL10?authuser=0&hl=en&rclk=1",
        "coordinates": {
            "latitude": 30.8062367,
            "longitude": 75.1695347
        }
    },
    {
        "name": "Muslim Masjid",
        "main_category": "Mosque",
        "address": "Q572+46W Muslim Masjid, Phirni Road, Tare wala, Punjab 142011",
        "detailed_address": {
            "ward": null,
            "street": "Q572+46W, Phirni Road",
            "city": "Tare wala",
            "postal_code": "142011",
            "state": "Punjab",
            "country_code": "IN"
        },
        "images": [
            {
                "about": "All",
                "link": "https://streetviewpixels-pa.googleapis.com/v1/thumbnail?panoid=EeBzdl6FUnTroHhsuvX9Hw&cb_client=maps_sv.tactile.gps&w=224&h=298&yaw=68.912926&pitch=0&thumbfov=100"
            },
            {
                "about": "Street View & 360deg",
                "link": "https://streetviewpixels-pa.googleapis.com/v1/thumbnail?panoid=EeBzdl6FUnTroHhsuvX9Hw&cb_client=maps_sv.tactile.gps&w=224&h=298&yaw=68.912926&pitch=0&thumbfov=100"
            },
            {
                "about": "Videos",
                "link": "https://lh5.googleusercontent.com/p/AF1QipOiqOmc0jaeVaK-r0N3bP6hdZTglqO2NqMZyvUQ=w224-h398-k-no"
            }
        ],
        "link": "https://www.google.com/maps/place/Muslim+Masjid/data=!4m7!3m6!1s0x3910a9dac10126af:0x10b7044894e7daa2!8m2!3d30.7628504!4d75.1505845!16s%2Fg%2F11p06wnq3q!19sChIJryYBwdqpEDkRotrnlEgEtxA?authuser=0&hl=en&rclk=1",
        "coordinates": {
            "latitude": 30.762850399999998,
            "longitude": 75.1505845
        }
    },
    {
        "name": "Peer Baba Mosque",
        "main_category": "Mosque",
        "address": "R4GW+R9P Peer Baba Mosque, Dunneke, Moga, Moga Jitsingh, Punjab 142001",
        "detailed_address": {
            "ward": "Dunneke",
            "street": "R4GW+R9P",
            "city": "Moga, Moga Jitsingh",
            "postal_code": "142001",
            "state": "Punjab",
            "country_code": "IN"
        },
        "images": [
            {
                "about": "All",
                "link": "https://streetviewpixels-pa.googleapis.com/v1/thumbnail?panoid=CaX0nUXCBn4hI0S8dCFGAA&cb_client=maps_sv.tactile.gps&w=224&h=298&yaw=337.69547&pitch=0&thumbfov=100"
            },
            {
                "about": "Street View & 360deg",
                "link": "https://streetviewpixels-pa.googleapis.com/v1/thumbnail?panoid=CaX0nUXCBn4hI0S8dCFGAA&cb_client=maps_sv.tactile.gps&w=224&h=298&yaw=337.69547&pitch=0&thumbfov=100"
            }
        ],
        "link": "https://www.google.com/maps/place/Peer+Baba+Mosque/data=!4m7!3m6!1s0x391a06247faa9c7f:0xc5a590432cd125a4!8m2!3d30.827085!4d75.145963!16s%2Fg%2F1pyqrv7ff!19sChIJf5yqfyQGGjkRpCXRLEOQpcU?authuser=0&hl=en&rclk=1",
        "coordinates": {
            "latitude": 30.827085,
            "longitude": 75.145963
        }
    },
    {
        "name": "Madina Masjid",
        "main_category": "Mosque",
        "address": "R52G+FJJ Madina Masjid, Bohna chowk, Moga",
        "detailed_address": {
            "ward": "Preet Nagar, Sadhan Wali Basti",
            "street": "R52G+FJJ, Bohna chowk",
            "city": "Moga",
            "postal_code": null,
            "state": "Punjab",
            "country_code": "IN"
        },
        "images": [],
        "link": "https://www.google.com/maps/place/Madina+Masjid/data=!4m7!3m6!1s0x391a09223939cf27:0x9f786a7c11211437!8m2!3d30.8012213!4d75.176511!16s%2Fg%2F11smzj4h8p!19sChIJJ885OSIJGjkRNxQhEXxqeJ8?authuser=0&hl=en&rclk=1",
        "coordinates": {
            "latitude": 30.801221299999998,
            "longitude": 75.17651099999999
        }
    },
    {
        "name": "Khooni Maset",
        "main_category": "Mosque",
        "address": "Khooni Maset, Khooni maset, Sadhan Wali Basti, Moga, Punjab 142001",
        "detailed_address": {
            "ward": "Sadhan Wali Basti",
            "street": "Khooni maset",
            "city": "Moga",
            "postal_code": "142001",
            "state": "Punjab",
            "country_code": "IN"
        },
        "images": [
            {
                "about": "All",
                "link": "https://lh5.googleusercontent.com/p/AF1QipNiOrW-XEAbOl9WYI_Dn0sAin_lG2O6hYTfrK2Q=w298-h298-k-no"
            },
            {
                "about": "Videos",
                "link": "https://lh5.googleusercontent.com/p/AF1QipOmujzWl5AMJzWA4665aecvj2rzB2tLDpoeuoDM=w224-h398-k-no"
            }
        ],
        "link": "https://www.google.com/maps/place/Khooni+Maset/data=!4m7!3m6!1s0x391a0948c5b91a2b:0xd5294fadd680c65c!8m2!3d30.8055138!4d75.1719377!16s%2Fg%2F11h88tsx59!19sChIJKxq5xUgJGjkRXMaA1q1PKdU?authuser=0&hl=en&rclk=1",
        "coordinates": {
            "latitude": 30.8055138,
            "longitude": 75.1719377
        }
    },
    {
        "name": "Masjid",
        "main_category": "School",
        "address": "R549+FRV Masjid, New Town, Moga, Punjab 142001",
        "detailed_address": {
            "ward": "New Town",
            "street": "R549+FRV",
            "city": "Moga",
            "postal_code": "142001",
            "state": "Punjab",
            "country_code": "IN"
        },
        "images": [],
        "link": "https://www.google.com/maps/place/Masjid/data=!4m7!3m6!1s0x391a097172fecc03:0x431b1bac2f9e28b1!8m2!3d30.8062442!4d75.1695373!16s%2Fg%2F11j025d6vg!19sChIJA8z-cnEJGjkRsSieL6wbG0M?authuser=0&hl=en&rclk=1",
        "coordinates": {
            "latitude": 30.8062442,
            "longitude": 75.1695373
        }
    }
]