[
    {
        "name": "Badi Masjid, Thana Chowk",
        "main_category": "Mosque",
        "address": "6774+57Q Badi Masjid, Thana Chowk, Bikramganj - Ghusia - Mani Rd, Bikramganj, Bihar 802212",
        "detailed_address": {
            "ward": null,
            "street": "6774+57Q, Bikramganj - Ghusia - Mani Rd",
            "city": "Bikramganj",
            "postal_code": "802212",
            "state": "Bihar",
            "country_code": "IN"
        },
        "images": [
            {
                "about": "All",
                "link": "https://lh5.googleusercontent.com/p/AF1QipPk-o6jfqEOIKKP2xHAMIf5DlB_P0XUARbrIZgJ=w224-h298-k-no"
            },
            {
                "about": "Videos",
                "link": "https://lh5.googleusercontent.com/p/AF1QipNeQJEI-mCJn8LodzXCrgcybTZAXq0bH8KVGAB8=w224-h398-k-no"
            }
        ],
        "link": "https://www.google.com/maps/place/Badi+Masjid,+Thana+Chowk/data=!4m7!3m6!1s0x398d9f68b489f23f:0x7ed44f8989deed74!8m2!3d25.2129738!4d84.2557203!16s%2Fg%2F11g4d2sywb!19sChIJP_KJtGifjTkRdO3eiYlP1H4?authuser=0&hl=en&rclk=1",
        "coordinates": {
            "latitude": 25.2129738,
            "longitude": 84.2557203
        }
    },
    {
        "name": "Jama masjid",
        "main_category": "Mosque",
        "address": "56MX+HJH Jama masjid, Bikramganj - Ghusia - Mani Rd, Ghusiya, Bihar 802212",
        "detailed_address": {
            "ward": null,
            "street": "56MX+HJH, Bikramganj - Ghusia - Mani Rd",
            "city": "Ghusiya",
            "postal_code": "802212",
            "state": "Bihar",
            "country_code": "IN"
        },
        "images": [
            {
                "about": "All",
                "link": "https://lh5.googleusercontent.com/p/AF1QipOJ0CNErIn-Ag-bkEZTTcek6azbB2W-e6HtQ-JB=w529-h298-k-no"
            },
            {
                "about": "Street View & 360deg",
                "link": "https://streetviewpixels-pa.googleapis.com/v1/thumbnail?panoid=NT4d8re0LwnMhjj_8k64Og&cb_client=maps_sv.tactile.gps&w=224&h=298&yaw=46.126717&pitch=0&thumbfov=100"
            },
            {
                "about": "Videos",
                "link": "https://lh5.googleusercontent.com/p/AF1QipMMBcgHIT5qHts2Y-9c2wCO59o1gyyW1Ny_UKst=w529-h298-k-no"
            }
        ],
        "link": "https://www.google.com/maps/place/Jama+masjid/data=!4m7!3m6!1s0x398d9ff2ac63e7b1:0x3ca4b4d4efae99ff!8m2!3d25.1839373!4d84.2490958!16s%2Fg%2F11g8wh_lq6!19sChIJsedjrPKfjTkR_5mu79S0pDw?authuser=0&hl=en&rclk=1",
        "coordinates": {
            "latitude": 25.1839373,
            "longitude": 84.24909579999999
        }
    },
    {
        "name": "Masjid E Bilal",
        "main_category": "Mosque",
        "address": "6763+WHP Masjid E Bilal, Reriya, Bihar 802212",
        "detailed_address": {
            "ward": null,
            "street": "6763+WHP",
            "city": "Reriya",
            "postal_code": "802212",
            "state": "Bihar",
            "country_code": "IN"
        },
        "images": [
            {
                "about": "All",
                "link": "https://streetviewpixels-pa.googleapis.com/v1/thumbnail?panoid=TzPBAfg3jS8JcQex5F9zfw&cb_client=maps_sv.tactile.gps&w=224&h=298&yaw=6.259807&pitch=0&thumbfov=100"
            },
            {
                "about": "Street View & 360deg",
                "link": "https://streetviewpixels-pa.googleapis.com/v1/thumbnail?panoid=TzPBAfg3jS8JcQex5F9zfw&cb_client=maps_sv.tactile.gps&w=224&h=298&yaw=6.259807&pitch=0&thumbfov=100"
            }
        ],
        "link": "https://www.google.com/maps/place/Masjid+E+Bilal/data=!4m7!3m6!1s0x398d9f72697c60a5:0x4f567d189c97a6ea!8m2!3d25.2123434!4d84.2539576!16s%2Fg%2F11gl2mb8_1!19sChIJpWB8aXKfjTkR6qaXnBh9Vk8?authuser=0&hl=en&rclk=1",
        "coordinates": {
            "latitude": 25.212343399999998,
            "longitude": 84.25395759999999
        }
    },
    {
        "name": "Station Mosque",
        "main_category": "Mosque",
        "address": "67C7+G37 Station Mosque, SH 15, Bikramganj, Bihar 802212",
        "detailed_address": {
            "ward": null,
            "street": "67C7+G37, SH 15",
            "city": "Bikramganj",
            "postal_code": "802212",
            "state": "Bihar",
            "country_code": "IN"
        },
        "images": [
            {
                "about": "All",
                "link": "https://streetviewpixels-pa.googleapis.com/v1/thumbnail?panoid=pmlycrV7lpMcMRzj5ueEqw&cb_client=maps_sv.tactile.gps&w=224&h=298&yaw=324.55148&pitch=0&thumbfov=100"
            },
            {
                "about": "Street View & 360deg",
                "link": "https://streetviewpixels-pa.googleapis.com/v1/thumbnail?panoid=pmlycrV7lpMcMRzj5ueEqw&cb_client=maps_sv.tactile.gps&w=224&h=298&yaw=324.55148&pitch=0&thumbfov=100"
            }
        ],
        "link": "https://www.google.com/maps/place/Station+Mosque/data=!4m7!3m6!1s0x398d9fdf6bc5379b:0xeb3a5e39d855d548!8m2!3d25.221289!4d84.2626744!16s%2Fg%2F11fdwnm_sr!19sChIJmzfFa9-fjTkRSNVV2DleOus?authuser=0&hl=en&rclk=1",
        "coordinates": {
            "latitude": 25.221289,
            "longitude": 84.2626744
        }
    },
    {
        "name": "Choti Masjid , Dargah Sharif",
        "main_category": "Mosque",
        "address": "57P2+82C Choti Masjid , Dargah Sharif, Bimlesh Haweli Rd, Bikramganj, Ghusiya, Bihar 802212",
        "detailed_address": {
            "ward": null,
            "street": "57P2+82C, Bimlesh Haweli Rd",
            "city": "Bikramganj, Ghusiya",
            "postal_code": "802212",
            "state": "Bihar",
            "country_code": "IN"
        },
        "images": [],
        "link": "https://www.google.com/maps/place/Choti+Masjid+,+Dargah+Sharif/data=!4m7!3m6!1s0x398d9f61733598d9:0x9b20204debe42013!8m2!3d25.1858064!4d84.2500036!16s%2Fg%2F11rgthbl_k!19sChIJ2Zg1c2GfjTkREyDk600gIJs?authuser=0&hl=en&rclk=1",
        "coordinates": {
            "latitude": 25.1858064,
            "longitude": 84.2500036
        }
    },
    {
        "name": "M khan",
        "main_category": "Mosque",
        "address": "6764+XG6 M khan, Unnamed Road, Bikramganj, Bihar 802212",
        "detailed_address": {
            "ward": null,
            "street": "6764+XG6, Unnamed Road",
            "city": "Bikramganj",
            "postal_code": "802212",
            "state": "Bihar",
            "country_code": "IN"
        },
        "images": [],
        "link": "https://www.google.com/maps/place/M+khan/data=!4m7!3m6!1s0x398d9f912bbe90b5:0x63f46f8c4bd37126!8m2!3d25.2124148!4d84.2562633!16s%2Fg%2F11rssgwm51!19sChIJtZC-K5GfjTkRJnHTS4xv9GM?authuser=0&hl=en&rclk=1",
        "coordinates": {
            "latitude": 25.212414799999998,
            "longitude": 84.2562633
        }
    },
    {
        "name": "Ali Nagar",
        "main_category": "Mosque",
        "address": "67C7+GHX Ali Nagar, Bikramganj, Bihar 802212",
        "detailed_address": {
            "ward": null,
            "street": "67C7+GHX",
            "city": "Bikramganj",
            "postal_code": null,
            "state": "Bihar",
            "country_code": "IN"
        },
        "images": [],
        "link": "https://www.google.com/maps/place/Ali+Nagar/data=!4m7!3m6!1s0x398d9f85e3fedab5:0x45e3df6f62f506a0!8m2!3d25.2213587!4d84.2639853!16s%2Fg%2F11tcxhl5f_!19sChIJtdr-44WfjTkRoAb1Ym_f40U?authuser=0&hl=en&rclk=1",
        "coordinates": {
            "latitude": 25.2213587,
            "longitude": 84.2639853
        }
    }
]