[
    {
        "name": "Jama Masjid",
        "main_category": "Mosque",
        "address": "Q8XR+695 Jama Masjid, Deshnok, Rajasthan 334801",
        "detailed_address": {
            "ward": null,
            "street": "Q8XR+695",
            "city": "Deshnok",
            "postal_code": "334801",
            "state": "Rajasthan",
            "country_code": "IN"
        },
        "images": [
            {
                "about": "All",
                "link": "https://lh5.googleusercontent.com/p/AF1QipOyizbilQxNlxUqRxiFFsY_gbmHJ2d8oCo3mfVL=w397-h298-k-no"
            },
            {
                "about": "Videos",
                "link": "https://lh5.googleusercontent.com/p/AF1QipNDdQYnUkCUn6XH2O1J2XZf5KnGa4jzFAco083T=w529-h298-k-no"
            }
        ],
        "link": "https://www.google.com/maps/place/Jama+Masjid/data=!4m7!3m6!1s0x393ffb0e0eb01a49:0x44eac96b8349745f!8m2!3d27.7980149!4d73.3409842!16s%2Fg%2F11c380vtdm!19sChIJSRqwDg77PzkRX3RJg2vJ6kQ?authuser=0&hl=en&rclk=1",
        "coordinates": {
            "latitude": 27.7980149,
            "longitude": 73.3409842
        }
    },
    {
        "name": "Madarsa Sultanul Hind Garib Nawaj",
        "main_category": "Mosque",
        "address": "Q8WR+9W4 Madarsa Sultanul Hind Garib Nawaj, Deshnok, Rajasthan 334801",
        "detailed_address": {
            "ward": null,
            "street": "Q8WR+9W4",
            "city": "Deshnok",
            "postal_code": "334801",
            "state": "Rajasthan",
            "country_code": "IN"
        },
        "images": [
            {
                "about": "All",
                "link": "https://lh5.googleusercontent.com/p/AF1QipO9iUqyCrg9en4XoAiKY2Rxp22wJDUmTkJgxJbQ=w224-h398-k-no"
            },
            {
                "about": "Videos",
                "link": "https://lh5.googleusercontent.com/p/AF1QipO9iUqyCrg9en4XoAiKY2Rxp22wJDUmTkJgxJbQ=w224-h398-k-no"
            }
        ],
        "link": "https://www.google.com/maps/place/Madarsa+Sultanul+Hind+Garib+Nawaj/data=!4m7!3m6!1s0x393ffb0c310edadb:0x78fd90fb62a18ccf!8m2!3d27.7958819!4d73.3423424!16s%2Fg%2F11dftfngy4!19sChIJ29oOMQz7PzkRz4yhYvuQ_Xg?authuser=0&hl=en&rclk=1",
        "coordinates": {
            "latitude": 27.795881899999998,
            "longitude": 73.34234239999999
        }
    },
    {
        "name": "Poorani teliyan masjid",
        "main_category": "Mosque",
        "address": "Q8XR+9GV Poorani teliyan masjid, Deshnok, Rajasthan 334801",
        "detailed_address": {
            "ward": null,
            "street": "Q8XR+9GV",
            "city": "Deshnok",
            "postal_code": "334801",
            "state": "Rajasthan",
            "country_code": "IN"
        },
        "images": [],
        "link": "https://www.google.com/maps/place/Poorani+teliyan+masjid/data=!4m7!3m6!1s0x393ffb7bc6a78439:0x53949a8994960172!8m2!3d27.798485!4d73.3412866!16s%2Fg%2F11h3pvy3h3!19sChIJOYSnxnv7PzkRcgGWlImalFM?authuser=0&hl=en&rclk=1",
        "coordinates": {
            "latitude": 27.798485,
            "longitude": 73.3412866
        }
    },
    {
        "name": "JAMA MASJID GAREEB NAWAZ",
        "main_category": "Mosque",
        "address": "JAMA MASJID GAREEB NAWAZ, Khan Market, Deshnok, Rajasthan 334801",
        "detailed_address": {
            "ward": null,
            "street": "Khan Market",
            "city": "Deshnok",
            "postal_code": null,
            "state": "Rajasthan",
            "country_code": "IN"
        },
        "images": [
            {
                "about": "All",
                "link": "https://lh5.googleusercontent.com/p/AF1QipOfB_qJ9nXbiaZP3dZBPqPfYmRPWzuaFExCoZy5=w397-h298-k-no"
            },
            {
                "about": "Videos",
                "link": "https://lh5.googleusercontent.com/p/AF1QipPITAVKWCsb7jOgT-VHzkRKS-ERwPMm39-FC-pV=w224-h407-k-no"
            }
        ],
        "link": "https://www.google.com/maps/place/JAMA+MASJID+GAREEB+NAWAZ/data=!4m7!3m6!1s0x393ffb4e571f0c35:0x112ad070631ae77!8m2!3d27.7956413!4d73.3424923!16s%2Fg%2F11h05byy2p!19sChIJNQwfV077PzkRd64xBgetEgE?authuser=0&hl=en&rclk=1",
        "coordinates": {
            "latitude": 27.7956413,
            "longitude": 73.3424923
        }
    }
]