[
    {
        "name": "Jama Masjid, Ishipur",
        "main_category": "Mosque",
        "address": "698C+5C Jama Masjid, Ishipur, Ishipur, Barahat Ishipur, Bihar 813206",
        "detailed_address": {
            "ward": null,
            "street": "698C+5C, Ishipur",
            "city": "Barahat Ishipur",
            "postal_code": "813206",
            "state": "Bihar",
            "country_code": "IN"
        },
        "images": [
            {
                "about": "All",
                "link": "https://lh5.googleusercontent.com/p/AF1QipP9TzHbx4Us5QTaUksuVDrO6LeUDPpxet3wtFYT=w529-h298-k-no"
            },
            {
                "about": "By owner",
                "link": "https://lh5.googleusercontent.com/p/AF1QipPZykWrBKsJ03bzuXa1db-kq5Qba2USNjDgy0QV=w298-h298-k-no"
            },
            {
                "about": "Videos",
                "link": "https://lh5.googleusercontent.com/p/AF1QipPz8ALV7f9Faksug-I0iVwRNROD6KjZWhQfqPdJ=w224-h389-k-no"
            }
        ],
        "link": "https://www.google.com/maps/place/Jama+Masjid,+Ishipur/data=!4m7!3m6!1s0x39f06d7817e7312d:0x7a34b3462bd4756b!8m2!3d25.2146571!4d87.3717116!16s%2Fg%2F11fxf0fhmz!19sChIJLTHnF3ht8DkRa3XUK0azNHo?authuser=0&hl=en&rclk=1",
        "coordinates": {
            "latitude": 25.2146464,
            "longitude": 87.3717109
        }
    },
    {
        "name": "Jama Masjid",
        "main_category": "Mosque",
        "address": "767H+47V Jama Masjid, Kahalgaon, Bihar 813203",
        "detailed_address": {
            "ward": null,
            "street": "767H+47V",
            "city": "Kahalgaon",
            "postal_code": "813203",
            "state": "Bihar",
            "country_code": "IN"
        },
        "images": [
            {
                "about": "All",
                "link": "https://lh5.googleusercontent.com/p/AF1QipM5UnckSnfdwr_tPyApZ9TdPz0LRchwCTnoH7yB=w529-h298-k-no"
            },
            {
                "about": "Street View & 360deg",
                "link": "https://streetviewpixels-pa.googleapis.com/v1/thumbnail?panoid=2eWIbudJuli2AnMCiibJ7Q&cb_client=maps_sv.tactile.gps&w=224&h=298&yaw=265.41898&pitch=0&thumbfov=100"
            }
        ],
        "link": "https://www.google.com/maps/place/Jama+Masjid/data=!4m7!3m6!1s0x39f01553fabf84e3:0x63d306df58f4851e!8m2!3d25.2628707!4d87.2281714!16s%2Fg%2F11c67s0wcl!19sChIJ44S_-lMV8DkRHoX0WN8G02M?authuser=0&hl=en&rclk=1",
        "coordinates": {
            "latitude": 25.2628707,
            "longitude": 87.2281714
        }
    },
    {
        "name": "Jama Masjid Bhader",
        "main_category": "Religious destination",
        "address": "7768+J2C Jama Masjid Bhader, Kahalgaon, Bihar 813204",
        "detailed_address": {
            "ward": null,
            "street": "7768+J2C",
            "city": "Kahalgaon",
            "postal_code": null,
            "state": "Bihar",
            "country_code": "IN"
        },
        "images": [
            {
                "about": "All",
                "link": "https://lh5.googleusercontent.com/p/AF1QipNlPgUcLMGu_rcrQv4SFH4SvJnDixruzxmr-n_v=w298-h298-k-no"
            },
            {
                "about": "Videos",
                "link": "https://lh5.googleusercontent.com/p/AF1QipN-k-uNuPLogFsQG9uoE41ZnzrJHPqsB_hhDLS6=w224-h398-k-no"
            }
        ],
        "link": "https://www.google.com/maps/place/Jama+Masjid+Bhader/data=!4m7!3m6!1s0x39f014d45813202d:0xc5a0429b7d96b22!8m2!3d25.2615688!4d87.2650148!16s%2Fg%2F11gfhdc43h!19sChIJLSATWNQU8DkRImvZtykEWgw?authuser=0&hl=en&rclk=1",
        "coordinates": {
            "latitude": 25.2615688,
            "longitude": 87.2650148
        }
    },
    {
        "name": "Masjid,msjd Bansapti",
        "main_category": "Mosque",
        "address": "782C+CGP Masjid,msjd Bansapti, Salempur Bijai, Bihar 813222",
        "detailed_address": {
            "ward": null,
            "street": "782C+CGP",
            "city": "Salempur Bijai",
            "postal_code": null,
            "state": "Bihar",
            "country_code": "IN"
        },
        "images": [
            {
                "about": "All",
                "link": "https://lh5.googleusercontent.com/p/AF1QipNJ4W3ezN7CIhmOE0irG1fW93J6Qu5y3RAVQqeo=w397-h298-k-no"
            },
            {
                "about": "Street View & 360deg",
                "link": "https://streetviewpixels-pa.googleapis.com/v1/thumbnail?panoid=IUmkFL9lUSkl_0avWDkJUw&cb_client=maps_sv.tactile.gps&w=224&h=298&yaw=208.62521&pitch=0&thumbfov=100"
            },
            {
                "about": "Videos",
                "link": "https://lh5.googleusercontent.com/p/AF1QipNkNSHqJIqt-yd601fEcn_HWz5PbrOBDQhzbp62=w529-h298-k-no"
            }
        ],
        "link": "https://www.google.com/maps/place/Masjid,%D9%85%D8%B3%D8%AC%D8%AF+Bansapti%E2%80%AD/data=!4m7!3m6!1s0x39f06cb62979731b:0x57d7a96f61b10c05!8m2!3d25.2510952!4d87.3213205!16s%2Fg%2F11gd_xv71t!19sChIJG3N5KbZs8DkRBQyxYW-p11c?authuser=0&hl=en&rclk=1",
        "coordinates": {
            "latitude": 25.251095199999998,
            "longitude": 87.3213205
        }
    },
    {
        "name": "Jama Masjid",
        "main_category": "Mosque",
        "address": "66QW+QVW Jama Masjid, Ogri, Bihar 813204",
        "detailed_address": {
            "ward": null,
            "street": "66QW+QVW",
            "city": "Ogri",
            "postal_code": "813204",
            "state": "Bihar",
            "country_code": "IN"
        },
        "images": [
            {
                "about": "All",
                "link": "https://lh5.googleusercontent.com/p/AF1QipNqzdA_ZsRIK8_s91B04lDXQcI5BMZiKcQh9lPh=w224-h497-k-no"
            }
        ],
        "link": "https://www.google.com/maps/place/Jama+Masjid/data=!4m7!3m6!1s0x39f06ac3e3842369:0x8df827e6b5b8061d!8m2!3d25.2394962!4d87.2471959!16s%2Fg%2F11f3v52v9s!19sChIJaSOE48Nq8DkRHQa4teYn-I0?authuser=0&hl=en&rclk=1",
        "coordinates": {
            "latitude": 25.239496199999998,
            "longitude": 87.2471959
        }
    },
    {
        "name": "Shafiqiya Sunni Raza Jama Masjid Gohar",
        "main_category": "Mosque",
        "address": "57J9+WCG Shafiqiya Sunni Raza Jama Masjid Gohar, Pankhoria, Bihar 813204",
        "detailed_address": {
            "ward": null,
            "street": "57J9+WCG",
            "city": "Pankhoria",
            "postal_code": "813204",
            "state": "Bihar",
            "country_code": "IN"
        },
        "images": [
            {
                "about": "All",
                "link": "https://lh5.googleusercontent.com/p/AF1QipPRKnWY0I4EW-uaiv_bDW5pVYAASo34Uf_sFw0o=w224-h397-k-no"
            },
            {
                "about": "Dome",
                "link": "https://lh5.googleusercontent.com/p/AF1QipNzK2UuXx4FH0EMtx_ox8Qp7xF1y7huNiNJszfV=w372-h298-k-no"
            },
            {
                "about": "Street View & 360deg",
                "link": "https://streetviewpixels-pa.googleapis.com/v1/thumbnail?panoid=YPKi3OqbOCRzLFpr1qvbUA&cb_client=maps_sv.tactile.gps&w=224&h=298&yaw=21.716265&pitch=0&thumbfov=100"
            }
        ],
        "link": "https://www.google.com/maps/place/Shafiqiya+Sunni+Raza+Jama+Masjid+Gohar/data=!4m7!3m6!1s0x39f06b0c19f09c31:0xfae40c252f5f6c7e!8m2!3d25.1823106!4d87.2685828!16s%2Fg%2F11g0vz90cs!19sChIJMZzwGQxr8DkRfmxfLyUM5Po?authuser=0&hl=en&rclk=1",
        "coordinates": {
            "latitude": 25.182310599999997,
            "longitude": 87.26858279999999
        }
    },
    {
        "name": "Jama Masjid,Rajganj",
        "main_category": "Mosque",
        "address": "79G9+G5Q Jama Masjid,Rajganj, Jairam Bandhu, Bihar 813222",
        "detailed_address": {
            "ward": null,
            "street": "79G9+G5Q",
            "city": "Jairam Bandhu",
            "postal_code": "813222",
            "state": "Bihar",
            "country_code": "IN"
        },
        "images": [
            {
                "about": "All",
                "link": "https://lh5.googleusercontent.com/p/AF1QipOJWU010tpj7etOv2_8aDCg87NVt06_ZzFyDoL-=w619-h298-k-no"
            },
            {
                "about": "Dome",
                "link": "https://lh5.googleusercontent.com/p/AF1QipPQdlPqYaWz5F251UNd82bYpqyfycnGIUzn9Jej=w224-h298-k-no"
            },
            {
                "about": "Street View & 360deg",
                "link": "https://streetviewpixels-pa.googleapis.com/v1/thumbnail?panoid=4xXecwiTx43MWKrf4PC-Zg&cb_client=maps_sv.tactile.gps&w=224&h=298&yaw=322.8511&pitch=0&thumbfov=100"
            }
        ],
        "link": "https://www.google.com/maps/place/Jama+Masjid,Rajganj/data=!4m7!3m6!1s0x39f013a1e28a3c33:0x672a33cf8d8a1d2c!8m2!3d25.2763326!4d87.3679978!16s%2Fg%2F11hdqw9j3x!19sChIJMzyK4qET8DkRLB2Kjc8zKmc?authuser=0&hl=en&rclk=1",
        "coordinates": {
            "latitude": 25.2763326,
            "longitude": 87.3679978
        }
    },
    {
        "name": "Jamma, Masjid, Birbanna Bhagalpur",
        "main_category": "Mosque",
        "address": "88Q6+V88 Jamma, Masjid, Birbanna Bhagalpur, Birbanna, Bhramarpur, Sangalbahita, Bihar 813203",
        "detailed_address": {
            "ward": "Birbanna",
            "street": "88Q6+V88",
            "city": "Bhramarpur, Sangalbahita",
            "postal_code": "813203",
            "state": "Bihar",
            "country_code": "IN"
        },
        "images": [
            {
                "about": "All",
                "link": "https://lh5.googleusercontent.com/p/AF1QipMOJ58_fZj-LqHzw1zbckV6KshyIX2Kbu4KuIMY=w224-h477-k-no"
            },
            {
                "about": "Dome",
                "link": "https://lh5.googleusercontent.com/p/AF1QipOtc_PeWWNKA-Wst1GujBO9IHnL_iy2PHukKz3E=w224-h477-k-no"
            }
        ],
        "link": "https://www.google.com/maps/place/Jamma,+Masjid,+Birbanna+Bhagalpur/data=!4m7!3m6!1s0x39f013f033cb6fff:0x1b4114b17b523095!8m2!3d25.3396593!4d87.3108241!16s%2Fg%2F11f0kwtwxx!19sChIJ_2_LM_AT8DkRlTBSe7EUQRs?authuser=0&hl=en&rclk=1",
        "coordinates": {
            "latitude": 25.339659299999997,
            "longitude": 87.31082409999999
        }
    },
    {
        "name": "Babupur Govindpur Masjid",
        "main_category": "Mosque",
        "address": "69FH+7WW Babupur Govindpur Masjid, at babupur post Ishipur ps Ishipur dist, 813206",
        "detailed_address": {
            "ward": null,
            "street": "69FH+7WW, at babupur post Ishipur ps Ishipur dist",
            "city": null,
            "postal_code": "813206",
            "state": "Bihar",
            "country_code": "IN"
        },
        "images": [
            {
                "about": "All",
                "link": "https://lh5.googleusercontent.com/p/AF1QipMf5JKZBYRihq2-hooll9Xa2h8_93AltEy-sE1Z=w224-h398-k-no"
            }
        ],
        "link": "https://www.google.com/maps/place/Babupur+Govindpur+Masjid/data=!4m7!3m6!1s0x39f06dae3c677c59:0xea278d165318a1d3!8m2!3d25.223247!4d87.379815!16s%2Fg%2F11h77zp3cx!19sChIJWXxnPK5t8DkR06EYUxaNJ-o?authuser=0&hl=en&rclk=1",
        "coordinates": {
            "latitude": 25.223246999999997,
            "longitude": 87.379815
        }
    },
    {
        "name": "GOUSIYA MASJID",
        "main_category": "Mosque",
        "address": "GOUSIYA MASJID, Ogri - Maheshamunda Ext Rd, Kahalgaon, Sharfuddinpur, Bihar 813204",
        "detailed_address": {
            "ward": null,
            "street": "Ogri - Maheshamunda Ext Rd",
            "city": "Kahalgaon, Sharfuddinpur",
            "postal_code": "813204",
            "state": "Bihar",
            "country_code": "IN"
        },
        "images": [
            {
                "about": "All",
                "link": "https://lh5.googleusercontent.com/p/AF1QipN4r7-lz_E1jxU22WFILSYiKJsU29OrDUtrCMhw=w224-h397-k-no"
            }
        ],
        "link": "https://www.google.com/maps/place/GOUSIYA+MASJID/data=!4m7!3m6!1s0x39f06b176c1e6987:0xdecd0878bf0f92fa!8m2!3d25.2371895!4d87.2482441!16s%2Fg%2F11gr2zr63d!19sChIJh2kebBdr8DkR-pIPv3gIzd4?authuser=0&hl=en&rclk=1",
        "coordinates": {
            "latitude": 25.2371895,
            "longitude": 87.2482441
        }
    },
    {
        "name": "Masjid Paithanpura",
        "main_category": "Mosque",
        "address": "769J+2H5 Masjid Paithanpura, Paithanpura Rd, Kahalgaon, Bihar 813203",
        "detailed_address": {
            "ward": null,
            "street": "769J+2H5, Paithanpura Rd",
            "city": "Kahalgaon",
            "postal_code": "813203",
            "state": "Bihar",
            "country_code": "IN"
        },
        "images": [],
        "link": "https://www.google.com/maps/place/Masjid+Paithanpura/data=!4m7!3m6!1s0x39f015502f854bd1:0x6673c1b4cf6cd055!8m2!3d25.2675237!4d87.231499!16s%2Fg%2F11d_31x3y9!19sChIJ0UuFL1AV8DkRVdBsz7TBc2Y?authuser=0&hl=en&rclk=1",
        "coordinates": {
            "latitude": 25.267523699999998,
            "longitude": 87.231499
        }
    },
    {
        "name": "Pathanpura Masjid",
        "main_category": "Mosque",
        "address": "767H+QP9 Pathanpura Masjid, Quazipura Ext Rd, Kahalgaon, Bihar 813203",
        "detailed_address": {
            "ward": null,
            "street": "767H+QP9, Quazipura Ext Rd",
            "city": "Kahalgaon",
            "postal_code": "813203",
            "state": "Bihar",
            "country_code": "IN"
        },
        "images": [
            {
                "about": "All",
                "link": "https://lh5.googleusercontent.com/p/AF1QipPzGNdLNnYZo3TUk1Sk1Ra0LdY7l17JXKKoUPVk=w529-h298-k-no"
            },
            {
                "about": "Street View & 360deg",
                "link": "https://streetviewpixels-pa.googleapis.com/v1/thumbnail?panoid=-mepjfJP-CJoRYBxivv0fg&cb_client=maps_sv.tactile.gps&w=224&h=298&yaw=279.75354&pitch=0&thumbfov=100"
            },
            {
                "about": "Videos",
                "link": "https://lh5.googleusercontent.com/p/AF1QipNRB7i6s6DaJGrG00NGf7ijhRi7xpqjE_jBnIro=w224-h407-k-no"
            }
        ],
        "link": "https://www.google.com/maps/place/Pathanpura+Masjid/data=!4m7!3m6!1s0x39f0154e7710ec17:0x90d06cf93b21b8c1!8m2!3d25.2644117!4d87.2293592!16s%2Fg%2F11h3cnkj88!19sChIJF-wQd04V8DkRwbghO_ls0JA?authuser=0&hl=en&rclk=1",
        "coordinates": {
            "latitude": 25.2644117,
            "longitude": 87.22935919999999
        }
    },
    {
        "name": "Noori Masjid",
        "main_category": "Mosque",
        "address": "56M9+QXM Noori Masjid, Rampur Kharahara, Bihar 813204",
        "detailed_address": {
            "ward": null,
            "street": "56M9+QXM",
            "city": "Rampur Kharahara",
            "postal_code": "813204",
            "state": "Bihar",
            "country_code": "IN"
        },
        "images": [
            {
                "about": "All",
                "link": "https://lh5.googleusercontent.com/p/AF1QipOsHOLFoeaG0bLCuKkJLhfIWV9LR1hhq9XFz3zW=w224-h398-k-no"
            },
            {
                "about": "Dome",
                "link": "https://lh5.googleusercontent.com/p/AF1QipNKZst14Q0JdHqRsOxawOJhSMq21uNC9B28wdw5=w529-h298-k-no"
            },
            {
                "about": "Videos",
                "link": "https://lh5.googleusercontent.com/p/AF1QipMRu0J4tEjsRQWTGt0g6kc6DXzI3qmzkNa0sbCG=w224-h398-k-no"
            },
            {
                "about": "Street View & 360deg",
                "link": "https://streetviewpixels-pa.googleapis.com/v1/thumbnail?panoid=akiOuBMNEV-OF3QYlfMAtg&cb_client=maps_sv.tactile.gps&w=224&h=298&yaw=58.647675&pitch=0&thumbfov=100"
            }
        ],
        "link": "https://www.google.com/maps/place/Noori+Masjid/data=!4m7!3m6!1s0x39f04172f1827371:0xf17471c959f12ded!8m2!3d25.1844515!4d87.2199209!16s%2Fg%2F11l8gkxt5l!19sChIJcXOC8XJB8DkR7S3xWclxdPE?authuser=0&hl=en&rclk=1",
        "coordinates": {
            "latitude": 25.184451499999998,
            "longitude": 87.21992089999999
        }
    },
    {
        "name": "Jama Masjid Govindpur",
        "main_category": "Mosque",
        "address": "79FF+4XV Jama Masjid Govindpur, Govindpur, Pirpainti, Gobindpur, Bihar 813209",
        "detailed_address": {
            "ward": "Govindpur",
            "street": "79FF+4XV",
            "city": "Pirpainti, Gobindpur",
            "postal_code": "813209",
            "state": "Bihar",
            "country_code": "IN"
        },
        "images": [
            {
                "about": "All",
                "link": "https://lh5.googleusercontent.com/p/AF1QipMpV7Fy0-EjIOeU5V_nObWT792bjRuV4VzqxUaE=w529-h298-k-no"
            },
            {
                "about": "Street View & 360deg",
                "link": "https://streetviewpixels-pa.googleapis.com/v1/thumbnail?panoid=AL1hcfB2dSbu9OkXlIPzRQ&cb_client=maps_sv.tactile.gps&w=224&h=298&yaw=357.36594&pitch=0&thumbfov=100"
            },
            {
                "about": "Videos",
                "link": "https://lh5.googleusercontent.com/p/AF1QipM2ionL6XS3PT4nBUnv4GKehL21xJxOFp5GPBpw=w224-h398-k-no"
            }
        ],
        "link": "https://www.google.com/maps/place/Jama+Masjid+Govindpur/data=!4m7!3m6!1s0x39f0135919f948a3:0xd1c07d1462514910!8m2!3d25.2728724!4d87.3749225!16s%2Fg%2F11mnh4yb28!19sChIJo0j5GVkT8DkREElRYhR9wNE?authuser=0&hl=en&rclk=1",
        "coordinates": {
            "latitude": 25.272872399999997,
            "longitude": 87.3749225
        }
    },
    {
        "name": "Madina jame masjid",
        "main_category": "Mosque",
        "address": "85QJ+W9C Madina jame masjid, Saidpur Dabra, Bihar 853205",
        "detailed_address": {
            "ward": null,
            "street": "85QJ+W9C",
            "city": "Saidpur Dabra",
            "postal_code": "853205",
            "state": "Bihar",
            "country_code": "IN"
        },
        "images": [
            {
                "about": "All",
                "link": "https://lh5.googleusercontent.com/p/AF1QipNAyXDfTI0bRSx3GUlLvLqF4pPO5UptCqKk8crq=w224-h298-k-no"
            }
        ],
        "link": "https://www.google.com/maps/place/Madina+jame+masjid/data=!4m7!3m6!1s0x39f03f2ac514738d:0xb070e791c8cad9b9!8m2!3d25.3398108!4d87.1809115!16s%2Fg%2F11s1sr1t5r!19sChIJjXMUxSo_8DkRudnKyJHncLA?authuser=0&hl=en&rclk=1",
        "coordinates": {
            "latitude": 25.3398108,
            "longitude": 87.1809115
        }
    },
    {
        "name": "Kazipura Masjid",
        "main_category": "Mosque",
        "address": "76CP+CHJ Kazipura Masjid, Quazipura Rd, Kahalgaon, Bihar 813203",
        "detailed_address": {
            "ward": null,
            "street": "76CP+CHJ, Quazipura Rd",
            "city": "Kahalgaon",
            "postal_code": "813203",
            "state": "Bihar",
            "country_code": "IN"
        },
        "images": [
            {
                "about": "All",
                "link": "https://lh5.googleusercontent.com/p/AF1QipMoZgbod7KVCcs99Au7V9jtxBfds-3rZ0GBQBrf=w662-h298-k-no"
            },
            {
                "about": "Street View & 360deg",
                "link": "https://streetviewpixels-pa.googleapis.com/v1/thumbnail?panoid=c0HgwH2svVfxU29s-9WB-g&cb_client=maps_sv.tactile.gps&w=224&h=298&yaw=200.31227&pitch=0&thumbfov=100"
            }
        ],
        "link": "https://www.google.com/maps/place/Kazipura+Masjid/data=!4m7!3m6!1s0x39f0158b7bcce205:0x5810895e5132c893!8m2!3d25.2686133!4d87.2344957!16s%2Fg%2F11n15qhxlx!19sChIJBeLMe4sV8DkRk8gyUV6JEFg?authuser=0&hl=en&rclk=1",
        "coordinates": {
            "latitude": 25.2686133,
            "longitude": 87.2344957
        }
    },
    {
        "name": "Masjid",
        "main_category": "Place of worship",
        "address": "57FM+6M4 Masjid, Kurma, Bihar 813204",
        "detailed_address": {
            "ward": null,
            "street": "57FM+6M4",
            "city": "Kurma",
            "postal_code": "813204",
            "state": "Bihar",
            "country_code": "IN"
        },
        "images": [
            {
                "about": "All",
                "link": "https://lh5.googleusercontent.com/p/AF1QipOW3PuwH2AeS8mINcKHCMjNQe0GZZZbmdugOmdt=w224-h298-k-no"
            }
        ],
        "link": "https://www.google.com/maps/place/Masjid/data=!4m7!3m6!1s0x39f06be700000001:0x3d6c83f74880bc87!8m2!3d25.1730134!4d87.2842134!16s%2Fg%2F11f3wlr3lh!19sChIJAQAAAOdr8DkRh7yASPeDbD0?authuser=0&hl=en&rclk=1",
        "coordinates": {
            "latitude": 25.1730134,
            "longitude": 87.2842134
        }
    },
    {
        "name": "msjid",
        "main_category": "Mosque",
        "address": "78R3+32P msjid, Ram Pur, Bihar 813101",
        "detailed_address": {
            "ward": null,
            "street": "78R3+32P",
            "city": "Ram Pur",
            "postal_code": "813101",
            "state": "Bihar",
            "country_code": "IN"
        },
        "images": [
            {
                "about": "All",
                "link": "https://streetviewpixels-pa.googleapis.com/v1/thumbnail?panoid=8O4TEt9WQpyHFbaMAGEAlA&cb_client=maps_sv.tactile.gps&w=224&h=298&yaw=318.9322&pitch=0&thumbfov=100"
            },
            {
                "about": "Street View & 360deg",
                "link": "https://streetviewpixels-pa.googleapis.com/v1/thumbnail?panoid=8O4TEt9WQpyHFbaMAGEAlA&cb_client=maps_sv.tactile.gps&w=224&h=298&yaw=318.9322&pitch=0&thumbfov=100"
            }
        ],
        "link": "https://www.google.com/maps/place/%E0%A4%AE%E0%A4%B8%E0%A5%8D%E0%A4%9C%E0%A4%BF%E0%A4%A6/data=!4m7!3m6!1s0x39f013a7a1cca8a3:0x2a83973e23ae8a78!8m2!3d25.2902136!4d87.3025681!16s%2Fg%2F11n91dnn53!19sChIJo6jMoacT8DkReIquIz6Xgyo?authuser=0&hl=en&rclk=1",
        "coordinates": {
            "latitude": 25.290213599999998,
            "longitude": 87.3025681
        }
    },
    {
        "name": "Jama Masjid Jahanpur",
        "main_category": "Mosque",
        "address": "66C7+MVR Jama Masjid Jahanpur, Jahanpur, Ekchari, Bihar 813204",
        "detailed_address": {
            "ward": null,
            "street": "66C7+MVR, Jahanpur",
            "city": "Ekchari, Jahanpur",
            "postal_code": "813204",
            "state": "Bihar",
            "country_code": "IN"
        },
        "images": [
            {
                "about": "All",
                "link": "https://lh5.googleusercontent.com/p/AF1QipO4LAqpIhC8G7CXSWuuI1JQrfFIBZMNcDJPIoyF=w224-h398-k-no"
            },
            {
                "about": "Latest",
                "link": "https://lh5.googleusercontent.com/p/AF1QipMih2jK3us6UiTpYCurlrY5Uk0EL0i1MKg49rY0=w224-h398-k-no"
            },
            {
                "about": "Videos",
                "link": "https://lh5.googleusercontent.com/p/AF1QipO4LAqpIhC8G7CXSWuuI1JQrfFIBZMNcDJPIoyF=w224-h398-k-no"
            }
        ],
        "link": "https://www.google.com/maps/place/Jama+Masjid+Jahanpur/data=!4m7!3m6!1s0x39f041f72537d673:0xfdefab3f3f7e9945!8m2!3d25.2227814!4d87.2145731!16s%2Fg%2F11twffrm68!19sChIJc9Y3JfdB8DkRRZl-Pz-r7_0?authuser=0&hl=en&rclk=1",
        "coordinates": {
            "latitude": 25.2227814,
            "longitude": 87.2145731
        }
    },
    {
        "name": "MASJID-E-EKDARA",
        "main_category": "Mosque",
        "address": "88H9+GMP MASJID-E-EKDARA, Ekdara, Bihar 813222",
        "detailed_address": {
            "ward": null,
            "street": "88H9+GMP",
            "city": "Ekdara",
            "postal_code": "813222",
            "state": "Bihar",
            "country_code": "IN"
        },
        "images": [
            {
                "about": "All",
                "link": "https://lh5.googleusercontent.com/p/AF1QipOywRJMI4ufiua4NC54MdX0M3cDPzxSy1ZPpU8=w224-h497-k-no"
            },
            {
                "about": "Street View & 360deg",
                "link": "https://streetviewpixels-pa.googleapis.com/v1/thumbnail?panoid=LLCglljGB0OyIZdGsMBA_Q&cb_client=maps_sv.tactile.gps&w=224&h=298&yaw=82.35976&pitch=0&thumbfov=100"
            },
            {
                "about": "Videos",
                "link": "https://lh5.googleusercontent.com/p/AF1QipPmOYy1_tT3nYrzumlFV9_HH4cb1kaCXjJ2fMM=w224-h398-k-no"
            }
        ],
        "link": "https://www.google.com/maps/place/MASJID-E-EKDARA/data=!4m7!3m6!1s0x39f01302c7e13647:0x9f1adf237deae848!8m2!3d25.3288371!4d87.3191929!16s%2Fg%2F11rs02hcmz!19sChIJRzbhxwIT8DkRSOjqfSPfGp8?authuser=0&hl=en&rclk=1",
        "coordinates": {
            "latitude": 25.328837099999998,
            "longitude": 87.31919289999999
        }
    },
    {
        "name": "Nuri Masjid Mahimachak",
        "main_category": "Mosque",
        "address": "57CJ+5H2 Nuri Masjid Mahimachak, Kurma, Bihar 813204",
        "detailed_address": {
            "ward": null,
            "street": "57CJ+5H2",
            "city": "Kurma",
            "postal_code": "813204",
            "state": "Bihar",
            "country_code": "IN"
        },
        "images": [],
        "link": "https://www.google.com/maps/place/Nuri+Masjid+Mahimachak/data=!4m7!3m6!1s0x39f06b646871d993:0xcf3afbfe3bad2b5!8m2!3d25.1703939!4d87.2813977!16s%2Fg%2F11np2f9pg2!19sChIJk9lxaGRr8DkRtdK647-v8ww?authuser=0&hl=en&rclk=1",
        "coordinates": {
            "latitude": 25.1703939,
            "longitude": 87.2813977
        }
    },
    {
        "name": "Mosque",
        "main_category": "Mosque",
        "address": "77CP+W43 Mosque, Salempur Saini, Bihar 813204",
        "detailed_address": {
            "ward": null,
            "street": "77CP+W43",
            "city": "Salempur Saini",
            "postal_code": "813204",
            "state": "Bihar",
            "country_code": "IN"
        },
        "images": [],
        "link": "https://www.google.com/maps/place/Mosque/data=!4m7!3m6!1s0x39f01578e5f139e9:0xc8b8bbd496316f1a!8m2!3d25.2722709!4d87.2853016!16s%2Fg%2F11q291szrw!19sChIJ6Tnx5XgV8DkRGm8xltS7uMg?authuser=0&hl=en&rclk=1",
        "coordinates": {
            "latitude": 25.2722709,
            "longitude": 87.2853016
        }
    },
    {
        "name": "Purani Masjid",
        "main_category": "Mosque",
        "address": "769P+X69 Purani Masjid, Kahalgaon, Bihar 813203",
        "detailed_address": {
            "ward": null,
            "street": "769P+X69",
            "city": "Kahalgaon",
            "postal_code": "813203",
            "state": "Bihar",
            "country_code": "IN"
        },
        "images": [
            {
                "about": "All",
                "link": "https://streetviewpixels-pa.googleapis.com/v1/thumbnail?panoid=u6Kld27Pf3_DUaGfNORwjQ&cb_client=maps_sv.tactile.gps&w=224&h=298&yaw=138.9851&pitch=0&thumbfov=100"
            },
            {
                "about": "Street View & 360deg",
                "link": "https://streetviewpixels-pa.googleapis.com/v1/thumbnail?panoid=u6Kld27Pf3_DUaGfNORwjQ&cb_client=maps_sv.tactile.gps&w=224&h=298&yaw=138.9851&pitch=0&thumbfov=100"
            }
        ],
        "link": "https://www.google.com/maps/place/Purani+Masjid/data=!4m7!3m6!1s0x39f015486718497f:0xd630632f8d31509f!8m2!3d25.2699071!4d87.2356035!16s%2Fg%2F11rk34x_m3!19sChIJf0kYZ0gV8DkRn1AxjS9jMNY?authuser=0&hl=en&rclk=1",
        "coordinates": {
            "latitude": 25.269907099999998,
            "longitude": 87.2356035
        }
    },
    {
        "name": "purani masjid kotwali tola",
        "main_category": "Mosque",
        "address": "767P+3MV purani masjid kotwali tola, Purab Tola, Kahalgaon, Bihar 813204",
        "detailed_address": {
            "ward": "Purab Tola",
            "street": "767P+3MV",
            "city": "Kahalgaon",
            "postal_code": "813204",
            "state": "Bihar",
            "country_code": "IN"
        },
        "images": [],
        "link": "https://www.google.com/maps/place/purani+masjid+kotwali+tola/data=!4m7!3m6!1s0x39f0155c5e52e629:0xd13f11f193036f2d!8m2!3d25.2627368!4d87.2366635!16s%2Fg%2F11qpjfrfdx!19sChIJKeZSXlwV8DkRLW8Dk_ERP9E?authuser=0&hl=en&rclk=1",
        "coordinates": {
            "latitude": 25.2627368,
            "longitude": 87.23666349999999
        }
    },
    {
        "name": "Masjid, Pakartalla",
        "main_category": "Mosque",
        "address": "66VC+FH5 Masjid, Pakartalla, Pakartalla, Kahalgaon, 813203",
        "detailed_address": {
            "ward": null,
            "street": "66VC+FH5, Pakartalla",
            "city": "Kahalgaon, Budhuchak",
            "postal_code": "813203",
            "state": "Bihar",
            "country_code": "IN"
        },
        "images": [
            {
                "about": "All",
                "link": "https://lh5.googleusercontent.com/p/AF1QipMauGnE7XKf97Y7fxXi1zuvCcC6dpTjJXZnDAvJ=w612-h298-k-no"
            },
            {
                "about": "Dome",
                "link": "https://lh5.googleusercontent.com/p/AF1QipOmIOnSHPUk9ycc89sZ-2XpJCMC-TPcYAXdECXz=w401-h298-k-no"
            }
        ],
        "link": "https://www.google.com/maps/place/Masjid,+Pakartalla/data=!4m7!3m6!1s0x39f041e30065a6c1:0xaf5ec550019075fa!8m2!3d25.2436389!4d87.2214957!16s%2Fg%2F11j65qtq_0!19sChIJwaZlAONB8DkR-nWQAVDFXq8?authuser=0&hl=en&rclk=1",
        "coordinates": {
            "latitude": 25.2436389,
            "longitude": 87.22149569999999
        }
    },
    {
        "name": "sahil masjid",
        "main_category": "Mosque",
        "address": "7738+J6W sahil masjid, Bhader, Kahalgaon, Bihar 813204",
        "detailed_address": {
            "ward": null,
            "street": "7738+J6W",
            "city": "Bhader, Kahalgaon",
            "postal_code": "813204",
            "state": "Bihar",
            "country_code": "IN"
        },
        "images": [
            {
                "about": "All",
                "link": "https://streetviewpixels-pa.googleapis.com/v1/thumbnail?panoid=9ftfcgYis8DeuuQuzhkchg&cb_client=maps_sv.tactile.gps&w=224&h=298&yaw=161.40741&pitch=0&thumbfov=100"
            },
            {
                "about": "Street View & 360deg",
                "link": "https://streetviewpixels-pa.googleapis.com/v1/thumbnail?panoid=9ftfcgYis8DeuuQuzhkchg&cb_client=maps_sv.tactile.gps&w=224&h=298&yaw=161.40741&pitch=0&thumbfov=100"
            }
        ],
        "link": "https://www.google.com/maps/place/sahil+masjid/data=!4m7!3m6!1s0x39f06b1c541efdcd:0xa01097fb3d89578b!8m2!3d25.2541173!4d87.2655636!16s%2Fg%2F11ll27r8z2!19sChIJzf0eVBxr8DkRi1eJPfuXEKA?authuser=0&hl=en&rclk=1",
        "coordinates": {
            "latitude": 25.254117299999997,
            "longitude": 87.2655636
        }
    },
    {
        "name": "Madina Masjid",
        "main_category": "Mosque",
        "address": "Madina Masjid, Mahima chak, Kurma, Bihar 813204",
        "detailed_address": {
            "ward": null,
            "street": "Mahima chak",
            "city": "Kurma",
            "postal_code": "813204",
            "state": "Bihar",
            "country_code": "IN"
        },
        "images": [],
        "link": "https://www.google.com/maps/place/Madina+Masjid/data=!4m7!3m6!1s0x39f06b0b80f5fffb:0xd712599d2a4d68!8m2!3d25.1698595!4d87.2820312!16s%2Fg%2F11q1z9cqn5!19sChIJ-__1gAtr8DkRaE0qnVkS1wA?authuser=0&hl=en&rclk=1",
        "coordinates": {
            "latitude": 25.169859499999998,
            "longitude": 87.28203119999999
        }
    },
    {
        "name": "MARKAZI MASJID KISHANDASPUR EKDARA",
        "main_category": "Mosque",
        "address": "88MF+39Q MARKAZI MASJID KISHANDASPUR EKDARA, Ekdara, Bihar 813203",
        "detailed_address": {
            "ward": null,
            "street": "88MF+39Q",
            "city": "Ekdara",
            "postal_code": null,
            "state": "Bihar",
            "country_code": "IN"
        },
        "images": [
            {
                "about": "All",
                "link": "https://streetviewpixels-pa.googleapis.com/v1/thumbnail?panoid=fwEQXPVG3d253Y3eIWwy1A&cb_client=maps_sv.tactile.gps&w=224&h=298&yaw=302.22284&pitch=0&thumbfov=100"
            },
            {
                "about": "Street View & 360deg",
                "link": "https://streetviewpixels-pa.googleapis.com/v1/thumbnail?panoid=fwEQXPVG3d253Y3eIWwy1A&cb_client=maps_sv.tactile.gps&w=224&h=298&yaw=302.22284&pitch=0&thumbfov=100"
            }
        ],
        "link": "https://www.google.com/maps/place/MARKAZI+MASJID+KISHANDASPUR+EKDARA/data=!4m7!3m6!1s0x39f013a22e260f57:0x246ff1a081011439!8m2!3d25.3327084!4d87.3234784!16s%2Fg%2F11jvd0rwzp!19sChIJVw8mLqIT8DkRORQBgaDxbyQ?authuser=0&hl=en&rclk=1",
        "coordinates": {
            "latitude": 25.332708399999998,
            "longitude": 87.3234784
        }
    },
    {
        "name": "Harwa Tola Masjid",
        "main_category": "Mosque",
        "address": "777F+P3 Harwa Tola Masjid, Permanent Township, Kahalgaon, Bihar 813204",
        "detailed_address": {
            "ward": "Permanent Township",
            "street": "777F+P3",
            "city": "Kahalgaon",
            "postal_code": null,
            "state": "Bihar",
            "country_code": "IN"
        },
        "images": [
            {
                "about": "All",
                "link": "https://lh5.googleusercontent.com/p/AF1QipP38a-TFXPPZ9XG3z9BOZnVZY-fdlwJRDB44CmK=w224-h497-k-no"
            },
            {
                "about": "Dome",
                "link": "https://lh5.googleusercontent.com/p/AF1QipPjOIgzXcUZmiZlTdwMJC05DpAk779ZHRYyuVtL=w224-h497-k-no"
            },
            {
                "about": "Videos",
                "link": "https://lh5.googleusercontent.com/p/AF1QipOGxywB6f-huCtD3EXSw45tFkxSl6dJS6WpJvvc=w529-h298-k-no"
            }
        ],
        "link": "https://www.google.com/maps/place/Harwa+Tola+Masjid/data=!4m7!3m6!1s0x39f015e567012f63:0x5b84dd3e804b8ece!8m2!3d25.2643365!4d87.2726427!16s%2Fg%2F11k3b628l1!19sChIJYy8BZ-UV8DkRzo5LgD7dhFs?authuser=0&hl=en&rclk=1",
        "coordinates": {
            "latitude": 25.2643365,
            "longitude": 87.27264269999999
        }
    },
    {
        "name": "Chanda baray tamir Raza Masjid",
        "main_category": "Religious destination",
        "address": "767P+2MC Chanda baray tamir Raza Masjid, Purab Tola, Kahalgaon, Bihar 841437",
        "detailed_address": {
            "ward": "Purab Tola",
            "street": "767P+2MC",
            "city": "Kahalgaon",
            "postal_code": "841437",
            "state": "Bihar",
            "country_code": "IN"
        },
        "images": [],
        "link": "https://www.google.com/maps/place/Chanda+baray+tamir+Raza+Masjid/data=!4m7!3m6!1s0x39f015f91b101553:0xd8d9fc42709469ca!8m2!3d25.2625657!4d87.2366422!16s%2Fg%2F11s5z4_pjb!19sChIJUxUQG_kV8DkRymmUcEL82dg?authuser=0&hl=en&rclk=1",
        "coordinates": {
            "latitude": 25.2625657,
            "longitude": 87.23664219999999
        }
    },
    {
        "name": "Dr. Khurshid Alam Dhanoura masjid ke pas",
        "main_category": "Mosque",
        "address": "57R6+J4F Dr. Khurshid Alam Dhanoura masjid ke pas, Dhanaura, Bihar 813204",
        "detailed_address": {
            "ward": null,
            "street": "57R6+J4F",
            "city": "Dhanaura",
            "postal_code": "813204",
            "state": "Bihar",
            "country_code": "IN"
        },
        "images": [],
        "link": "https://www.google.com/maps/place/Dr.+Khurshid+Alam+Dhanoura+masjid+ke+pas/data=!4m7!3m6!1s0x39f06b8afc0474bb:0x4c0588fd0caa8b2b!8m2!3d25.1915535!4d87.260291!16s%2Fg%2F11qg424qb0!19sChIJu3QE_Ipr8DkRK4uqDP2IBUw?authuser=0&hl=en&rclk=1",
        "coordinates": {
            "latitude": 25.191553499999998,
            "longitude": 87.260291
        }
    },
    {
        "name": "Meharpur masjid",
        "main_category": "Mosque",
        "address": "7962+VM7 Meharpur masjid, Meharpur, Bihar 813222",
        "detailed_address": {
            "ward": null,
            "street": "7962+VM7",
            "city": "Meharpur",
            "postal_code": "813222",
            "state": "Bihar",
            "country_code": "IN"
        },
        "images": [
            {
                "about": "All",
                "link": "https://streetviewpixels-pa.googleapis.com/v1/thumbnail?panoid=budz2KECJzfvG70TjxxwFg&cb_client=maps_sv.tactile.gps&w=224&h=298&yaw=237.09639&pitch=0&thumbfov=100"
            },
            {
                "about": "Street View & 360deg",
                "link": "https://streetviewpixels-pa.googleapis.com/v1/thumbnail?panoid=budz2KECJzfvG70TjxxwFg&cb_client=maps_sv.tactile.gps&w=224&h=298&yaw=237.09639&pitch=0&thumbfov=100"
            }
        ],
        "link": "https://www.google.com/maps/place/Meharpur+masjid/data=!4m7!3m6!1s0x39f01340c81ef4bd:0x834ccbb9900f98f1!8m2!3d25.2621646!4d87.3516763!16s%2Fg%2F11v10l7rwc!19sChIJvfQeyEAT8DkR8ZgPkLnLTIM?authuser=0&hl=en&rclk=1",
        "coordinates": {
            "latitude": 25.2621646,
            "longitude": 87.3516763
        }
    },
    {
        "name": "Imam wara Govindpur",
        "main_category": "Mosque",
        "address": "Imam wara Govindpur, Jama Masjid Govindpur, Govindpur, Pirpainti, Bihar 813209",
        "detailed_address": {
            "ward": "Govindpur",
            "street": "Jama Masjid Govindpur",
            "city": "Pirpainti, Gobindpur",
            "postal_code": "813209",
            "state": "Bihar",
            "country_code": "IN"
        },
        "images": [
            {
                "about": "All",
                "link": "https://lh5.googleusercontent.com/p/AF1QipMB4VHVHQ1EyAcQQ9ynhnQrPTAtimE6nC0L0Bhw=w224-h298-k-no"
            },
            {
                "about": "By owner",
                "link": "https://lh5.googleusercontent.com/p/AF1QipPrVks7kBD5ez1N3HYWDBt_ea1UnG_V0xrvDXgz=w224-h496-k-no"
            },
            {
                "about": "Videos",
                "link": "https://lh5.googleusercontent.com/p/AF1QipNg1B9gJApiWQAJE9snq2H0P6hg_8-TX_J-LSC8=w529-h298-k-no"
            },
            {
                "about": "Street View & 360deg",
                "link": "https://streetviewpixels-pa.googleapis.com/v1/thumbnail?panoid=D_yEdvINc4A9mAR-_OETtQ&cb_client=maps_sv.tactile.gps&w=224&h=298&yaw=210.35106&pitch=0&thumbfov=100"
            }
        ],
        "link": "https://www.google.com/maps/place/Imam+wara+Govindpur/data=!4m7!3m6!1s0x39f01398ed3d21b3:0xd40aec4baeb80525!8m2!3d25.2726625!4d87.3756524!16s%2Fg%2F11t1ln7g86!19sChIJsyE97ZgT8DkRJQW4rkvsCtQ?authuser=0&hl=en&rclk=1",
        "coordinates": {
            "latitude": 25.2726625,
            "longitude": 87.37565239999999
        }
    }
]