[
    {
        "name": "Bandaa Masjid",
        "main_category": "Mosque",
        "address": "W263+7JH Bandaa Masjid, CB Rd, near Syndicate Bank, Gandhi Katta, Tadipatri, Andhra Pradesh 515411",
        "detailed_address": {
            "ward": "Gandhi Katta",
            "street": "W263+7JH, CB Rd, near Syndicate Bank",
            "city": "Tadipatri",
            "postal_code": "515411",
            "state": "Andhra Pradesh",
            "country_code": "IN"
        },
        "images": [
            {
                "about": "All",
                "link": "https://lh5.googleusercontent.com/p/AF1QipPpEVDc9pdY_fHak3OvNISdvWJZB9PDzPRMGt03=w224-h346-k-no"
            },
            {
                "about": "Dome",
                "link": "https://lh5.googleusercontent.com/p/AF1QipNKFj_i5uG7RDvVWHoMCmdkHyN8E1yjQqwgD6xs=w224-h397-k-no"
            },
            {
                "about": "Videos",
                "link": "https://lh5.googleusercontent.com/p/AF1QipO2qwZxCFIqqQ2fsuTRa6GWLwQ8ztZ9dHIm1Lp1=w224-h397-k-no"
            },
            {
                "about": "Street View & 360deg",
                "link": "https://streetviewpixels-pa.googleapis.com/v1/thumbnail?panoid=C8NzqSJYGtwaFsfry59kTQ&cb_client=maps_sv.tactile.gps&w=224&h=298&yaw=16.310827&pitch=0&thumbfov=100"
            }
        ],
        "link": "https://www.google.com/maps/place/Bandaa+Masjid/data=!4m7!3m6!1s0x3bb41cb11e6b2929:0x67e89f11091e30c4!8m2!3d14.910687!4d78.0040978!16s%2Fg%2F1hf70wmbl!19sChIJKSlrHrEctDsRxDAeCRGf6Gc?authuser=0&hl=en&rclk=1",
        "coordinates": {
            "latitude": 14.910687,
            "longitude": 78.0040978
        }
    },
    {
        "name": "Masjid E Noorani",
        "main_category": "Mosque",
        "address": "Masjid E Noorani, 3/1066-6-2, Tailors Colony, Krishna Puram, Tadipatri, Andhra Pradesh 515411",
        "detailed_address": {
            "ward": "Tailors Colony, Krishna Puram",
            "street": "3/1066-6-2",
            "city": "Tadipatri",
            "postal_code": "515411",
            "state": "Andhra Pradesh",
            "country_code": "IN"
        },
        "images": [
            {
                "about": "All",
                "link": "https://lh5.googleusercontent.com/p/AF1QipN3KQ-rVRJyEXe4WJqoDgweCqdWcPd242trQiN4=w224-h398-k-no"
            },
            {
                "about": "Videos",
                "link": "https://lh5.googleusercontent.com/p/AF1QipMm8VjRiy1mm762P9cREqpbLlJyKra0dxia3tzC=w224-h398-k-no"
            }
        ],
        "link": "https://www.google.com/maps/place/Masjid+E+Noorani/data=!4m7!3m6!1s0x3bb4034d36e8537b:0x96563399c3a3303d!8m2!3d14.9015612!4d78.0055752!16s%2Fg%2F11fy4nk02f!19sChIJe1PoNk0DtDsRPTCjw5kzVpY?authuser=0&hl=en&rclk=1",
        "coordinates": {
            "latitude": 14.9015612,
            "longitude": 78.0055752
        }
    },
    {
        "name": "Jamiya Masjid",
        "main_category": "Mosque",
        "address": "Jamiya Masjid, 13/93, Main Bazar Rd, Gandhi Katta, Tadipatri, Andhra Pradesh 515411",
        "detailed_address": {
            "ward": "Gandhi Katta",
            "street": "13/93, Main Bazar Rd",
            "city": "Tadipatri",
            "postal_code": "515411",
            "state": "Andhra Pradesh",
            "country_code": "IN"
        },
        "images": [
            {
                "about": "All",
                "link": "https://lh5.googleusercontent.com/p/AF1QipNLh39Ibg0rV-JsJdZqxSw6f1-fgZtlF_KIfaHO=w397-h298-k-no"
            },
            {
                "about": "Videos",
                "link": "https://lh5.googleusercontent.com/p/AF1QipOisRZxX4lDdBoE7ehwWjyZYj4oOlSR_ltEMoFt=w224-h399-k-no"
            }
        ],
        "link": "https://www.google.com/maps/place/Jamiya+Masjid/data=!4m7!3m6!1s0x3bb41cb0837a3651:0x1964e85a8a7efc08!8m2!3d14.9137461!4d78.004425!16s%2Fg%2F1hf1rxv7x!19sChIJUTZ6g7ActDsRCPx-ilroZBk?authuser=0&hl=en&rclk=1",
        "coordinates": {
            "latitude": 14.9137461,
            "longitude": 78.004425
        }
    },
    {
        "name": "Darga Masjid. Tadpatri",
        "main_category": "Place of worship",
        "address": "WX5W+MQM Darga Masjid. Tadpatri, CB Rd, behind Canara bank, Sanjeeva Nagar, Tadipatri, Andhra Pradesh 515411",
        "detailed_address": {
            "ward": "Sanjeeva Nagar",
            "street": "WX5W+MQM, CB Rd, behind Canara bank",
            "city": "Tadipatri",
            "postal_code": "515411",
            "state": "Andhra Pradesh",
            "country_code": "IN"
        },
        "images": [
            {
                "about": "All",
                "link": "https://lh5.googleusercontent.com/p/AF1QipOsvu1Pr--0qrr6gQb4NQBM_TfNCJMAEBp8tZmY=w397-h298-k-no"
            },
            {
                "about": "Street View & 360deg",
                "link": "https://streetviewpixels-pa.googleapis.com/v1/thumbnail?panoid=yRKXXQuuAu-rUNp7Ix_qaw&cb_client=maps_sv.tactile.gps&w=224&h=298&yaw=163.75642&pitch=0&thumbfov=100"
            }
        ],
        "link": "https://www.google.com/maps/place/Darga+Masjid.+Tadpatri/data=!4m7!3m6!1s0x3bb41cb626cd3eab:0x689a4c586bad0c7f!8m2!3d14.9092248!4d77.9969343!16s%2Fg%2F11c45tvlgr!19sChIJqz7NJrYctDsRfwyta1hMmmg?authuser=0&hl=en&rclk=1",
        "coordinates": {
            "latitude": 14.909224799999999,
            "longitude": 77.99693429999999
        }
    },
    {
        "name": "Masjid E Abu Bakar Chikkad Masjid",
        "main_category": "Mosque",
        "address": "W265+RFR Masjid E Abu Bakar Chikkad Masjid, Gandhi Katta, Tadipatri, Andhra Pradesh 515411",
        "detailed_address": {
            "ward": "Gandhi Katta",
            "street": "W265+RFR",
            "city": "Tadipatri",
            "postal_code": "515411",
            "state": "Andhra Pradesh",
            "country_code": "IN"
        },
        "images": [],
        "link": "https://www.google.com/maps/place/Masjid+E+Abu+Bakar+Chikkad+Masjid/data=!4m7!3m6!1s0x3bb41dc59f04f171:0xb338e273041eba67!8m2!3d14.9121102!4d78.0086391!16s%2Fg%2F11r_fgcgk4!19sChIJcfEEn8UdtDsRZ7oeBHPiOLM?authuser=0&hl=en&rclk=1",
        "coordinates": {
            "latitude": 14.912110199999999,
            "longitude": 78.0086391
        }
    },
    {
        "name": "Masjid",
        "main_category": "Mosque",
        "address": "W265+RFR Masjid, Gandhi Katta, Tadipatri, Andhra Pradesh 515411",
        "detailed_address": {
            "ward": "Gandhi Katta",
            "street": "W265+RFR",
            "city": "Tadipatri",
            "postal_code": "515411",
            "state": "Andhra Pradesh",
            "country_code": "IN"
        },
        "images": [],
        "link": "https://www.google.com/maps/place/Masjid/data=!4m7!3m6!1s0x3bb41dc93d4d4715:0x76065808a88085bd!8m2!3d14.9121063!4d78.0086847!16s%2Fg%2F11shy17szd!19sChIJFUdNPckdtDsRvYWAqAhYBnY?authuser=0&hl=en&rclk=1",
        "coordinates": {
            "latitude": 14.9121063,
            "longitude": 78.0086847
        }
    },
    {
        "name": "Masjid E Yaseen Peer",
        "main_category": "Mosque",
        "address": "W273+395 Masjid E Yaseen Peer, Gandhi Katta, Tadipatri, Andhra Pradesh 515411",
        "detailed_address": {
            "ward": "Gandhi Katta",
            "street": "W273+395",
            "city": "Tadipatri",
            "postal_code": "515411",
            "state": "Andhra Pradesh",
            "country_code": "IN"
        },
        "images": [
            {
                "about": "All",
                "link": "https://lh5.googleusercontent.com/p/AF1QipN8Hinq8ZbJuSQuUYs_nR4rMW7cPwv2vM5xtor4=w224-h398-k-no"
            },
            {
                "about": "Dome",
                "link": "https://lh5.googleusercontent.com/p/AF1QipN8Hinq8ZbJuSQuUYs_nR4rMW7cPwv2vM5xtor4=w224-h398-k-no"
            },
            {
                "about": "Street View & 360deg",
                "link": "https://streetviewpixels-pa.googleapis.com/v1/thumbnail?panoid=K7VbTPbdiJoEhpyYDzX0dA&cb_client=maps_sv.tactile.gps&w=224&h=298&yaw=159.15617&pitch=0&thumbfov=100"
            }
        ],
        "link": "https://www.google.com/maps/place/Masjid+E+Yaseen+Peer/data=!4m7!3m6!1s0x3bb41d2473ecf3a3:0xf0591e50ac3c55e8!8m2!3d14.9126334!4d78.0034883!16s%2Fg%2F11ry9x32qy!19sChIJo_PscyQdtDsR6FU8rFAeWfA?authuser=0&hl=en&rclk=1",
        "coordinates": {
            "latitude": 14.912633399999999,
            "longitude": 78.0034883
        }
    }
]