[
    {
        "name": "Masjid-E-Khadeeja",
        "main_category": "Mosque",
        "address": "FX3F+JGX Masjid-E-Khadeeja, Khadeeja street, Meclince Rd, Kotamitta, Nellore, Andhra Pradesh 524001",
        "detailed_address": {
            "ward": "Kotamitta",
            "street": "FX3F+JGX, Khadeeja street, Meclince Rd",
            "city": "Nellore",
            "postal_code": "524001",
            "state": "Andhra Pradesh",
            "country_code": "IN"
        },
        "images": [
            {
                "about": "All",
                "link": "https://lh5.googleusercontent.com/p/AF1QipMmJ99evr3Cml2Q3nJqSctRl_gvX0JyhBgXYnJH=w397-h298-k-no"
            },
            {
                "about": "Street View & 360deg",
                "link": "https://streetviewpixels-pa.googleapis.com/v1/thumbnail?panoid=AkXiwqUANwkqo9HIuJSxGA&cb_client=maps_sv.tactile.gps&w=224&h=298&yaw=292.22855&pitch=0&thumbfov=100"
            }
        ],
        "link": "https://www.google.com/maps/place/Masjid-E-Khadeeja/data=!4m7!3m6!1s0x3a4c8cd040d21a6b:0xf832d7c8713a2d89!8m2!3d14.4541037!4d79.9738446!16s%2Fg%2F11xblc06z!19sChIJaxrSQNCMTDoRiS06ccjXMvg?authuser=0&hl=en&rclk=1",
        "coordinates": {
            "latitude": 14.4541037,
            "longitude": 79.97384459999999
        }
    },
    {
        "name": "Jamia mosque",
        "main_category": "Mosque",
        "address": "WV6W+279 Jamia mosque, Naidupeta, L.A.Sagaram, Andhra Pradesh 524126",
        "detailed_address": {
            "ward": null,
            "street": "WV6W+279",
            "city": "Naidupeta, L.A.Sagaram",
            "postal_code": "524126",
            "state": "Andhra Pradesh",
            "country_code": "IN"
        },
        "images": [
            {
                "about": "All",
                "link": "https://lh5.googleusercontent.com/p/AF1QipMCgzaMNGbeufFPu-92vinuzaPTfc_3I7J0ErlS=w397-h298-k-no"
            },
            {
                "about": "Videos",
                "link": "https://lh5.googleusercontent.com/p/AF1QipPRJsJPGudo545JM5ywhsX5l-twIaDjfACQ0Ko=w224-h398-k-no"
            }
        ],
        "link": "https://www.google.com/maps/place/Jamia+mosque/data=!4m7!3m6!1s0x3a4d1a9575896421:0xfccd14c67df9950!8m2!3d13.9100377!4d79.895719!16s%2Fg%2F1hc2sx47h!19sChIJIWSJdZUaTToRUJnfZ0zRzA8?authuser=0&hl=en&rclk=1",
        "coordinates": {
            "latitude": 13.9100377,
            "longitude": 79.895719
        }
    },
    {
        "name": "Masjid E Edha",
        "main_category": "Mosque",
        "address": "F252+VHC Masjid E Edha, 3, Gandla St, Nawabpet, Nellore, Andhra Pradesh 524002",
        "detailed_address": {
            "ward": "Nawabpet",
            "street": "F252+VHC, 3, Gandla St",
            "city": "Nellore",
            "postal_code": "524002",
            "state": "Andhra Pradesh",
            "country_code": "IN"
        },
        "images": [
            {
                "about": "All",
                "link": "https://lh5.googleusercontent.com/p/AF1QipNkNSBvKgwiy4oYyG0E-SQeW748IWNvWUSweJu8=w529-h298-k-no"
            },
            {
                "about": "Street View & 360deg",
                "link": "https://streetviewpixels-pa.googleapis.com/v1/thumbnail?panoid=4-NSj0NlFO1_9wdsiHQBag&cb_client=maps_sv.tactile.gps&w=224&h=298&yaw=10.451385&pitch=0&thumbfov=100"
            }
        ],
        "link": "https://www.google.com/maps/place/Masjid+E+Edha/data=!4m7!3m6!1s0x3a4c8ca5b37927b9:0xbc3f854379b2dc16!8m2!3d14.4597951!4d80.0014263!16s%2Fg%2F1pyqv3vr1!19sChIJuSd5s6WMTDoRFtyyeUOFP7w?authuser=0&hl=en&rclk=1",
        "coordinates": {
            "latitude": 14.4597951,
            "longitude": 80.00142629999999
        }
    },
    {
        "name": "Yousufia Masjid",
        "main_category": "Mosque",
        "address": "FX2G+W9J Yousufia Masjid, Kotamitta Rd, Kotamitta, Nellore, Andhra Pradesh 524003",
        "detailed_address": {
            "ward": "Kotamitta",
            "street": "FX2G+W9J, Kotamitta Rd",
            "city": "Nellore",
            "postal_code": "524003",
            "state": "Andhra Pradesh",
            "country_code": "IN"
        },
        "images": [
            {
                "about": "All",
                "link": "https://lh5.googleusercontent.com/p/AF1QipNQgCByvu1BSv4GwAvDJ-wC9D7V7CMq96BemDe5=w631-h298-k-no"
            },
            {
                "about": "Street View & 360deg",
                "link": "https://streetviewpixels-pa.googleapis.com/v1/thumbnail?panoid=osrnEI9dHYxUBdH7DdD6zA&cb_client=maps_sv.tactile.gps&w=224&h=298&yaw=323.43854&pitch=0&thumbfov=100"
            },
            {
                "about": "Videos",
                "link": "https://lh5.googleusercontent.com/p/AF1QipOsL-HGPTgxAjWRDlJTV7kWvYEXXFfDH_tzI_vw=w224-h467-k-no"
            }
        ],
        "link": "https://www.google.com/maps/place/Yousufia+Masjid/data=!4m7!3m6!1s0x3a4c8cce25569f63:0x2816f6d8a14fb60d!8m2!3d14.4523342!4d79.9758817!16s%2Fg%2F11b6hx16k2!19sChIJY59WJc6MTDoRDbZPodj2Fig?authuser=0&hl=en&rclk=1",
        "coordinates": {
            "latitude": 14.4523342,
            "longitude": 79.9758817
        }
    },
    {
        "name": "Masjid-E-Abdul Azeezia",
        "main_category": "Mosque",
        "address": "F283+XXR Masjid-E-Abdul Azeezia, Zakir Hussain Nagar Road, Kisan Nagar, Masjid Center, Nellore, Andhra Pradesh 524002",
        "detailed_address": {
            "ward": "Zakir Hussain Nagar",
            "street": "F283+XXR, Zakir Hussain Nagar Road, Kisan Nagar, Masjid Center",
            "city": "Nellore",
            "postal_code": "524002",
            "state": "Andhra Pradesh",
            "country_code": "IN"
        },
        "images": [
            {
                "about": "All",
                "link": "https://lh5.googleusercontent.com/p/AF1QipN6uzsZZgChEgXkuRfHhHHgR3fNsD-IbCE09ORG=w397-h298-k-no"
            },
            {
                "about": "Street View & 360deg",
                "link": "https://streetviewpixels-pa.googleapis.com/v1/thumbnail?panoid=sjaQN9fQUleqGN6EwSOdWA&cb_client=maps_sv.tactile.gps&w=224&h=298&yaw=38.660255&pitch=0&thumbfov=100"
            }
        ],
        "link": "https://www.google.com/maps/place/Masjid-E-Abdul+Azeezia/data=!4m7!3m6!1s0x3a4c8ca1c1338ec5:0x59b1c7e6148a367e!8m2!3d14.4674973!4d80.0049031!16s%2Fg%2F11bwflt0vh!19sChIJxY4zwaGMTDoRfjaKFObHsVk?authuser=0&hl=en&rclk=1",
        "coordinates": {
            "latitude": 14.4674973,
            "longitude": 80.00490309999999
        }
    },
    {
        "name": "Masjid E Abu Hanifa",
        "main_category": "Mosque",
        "address": "FX7P+7MR Masjid E Abu Hanifa, Isukadonka Rd, Ranganayakulapet, Subedarpet, Nellore, Andhra Pradesh 524001",
        "detailed_address": {
            "ward": "Ranganayakulapet, Subedarpet",
            "street": "FX7P+7MR, Isukadonka Rd",
            "city": "Nellore",
            "postal_code": "524001",
            "state": "Andhra Pradesh",
            "country_code": "IN"
        },
        "images": [
            {
                "about": "All",
                "link": "https://lh5.googleusercontent.com/p/AF1QipMKYg_f79ZlS8IvKXB0eCnBY2kU4nOVS7nUo05n=w224-h299-k-no"
            }
        ],
        "link": "https://www.google.com/maps/place/Masjid+E+Abu+Hanifa/data=!4m7!3m6!1s0x3a4c8cbf5ecc567b:0x1dd3a713da35ba33!8m2!3d14.463247!4d79.986638!16s%2Fg%2F1pyqq2yk4!19sChIJe1bMXr-MTDoRM7o12hOn0x0?authuser=0&hl=en&rclk=1",
        "coordinates": {
            "latitude": 14.463246999999999,
            "longitude": 79.986638
        }
    },
    {
        "name": "Masjid-e-noorul madina,Nawabpet nuurul mtiinnnaa pllllivaacl,nvaappeettttai",
        "main_category": "Mosque",
        "address": "R6CM+5MG Masjid-e-noorul madina,Nawabpet nuurul mtiinnnaa pllllivaacl,nvaappeettttai, Chinnathota, Andhra Pradesh 524403",
        "detailed_address": {
            "ward": null,
            "street": "R6CM+5MG",
            "city": "Chinnathota",
            "postal_code": "524403",
            "state": "Andhra Pradesh",
            "country_code": "IN"
        },
        "images": [
            {
                "about": "All",
                "link": "https://lh5.googleusercontent.com/p/AF1QipMfcaXOZD9C3J_rhI9PUjV9ZpBKjnn4HGO_q-Y-=w529-h298-k-no"
            },
            {
                "about": "Videos",
                "link": "https://lh5.googleusercontent.com/p/AF1QipMJ27t2z_P3vGCI8zGKcHEeoLqwha0m4H6Yvflc=w298-h298-k-no"
            }
        ],
        "link": "https://www.google.com/maps/place/Masjid-e-noorul+madina,Nawabpet+%E0%AE%A8%E0%AF%82%E0%AE%B0%E0%AF%81%E0%AE%B2%E0%AF%8D+%E0%AE%AE%E0%AE%A4%E0%AF%80%E0%AE%A9%E0%AE%BE+%E0%AE%AA%E0%AE%B3%E0%AF%8D%E0%AE%B3%E0%AE%BF%E0%AE%B5%E0%AE%BE%E0%AE%9A%E0%AE%B2%E0%AF%8D,%E0%AE%A8%E0%AE%B5%E0%AE%BE%E0%AE%AA%E0%AF%8D%E0%AE%AA%E0%AF%87%E0%AE%9F%E0%AF%8D%E0%AE%9F%E0%AF%88/data=!4m7!3m6!1s0x3a4da487088fcd81:0x1354897cf00ba365!8m2!3d13.8204494!4d80.2342054!16s%2Fg%2F11dymr8cbj!19sChIJgc2PCIekTToRZaML8HyJVBM?authuser=0&hl=en&rclk=1",
        "coordinates": {
            "latitude": 13.8204494,
            "longitude": 80.2342054
        }
    },
    {
        "name": "Masjid_e_azmat_e_abdul_khayyum",
        "main_category": "Mosque",
        "address": "9WRQ+FVV Masjid_e_azmat_e_abdul_khayyum, Guntur-Chennai Hwy, Bujabuja Nellore, Buja Buja Nellore Rural, Nellore, Andhra Pradesh 524004",
        "detailed_address": {
            "ward": "Bujabuja Nellore",
            "street": "9WRQ+FVV, Guntur-Chennai Hwy",
            "city": "Buja Buja Nellore Rural, Nellore",
            "postal_code": "524004",
            "state": "Andhra Pradesh",
            "country_code": "IN"
        },
        "images": [
            {
                "about": "All",
                "link": "https://lh5.googleusercontent.com/p/AF1QipMyFefw0FyuGA4cqu8YoaG974qRZMHPsmMBSDsh=w397-h298-k-no"
            },
            {
                "about": "Street View & 360deg",
                "link": "https://streetviewpixels-pa.googleapis.com/v1/thumbnail?panoid=Fm3csA--j-f7bz5CBm_yQQ&cb_client=maps_sv.tactile.gps&w=224&h=298&yaw=317.9698&pitch=0&thumbfov=100"
            }
        ],
        "link": "https://www.google.com/maps/place/Masjid_e_azmat_e_abdul_khayyum/data=!4m7!3m6!1s0x3a4cf260cd6d1417:0x8645b6bc0c50bd03!8m2!3d14.3912397!4d79.9396603!16s%2Fg%2F11b6ztbpsx!19sChIJFxRtzWDyTDoRA71QDLy2RYY?authuser=0&hl=en&rclk=1",
        "coordinates": {
            "latitude": 14.3912397,
            "longitude": 79.9396603
        }
    },
    {
        "name": "Masjid-e-Noor",
        "main_category": "Mosque",
        "address": "WW42+GP8 Masjid-e-Noor, Naidupeta, L.A.Sagaram, Andhra Pradesh 524126",
        "detailed_address": {
            "ward": null,
            "street": "WW42+GP8",
            "city": "Naidupeta, L.A.Sagaram",
            "postal_code": null,
            "state": "Andhra Pradesh",
            "country_code": "IN"
        },
        "images": [
            {
                "about": "All",
                "link": "https://lh5.googleusercontent.com/p/AF1QipN83Jp-esEOWZEWoRfKPw9REEGMUfZt1nNiikuz=w224-h398-k-no"
            },
            {
                "about": "Dome",
                "link": "https://lh5.googleusercontent.com/p/AF1QipN83Jp-esEOWZEWoRfKPw9REEGMUfZt1nNiikuz=w224-h398-k-no"
            }
        ],
        "link": "https://www.google.com/maps/place/Masjid-e-Noor/data=!4m7!3m6!1s0x3a4d1abc0dee8ce1:0x4c828698a5cb2275!8m2!3d13.9062758!4d79.9018348!16s%2Fg%2F11f3n27z46!19sChIJ4YzuDbwaTToRdSLLpZiGgkw?authuser=0&hl=en&rclk=1",
        "coordinates": {
            "latitude": 13.9062758,
            "longitude": 79.9018348
        }
    },
    {
        "name": "Masjid-E- Ahmadia",
        "main_category": "Mosque",
        "address": "PX4X+J9W Masjid-E- Ahmadia, Mannar Polur, Andhra Pradesh 524121",
        "detailed_address": {
            "ward": null,
            "street": "PX4X+J9W",
            "city": "Mannar Polur",
            "postal_code": "524121",
            "state": "Andhra Pradesh",
            "country_code": "IN"
        },
        "images": [
            {
                "about": "All",
                "link": "https://lh5.googleusercontent.com/p/AF1QipNHRk-dgEtdZXDSLiH27g-NTNQAcn7SWtRXRA_i=w529-h298-k-no"
            },
            {
                "about": "Street View & 360deg",
                "link": "https://streetviewpixels-pa.googleapis.com/v1/thumbnail?panoid=hAUaepZ4X2MzA3nekJxf3A&cb_client=maps_sv.tactile.gps&w=224&h=298&yaw=135.68022&pitch=0&thumbfov=100"
            }
        ],
        "link": "https://www.google.com/maps/place/Masjid-E-+Ahmadia/data=!4m7!3m6!1s0x3a4d735212ddf7f1:0xf53e4fc5087ee5d1!8m2!3d13.7066002!4d79.9984406!16s%2Fg%2F11gfd3tsr3!19sChIJ8ffdElJzTToR0eV-CMVPPvU?authuser=0&hl=en&rclk=1",
        "coordinates": {
            "latitude": 13.706600199999999,
            "longitude": 79.9984406
        }
    },
    {
        "name": "Masjid- E- Gouse Azam",
        "main_category": "Mosque",
        "address": "CXP9+27H Masjid- E- Gouse Azam, Ambedkar Nagar, Nellore, Andhra Pradesh 524003",
        "detailed_address": {
            "ward": "Ambedkar Nagar",
            "street": "CXP9+27H",
            "city": "Nellore",
            "postal_code": "524003",
            "state": "Andhra Pradesh",
            "country_code": "IN"
        },
        "images": [
            {
                "about": "All",
                "link": "//lh6.googleusercontent.com/2C5XFLnHbeQvpJjtGfg2WoaVCVI77-YDP1YXPrs9FNHjmt1esy9naX4aCJZZmybp=w529-h298-k-no"
            },
            {
                "about": "Street View & 360deg",
                "link": "https://streetviewpixels-pa.googleapis.com/v1/thumbnail?panoid=V7W0I6bdzTgDM2C019yRtw&cb_client=maps_sv.tactile.gps&w=224&h=298&yaw=354.59772&pitch=0&thumbfov=100"
            }
        ],
        "link": "https://www.google.com/maps/place/Masjid-+E-+Gouse+Azam/data=!4m7!3m6!1s0x3a4cf328e77a7fbf:0x136a0c1a8398e117!8m2!3d14.4350571!4d79.968227!16s%2Fg%2F11bw5svjqq!19sChIJv3965yjzTDoRF-GYgxoMahM?authuser=0&hl=en&rclk=1",
        "coordinates": {
            "latitude": 14.4350571,
            "longitude": 79.968227
        }
    },
    {
        "name": "AL MDEENA MASJID",
        "main_category": "Mosque",
        "address": "WV4Q+JV5 AL MDEENA MASJID, Naidupeta, L.A.Sagaram, Andhra Pradesh 524126",
        "detailed_address": {
            "ward": null,
            "street": "WV4Q+JV5",
            "city": "Naidupeta, L.A.Sagaram",
            "postal_code": null,
            "state": "Andhra Pradesh",
            "country_code": "IN"
        },
        "images": [
            {
                "about": "All",
                "link": "https://lh5.googleusercontent.com/p/AF1QipNUDVbgQ8su9lSnuq_wexOzVleLYG9pQ5NvJO_u=w397-h298-k-no"
            }
        ],
        "link": "https://www.google.com/maps/place/AL+MDEENA+MASJID/data=!4m7!3m6!1s0x3a4d1b3403eff357:0x2da58e2332e83349!8m2!3d13.9065198!4d79.8897359!16s%2Fg%2F11f6xyy9vb!19sChIJV_PvAzQbTToRSTPoMiOOpS0?authuser=0&hl=en&rclk=1",
        "coordinates": {
            "latitude": 13.9065198,
            "longitude": 79.88973589999999
        }
    },
    {
        "name": "Masjid Marya Al Qubtiyya",
        "main_category": "Mosque",
        "address": "C2XX+XX5 Masjid Marya Al Qubtiyya, Gudupalli Padu, Andhra Pradesh 524002",
        "detailed_address": {
            "ward": null,
            "street": "C2XX+XX5",
            "city": "Gudupalli Padu",
            "postal_code": "524002",
            "state": "Andhra Pradesh",
            "country_code": "IN"
        },
        "images": [
            {
                "about": "All",
                "link": "https://lh5.googleusercontent.com/p/AF1QipM7bV3WuLcV_YYIbI-zkkcs3tIO8pIXzK895aSP=w224-h398-k-no"
            }
        ],
        "link": "https://www.google.com/maps/place/Masjid+Marya+Al+Qubtiyya/data=!4m7!3m6!1s0x3a4c8bf7ee99b2f1:0xf57625b88865a2f6!8m2!3d14.4498763!4d80.0499872!16s%2Fg%2F11fsny4182!19sChIJ8bKZ7veLTDoR9qJliLgldvU?authuser=0&hl=en&rclk=1",
        "coordinates": {
            "latitude": 14.4498763,
            "longitude": 80.04998719999999
        }
    },
    {
        "name": "Madeena masque",
        "main_category": "Mosque",
        "address": "WV4Q+JWQ Madeena masque, Naidupeta, L.A.Sagaram, Andhra Pradesh 524126",
        "detailed_address": {
            "ward": null,
            "street": "WV4Q+JWQ",
            "city": "Naidupeta, L.A.Sagaram",
            "postal_code": null,
            "state": "Andhra Pradesh",
            "country_code": "IN"
        },
        "images": [],
        "link": "https://www.google.com/maps/place/Madeena+masque/data=!4m7!3m6!1s0x3a4d1bc3899acc2b:0x55dac323257056c5!8m2!3d13.9065932!4d79.8898632!16s%2Fg%2F11h3bh1030!19sChIJK8yaicMbTToRxVZwJSPD2lU?authuser=0&hl=en&rclk=1",
        "coordinates": {
            "latitude": 13.9065932,
            "longitude": 79.8898632
        }
    },
    {
        "name": "Masjid-e-Amir Sha Vali",
        "main_category": "Mosque",
        "address": "Masjid-e-Amir Sha Vali, 3-5-172, Muslim St, Ramakrishnapuram, Naidupeta, L.A.Sagaram, Andhra Pradesh 524126",
        "detailed_address": {
            "ward": "Ramakrishnapuram",
            "street": "3-5-172, Muslim St",
            "city": "Naidupeta, L.A.Sagaram",
            "postal_code": "524126",
            "state": "Andhra Pradesh",
            "country_code": "IN"
        },
        "images": [],
        "link": "https://www.google.com/maps/place/Masjid-e-Amir+Sha+Vali/data=!4m7!3m6!1s0x3a4d1b1045fac5f1:0x39c91c9161b85235!8m2!3d13.9080318!4d79.8971923!16s%2Fg%2F11rsqn0wk1!19sChIJ8cX6RRAbTToRNVK4YZEcyTk?authuser=0&hl=en&rclk=1",
        "coordinates": {
            "latitude": 13.9080318,
            "longitude": 79.8971923
        }
    },
    {
        "name": "BADAR MASJID NAIDUPET",
        "main_category": "Mosque",
        "address": "WVCX+PHF BADAR MASJID NAIDUPET, Chandra Babu Colony Rd, L.A.Sagaram, Andhra Pradesh 524126",
        "detailed_address": {
            "ward": null,
            "street": "WVCX+PHF, Chandra Babu Colony Rd",
            "city": "L.A.Sagaram",
            "postal_code": "524126",
            "state": "Andhra Pradesh",
            "country_code": "IN"
        },
        "images": [],
        "link": "https://www.google.com/maps/place/BADAR+MASJID+NAIDUPET/data=!4m7!3m6!1s0x3a4d1bd66b5a7df1:0x1c858bef530f7ff9!8m2!3d13.9218201!4d79.8989279!16s%2Fg%2F11skgksn8y!19sChIJ8X1aa9YbTToR-X8PU--LhRw?authuser=0&hl=en&rclk=1",
        "coordinates": {
            "latitude": 13.9218201,
            "longitude": 79.89892789999999
        }
    },
    {
        "name": "BD colony masjid",
        "main_category": "Mosque",
        "address": "VVXJ+FV8 BD colony masjid, Naidupeta, Andhra Pradesh 524126",
        "detailed_address": {
            "ward": null,
            "street": "VVXJ+FV8",
            "city": "Naidupeta",
            "postal_code": "524126",
            "state": "Andhra Pradesh",
            "country_code": "IN"
        },
        "images": [],
        "link": "https://www.google.com/maps/place/BD+colony+masjid/data=!4m7!3m6!1s0x3a4d1b3e5555cc6f:0x540767f0be1eba94!8m2!3d13.8986725!4d79.8822733!16s%2Fg%2F11tp6qt623!19sChIJb8xVVT4bTToRlLoevvBnB1Q?authuser=0&hl=en&rclk=1",
        "coordinates": {
            "latitude": 13.8986725,
            "longitude": 79.8822733
        }
    },
    {
        "name": "AQSA MASJID",
        "main_category": "Mosque",
        "address": "WV5V+J8X AQSA MASJID, Viswam Jr College Rd, BACK SIDE RAJAKULA COLONY, Naidupeta, L.A.Sagaram, Andhra Pradesh 524126",
        "detailed_address": {
            "ward": "BACK SIDE RAJAKULA COLONY",
            "street": "WV5V+J8X, Viswam Jr College Rd",
            "city": "Naidupeta, L.A.Sagaram",
            "postal_code": null,
            "state": "Andhra Pradesh",
            "country_code": "IN"
        },
        "images": [],
        "link": "https://www.google.com/maps/place/AQSA+MASJID/data=!4m7!3m6!1s0x3a4d1b27e2d0d67f:0x31062d50495a58aa!8m2!3d13.9091075!4d79.8933564!16s%2Fg%2F11pvp2r_cd!19sChIJf9bQ4icbTToRqlhaSVAtBjE?authuser=0&hl=en&rclk=1",
        "coordinates": {
            "latitude": 13.9091075,
            "longitude": 79.8933564
        }
    },
    {
        "name": "MASJID ROAD",
        "main_category": "Mosque",
        "address": "MASJID ROAD, C B, COLONY, Naidupeta, L.A.Sagaram, Andhra Pradesh 524126",
        "detailed_address": {
            "ward": null,
            "street": "C B, COLONY",
            "city": "Naidupeta, L.A.Sagaram",
            "postal_code": null,
            "state": "Andhra Pradesh",
            "country_code": "IN"
        },
        "images": [
            {
                "about": "All",
                "link": "https://streetviewpixels-pa.googleapis.com/v1/thumbnail?panoid=YWQuiSFcJVVBB8bZZbEgww&cb_client=maps_sv.tactile.gps&w=224&h=298&yaw=229.72795&pitch=0&thumbfov=100"
            },
            {
                "about": "Street View & 360deg",
                "link": "https://streetviewpixels-pa.googleapis.com/v1/thumbnail?panoid=YWQuiSFcJVVBB8bZZbEgww&cb_client=maps_sv.tactile.gps&w=224&h=298&yaw=229.72795&pitch=0&thumbfov=100"
            }
        ],
        "link": "https://www.google.com/maps/place/MASJID+ROAD/data=!4m7!3m6!1s0x3a4d1bfdcd5a116b:0x923bf88f4202ec2c!8m2!3d13.9251052!4d79.9002962!16s%2Fg%2F11rl_pdwmz!19sChIJaxFazf0bTToRLOwCQo_4O5I?authuser=0&hl=en&rclk=1",
        "coordinates": {
            "latitude": 13.925105199999999,
            "longitude": 79.9002962
        }
    },
    {
        "name": "BADAR MASJID",
        "main_category": "Mosque",
        "address": "WWF2+R4M BADAR MASJID, Chandra Babu Colony, L.A.Sagaram, Andhra Pradesh 524126",
        "detailed_address": {
            "ward": "Chandra Babu Colony",
            "street": "WWF2+R4M",
            "city": "L.A.Sagaram",
            "postal_code": "524126",
            "state": "Andhra Pradesh",
            "country_code": "IN"
        },
        "images": [
            {
                "about": "All",
                "link": "https://streetviewpixels-pa.googleapis.com/v1/thumbnail?panoid=YDvyKM3ONY4UkBtry6sTfw&cb_client=maps_sv.tactile.gps&w=224&h=298&yaw=259.87265&pitch=0&thumbfov=100"
            },
            {
                "about": "Street View & 360deg",
                "link": "https://streetviewpixels-pa.googleapis.com/v1/thumbnail?panoid=YDvyKM3ONY4UkBtry6sTfw&cb_client=maps_sv.tactile.gps&w=224&h=298&yaw=259.87265&pitch=0&thumbfov=100"
            }
        ],
        "link": "https://www.google.com/maps/place/BADAR+MASJID/data=!4m7!3m6!1s0x3a4d1b3e46df582b:0xdc1021f4a7c2fec1!8m2!3d13.9245784!4d79.9003009!16s%2Fg%2F11pd_c8bvr!19sChIJK1jfRj4bTToRwf7Cp_QhENw?authuser=0&hl=en&rclk=1",
        "coordinates": {
            "latitude": 13.9245784,
            "longitude": 79.90030089999999
        }
    }
]