[
    {
        "name": "Kotla Mosque msjd khwttlh",
        "main_category": "Mosque",
        "address": "J76X+9CG Kotla Mosque msjd khwttlh, Kotla Village, Mayur Vihar, New Delhi, Delhi, 110091",
        "detailed_address": {
            "ward": "Kotla Village, Mayur Vihar",
            "street": "J76X+9CG",
            "city": "New Delhi, Delhi",
            "postal_code": "110091",
            "state": "Delhi",
            "country_code": "IN"
        },
        "images": [
            {
                "about": "All",
                "link": "https://lh5.googleusercontent.com/p/AF1QipPjgVhc6NgJqU1XBVjHQoTa1rN4ATVKZpVYMf6L=w396-h298-k-no"
            },
            {
                "about": "Street View & 360deg",
                "link": "https://streetviewpixels-pa.googleapis.com/v1/thumbnail?panoid=sjiuFgdGUNC275OztB-5mQ&cb_client=maps_sv.tactile.gps&w=224&h=298&yaw=357.77667&pitch=0&thumbfov=100"
            }
        ],
        "link": "https://www.google.com/maps/place/Kotla+Mosque+%D9%85%D8%B3%D8%AC%D8%AF+%DA%A9%D9%88%D9%B9%D9%84%DB%81%E2%80%AD/data=!4m7!3m6!1s0x390ce4bd25e39f0f:0xfe2551fd00707f0!8m2!3d28.6109416!4d77.2985798!16s%2Fg%2F12hszwgcl!19sChIJD5_jJb3kDDkR8AcH0B9V4g8?authuser=0&hl=en&rclk=1",
        "coordinates": {
            "latitude": 28.6109416,
            "longitude": 77.2985798
        }
    },
    {
        "name": "Masjid Alahazrat",
        "main_category": "Mosque",
        "address": "R342+CX5 Masjid Alahazrat, b block, JJ Colony, JJ Cluster Colony, Bawana, Delhi, 110039",
        "detailed_address": {
            "ward": "JJ Colony, JJ Cluster Colony, Bawana",
            "street": "R342+CX5, b block",
            "city": "Delhi",
            "postal_code": "110039",
            "state": "Delhi",
            "country_code": "IN"
        },
        "images": [
            {
                "about": "All",
                "link": "https://lh5.googleusercontent.com/p/AF1QipNimdKm-kwGw0LpmxzzLS5jwZ99A7IWJnZdY9wR=w224-h398-k-no"
            },
            {
                "about": "Street View & 360deg",
                "link": "https://streetviewpixels-pa.googleapis.com/v1/thumbnail?panoid=Sf7-G8dgipD86Tag9LnKQQ&cb_client=maps_sv.tactile.gps&w=224&h=298&yaw=235.08646&pitch=0&thumbfov=100"
            },
            {
                "about": "Videos",
                "link": "https://lh5.googleusercontent.com/p/AF1QipMWtYEvC8ApC8N2GL7A4LZyqG8eSg0iw3kypLbC=w224-h497-k-no"
            }
        ],
        "link": "https://www.google.com/maps/place/Masjid+Alahazrat/data=!4m7!3m6!1s0x390da833b9909e53:0x7267e7ff8986237f!8m2!3d28.8060016!4d77.0524872!16s%2Fg%2F11bc7f9t38!19sChIJU56QuTOoDTkRfyOGif_nZ3I?authuser=0&hl=en&rclk=1",
        "coordinates": {
            "latitude": 28.8060016,
            "longitude": 77.0524872
        }
    },
    {
        "name": "Masjid Badi msjd",
        "main_category": "Mosque",
        "address": "Masjid Badi msjd, 893,, Chittli Qabar Bazar Rd, Jama Masjid, Chandni Chowk, New Delhi, Delhi 110006",
        "detailed_address": {
            "ward": "Bazar Chitli Qabar, Kucha Chelan, Jama Masjid, Chandni Chowk",
            "street": "893,, Chittli Qabar Bazar Rd",
            "city": "New Delhi, Delhi",
            "postal_code": "110006",
            "state": "Delhi",
            "country_code": "IN"
        },
        "images": [
            {
                "about": "All",
                "link": "https://lh5.googleusercontent.com/p/AF1QipMv3dJUod1k8kUgXwL85usmybd-8tX6XcB5-BPW=w397-h298-k-no"
            },
            {
                "about": "Dome",
                "link": "https://lh5.googleusercontent.com/p/AF1QipM5G6M6udRuekulA88NQ_2zpdC1iLOlIDdsQsdJ=w224-h298-k-no"
            }
        ],
        "link": "https://www.google.com/maps/place/Masjid+Badi+%D9%85%D8%B3%D8%AC%D8%AF%E2%80%AD/data=!4m7!3m6!1s0x390cfd219cfec1f3:0x93ccacb281d71709!8m2!3d28.645321!4d77.2357133!16s%2Fg%2F12m98gjn5!19sChIJ88H-nCH9DDkRCRfXgbKszJM?authuser=0&hl=en&rclk=1",
        "coordinates": {
            "latitude": 28.645321,
            "longitude": 77.2357133
        }
    },
    {
        "name": "Masjid Mashal Chiyan",
        "main_category": "Mosque",
        "address": "Masjid Mashal Chiyan, 2100, Pahari Bhojla Rd, Pahari Bhojla, Sita Ram Bazar, Old Delhi, Delhi, 110006",
        "detailed_address": {
            "ward": "Pahari Bhojla, Sita Ram Bazar, Old Delhi",
            "street": "2100, Pahari Bhojla Rd",
            "city": "Delhi",
            "postal_code": "110006",
            "state": "Delhi",
            "country_code": "IN"
        },
        "images": [
            {
                "about": "All",
                "link": "https://lh5.googleusercontent.com/p/AF1QipPzNvoJ45dUDOg4NSCV-Cfkjrf1e9sHf6J5a3V6=w224-h298-k-no"
            },
            {
                "about": "Street View & 360deg",
                "link": "https://lh5.googleusercontent.com/p/AF1QipPufLeuFKWRnfluVeqfqMox5vU2GDYv00mbZhtt=w224-h298-k-no-pi-30.456415-ya134-ro-0-fo100"
            }
        ],
        "link": "https://www.google.com/maps/place/Masjid+Mashal+Chiyan/data=!4m7!3m6!1s0x390cfd225b6ed379:0x9d5cccd781f0a815!8m2!3d28.6454716!4d77.232231!16s%2Fg%2F11f1211zsv!19sChIJedNuWyL9DDkRFajwgdfMXJ0?authuser=0&hl=en&rclk=1",
        "coordinates": {
            "latitude": 28.6454716,
            "longitude": 77.232231
        }
    },
    {
        "name": "Jama Masjid Khetia",
        "main_category": "Mosque",
        "address": "MHCM+8CH Jama Masjid Khetia, Khetia, Madhya Pradesh 451881",
        "detailed_address": {
            "ward": null,
            "street": "MHCM+8CH",
            "city": "Khetia",
            "postal_code": "451881",
            "state": "Madhya Pradesh",
            "country_code": "IN"
        },
        "images": [
            {
                "about": "All",
                "link": "https://lh5.googleusercontent.com/p/AF1QipOKERL6kXia8Inw3G2iIj7jXsYTdj0Dna-geyDL=w298-h298-k-no"
            },
            {
                "about": "Dome",
                "link": "https://lh5.googleusercontent.com/p/AF1QipPG1xhLAIS-rdJr2-sQaHPEPlkre4y8yCY9K1BT=w224-h298-k-no"
            },
            {
                "about": "Street View & 360deg",
                "link": "https://streetviewpixels-pa.googleapis.com/v1/thumbnail?panoid=C71IWpZagn7frBpil4KuHg&cb_client=maps_sv.tactile.gps&w=224&h=298&yaw=294.9812&pitch=0&thumbfov=100"
            }
        ],
        "link": "https://www.google.com/maps/place/Jama+Masjid+Khetia/data=!4m7!3m6!1s0x3bdf68230ccd8755:0xbc280faf7cebe2b!8m2!3d21.6708108!4d74.5836211!16s%2Fg%2F11bw67z3vd!19sChIJVYfNDCNo3zsRK77O9_qAwgs?authuser=0&hl=en&rclk=1",
        "coordinates": {
            "latitude": 21.670810799999998,
            "longitude": 74.5836211
        }
    },
    {
        "name": "Fatima (Khariya) Masjid Rithat",
        "main_category": "Mosque",
        "address": "X473+XJ7 Fatima (Khariya) Masjid Rithat, Rithath, Haryana 122108",
        "detailed_address": {
            "ward": null,
            "street": "X473+XJ7",
            "city": "Rithath",
            "postal_code": "122108",
            "state": "Haryana",
            "country_code": "IN"
        },
        "images": [
            {
                "about": "All",
                "link": "https://lh5.googleusercontent.com/p/AF1QipP3VQdtZ9VcC_VTpqDJJIsCUs98kdzFVfMe0beA=w224-h397-k-no"
            },
            {
                "about": "Videos",
                "link": "https://lh5.googleusercontent.com/p/AF1QipOlGP48Rkzlr1skg1VKDlNbhgLFr_B2KoI3quJY=w224-h471-k-no"
            }
        ],
        "link": "https://www.google.com/maps/place/Fatima+%28Khariya%29+Masjid+Rithat/data=!4m7!3m6!1s0x3972d7d209e35093:0x629ffc28b2fa24f!8m2!3d27.9649176!4d77.1040363!16s%2Fg%2F11h781n8cn!19sChIJk1DjCdLXcjkRT6Ivi8L_KQY?authuser=0&hl=en&rclk=1",
        "coordinates": {
            "latitude": 27.9649176,
            "longitude": 77.10403629999999
        }
    },
    {
        "name": "Masjid",
        "main_category": "Mosque",
        "address": "2633+G4J Masjid, Kukkar Chati, Haryana 121103",
        "detailed_address": {
            "ward": null,
            "street": "2633+G4J",
            "city": "Kukkar Chati",
            "postal_code": "121103",
            "state": "Haryana",
            "country_code": "IN"
        },
        "images": [
            {
                "about": "All",
                "link": "https://lh5.googleusercontent.com/p/AF1QipNru46df2Q8az1X0TYtjGHqxi6a3A_eRNkgLy7O=w224-h497-k-no"
            },
            {
                "about": "Street View & 360deg",
                "link": "https://streetviewpixels-pa.googleapis.com/v1/thumbnail?panoid=rr3LUB6mMV7heOUp5TUPPg&cb_client=maps_sv.tactile.gps&w=224&h=298&yaw=296.13892&pitch=0&thumbfov=100"
            }
        ],
        "link": "https://www.google.com/maps/place/Masjid/data=!4m7!3m6!1s0x39732b996cfc1043:0xd0b5fc59e74806f1!8m2!3d28.0038399!4d77.2027798!16s%2Fg%2F11f5tcmx0p!19sChIJQxD8bJkrczkR8QZI51n8tdA?authuser=0&hl=en&rclk=1",
        "coordinates": {
            "latitude": 28.0038399,
            "longitude": 77.2027798
        }
    },
    {
        "name": "Masjid Chatta Sheikh Manglo",
        "main_category": "Mosque",
        "address": "J6XJ+HXC Masjid Chatta Sheikh Manglo, Choori Walan, Kalan Mehal, Chandni Chowk, New Delhi, Delhi, 110002",
        "detailed_address": {
            "ward": "Choori Walan, Kalan Mehal, Chandni Chowk",
            "street": "J6XJ+HXC",
            "city": "New Delhi, Delhi",
            "postal_code": "110002",
            "state": "Delhi",
            "country_code": "IN"
        },
        "images": [],
        "link": "https://www.google.com/maps/place/Masjid+Chatta+Sheikh+Manglo/data=!4m7!3m6!1s0x390cfd188c598f69:0x5942000107ab82cb!8m2!3d28.6489319!4d77.2323897!16s%2Fg%2F11gchs9zp4!19sChIJaY9ZjBj9DDkRy4KrBwEAQlk?authuser=0&hl=en&rclk=1",
        "coordinates": {
            "latitude": 28.648931899999997,
            "longitude": 77.2323897
        }
    },
    {
        "name": "khastagul Masjid",
        "main_category": "Mosque",
        "address": "M7X5+VPJ khastagul Masjid, Street No. 17, Block C, Goutampuri, Shahdara, Delhi, 110053",
        "detailed_address": {
            "ward": "Block C, Goutampuri, Shahdara",
            "street": "M7X5+VPJ, Street No. 17",
            "city": "Delhi",
            "postal_code": "110053",
            "state": "Delhi",
            "country_code": "IN"
        },
        "images": [],
        "link": "https://www.google.com/maps/place/khastagul+Masjid/data=!4m7!3m6!1s0x390cfc3ee7e64d6b:0x2eaf347ee8a2fd14!8m2!3d28.6997085!4d77.2592707!16s%2Fg%2F11f2w6w5kj!19sChIJa03m5z78DDkRFP2i6H40ry4?authuser=0&hl=en&rclk=1",
        "coordinates": {
            "latitude": 28.6997085,
            "longitude": 77.2592707
        }
    },
    {
        "name": "Mr.SAHEEM MALIK",
        "main_category": "Mosque",
        "address": "Mr.SAHEEM MALIK, Gali no. 3 - Tirpal Factory Mustafabad, near Ayisha masjid, 25 Futa Rd, near by Aisha Masjid, chowk, Delhi 110094",
        "detailed_address": {
            "ward": "Shakti Vihar, Old Mustafabad, chowk",
            "street": "Gali no. 3 - Tirpal Factory Mustafabad, near Ayisha masjid, 25 Futa Rd, near by Aisha Masjid",
            "city": "Delhi",
            "postal_code": "110094",
            "state": "Delhi",
            "country_code": "IN"
        },
        "images": [
            {
                "about": "All",
                "link": "https://streetviewpixels-pa.googleapis.com/v1/thumbnail?panoid=mnDvqKgVbPOgbskB0cRBOg&cb_client=maps_sv.tactile.gps&w=224&h=298&yaw=306.35242&pitch=0&thumbfov=100"
            },
            {
                "about": "Street View & 360deg",
                "link": "https://streetviewpixels-pa.googleapis.com/v1/thumbnail?panoid=mnDvqKgVbPOgbskB0cRBOg&cb_client=maps_sv.tactile.gps&w=224&h=298&yaw=306.35242&pitch=0&thumbfov=100"
            }
        ],
        "link": "https://www.google.com/maps/place/Mr.SAHEEM+MALIK/data=!4m7!3m6!1s0x390cfd9a44cd4997:0xffdc8860c53e3f2b!8m2!3d28.7159667!4d77.272238!16s%2Fg%2F11h3cwgc8y!19sChIJl0nNRJr9DDkRKz8-xWCI3P8?authuser=0&hl=en&rclk=1",
        "coordinates": {
            "latitude": 28.7159667,
            "longitude": 77.272238
        }
    },
    {
        "name": "chhoti masjid",
        "main_category": "Mosque",
        "address": "54P4+9WG chhoti masjid, Rakshera, Haryana 132115",
        "detailed_address": {
            "ward": null,
            "street": "54P4+9WG",
            "city": "Rakshera",
            "postal_code": "132115",
            "state": "Haryana",
            "country_code": "IN"
        },
        "images": [
            {
                "about": "All",
                "link": "https://lh5.googleusercontent.com/p/AF1QipNtmvcFY1icO2smZZRETkK3KrHZymCh6aCqilPT=w224-h398-k-no"
            },
            {
                "about": "Videos",
                "link": "https://lh5.googleusercontent.com/p/AF1QipP0xBp0k5LDg6qJjGiFvacq5HENN4pCQCqgtGBl=w224-h398-k-no"
            }
        ],
        "link": "https://www.google.com/maps/place/chhoti+masjid/data=!4m7!3m6!1s0x390dca21ef4aa64d:0x9a96bec373c44e3b!8m2!3d29.1859272!4d77.1073209!16s%2Fg%2F11d_bg_1t3!19sChIJTaZK7yHKDTkRO07Ec8O-lpo?authuser=0&hl=en&rclk=1",
        "coordinates": {
            "latitude": 29.1859272,
            "longitude": 77.10732089999999
        }
    },
    {
        "name": "Masjid",
        "main_category": "Mosque",
        "address": "J7WG+44R Masjid, Shastri Nagar, Geeta Colony, New Delhi, Delhi, 110031",
        "detailed_address": {
            "ward": "Shastri Nagar, Geeta Colony",
            "street": "J7WG+44R",
            "city": "New Delhi, Delhi",
            "postal_code": "110031",
            "state": "Delhi",
            "country_code": "IN"
        },
        "images": [],
        "link": "https://www.google.com/maps/place/Masjid/data=!4m7!3m6!1s0x390cfdd602d3790d:0x318c83bff04345b3!8m2!3d28.6453628!4d77.2752524!16s%2Fg%2F11h_7ms07y!19sChIJDXnTAtb9DDkRs0VD8L-DjDE?authuser=0&hl=en&rclk=1",
        "coordinates": {
            "latitude": 28.645362799999997,
            "longitude": 77.2752524
        }
    },
    {
        "name": "HADHRAT UMAR MASJID ALMAROOF CHOTI MASJID",
        "main_category": "Mosque",
        "address": "HADHRAT UMAR MASJID ALMAROOF CHOTI MASJID, Chotti Masjid, Street number 9, Mulla Colony, Gharoli Extension, Gharoli, Delhi, 110096",
        "detailed_address": {
            "ward": "Mulla Colony, Gharoli Extension, Gharoli",
            "street": "Chotti Masjid, Street number 9",
            "city": "Delhi",
            "postal_code": "110096",
            "state": "Delhi",
            "country_code": "IN"
        },
        "images": [
            {
                "about": "All",
                "link": "https://lh5.googleusercontent.com/p/AF1QipNZLsZ_OvxzQ0mRSz4feAMR4C6XCCd7CCcYOFuS=w224-h486-k-no"
            },
            {
                "about": "Street View & 360deg",
                "link": "https://streetviewpixels-pa.googleapis.com/v1/thumbnail?panoid=R0i0YA7cPF_HDGM0qoDxQQ&cb_client=maps_sv.tactile.gps&w=224&h=298&yaw=253.26328&pitch=0&thumbfov=100"
            }
        ],
        "link": "https://www.google.com/maps/place/HADHRAT+UMAR+MASJID+ALMAROOF+CHOTI+MASJID/data=!4m7!3m6!1s0x390ce5c6cf830b2f:0x6bb8084dadf0d513!8m2!3d28.6213398!4d77.3314246!16s%2Fg%2F11sy4vfb7s!19sChIJLwuDz8blDDkRE9XwrU0IuGs?authuser=0&hl=en&rclk=1",
        "coordinates": {
            "latitude": 28.621339799999998,
            "longitude": 77.33142459999999
        }
    },
    {
        "name": "Kothi wali Masjid",
        "main_category": "Mosque",
        "address": "X8P9+2JX Kothi wali Masjid, King Rd, Basaud, Uttar Pradesh 250601",
        "detailed_address": {
            "ward": null,
            "street": "X8P9+2JX, King Rd",
            "city": "Basaud",
            "postal_code": "250601",
            "state": "Uttar Pradesh",
            "country_code": "IN"
        },
        "images": [],
        "link": "https://www.google.com/maps/place/Kothi+wali+Masjid/data=!4m7!3m6!1s0x390c51f9daf3c30f:0xf46c7e33d7ee604d!8m2!3d28.9851095!4d77.3191042!16s%2Fg%2F11qnk7jt1s!19sChIJD8Pz2vlRDDkRTWDu1zN-bPQ?authuser=0&hl=en&rclk=1",
        "coordinates": {
            "latitude": 28.9851095,
            "longitude": 77.3191042
        }
    },
    {
        "name": "Khetwali Masjid",
        "main_category": "Mosque",
        "address": "96HR+WFM Khetwali Masjid, Jahanpur, Kairana, Uttar Pradesh 247774",
        "detailed_address": {
            "ward": "Jahanpur",
            "street": "96HR+WFM",
            "city": "Kairana",
            "postal_code": "247774",
            "state": "Uttar Pradesh",
            "country_code": "IN"
        },
        "images": [
            {
                "about": "All",
                "link": "https://lh5.googleusercontent.com/p/AF1QipNxvxQU2n_2EXCMdmSBWSqXWWF_7P1IIeEsES7T=w662-h298-k-no"
            },
            {
                "about": "Street View & 360deg",
                "link": "https://streetviewpixels-pa.googleapis.com/v1/thumbnail?panoid=0n6KnGi1uQ-RJr5j0u7QZA&cb_client=maps_sv.tactile.gps&w=224&h=298&yaw=78.21849&pitch=0&thumbfov=100"
            },
            {
                "about": "Videos",
                "link": "https://lh5.googleusercontent.com/p/AF1QipOTUVnulDKBYkJYwWZDyuJYVNL7Yl0U6KGOLmaN=w224-h398-k-no"
            }
        ],
        "link": "https://www.google.com/maps/place/Khetwali+Masjid/data=!4m7!3m6!1s0x390c2d6980e4fb4b:0x4e365919cbda13ea!8m2!3d29.3798358!4d77.2411739!16s%2Fg%2F11h256938m!19sChIJS_vkgGktDDkR6hPayxlZNk4?authuser=0&hl=en&rclk=1",
        "coordinates": {
            "latitude": 29.3798358,
            "longitude": 77.24117389999999
        }
    },
    {
        "name": "Masjid Bagheechey Wali",
        "main_category": "Mosque",
        "address": "Masjid Bagheechey Wali, 5200, Kucha Rehman Gali, New Krishna Cloth Market, Katra Rathi, Chandni Chowk, New Delhi, Delhi, 110006",
        "detailed_address": {
            "ward": "New Krishna Cloth Market, Katra Rathi, Chandni Chowk",
            "street": "5200, Kucha Rehman Gali",
            "city": "New Delhi, Delhi",
            "postal_code": "110006",
            "state": "Delhi",
            "country_code": "IN"
        },
        "images": [],
        "link": "https://www.google.com/maps/place/Masjid+Bagheechey+Wali/data=!4m7!3m6!1s0x390cfd369091dc93:0x980e7cf6a2accc8a!8m2!3d28.6548146!4d77.2267999!16s%2Fg%2F11jgxc_zvm!19sChIJk9yRkDb9DDkRisysovZ8Dpg?authuser=0&hl=en&rclk=1",
        "coordinates": {
            "latitude": 28.654814599999998,
            "longitude": 77.2267999
        }
    },
    {
        "name": "chottii msjid riitthtt",
        "main_category": "Mosque",
        "address": "X464+F9X chottii msjid riitthtt, Unnamed Road, Rithath, Haryana 122108",
        "detailed_address": {
            "ward": null,
            "street": "X464+F9X, Unnamed Road",
            "city": "Rithath",
            "postal_code": "122108",
            "state": "Haryana",
            "country_code": "IN"
        },
        "images": [],
        "link": "https://www.google.com/maps/place/%E0%A4%9B%E0%A5%8B%E0%A4%9F%E0%A5%80+%E0%A4%AE%E0%A4%B8%E0%A5%8D%E0%A4%9C%E0%A4%BF%E0%A4%A6+%E0%A4%B0%E0%A5%80%E0%A4%A0%E0%A4%9F/data=!4m7!3m6!1s0x3972d7075956f771:0x62db9e76a6ce9de!8m2!3d27.9612418!4d77.1059835!16s%2Fg%2F11rwrgw12t!19sChIJcfdWWQfXcjkR3ulsaue5LQY?authuser=0&hl=en&rclk=1",
        "coordinates": {
            "latitude": 27.9612418,
            "longitude": 77.1059835
        }
    },
    {
        "name": "Masjid",
        "main_category": "Mosque",
        "address": "Masjid, VIP mohalla, Chhoti masjid, Kaimasa, sector ..11",
        "detailed_address": {
            "ward": null,
            "street": "VIP mohalla, Chhoti masjid",
            "city": "Kaimasa",
            "postal_code": "sector ..11",
            "state": "Rajasthan",
            "country_code": "IN"
        },
        "images": [
            {
                "about": "All",
                "link": "https://lh5.googleusercontent.com/p/AF1QipP1C5zNIgbEoIJy5DVVVyoQwlQHMyIdBTQpJLDB=w224-h397-k-no"
            },
            {
                "about": "Videos",
                "link": "https://lh5.googleusercontent.com/p/AF1QipP1C5zNIgbEoIJy5DVVVyoQwlQHMyIdBTQpJLDB=w224-h397-k-no"
            }
        ],
        "link": "https://www.google.com/maps/place/Masjid/data=!4m7!3m6!1s0x3972e511b42a73c7:0x1ecf8a4b07eef0a9!8m2!3d27.5365549!4d77.0526529!16s%2Fg%2F11sqc89rv8!19sChIJx3MqtBHlcjkRqfDuB0uKzx4?authuser=0&hl=en&rclk=1",
        "coordinates": {
            "latitude": 27.5365549,
            "longitude": 77.0526529
        }
    },
    {
        "name": "Choti masjid",
        "main_category": "Mosque",
        "address": "8C47+QX5 Choti masjid, Sarai, Uttar Pradesh 251309",
        "detailed_address": {
            "ward": null,
            "street": "8C47+QX5",
            "city": "Sarai",
            "postal_code": "251309",
            "state": "Uttar Pradesh",
            "country_code": "IN"
        },
        "images": [
            {
                "about": "All",
                "link": "https://lh5.googleusercontent.com/p/AF1QipOkMehI8ZpuoiRKuk5baf2cAbHTIhtYR2MYJgFb=w224-h492-k-no"
            },
            {
                "about": "Videos",
                "link": "https://lh5.googleusercontent.com/p/AF1QipPA_ieefv0pPk29PNHByCxvRmSyHiMq6tCF5ecA=w224-h398-k-no"
            }
        ],
        "link": "https://www.google.com/maps/place/Choti+masjid/data=!4m7!3m6!1s0x390c3b4bf4d3a1c5:0x2678d5bc6edbb541!8m2!3d29.3076147!4d77.4157123!16s%2Fg%2F11k4w9_t68!19sChIJxaHT9Es7DDkRQbXbbrzVeCY?authuser=0&hl=en&rclk=1",
        "coordinates": {
            "latitude": 29.3076147,
            "longitude": 77.4157123
        }
    },
    {
        "name": "Masjid",
        "main_category": "Mosque",
        "address": "Shop No: 5035, Masjid, Netaji Subhash Marg, Daryaganj, New Delhi, Delhi, 110002",
        "detailed_address": {
            "ward": "Daryaganj",
            "street": "Shop No: 5035, Netaji Subhash Marg",
            "city": "New Delhi, Delhi",
            "postal_code": "110002",
            "state": "Delhi",
            "country_code": "IN"
        },
        "images": [
            {
                "about": "All",
                "link": "https://streetviewpixels-pa.googleapis.com/v1/thumbnail?panoid=YSwhlhzTck_MDCSAiGS2Aw&cb_client=maps_sv.tactile.gps&w=224&h=298&yaw=322.97766&pitch=0&thumbfov=100"
            },
            {
                "about": "Street View & 360deg",
                "link": "https://streetviewpixels-pa.googleapis.com/v1/thumbnail?panoid=YSwhlhzTck_MDCSAiGS2Aw&cb_client=maps_sv.tactile.gps&w=224&h=298&yaw=322.97766&pitch=0&thumbfov=100"
            }
        ],
        "link": "https://www.google.com/maps/place/Masjid/data=!4m7!3m6!1s0x390cfdf175041b95:0x8ef57a2bc9f92c1c!8m2!3d28.6480954!4d77.2403964!16s%2Fg%2F11s664lvxh!19sChIJlRsEdfH9DDkRHCz5ySt69Y4?authuser=0&hl=en&rclk=1",
        "coordinates": {
            "latitude": 28.6480954,
            "longitude": 77.2403964
        }
    }
]