[
    {
        "name": "talwandi Masjid",
        "main_category": "Mosque",
        "address": "R6R7+QH8 talwandi Masjid, Unnamed Road, Talwandi Bhangerian, Moga, Punjab 142001",
        "detailed_address": {
            "ward": "Talwandi Bhangerian",
            "street": "R6R7+QH8, Unnamed Road",
            "city": "Moga",
            "postal_code": "142001",
            "state": "Punjab",
            "country_code": "IN"
        },
        "images": [
            {
                "about": "All",
                "link": "https://lh5.googleusercontent.com/p/AF1QipMwSFHMUUZOp-c7ZlWgVRd6qV78iC8aX3x251hw=w224-h298-k-no"
            }
        ],
        "link": "https://www.google.com/maps/place/talwandi+Masjid/data=!4m7!3m6!1s0x391a09d0a270d297:0xeee3667d7f629022!8m2!3d30.841908!4d75.2139564!16s%2Fg%2F11gk8xq5zs!19sChIJl9JwotAJGjkRIpBif31m4-4?authuser=0&hl=en&rclk=1",
        "coordinates": {
            "latitude": 30.841908,
            "longitude": 75.2139564
        }
    },
    {
        "name": "Masjid ameer maviya",
        "main_category": "Mosque",
        "address": "W43R+C94 Masjid ameer maviya, Talwandi, Kasur, Punjab, Pakistan",
        "detailed_address": {
            "ward": null,
            "street": "W43R+C94",
            "city": "Talwandi",
            "postal_code": null,
            "state": "Kasur, Punjab",
            "country_code": "PK"
        },
        "images": [
            {
                "about": "All",
                "link": "https://lh5.googleusercontent.com/p/AF1QipNLaIsr-PTHk3ECp4vQ_H1oIanDGVfwx8dfzCIK=w529-h298-k-no"
            },
            {
                "about": "Videos",
                "link": "https://lh5.googleusercontent.com/p/AF1QipNLaIsr-PTHk3ECp4vQ_H1oIanDGVfwx8dfzCIK=w529-h298-k-no"
            }
        ],
        "link": "https://www.google.com/maps/place/Masjid+ameer+maviya/data=!4m7!3m6!1s0x391833f432847831:0x53224ebabf576898!8m2!3d30.9035109!4d74.140939!16s%2Fg%2F11hzl2n388!19sChIJMXiEMvQzGDkRmGhXv7pOIlM?authuser=0&hl=en&rclk=1",
        "coordinates": {
            "latitude": 30.903510899999997,
            "longitude": 74.140939
        }
    },
    {
        "name": "Talwandi Bhai",
        "main_category": null,
        "address": "Talwandi Bhai, Punjab 142050",
        "detailed_address": {
            "ward": null,
            "street": null,
            "city": "Talwandi Bhai",
            "postal_code": null,
            "state": "Punjab",
            "country_code": "IN"
        },
        "images": [
            {
                "about": "All",
                "link": "https://lh5.googleusercontent.com/p/AF1QipOOCRkHgJrCORZ_P-PO7zQy683VWfBvfzWczr4=w224-h373-k-no"
            },
            {
                "about": "Street View & 360deg",
                "link": "https://lh5.googleusercontent.com/p/AF1QipOj8hJak4yju1OoVYiuN4Wiuak5eHBrFDT79zoD=w224-h298-k-no-pi-20-ya321-ro-0-fo100"
            },
            {
                "about": "Videos",
                "link": "https://lh5.googleusercontent.com/p/AF1QipN5Ty64BL_XcEqFLWQbu16I2hXuesoZWqO1Xyvf=w224-h398-k-no"
            }
        ],
        "link": "https://www.google.com/maps/place/Talwandi+Bhai/data=!4m7!3m6!1s0x3919f8e5be0efdb1:0xb98351a8e8cd41d6!8m2!3d30.8575607!4d74.9267229!16zL20vMGY2ZHA4!19sChIJsf0OvuX4GTkR1kHN6KhRg7k?authuser=0&hl=en&rclk=1",
        "coordinates": {
            "latitude": 30.857560699999997,
            "longitude": 74.9267229
        }
    },
    {
        "name": "Masjid Madina",
        "main_category": "Mosque",
        "address": "H48P+325 Masjid Madina, Unnamed Road, Faisalabad, Punjab, Pakistan",
        "detailed_address": {
            "ward": null,
            "street": "H48P+325, Unnamed Road",
            "city": "Faisalabad",
            "postal_code": null,
            "state": "Faisalabad, Punjab",
            "country_code": "PK"
        },
        "images": [],
        "link": "https://www.google.com/maps/place/Masjid+Madina/data=!4m7!3m6!1s0x39226b9f7ed05dcd:0xf7864e8c088355dc!8m2!3d31.5651284!4d73.135098!16s%2Fg%2F11fn95syqk!19sChIJzV3Qfp9rIjkR3FWDCIxOhvc?authuser=0&hl=en&rclk=1",
        "coordinates": {
            "latitude": 31.5651284,
            "longitude": 73.135098
        }
    },
    {
        "name": "Talwandi bhai",
        "main_category": "Store",
        "address": "VW5G+2MH Talwandi bhai, Talwandi Bhai, Punjab 142050",
        "detailed_address": {
            "ward": null,
            "street": "VW5G+2MH",
            "city": "Talwandi Bhai",
            "postal_code": "142050",
            "state": "Punjab",
            "country_code": "IN"
        },
        "images": [],
        "link": "https://www.google.com/maps/place/Talwandi+bhai/data=!4m7!3m6!1s0x3919f90073f4b193:0xa2c512f70ad6da5c!8m2!3d30.8575606!4d74.9267229!16s%2Fg%2F11vlz5lsb7!19sChIJk7H0cwD5GTkRXNrWCvcSxaI?authuser=0&hl=en&rclk=1",
        "coordinates": {
            "latitude": 30.8575606,
            "longitude": 74.9267229
        }
    }
]