[
    {
        "name": "Jamia Masjid",
        "main_category": "Mosque",
        "address": "F8P8+WRX Jamia Masjid, Nagarkurnool, Telangana 509209",
        "detailed_address": {
            "ward": null,
            "street": "F8P8+WRX",
            "city": "Nagarkurnool",
            "postal_code": "509209",
            "state": "Telangana",
            "country_code": "IN"
        },
        "images": [
            {
                "about": "All",
                "link": "https://lh5.googleusercontent.com/p/AF1QipMXGAg3IKKBLogwsilHVQmyUhNfqBHjriWgmhg8=w397-h298-k-no"
            },
            {
                "about": "Street View & 360deg",
                "link": "https://streetviewpixels-pa.googleapis.com/v1/thumbnail?panoid=6CwNZmql6HsrGIwKYq0bIw&cb_client=maps_sv.tactile.gps&w=224&h=298&yaw=303.86606&pitch=0&thumbfov=100"
            }
        ],
        "link": "https://www.google.com/maps/place/Jamia+Masjid/data=!4m7!3m6!1s0x3bca6c9febc66bb3:0xf9dad2cb86bdf8b6!8m2!3d16.4873524!4d78.3170973!16s%2Fg%2F1hf1s6904!19sChIJs2vG659syjsRtvi9hsvS2vk?authuser=0&hl=en&rclk=1",
        "coordinates": {
            "latitude": 16.4873524,
            "longitude": 78.3170973
        }
    },
    {
        "name": "Masjid-e-Mehfuz bin Mehfuz",
        "main_category": "Mosque",
        "address": "Masjid-e-Mehfuz bin Mehfuz, 3, Nagarkurnool, Telangana 509209",
        "detailed_address": {
            "ward": null,
            "street": "3",
            "city": "Nagarkurnool",
            "postal_code": "509209",
            "state": "Telangana",
            "country_code": "IN"
        },
        "images": [
            {
                "about": "All",
                "link": "https://lh5.googleusercontent.com/p/AF1QipOKzIubrvyQe57V_s9NVcfBkyeQWnUF6JDj6M5N=w397-h298-k-no"
            },
            {
                "about": "Street View & 360deg",
                "link": "https://streetviewpixels-pa.googleapis.com/v1/thumbnail?panoid=rJziBRkCnExDCPxWm2LLpA&cb_client=maps_sv.tactile.gps&w=224&h=298&yaw=95.418594&pitch=0&thumbfov=100"
            },
            {
                "about": "Videos",
                "link": "https://lh5.googleusercontent.com/p/AF1QipO1ANQ1NoCc2G6OpXM9mggtu6O3QeueKS497JvY=w224-h398-k-no"
            }
        ],
        "link": "https://www.google.com/maps/place/Masjid-e-Mehfuz+bin+Mehfuz/data=!4m7!3m6!1s0x3bca6ca0355c176d:0x4a11f51f5a9c38c2!8m2!3d16.4856077!4d78.3143619!16s%2Fg%2F1hdzg0gjk!19sChIJbRdcNaBsyjsRwjicWh_1EUo?authuser=0&hl=en&rclk=1",
        "coordinates": {
            "latitude": 16.4856077,
            "longitude": 78.3143619
        }
    },
    {
        "name": "Masjid E Mariyam - Ahle Hadees",
        "main_category": "Mosque",
        "address": "Masjid E Mariyam - Ahle Hadees, Rahat nagar colony ln2, Srinagar, Nagarkurnool, Telangana 509209",
        "detailed_address": {
            "ward": "Srinagar",
            "street": "Rahat nagar colony ln2",
            "city": "Nagarkurnool",
            "postal_code": "509209",
            "state": "Telangana",
            "country_code": "IN"
        },
        "images": [
            {
                "about": "All",
                "link": "https://lh5.googleusercontent.com/p/AF1QipMFslg37Z2GkRUz9hgz9gr3kAPtP0KhBBzNK7rn=w397-h298-k-no"
            },
            {
                "about": "By owner",
                "link": "https://lh5.googleusercontent.com/p/AF1QipPzbEi4arqqw-a6BHhB-tDrZxafmo18qZR_zVWj=w529-h298-k-no"
            },
            {
                "about": "Videos",
                "link": "https://lh5.googleusercontent.com/p/AF1QipMe4d8vBtXmljsx8dhX8VEW9cWjjoVCOoUvf1Xo=w529-h298-k-no"
            }
        ],
        "link": "https://www.google.com/maps/place/Masjid+E+Mariyam+-+Ahle+Hadees/data=!4m7!3m6!1s0x3bca6b580c6ab39f:0x2148d35293f66b07!8m2!3d16.4882528!4d78.3057397!16s%2Fg%2F11cn9lxxqt!19sChIJn7NqDFhryjsRB2v2k1LTSCE?authuser=0&hl=en&rclk=1",
        "coordinates": {
            "latitude": 16.488252799999998,
            "longitude": 78.30573969999999
        }
    },
    {
        "name": "Masjid-e-qumarunnisa",
        "main_category": "Mosque",
        "address": "F8M9+6XW Masjid-e-qumarunnisa, Nagarkurnool, Telangana 509209",
        "detailed_address": {
            "ward": null,
            "street": "F8M9+6XW",
            "city": "Nagarkurnool",
            "postal_code": "509209",
            "state": "Telangana",
            "country_code": "IN"
        },
        "images": [
            {
                "about": "All",
                "link": "https://lh5.googleusercontent.com/p/AF1QipObP-1wnjESji6tl2hl9NG7AHFQEJYTOOWvZBAb=w635-h298-k-no"
            },
            {
                "about": "Videos",
                "link": "https://lh5.googleusercontent.com/p/AF1QipPdpdkDnCCJj2zZ301uzZkQSl5AKyzl0WOrSj1I=w529-h298-k-no"
            }
        ],
        "link": "https://www.google.com/maps/place/Masjid-e-qumarunnisa/data=!4m7!3m6!1s0x3bca6c9ecba3a769:0xa152edd39ec5f90!8m2!3d16.4831086!4d78.3199581!16s%2Fg%2F11dx99wgql!19sChIJaaejy55syjsRkF_sOd0uFQo?authuser=0&hl=en&rclk=1",
        "coordinates": {
            "latitude": 16.483108599999998,
            "longitude": 78.3199581
        }
    },
    {
        "name": "Masjid-A-Musa",
        "main_category": "Mosque",
        "address": "F8Q8+WXC Masjid-A-Musa, Nagarkurnool, Telangana 509209",
        "detailed_address": {
            "ward": null,
            "street": "F8Q8+WXC",
            "city": "Nagarkurnool",
            "postal_code": "509209",
            "state": "Telangana",
            "country_code": "IN"
        },
        "images": [
            {
                "about": "All",
                "link": "https://lh5.googleusercontent.com/p/AF1QipMA0JS-Wmhl3r6JKM22QIOlDhvuYYhO-k4TukeU=w529-h298-k-no"
            },
            {
                "about": "Dome",
                "link": "https://lh5.googleusercontent.com/p/AF1QipOO3DVRRxiD_t-NkIooQ6BlmUpL4AH7eVGCfZv7=w224-h398-k-no"
            }
        ],
        "link": "https://www.google.com/maps/place/Masjid-A-Musa/data=!4m7!3m6!1s0x3bca6ba7c6bf11c3:0x9c6ab1bd4bcdad53!8m2!3d16.4898152!4d78.3173959!16s%2Fg%2F11fhqrvrm8!19sChIJwxG_xqdryjsRU63NS72xapw?authuser=0&hl=en&rclk=1",
        "coordinates": {
            "latitude": 16.4898152,
            "longitude": 78.3173959
        }
    },
    {
        "name": "Masjid E Me'raj",
        "main_category": "Mosque",
        "address": "Masjid E Me'raj, Masjid-E-Me'raj, Rahat Nagar Colony, Srinagar, Nagarkurnool, Telangana 509209",
        "detailed_address": {
            "ward": "Srinagar",
            "street": "Masjid-E-Me'raj, Rahat Nagar Colony",
            "city": "Nagarkurnool",
            "postal_code": "509209",
            "state": "Telangana",
            "country_code": "IN"
        },
        "images": [
            {
                "about": "All",
                "link": "https://streetviewpixels-pa.googleapis.com/v1/thumbnail?panoid=opwYYyop8udz69NzrtTfvA&cb_client=maps_sv.tactile.gps&w=224&h=298&yaw=224.52557&pitch=0&thumbfov=100"
            },
            {
                "about": "Street View & 360deg",
                "link": "https://streetviewpixels-pa.googleapis.com/v1/thumbnail?panoid=opwYYyop8udz69NzrtTfvA&cb_client=maps_sv.tactile.gps&w=224&h=298&yaw=224.52557&pitch=0&thumbfov=100"
            }
        ],
        "link": "https://www.google.com/maps/place/Masjid+E+Me%27raj/data=!4m7!3m6!1s0x3bca6b7dedb7f94d:0xf1afe5f666c41a6a!8m2!3d16.48975!4d78.3069833!16s%2Fg%2F11rty7fjqq!19sChIJTfm37X1ryjsRahrEZvblr_E?authuser=0&hl=en&rclk=1",
        "coordinates": {
            "latitude": 16.48975,
            "longitude": 78.3069833
        }
    },
    {
        "name": "Shiva",
        "main_category": "Mosque",
        "address": "F7VX+9M8 Shiva, Housing board st1, Housing Board Colony, Nagarkurnool, Telangana 509209",
        "detailed_address": {
            "ward": "Housing Board Colony",
            "street": "F7VX+9M8, Housing board st1",
            "city": "Nagarkurnool",
            "postal_code": "509209",
            "state": "Telangana",
            "country_code": "IN"
        },
        "images": [],
        "link": "https://www.google.com/maps/place/Shiva/data=!4m7!3m6!1s0x3bca6bfcbde0267b:0x5e5e70ab82b6cc13!8m2!3d16.4934015!4d78.2991879!16s%2Fg%2F11r9nt88d5!19sChIJeybgvfxryjsRE8y2gqtwXl4?authuser=0&hl=en&rclk=1",
        "coordinates": {
            "latitude": 16.4934015,
            "longitude": 78.29918789999999
        }
    },
    {
        "name": "Eid-Gah",
        "main_category": "Mosque",
        "address": "F8G4+X6M Eid-Gah, Nagarkurnool, Telangana 509209",
        "detailed_address": {
            "ward": null,
            "street": "F8G4+X6M",
            "city": "Nagarkurnool",
            "postal_code": "509209",
            "state": "Telangana",
            "country_code": "IN"
        },
        "images": [],
        "link": "https://www.google.com/maps/place/Eid-Gah/data=!4m7!3m6!1s0x3bca6ca543eaaaab:0x27007a7ab9b3fce0!8m2!3d16.4774626!4d78.3055349!16s%2Fg%2F11txmzf3g0!19sChIJq6rqQ6VsyjsR4PyzuXp6ACc?authuser=0&hl=en&rclk=1",
        "coordinates": {
            "latitude": 16.4774626,
            "longitude": 78.3055349
        }
    },
    {
        "name": "Masjid-E-mahmoodia",
        "main_category": "Mosque",
        "address": "F7VV+FJM Masjid-E-mahmoodia, Housing Board Colony, Nagarkurnool, Telangana 509209",
        "detailed_address": {
            "ward": "Housing Board Colony",
            "street": "F7VV+FJM",
            "city": "Nagarkurnool",
            "postal_code": "509209",
            "state": "Telangana",
            "country_code": "IN"
        },
        "images": [],
        "link": "https://www.google.com/maps/place/Masjid-E-mahmoodia/data=!4m7!3m6!1s0x3bca6bcef4283af3:0x6c16f2cf1f3f2f1f!8m2!3d16.49371!4d78.294058!16s%2Fg%2F11kj0c8qjp!19sChIJ8zoo9M5ryjsRHy8_H8_yFmw?authuser=0&hl=en&rclk=1",
        "coordinates": {
            "latitude": 16.49371,
            "longitude": 78.29405799999999
        }
    },
    {
        "name": "Masjid e amena",
        "main_category": "Mosque",
        "address": "F8Q8+267 Masjid e amena, Nagarkurnool, Telangana 509209",
        "detailed_address": {
            "ward": null,
            "street": "F8Q8+267",
            "city": "Nagarkurnool",
            "postal_code": "509209",
            "state": "Telangana",
            "country_code": "IN"
        },
        "images": [],
        "link": "https://www.google.com/maps/place/Masjid+e+amena/data=!4m7!3m6!1s0x3bca6d0a7b78533d:0x9faa29690b3a02c8!8m2!3d16.4869184!4d78.3153198!16s%2Fg%2F11q9dq50sr!19sChIJPVN4ewptyjsRyAI6C2kpqp8?authuser=0&hl=en&rclk=1",
        "coordinates": {
            "latitude": 16.4869184,
            "longitude": 78.3153198
        }
    }
]