[
    {
        "name": "Pandav Wada",
        "main_category": "Mosque",
        "address": "W8CG+54X Pandav Wada, Pardeshi Ln, Pandav Wada, Erandol, Maharashtra 425109",
        "detailed_address": {
            "ward": "Pandav Wada",
            "street": "W8CG+54X, Pardeshi Ln",
            "city": "Erandol",
            "postal_code": "425109",
            "state": "Maharashtra",
            "country_code": "IN"
        },
        "images": [
            {
                "about": "All",
                "link": "https://lh5.googleusercontent.com/p/AF1QipOf6dz5LTr2PX18yDdGsHHiSZGH1HCSXo5jSCXt=w224-h486-k-no"
            }
        ],
        "link": "https://www.google.com/maps/place/Pandav+Wada/data=!4m7!3m6!1s0x3bd93e0ef2cda279:0xbbd1e91e600a7702!8m2!3d20.9204179!4d75.3254121!16s%2Fg%2F1hhp0fcxd!19sChIJeaLN8g4-2TsRAncKYB7p0bs?authuser=0&hl=en&rclk=1",
        "coordinates": {
            "latitude": 20.9204179,
            "longitude": 75.3254121
        }
    },
    {
        "name": "Badwali Masjid",
        "main_category": "Mosque",
        "address": "W89M+M35 Badwali Masjid, Kagzi Pura, Erandol, Maharashtra 425109",
        "detailed_address": {
            "ward": "Kagzi Pura",
            "street": "W89M+M35",
            "city": "Erandol",
            "postal_code": "425109",
            "state": "Maharashtra",
            "country_code": "IN"
        },
        "images": [
            {
                "about": "All",
                "link": "https://lh5.googleusercontent.com/p/AF1QipMyyUu_a8kEXh0Ub15alvYW-cp6wZkiEuKb3FIR=w397-h298-k-no"
            },
            {
                "about": "Videos",
                "link": "https://lh5.googleusercontent.com/p/AF1QipNj9RScqTwvaUZCwmciJYwmSJewR4Bg6V-lp0hq=w529-h298-k-no"
            }
        ],
        "link": "https://www.google.com/maps/place/Badwali+Masjid/data=!4m7!3m6!1s0x3bd93e04def5c791:0xd7317b6547971614!8m2!3d20.9191392!4d75.3327283!16s%2Fg%2F11c45dr6kz!19sChIJkcf13gQ-2TsRFBaXR2V7Mdc?authuser=0&hl=en&rclk=1",
        "coordinates": {
            "latitude": 20.9191392,
            "longitude": 75.3327283
        }
    },
    {
        "name": "JAMA MASJID KAGZI PURA",
        "main_category": "Mosque",
        "address": "W89J+J9J JAMA MASJID KAGZI PURA, Kagzi Pura, Erandol, Maharashtra 425109",
        "detailed_address": {
            "ward": "Kagzi Pura",
            "street": "W89J+J9J",
            "city": "Erandol",
            "postal_code": "425109",
            "state": "Maharashtra",
            "country_code": "IN"
        },
        "images": [],
        "link": "https://www.google.com/maps/place/JAMA+MASJID+KAGZI+PURA/data=!4m7!3m6!1s0x3bd93e0540399d87:0x874f8b90255e998b!8m2!3d20.9190966!4d75.3308893!16s%2Fg%2F11dyp3c66w!19sChIJh505QAU-2TsRi5leJZCLT4c?authuser=0&hl=en&rclk=1",
        "coordinates": {
            "latitude": 20.9190966,
            "longitude": 75.3308893
        }
    },
    {
        "name": "Noorani Masjid",
        "main_category": "Mosque",
        "address": "W8CJ+WFP Noorani Masjid, islam pura, Erandol, Maharashtra 425109",
        "detailed_address": {
            "ward": "islam pura",
            "street": "W8CJ+WFP",
            "city": "Erandol",
            "postal_code": "425109",
            "state": "Maharashtra",
            "country_code": "IN"
        },
        "images": [],
        "link": "https://www.google.com/maps/place/Noorani+Masjid/data=!4m7!3m6!1s0x3bd93f86eb5396c7:0xf043840bbbb5f1f8!8m2!3d20.9223388!4d75.3312041!16s%2Fg%2F11gk94bm1l!19sChIJx5ZT64Y_2TsR-PG1uwuEQ_A?authuser=0&hl=en&rclk=1",
        "coordinates": {
            "latitude": 20.9223388,
            "longitude": 75.3312041
        }
    },
    {
        "name": "Sunni Shahi masjid",
        "main_category": "Mosque",
        "address": "Sunni Shahi masjid, Onkaro Jadhav Nagar, Erandol, Maharashtra 425109",
        "detailed_address": {
            "ward": "Onkaro Jadhav Nagar",
            "street": null,
            "city": "Erandol",
            "postal_code": "425109",
            "state": "Maharashtra",
            "country_code": "IN"
        },
        "images": [],
        "link": "https://www.google.com/maps/place/Sunni+Shahi+masjid/data=!4m7!3m6!1s0x3bd93f645fc8f7bf:0xacc99996d45a676!8m2!3d20.9237494!4d75.3308078!16s%2Fg%2F11rnhxgvkp!19sChIJv_fIX2Q_2TsRdqZFbZmZzAo?authuser=0&hl=en&rclk=1",
        "coordinates": {
            "latitude": 20.9237494,
            "longitude": 75.3308078
        }
    },
    {
        "name": "Barkandas masjid",
        "main_category": "Mosque",
        "address": "W8CH+9XM Barkandas masjid, Kagzi Pura, Erandol, Maharashtra 425109",
        "detailed_address": {
            "ward": "Kagzi Pura",
            "street": "W8CH+9XM",
            "city": "Erandol",
            "postal_code": "425109",
            "state": "Maharashtra",
            "country_code": "IN"
        },
        "images": [],
        "link": "https://www.google.com/maps/place/Barkandas+masjid/data=!4m7!3m6!1s0x3bd93f8aef2dd08d:0x368a340d6f6b58a5!8m2!3d20.9209666!4d75.3299113!16s%2Fg%2F11v3h7by0y!19sChIJjdAt74o_2TsRpVhrbw00ijY?authuser=0&hl=en&rclk=1",
        "coordinates": {
            "latitude": 20.9209666,
            "longitude": 75.32991129999999
        }
    },
    {
        "name": "Markaz Masjid Ali",
        "main_category": "Mosque",
        "address": "W8CF+HP2 Markaz Masjid Ali, Mashid Aali, Mulla Wada, Erandol, Maharashtra 425109",
        "detailed_address": {
            "ward": "Mashid Aali, Mulla Wada",
            "street": "W8CF+HP2",
            "city": "Erandol",
            "postal_code": "425109",
            "state": "Maharashtra",
            "country_code": "IN"
        },
        "images": [
            {
                "about": "All",
                "link": "https://lh5.googleusercontent.com/p/AF1QipMHQbeshHm9XQXLnSHbcGMWtS1ZnVEJ9-1bmqjN=w397-h298-k-no"
            }
        ],
        "link": "https://www.google.com/maps/place/Markaz+Masjid+Ali/data=!4m7!3m6!1s0x3bd93f56f5d39a4b:0xa18ddfd3de0bb758!8m2!3d20.9213759!4d75.3242585!16s%2Fg%2F11ssdtnsh1!19sChIJS5rT9VY_2TsRWLcL3tPfjaE?authuser=0&hl=en&rclk=1",
        "coordinates": {
            "latitude": 20.921375899999997,
            "longitude": 75.3242585
        }
    },
    {
        "name": "Sayyad siddique",
        "main_category": "Mosque",
        "address": "Sayyad siddique, masjid, Qureshi mohalla, Erandol, Maharashtra 425109",
        "detailed_address": {
            "ward": "Mali Wada",
            "street": "masjid, Qureshi mohalla",
            "city": "Erandol",
            "postal_code": "425109",
            "state": "Maharashtra",
            "country_code": "IN"
        },
        "images": [],
        "link": "https://www.google.com/maps/place/Sayyad+siddique/data=!4m7!3m6!1s0x3bd93fd6664b30d3:0xe6a932f84a31d72c!8m2!3d20.9234632!4d75.328944!16s%2Fg%2F11n7vm7kw0!19sChIJ0zBLZtY_2TsRLNcxSvgyqeY?authuser=0&hl=en&rclk=1",
        "coordinates": {
            "latitude": 20.9234632,
            "longitude": 75.32894399999999
        }
    },
    {
        "name": "Beldar Moholla Masjeed",
        "main_category": "Mosque",
        "address": "W8CJ+R3H Beldar Moholla Masjeed, mohannad aliUnnamed Road, Kagzi Pura, Erandol, Maharashtra 425109",
        "detailed_address": {
            "ward": "Kagzi Pura",
            "street": "W8CJ+R3H, mohannad aliUnnamed Road",
            "city": "Erandol",
            "postal_code": "425109",
            "state": "Maharashtra",
            "country_code": "IN"
        },
        "images": [],
        "link": "https://www.google.com/maps/place/Beldar+Moholla+Masjeed/data=!4m7!3m6!1s0x3bd93e04e5e917cd:0xa2f920acfab11227!8m2!3d20.9220508!4d75.3302321!16s%2Fg%2F11cs9mmrjl!19sChIJzRfp5QQ-2TsRJxKx-qwg-aI?authuser=0&hl=en&rclk=1",
        "coordinates": {
            "latitude": 20.922050799999997,
            "longitude": 75.3302321
        }
    },
    {
        "name": "BHAI KAL LA",
        "main_category": "Mosque",
        "address": "W8CJ+PFF BHAI KAL LA, Onkaro Jadhav Nagar, Erandol, Maharashtra 425109",
        "detailed_address": {
            "ward": "Onkaro Jadhav Nagar",
            "street": "W8CJ+PFF",
            "city": "Erandol",
            "postal_code": "425109",
            "state": "Maharashtra",
            "country_code": "IN"
        },
        "images": [],
        "link": "https://www.google.com/maps/place/BHAI+KAL+LA/data=!4m7!3m6!1s0x3bd93f7a9a223df1:0xc90096ec96314278!8m2!3d20.9218013!4d75.3311715!16s%2Fg%2F11sqxs7tm6!19sChIJ8T0imno_2TsReEIxluyWAMk?authuser=0&hl=en&rclk=1",
        "coordinates": {
            "latitude": 20.9218013,
            "longitude": 75.3311715
        }
    },
    {
        "name": "Hazrat Khuwaja Khurram kattal",
        "main_category": "Mosque",
        "address": "W8CG+3X2 Hazrat Khuwaja Khurram kattal, Main Rd, near Dargah Wali Masjid, Pandav Wada, Erandol, Maharashtra 425109",
        "detailed_address": {
            "ward": "Pandav Wada",
            "street": "W8CG+3X2, Main Rd, near Dargah Wali Masjid",
            "city": "Erandol",
            "postal_code": "425109",
            "state": "Maharashtra",
            "country_code": "IN"
        },
        "images": [],
        "link": "https://www.google.com/maps/place/Hazrat+Khuwaja+Khurram+kattal/data=!4m7!3m6!1s0x3bd93f61f92dd24d:0xcd2c0a631c916e0b!8m2!3d20.9214403!4d75.3276106!16s%2Fg%2F11v6058z9y!19sChIJTdIt-WE_2TsRC26RHGMKLM0?authuser=0&hl=en&rclk=1",
        "coordinates": {
            "latitude": 20.9214403,
            "longitude": 75.3276106
        }
    },
    {
        "name": "Mulla Wada",
        "main_category": null,
        "address": "Mulla Wada, Erandol, Maharashtra 425109",
        "detailed_address": {
            "ward": "Mulla Wada",
            "street": null,
            "city": "Erandol",
            "postal_code": null,
            "state": "Maharashtra",
            "country_code": "IN"
        },
        "images": [
            {
                "about": "All",
                "link": "https://lh5.googleusercontent.com/p/AF1QipMFeX7UTBDovIvCscPEsCPWBgq_qDwjrW6za6Jm=w224-h398-k-no"
            },
            {
                "about": "Videos",
                "link": "https://lh5.googleusercontent.com/p/AF1QipMFeX7UTBDovIvCscPEsCPWBgq_qDwjrW6za6Jm=w224-h398-k-no"
            }
        ],
        "link": "https://www.google.com/maps/place/Mulla+Wada/data=!4m7!3m6!1s0x3bd93e0e87bc9409:0x21aa72eca39f96cd!8m2!3d20.9207884!4d75.3244551!16s%2Fg%2F1ptx9c527!19sChIJCZS8hw4-2TsRzZafo-xyqiE?authuser=0&hl=en&rclk=1",
        "coordinates": {
            "latitude": 20.9207884,
            "longitude": 75.3244551
        }
    },
    {
        "name": "Jama Masjid, Erandol",
        "main_category": "Mosque",
        "address": "W8CF+CX9 Jama Masjid, Erandol, Pandav Wada, Erandol, Maharashtra 425109",
        "detailed_address": {
            "ward": "Pandav Wada",
            "street": "W8CF+CX9",
            "city": "Erandol",
            "postal_code": "425109",
            "state": "Maharashtra",
            "country_code": "IN"
        },
        "images": [
            {
                "about": "All",
                "link": "https://lh5.googleusercontent.com/p/AF1QipNqKsKiWOc0nJ-bCDffdWKbJOvhYPhbUjaGG7tA=w662-h298-k-no"
            },
            {
                "about": "Latest",
                "link": "https://lh5.googleusercontent.com/p/AF1QipNtfOUgu0qoR8vblHtYvIf2UwuG-pWs5WlCnvUH=w224-h497-k-no"
            }
        ],
        "link": "https://www.google.com/maps/place/Jama+Masjid,+Erandol/data=!4m7!3m6!1s0x3bd93fea3ad96acd:0xc6eb120e9485fc1b!8m2!3d20.9210442!4d75.3249726!16s%2Fm%2F09k4gs3!19sChIJzWrZOuo_2TsRG_yFlA4S68Y?authuser=0&hl=en&rclk=1",
        "coordinates": {
            "latitude": 20.9210442,
            "longitude": 75.3249726
        }
    }
]