[
    {
        "name": "Dargah Hazrat Kale Khan baba ki",
        "main_category": "Mosque",
        "address": "W72Q+XC Dargah Hazrat Kale Khan baba ki, Bheetar Bari, Bayana, Rajasthan 321401",
        "detailed_address": {
            "ward": "Bheetar Bari",
            "street": "W72Q+XC",
            "city": "Bayana",
            "postal_code": "321401",
            "state": "Rajasthan",
            "country_code": "IN"
        },
        "images": [
            {
                "about": "All",
                "link": "https://lh5.googleusercontent.com/p/AF1QipNOcfS22EUYTVwO6_wQWm8EDXZzc3MYRU-NTChk=w224-h298-k-no"
            },
            {
                "about": "Videos",
                "link": "https://lh5.googleusercontent.com/p/AF1QipO5d0Sbuytl-FhZB2KstKr2Klo16CVsRCvGNU6P=w224-h398-k-no"
            }
        ],
        "link": "https://www.google.com/maps/place/Dargah+Hazrat+Kale+Khan+baba+ki/data=!4m7!3m6!1s0x3973c99524b5766d:0xbaa160f028e42ed4!8m2!3d26.9021088!4d77.288238!16s%2Fg%2F11rtn91dt4!19sChIJbXa1JJXJczkR1C7kKPBgobo?authuser=0&hl=en&rclk=1",
        "coordinates": {
            "latitude": 26.902108799999997,
            "longitude": 77.28823799999999
        }
    },
    {
        "name": "Syed Baba Masjid",
        "main_category": "Mosque",
        "address": "V7J3+X2X Syed Baba Masjid, Bayana, Rajasthan 321401",
        "detailed_address": {
            "ward": null,
            "street": "V7J3+X2X",
            "city": "Bayana",
            "postal_code": "321401",
            "state": "Rajasthan",
            "country_code": "IN"
        },
        "images": [],
        "link": "https://www.google.com/maps/place/Syed+Baba+Masjid/data=!4m7!3m6!1s0x3973cb0ed2b28119:0x2434e928f6c2b452!8m2!3d26.8824794!4d77.252623!16s%2Fg%2F11rs0sy9cv!19sChIJGYGy0g7LczkRUrTC9ijpNCQ?authuser=0&hl=en&rclk=1",
        "coordinates": {
            "latitude": 26.882479399999998,
            "longitude": 77.252623
        }
    },
    {
        "name": "Usha Masjid",
        "main_category": "Mosque",
        "address": "W74P+G99 Usha Masjid, Bheetar Bari, Bayana, Rajasthan 321401",
        "detailed_address": {
            "ward": "Bheetar Bari",
            "street": "W74P+G99",
            "city": "Bayana",
            "postal_code": "321401",
            "state": "Rajasthan",
            "country_code": "IN"
        },
        "images": [
            {
                "about": "All",
                "link": "https://lh5.googleusercontent.com/p/AF1QipNllmf092V3Cf5akBFOT_l-ZE5JFFiSRoLjGIVI=w397-h298-k-no"
            }
        ],
        "link": "https://www.google.com/maps/place/Usha+Masjid/data=!4m7!3m6!1s0x3973cbfbbedd4dc9:0xbf5da9435e51c3b!8m2!3d26.9062733!4d77.2859488!16s%2Fg%2F11pzlv1fsq!19sChIJyU3dvvvLczkROxzlNZTa9Qs?authuser=0&hl=en&rclk=1",
        "coordinates": {
            "latitude": 26.9062733,
            "longitude": 77.2859488
        }
    },
    {
        "name": "Talaqni Masjid",
        "main_category": "Mosque",
        "address": "W76Q+V9V Talaqni Masjid, Madhuvan Vihar Colony, Bhagvati Colony, Bayana, Rajasthan 321401",
        "detailed_address": {
            "ward": "Madhuvan Vihar Colony, Bhagvati Colony",
            "street": "W76Q+V9V",
            "city": "Bayana",
            "postal_code": "321401",
            "state": "Rajasthan",
            "country_code": "IN"
        },
        "images": [],
        "link": "https://www.google.com/maps/place/Talaqni+Masjid/data=!4m7!3m6!1s0x3973c962cf0fffff:0xb04d11f2df41eac0!8m2!3d26.9122413!4d77.288418!16s%2Fg%2F11sscs0zk5!19sChIJ__8Pz2LJczkRwOpB3_IRTbA?authuser=0&hl=en&rclk=1",
        "coordinates": {
            "latitude": 26.912241299999998,
            "longitude": 77.288418
        }
    },
    {
        "name": "Masjid Ayesha",
        "main_category": "Mosque",
        "address": "Masjid Ayesha, Bayana, Rajasthan 321401",
        "detailed_address": {
            "ward": null,
            "street": null,
            "city": "Bayana",
            "postal_code": "321401",
            "state": "Rajasthan",
            "country_code": "IN"
        },
        "images": [
            {
                "about": "All",
                "link": "https://lh5.googleusercontent.com/p/AF1QipN5jOI9isvMiA1Jlv6nZPZNQ5LY4mUPQ75Ndzio=w528-h298-k-no"
            },
            {
                "about": "By owner",
                "link": "https://lh5.googleusercontent.com/p/AF1QipN5jOI9isvMiA1Jlv6nZPZNQ5LY4mUPQ75Ndzio=w528-h298-k-no"
            }
        ],
        "link": "https://www.google.com/maps/place/Masjid+Ayesha/data=!4m7!3m6!1s0x3973c96818cab76f:0x3f2bdcb265353cd!8m2!3d26.9062002!4d77.2917146!16s%2Fg%2F11v9_qn1s1!19sChIJb7fKGGjJczkRzVNTJsu98gM?authuser=0&hl=en&rclk=1",
        "coordinates": {
            "latitude": 26.906200199999997,
            "longitude": 77.29171459999999
        }
    },
    {
        "name": "Usha mandir",
        "main_category": "Mosque",
        "address": "W78Q+8QP Usha mandir, Adarsh Nagar, Bayana, Rajasthan 321401",
        "detailed_address": {
            "ward": "Adarsh Nagar",
            "street": "W78Q+8QP",
            "city": "Bayana",
            "postal_code": "321401",
            "state": "Rajasthan",
            "country_code": "IN"
        },
        "images": [],
        "link": "https://www.google.com/maps/place/Usha+mandir/data=!4m7!3m6!1s0x3973c9be30dbc511:0x74b74674bc430519!8m2!3d26.9158388!4d77.2894648!16s%2Fg%2F11kpzxc6gx!19sChIJEcXbML7JczkRGQVDvHRGt3Q?authuser=0&hl=en&rclk=1",
        "coordinates": {
            "latitude": 26.9158388,
            "longitude": 77.28946479999999
        }
    }
]