[
    {
        "name": "Jama Masjid Ahle Sunnat Wal Jamaat",
        "main_category": "Mosque",
        "address": "7HFV+J64 Jama Masjid Ahle Sunnat Wal Jamaat, Pethbhudhawar, Katol, Maharashtra 441302",
        "detailed_address": {
            "ward": "Pethbhudhawar",
            "street": "7HFV+J64",
            "city": "Katol",
            "postal_code": "441302",
            "state": "Maharashtra",
            "country_code": "IN"
        },
        "images": [
            {
                "about": "All",
                "link": "https://lh5.googleusercontent.com/p/AF1QipOLQZEQVw4T153po7GD6FbIBISFk7AEd_cfHetz=w224-h448-k-no"
            },
            {
                "about": "Videos",
                "link": "https://lh5.googleusercontent.com/p/AF1QipMvej3ugMmwhkG1x6lMcwg0qRiEVC0NzVMDE84U=w224-h398-k-no"
            }
        ],
        "link": "https://www.google.com/maps/place/Jama+Masjid+Ahle+Sunnat+Wal+Jamaat/data=!4m7!3m6!1s0x3bd459df204c5931:0x2d644708d976c19c!8m2!3d21.2740091!4d78.5930924!16s%2Fg%2F11fzwqydgz!19sChIJMVlMIN9Z1DsRnMF22QhHZC0?authuser=0&hl=en&rclk=1",
        "coordinates": {
            "latitude": 21.2740091,
            "longitude": 78.5930924
        }
    },
    {
        "name": "HATTIKHANA",
        "main_category": "Mosque",
        "address": "7HGQ+66F HATTIKHANA, Hattikhana, Katol, Maharashtra 441302",
        "detailed_address": {
            "ward": "Hattikhana",
            "street": "7HGQ+66F",
            "city": "Katol",
            "postal_code": "441302",
            "state": "Maharashtra",
            "country_code": "IN"
        },
        "images": [
            {
                "about": "All",
                "link": "https://streetviewpixels-pa.googleapis.com/v1/thumbnail?panoid=0gFRwFFKmbSVDdZTt5NL2w&cb_client=maps_sv.tactile.gps&w=224&h=298&yaw=76.48398&pitch=0&thumbfov=100"
            },
            {
                "about": "Street View & 360deg",
                "link": "https://streetviewpixels-pa.googleapis.com/v1/thumbnail?panoid=0gFRwFFKmbSVDdZTt5NL2w&cb_client=maps_sv.tactile.gps&w=224&h=298&yaw=76.48398&pitch=0&thumbfov=100"
            }
        ],
        "link": "https://www.google.com/maps/place/HATTIKHANA/data=!4m7!3m6!1s0x3bd4597f0f7ff677:0x5c6b4f7aa0b65da4!8m2!3d21.2755563!4d78.5880449!16s%2Fg%2F11hf8xc293!19sChIJd_Z_D39Z1DsRpF22oHpPa1w?authuser=0&hl=en&rclk=1",
        "coordinates": {
            "latitude": 21.275556299999998,
            "longitude": 78.5880449
        }
    },
    {
        "name": "haidri masjid",
        "main_category": "Mosque",
        "address": "7H8R+3G2 haidri masjid, Lamba Layout, Laxmi Nagar, Katol, Maharashtra 441302",
        "detailed_address": {
            "ward": "Lamba Layout, Laxmi Nagar",
            "street": "7H8R+3G2",
            "city": "Katol",
            "postal_code": "441302",
            "state": "Maharashtra",
            "country_code": "IN"
        },
        "images": [
            {
                "about": "All",
                "link": "https://streetviewpixels-pa.googleapis.com/v1/thumbnail?panoid=cztHdKBC2V7rVCUt_P5IEg&cb_client=maps_sv.tactile.gps&w=224&h=298&yaw=53.847996&pitch=0&thumbfov=100"
            },
            {
                "about": "Street View & 360deg",
                "link": "https://streetviewpixels-pa.googleapis.com/v1/thumbnail?panoid=cztHdKBC2V7rVCUt_P5IEg&cb_client=maps_sv.tactile.gps&w=224&h=298&yaw=53.847996&pitch=0&thumbfov=100"
            }
        ],
        "link": "https://www.google.com/maps/place/haidri+masjid/data=!4m7!3m6!1s0x3bd45932e380b5a1:0x64ac1e60b78b26f4!8m2!3d21.2651441!4d78.5912605!16s%2Fg%2F11g1lwrr2z!19sChIJobWA4zJZ1DsR9CaLt2AerGQ?authuser=0&hl=en&rclk=1",
        "coordinates": {
            "latitude": 21.2651441,
            "longitude": 78.59126049999999
        }
    },
    {
        "name": "Markarz masjid falli market katol",
        "main_category": "Mosque",
        "address": "7HCP+6PP Markarz masjid falli market katol, MH SH 248, Laxmi Nagar, Katol, Maharashtra 441302",
        "detailed_address": {
            "ward": "Laxmi Nagar",
            "street": "7HCP+6PP, MH SH 248",
            "city": "Katol",
            "postal_code": "441302",
            "state": "Maharashtra",
            "country_code": "IN"
        },
        "images": [],
        "link": "https://www.google.com/maps/place/Markarz+masjid+falli+market+katol/data=!4m7!3m6!1s0x3bd45948c2da3d87:0x769b91859f605ef8!8m2!3d21.2704684!4d78.5867583!16s%2Fg%2F11s_wv2n75!19sChIJhz3awkhZ1DsR-F5gn4WRm3Y?authuser=0&hl=en&rclk=1",
        "coordinates": {
            "latitude": 21.2704684,
            "longitude": 78.5867583
        }
    },
    {
        "name": "Jama masjid karol .A",
        "main_category": "Mosque",
        "address": "677J+QHG Jama masjid karol .A, Karol, Tanger, 182148",
        "detailed_address": {
            "ward": "Karol",
            "street": "677J+QHG",
            "city": "Tanger",
            "postal_code": null,
            "state": null,
            "country_code": "IN"
        },
        "images": [],
        "link": "https://www.google.com/maps/place/Jama+masjid+karol+.A/data=!4m7!3m6!1s0x391dc16dfc22faa9:0xaee6c26954370654!8m2!3d33.2144267!4d75.2814544!16s%2Fg%2F11pdr_lvv8!19sChIJqfoi_G3BHTkRVAY3VGnC5q4?authuser=0&hl=en&rclk=1",
        "coordinates": {
            "latitude": 33.2144267,
            "longitude": 75.2814544
        }
    }
]