[
    {
        "name": "Madrsa Inamul Uloom",
        "main_category": "Mosque",
        "address": "Madrsa Inamul Uloom, Railway Station, SH 37, Inam colony, near Bissau, Bissau, Rajasthan 331027",
        "detailed_address": {
            "ward": null,
            "street": "Railway Station, SH 37, Inam colony, near Bissau",
            "city": "Bissau",
            "postal_code": "331027",
            "state": "Rajasthan",
            "country_code": "IN"
        },
        "images": [
            {
                "about": "All",
                "link": "https://lh5.googleusercontent.com/p/AF1QipMcQwoEQZGTuE9rGYREuahCw6uFdsuwJxFvVPLL=w224-h477-k-no"
            },
            {
                "about": "Dome",
                "link": "https://lh5.googleusercontent.com/p/AF1QipMH-PNLNurW00JJanQvtQkmefsKRxq7hzKqjKyG=w224-h298-k-no"
            },
            {
                "about": "Videos",
                "link": "https://lh5.googleusercontent.com/p/AF1QipO2FpI2VPY85rgjyDB17JXq7HGc7nZT2XHAmQuS=w224-h398-k-no"
            }
        ],
        "link": "https://www.google.com/maps/place/Madrsa+Inamul+Uloom/data=!4m7!3m6!1s0x3913674fb239846d:0xa3c814b25226dc3b!8m2!3d28.2400687!4d75.0634874!16s%2Fg%2F1q69pl1rl!19sChIJbYQ5sk9nEzkRO9wmUrIUyKM?authuser=0&hl=en&rclk=1",
        "coordinates": {
            "latitude": 28.2400687,
            "longitude": 75.0634874
        }
    },
    {
        "name": "Markaz masjid",
        "main_category": "Mosque",
        "address": "63VF+X9X Markaz masjid, Bissau, Rajasthan 331027",
        "detailed_address": {
            "ward": null,
            "street": "63VF+X9X",
            "city": "Bissau",
            "postal_code": "331027",
            "state": "Rajasthan",
            "country_code": "IN"
        },
        "images": [
            {
                "about": "All",
                "link": "https://lh5.googleusercontent.com/p/AF1QipN1kDv4rFkizD-XyoAGnbqlD1FRh8FG14xhVm4B=w224-h398-k-no"
            },
            {
                "about": "Dome",
                "link": "https://lh5.googleusercontent.com/p/AF1QipM69Pzw5RbiWtEPklwRLmm576XfYucCOWu-R804=w224-h398-k-no"
            }
        ],
        "link": "https://www.google.com/maps/place/Markaz+masjid/data=!4m7!3m6!1s0x39136739d1ec918b:0x97fd922c7b4baabb!8m2!3d28.2449899!4d75.0734956!16s%2Fg%2F1pp2twmy0!19sChIJi5Hs0TlnEzkRu6pLeyyS_Zc?authuser=0&hl=en&rclk=1",
        "coordinates": {
            "latitude": 28.2449899,
            "longitude": 75.0734956
        }
    },
    {
        "name": "Masjid Arafat",
        "main_category": "Mosque",
        "address": "63XC+28J Masjid Arafat, arfat masjid, Bissau",
        "detailed_address": {
            "ward": null,
            "street": "63XC+28J, arfat masjid",
            "city": "Bissau",
            "postal_code": null,
            "state": "Rajasthan",
            "country_code": "IN"
        },
        "images": [
            {
                "about": "All",
                "link": "https://lh5.googleusercontent.com/p/AF1QipNqO5QBGngx5kZ3WPpXuTN8qPomMz5wNfvjYbxK=w224-h298-k-no"
            },
            {
                "about": "Videos",
                "link": "https://lh5.googleusercontent.com/p/AF1QipNrudwt0Xn1JenyB4qhbW2Ba6cb_Px1nSMBTjyv=w541-h298-k-no"
            }
        ],
        "link": "https://www.google.com/maps/place/Masjid+Arafat/data=!4m7!3m6!1s0x39136730ce5da713:0x894d9ea1778b798b!8m2!3d28.2475764!4d75.0707542!16s%2Fg%2F11b6xh47gq!19sChIJE6ddzjBnEzkRi3mLd6GeTYk?authuser=0&hl=en&rclk=1",
        "coordinates": {
            "latitude": 28.2475764,
            "longitude": 75.0707542
        }
    },
    {
        "name": "jamma masjid ( Markaz )",
        "main_category": "Mosque",
        "address": "52WW+XVQ jamma masjid ( Markaz ), Mahansar, Rajasthan 331030",
        "detailed_address": {
            "ward": null,
            "street": "52WW+XVQ",
            "city": "Mahansar",
            "postal_code": "331030",
            "state": "Rajasthan",
            "country_code": "IN"
        },
        "images": [
            {
                "about": "All",
                "link": "https://lh5.googleusercontent.com/p/AF1QipMWF8Oj1MO21IPgqjDeTDVoxTJLLSOMUl3Vri8j=w224-h484-k-no"
            }
        ],
        "link": "https://www.google.com/maps/place/jamma+masjid+%28+Markaz+%29/data=!4m7!3m6!1s0x39135e123785f5af:0x4fc835d81f092b23!8m2!3d28.1974596!4d75.0472229!16s%2Fg%2F11d_8dddq1!19sChIJr_WFNxJeEzkRIysJH9g1yE8?authuser=0&hl=en&rclk=1",
        "coordinates": {
            "latitude": 28.1974596,
            "longitude": 75.0472229
        }
    },
    {
        "name": "Umar Bin Khattab Mosque",
        "main_category": "Mosque",
        "address": "63VC+F6Q Umar Bin Khattab Mosque, Station Rd, Bissau, Rajasthan 331027",
        "detailed_address": {
            "ward": null,
            "street": "63VC+F6Q, Station Rd",
            "city": "Bissau",
            "postal_code": "331027",
            "state": "Rajasthan",
            "country_code": "IN"
        },
        "images": [
            {
                "about": "All",
                "link": "https://lh5.googleusercontent.com/p/AF1QipN_pZxMud4pbeFnW_GgYLpS6AL_Ev3eT5tmWnbT=w529-h298-k-no"
            },
            {
                "about": "Dome",
                "link": "https://lh5.googleusercontent.com/p/AF1QipOVrAwJvV3DbdvSnOzhpCFTw-D27BjyP8nv-Xi1=w397-h298-k-no"
            },
            {
                "about": "Videos",
                "link": "https://lh5.googleusercontent.com/p/AF1QipM6NFDKPTx55YbTZ7grd3osD5isa_ox6XjyU4Fp=w224-h398-k-no"
            }
        ],
        "link": "https://www.google.com/maps/place/Umar+Bin+Khattab+Mosque/data=!4m7!3m6!1s0x39136737a57ede93:0x9bfa3f177b625aa8!8m2!3d28.2437052!4d75.0706235!16s%2Fg%2F11b6ztthd5!19sChIJk95-pTdnEzkRqFpiexc_-ps?authuser=0&hl=en&rclk=1",
        "coordinates": {
            "latitude": 28.243705199999997,
            "longitude": 75.0706235
        }
    },
    {
        "name": "Safiya Mosque",
        "main_category": "Mosque",
        "address": "63R8+JQ7 Safiya Mosque, Bissau, Rajasthan 331027",
        "detailed_address": {
            "ward": null,
            "street": "63R8+JQ7",
            "city": "Bissau",
            "postal_code": null,
            "state": "Rajasthan",
            "country_code": "IN"
        },
        "images": [
            {
                "about": "All",
                "link": "https://lh5.googleusercontent.com/p/AF1QipPm2NAhobPgITMR46DH3AjIzU6fxIbPYDKgCx7P=w529-h298-k-no"
            }
        ],
        "link": "https://www.google.com/maps/place/Safiya+Mosque/data=!4m7!3m6!1s0x39136735fd703533:0xd9a139351d9014c3!8m2!3d28.2415405!4d75.0669354!16s%2Fg%2F11gfdk6884!19sChIJMzVw_TVnEzkRwxSQHTU5odk?authuser=0&hl=en&rclk=1",
        "coordinates": {
            "latitude": 28.2415405,
            "longitude": 75.06693539999999
        }
    },
    {
        "name": "Fatima Mosque",
        "main_category": "Mosque",
        "address": "63VM+M4P Fatima Mosque, Bissau, Rajasthan 331027",
        "detailed_address": {
            "ward": null,
            "street": "63VM+M4P",
            "city": "Bissau",
            "postal_code": "331027",
            "state": "Rajasthan",
            "country_code": "IN"
        },
        "images": [],
        "link": "https://www.google.com/maps/place/Fatima+Mosque/data=!4m7!3m6!1s0x3913673fbe287661:0x363e56ca6cc82f!8m2!3d28.2442145!4d75.0828214!16s%2Fg%2F11c0vldmpx!19sChIJYXYovj9nEzkRL8hsylY-NgA?authuser=0&hl=en&rclk=1",
        "coordinates": {
            "latitude": 28.2442145,
            "longitude": 75.0828214
        }
    },
    {
        "name": "Goriyan Mosque",
        "main_category": "Mosque",
        "address": "63VH+MQ2 Goriyan Mosque, Bissau, Rajasthan 331027",
        "detailed_address": {
            "ward": null,
            "street": "63VH+MQ2",
            "city": "Bissau",
            "postal_code": "331027",
            "state": "Rajasthan",
            "country_code": "IN"
        },
        "images": [
            {
                "about": "All",
                "link": "https://lh5.googleusercontent.com/p/AF1QipNGoSRpZcpvBHE4UxvVPxtcAyWQ-yeXo6t9lS5r=w224-h298-k-no"
            }
        ],
        "link": "https://www.google.com/maps/place/Goriyan+Mosque/data=!4m7!3m6!1s0x3913673f39fc6c1f:0x4be91cfd0e764226!8m2!3d28.2441264!4d75.0793846!16s%2Fg%2F11dyn3sqt7!19sChIJH2z8OT9nEzkRJkJ2Dv0c6Us?authuser=0&hl=en&rclk=1",
        "coordinates": {
            "latitude": 28.2441264,
            "longitude": 75.0793846
        }
    },
    {
        "name": "Taqwa Masjid",
        "main_category": "Mosque",
        "address": "63WC+697 Taqwa Masjid, Bissau, Rajasthan 331027",
        "detailed_address": {
            "ward": null,
            "street": "63WC+697",
            "city": "Bissau",
            "postal_code": "331027",
            "state": "Rajasthan",
            "country_code": "IN"
        },
        "images": [
            {
                "about": "All",
                "link": "https://lh5.googleusercontent.com/p/AF1QipPKa0HB8PvMtj6S7Pmzy6Le6sfdP-t82z3nC94O=w224-h398-k-no"
            },
            {
                "about": "Dome",
                "link": "https://lh5.googleusercontent.com/p/AF1QipPKa0HB8PvMtj6S7Pmzy6Le6sfdP-t82z3nC94O=w224-h398-k-no"
            }
        ],
        "link": "https://www.google.com/maps/place/Taqwa+Masjid/data=!4m7!3m6!1s0x39136737142ae099:0x6587821f45908d85!8m2!3d28.2455278!4d75.0709169!16s%2Fg%2F11dzd6357d!19sChIJmeAqFDdnEzkRhY2QRR-Ch2U?authuser=0&hl=en&rclk=1",
        "coordinates": {
            "latitude": 28.245527799999998,
            "longitude": 75.0709169
        }
    },
    {
        "name": "Mosque Nida-e Islam",
        "main_category": "Mosque",
        "address": "63V8+QJM Mosque Nida-e Islam, Station Rd, Bissau, Rajasthan 331027",
        "detailed_address": {
            "ward": null,
            "street": "63V8+QJM, Station Rd",
            "city": "Bissau",
            "postal_code": "331027",
            "state": "Rajasthan",
            "country_code": "IN"
        },
        "images": [
            {
                "about": "All",
                "link": "https://lh5.googleusercontent.com/p/AF1QipNYKON-gUWNouv_WZoK-6up4Ho4ZwqgkL2AvYmq=w397-h298-k-no"
            },
            {
                "about": "Latest",
                "link": "https://lh5.googleusercontent.com/p/AF1QipMsNahYgsPoUJKwFsbsFbBQwLrYC20CJiX0uoPa=w224-h389-k-no"
            },
            {
                "about": "Videos",
                "link": "https://lh5.googleusercontent.com/p/AF1QipOSYmAMJvYNCKphMvfkf9nJRJYT0sFnT1RSjK1l=w224-h298-k-no"
            }
        ],
        "link": "https://www.google.com/maps/place/Mosque+Nida-e+Islam/data=!4m7!3m6!1s0x391367342f4f15a1:0x61ddc3437782bf34!8m2!3d28.244453!4d75.066551!16s%2Fg%2F11d_76tdvn!19sChIJoRVPLzRnEzkRNL-Cd0PD3WE?authuser=0&hl=en&rclk=1",
        "coordinates": {
            "latitude": 28.244453,
            "longitude": 75.06655099999999
        }
    },
    {
        "name": "Nurani Mazid",
        "main_category": "Mosque",
        "address": "Nurani Mazid, BISSAU ROAD WORD NO 7, Malsisar, Rajasthan 331028",
        "detailed_address": {
            "ward": null,
            "street": "BISSAU ROAD WORD NO 7",
            "city": "Malsisar",
            "postal_code": "331028",
            "state": "Rajasthan",
            "country_code": "IN"
        },
        "images": [
            {
                "about": "All",
                "link": "https://lh5.googleusercontent.com/p/AF1QipM6r9R8XjxUJXa4F11U4Wj8cz695t93MDiW_Lzu=w224-h298-k-no"
            },
            {
                "about": "Street View & 360deg",
                "link": "https://streetviewpixels-pa.googleapis.com/v1/thumbnail?panoid=HR_xlu3nKML82_YwDxu9Vg&cb_client=maps_sv.tactile.gps&w=224&h=298&yaw=159.05234&pitch=0&thumbfov=100"
            }
        ],
        "link": "https://www.google.com/maps/place/Nurani+Mazid/data=!4m7!3m6!1s0x39136d2593d1778b:0x614c15b087b3a5ac!8m2!3d28.350057!4d75.2893544!16s%2Fg%2F11h08j1yyg!19sChIJi3fRkyVtEzkRrKWzh7AVTGE?authuser=0&hl=en&rclk=1",
        "coordinates": {
            "latitude": 28.350057,
            "longitude": 75.2893544
        }
    },
    {
        "name": "New Masjid Ward No. 01",
        "main_category": "Mosque",
        "address": "63XF+J75 New Masjid Ward No. 01, Bissau, Rajasthan 331027",
        "detailed_address": {
            "ward": null,
            "street": "63XF+J75",
            "city": "Bissau",
            "postal_code": "331027",
            "state": "Rajasthan",
            "country_code": "IN"
        },
        "images": [],
        "link": "https://www.google.com/maps/place/New+Masjid+Ward+No.+01/data=!4m7!3m6!1s0x3913675cf72381d5:0xd2c1ebfd9bb77b81!8m2!3d28.2490211!4d75.0732218!16s%2Fg%2F11gl1ptc_v!19sChIJ1YEj91xnEzkRgXu3m_3rwdI?authuser=0&hl=en&rclk=1",
        "coordinates": {
            "latitude": 28.2490211,
            "longitude": 75.0732218
        }
    },
    {
        "name": "Masjid",
        "main_category": "Mosque",
        "address": "63XJ+C9V Masjid, Bissau, Rajasthan 331027",
        "detailed_address": {
            "ward": null,
            "street": "63XJ+C9V",
            "city": "Bissau",
            "postal_code": "331027",
            "state": "Rajasthan",
            "country_code": "IN"
        },
        "images": [],
        "link": "https://www.google.com/maps/place/Masjid/data=!4m7!3m6!1s0x39136724128f6127:0x5f07a58544f24e5f!8m2!3d28.2486027!4d75.0809148!16s%2Fg%2F11q93t5g2q!19sChIJJ2GPEiRnEzkRX07yRIWlB18?authuser=0&hl=en&rclk=1",
        "coordinates": {
            "latitude": 28.2486027,
            "longitude": 75.0809148
        }
    },
    {
        "name": "aayesa masjid",
        "main_category": "Mosque",
        "address": "63VF+79W aayesa masjid, Ward No.5, Bissau, Rajasthan 331027",
        "detailed_address": {
            "ward": "Ward No.5",
            "street": "63VF+79W",
            "city": "Bissau",
            "postal_code": "331027",
            "state": "Rajasthan",
            "country_code": "IN"
        },
        "images": [],
        "link": "https://www.google.com/maps/place/aayesa+masjid/data=!4m7!3m6!1s0x39136784af443cb1:0x653e26f7f93229bd!8m2!3d28.243245!4d75.0734445!16s%2Fg%2F11f7pcztp0!19sChIJsTxEr4RnEzkRvSky-fcmPmU?authuser=0&hl=en&rclk=1",
        "coordinates": {
            "latitude": 28.243244999999998,
            "longitude": 75.0734445
        }
    },
    {
        "name": "Kalandari Masjid",
        "main_category": "Mosque",
        "address": "63VJ+28R Kalandari Masjid, Bissau, Rajasthan 331027",
        "detailed_address": {
            "ward": null,
            "street": "63VJ+28R",
            "city": "Bissau",
            "postal_code": "331027",
            "state": "Rajasthan",
            "country_code": "IN"
        },
        "images": [],
        "link": "https://www.google.com/maps/place/Kalandari+Masjid/data=!4m7!3m6!1s0x3913677bbcaf4d13:0xe96789f31827f388!8m2!3d28.2426127!4d75.0807633!16s%2Fg%2F11fk1k9lzj!19sChIJE02vvHtnEzkRiPMnGPOJZ-k?authuser=0&hl=en&rclk=1",
        "coordinates": {
            "latitude": 28.2426127,
            "longitude": 75.0807633
        }
    },
    {
        "name": "Noorani Masjid",
        "main_category": "Mosque",
        "address": "732F+W62 Noorani Masjid, Bissau, Rajasthan 331027",
        "detailed_address": {
            "ward": null,
            "street": "732F+W62",
            "city": "Bissau",
            "postal_code": "331027",
            "state": "Rajasthan",
            "country_code": "IN"
        },
        "images": [],
        "link": "https://www.google.com/maps/place/Noorani+Masjid/data=!4m7!3m6!1s0x39136754e0bebf4d:0x585bae22f18e39c5!8m2!3d28.2522688!4d75.073012!16s%2Fg%2F11fd72_kcd!19sChIJTb--4FRnEzkRxTmO8SKuW1g?authuser=0&hl=en&rclk=1",
        "coordinates": {
            "latitude": 28.2522688,
            "longitude": 75.07301199999999
        }
    },
    {
        "name": "Antarsaha Baba Dargah",
        "main_category": "Mosque",
        "address": "63VJ+28R Antarsaha Baba Dargah, Kalandri, Bissau, Rajasthan 331027",
        "detailed_address": {
            "ward": null,
            "street": "63VJ+28R",
            "city": "Kalandri, Bissau",
            "postal_code": null,
            "state": "Rajasthan",
            "country_code": "IN"
        },
        "images": [
            {
                "about": "All",
                "link": "https://lh5.googleusercontent.com/p/AF1QipMbNwr9WG63wPYtRefcMtH3I_X4t3avmwbeBIxl=w397-h298-k-no"
            },
            {
                "about": "Dome",
                "link": "https://lh5.googleusercontent.com/p/AF1QipN9z5kU6-OkHFRdNLslSpaDPIMkSQzgAG-EQqBH=w224-h298-k-no"
            }
        ],
        "link": "https://www.google.com/maps/place/Antarsaha+Baba+Dargah/data=!4m7!3m6!1s0x391367b568a6d4b3:0x81f48d8bde42b23b!8m2!3d28.2426206!4d75.0807611!16s%2Fg%2F11h5rwz1gt!19sChIJs9SmaLVnEzkRO7JC3ouN9IE?authuser=0&hl=en&rclk=1",
        "coordinates": {
            "latitude": 28.2426206,
            "longitude": 75.0807611
        }
    },
    {
        "name": "Gumbaj wali masjid",
        "main_category": "Mosque",
        "address": "5XFJ+4C4 Gumbaj wali masjid, Bhargav Colony, Ramgarh Shekhawati, Rajasthan 331024",
        "detailed_address": {
            "ward": "Bhargav Colony",
            "street": "5XFJ+4C4",
            "city": "Ramgarh Shekhawati",
            "postal_code": "331024",
            "state": "Rajasthan",
            "country_code": "IN"
        },
        "images": [],
        "link": "https://www.google.com/maps/place/Gumbaj+wali+masjid/data=!4m7!3m6!1s0x39135ff589fc2da1:0xaa2e794ef3395a21!8m2!3d28.1727512!4d74.9810769!16s%2Fg%2F11h_z7j4pn!19sChIJoS38ifVfEzkRIVo58055Lqo?authuser=0&hl=en&rclk=1",
        "coordinates": {
            "latitude": 28.1727512,
            "longitude": 74.98107689999999
        }
    },
    {
        "name": "Masjid Riyazul Zannah",
        "main_category": "Museum",
        "address": "63R9+RXG Masjid Riyazul Zannah, Bissau, Rajasthan 331027",
        "detailed_address": {
            "ward": null,
            "street": "63R9+RXG",
            "city": "Bissau",
            "postal_code": "331027",
            "state": "Rajasthan",
            "country_code": "IN"
        },
        "images": [],
        "link": "https://www.google.com/maps/place/Masjid+Riyazul+Zannah/data=!4m7!3m6!1s0x3913670c2166fae7:0x1e453f357fca918c!8m2!3d28.242059!4d75.069939!16s%2Fg%2F11g4ll409t!19sChIJ5_pmIQxnEzkRjJHKfzU_RR4?authuser=0&hl=en&rclk=1",
        "coordinates": {
            "latitude": 28.242058999999998,
            "longitude": 75.06993899999999
        }
    },
    {
        "name": "bdddhii kbristaan msjid",
        "main_category": "Mosque",
        "address": "732C+3HQ bdddhii kbristaan msjid, Bissau, Rajasthan 331027",
        "detailed_address": {
            "ward": null,
            "street": "732C+3HQ",
            "city": "Bissau",
            "postal_code": "331027",
            "state": "Rajasthan",
            "country_code": "IN"
        },
        "images": [
            {
                "about": "All",
                "link": "https://lh5.googleusercontent.com/p/AF1QipO8fLycoQsPk64To-qzk5ndqHM-dtfTof6rsO3A=w397-h298-k-no"
            }
        ],
        "link": "https://www.google.com/maps/place/%E0%A4%AC%E0%A5%9C%E0%A5%80+%E0%A4%95%E0%A4%AC%E0%A5%8D%E0%A4%B0%E0%A4%BF%E0%A4%B8%E0%A5%8D%E0%A4%A4%E0%A4%BE%E0%A4%A8+%E0%A4%AE%E0%A4%B8%E0%A5%8D%E0%A4%9C%E0%A4%BF%E0%A4%A6/data=!4m7!3m6!1s0x39136758dd6e1d91:0xef272a5759ff4429!8m2!3d28.2502107!4d75.0714782!16s%2Fg%2F11gl1pr81l!19sChIJkR1u3VhnEzkRKUT_WVcqJ-8?authuser=0&hl=en&rclk=1",
        "coordinates": {
            "latitude": 28.2502107,
            "longitude": 75.0714782
        }
    },
    {
        "name": "Kayamkhani masjid",
        "main_category": "Lodging",
        "address": "63XJ+G8M Kayamkhani masjid, Unnamed Road, Bissau, Rajasthan 331027",
        "detailed_address": {
            "ward": null,
            "street": "63XJ+G8M, Unnamed Road",
            "city": "Bissau",
            "postal_code": "331027",
            "state": "Rajasthan",
            "country_code": "IN"
        },
        "images": [],
        "link": "https://www.google.com/maps/place/Kayamkhani+masjid/data=!4m7!3m6!1s0x39136787205e8fed:0x46ac531b938443e1!8m2!3d28.2488261!4d75.0808037!16s%2Fg%2F11fm22q5xf!19sChIJ7Y9eIIdnEzkR4UOEkxtTrEY?authuser=0&hl=en&rclk=1",
        "coordinates": {
            "latitude": 28.2488261,
            "longitude": 75.08080369999999
        }
    },
    {
        "name": "Noor Bano Masjid",
        "main_category": "Mosque",
        "address": "Noor Bano Masjid, near Bus Stand, Bissau, Rajasthan 331027",
        "detailed_address": {
            "ward": null,
            "street": "near Bus Stand",
            "city": "Bissau",
            "postal_code": null,
            "state": "Rajasthan",
            "country_code": "IN"
        },
        "images": [
            {
                "about": "All",
                "link": "https://lh5.googleusercontent.com/p/AF1QipOCBc6-iGx7XvuPtg0mDg06VLXL6yGK9FAM47z1=w224-h298-k-no"
            }
        ],
        "link": "https://www.google.com/maps/place/Noor+Bano+Masjid/data=!4m7!3m6!1s0x391367e930624127:0xe50f2274604cf2e4!8m2!3d28.2433526!4d75.0748174!16s%2Fg%2F11pwwzzycm!19sChIJJ0FiMOlnEzkR5PJMYHQiD-U?authuser=0&hl=en&rclk=1",
        "coordinates": {
            "latitude": 28.243352599999998,
            "longitude": 75.0748174
        }
    },
    {
        "name": "M M House",
        "main_category": "School",
        "address": "Ward no.3, M M House, Arafat Masjid, Bissau, Rajasthan 331027",
        "detailed_address": {
            "ward": null,
            "street": "Ward no.3, Arafat Masjid",
            "city": "Bissau",
            "postal_code": "331027",
            "state": "Rajasthan",
            "country_code": "IN"
        },
        "images": [],
        "link": "https://www.google.com/maps/place/M+M+House/data=!4m7!3m6!1s0x3913671a45fa5c03:0xd262a32bcfd15fab!8m2!3d28.2448075!4d75.0757172!16s%2Fg%2F11ty9gjsw3!19sChIJA1z6RRpnEzkRq1_RzyujYtI?authuser=0&hl=en&rclk=1",
        "coordinates": {
            "latitude": 28.2448075,
            "longitude": 75.0757172
        }
    },
    {
        "name": "Bilal Masjid Lilgran Bissau",
        "main_category": "Clothing store",
        "address": "734F+7X5 Bilal Masjid Lilgran Bissau, Bissau, Rajasthan 331027",
        "detailed_address": {
            "ward": null,
            "street": "734F+7X5",
            "city": "Bissau",
            "postal_code": "331027",
            "state": "Rajasthan",
            "country_code": "IN"
        },
        "images": [],
        "link": "https://www.google.com/maps/place/Bilal+Masjid+Lilgran+Bissau/data=!4m7!3m6!1s0x39136700257778f3:0xafeb6a59339f8df9!8m2!3d28.2556016!4d75.0750709!16s%2Fg%2F11vjzvr2qt!19sChIJ83h3JQBnEzkR-Y2fM1lq668?authuser=0&hl=en&rclk=1",
        "coordinates": {
            "latitude": 28.2556016,
            "longitude": 75.0750709
        }
    },
    {
        "name": "Markaj masjid qureshi chowk gangiayasar",
        "main_category": "Mosque",
        "address": "74FX+8JM Markaj masjid qureshi chowk gangiayasar, Gangiyasar, Rajasthan 331027",
        "detailed_address": {
            "ward": null,
            "street": "74FX+8JM",
            "city": "Gangiyasar",
            "postal_code": "331027",
            "state": "Rajasthan",
            "country_code": "IN"
        },
        "images": [],
        "link": "https://www.google.com/maps/place/Markaj+masjid+qureshi+chowk+gangiayasar/data=!4m7!3m6!1s0x391367b110ed040f:0xa9431cd46c6aad8a!8m2!3d28.2733498!4d75.149038!16s%2Fg%2F11ss_k5bfy!19sChIJDwTtELFnEzkRiq1qbNQcQ6k?authuser=0&hl=en&rclk=1",
        "coordinates": {
            "latitude": 28.2733498,
            "longitude": 75.14903799999999
        }
    },
    {
        "name": "Bilal Jama masjid Lilgran Bisaun wat No 25",
        "main_category": "Book store",
        "address": "734F+7X5 Bilal Jama masjid Lilgran Bisaun wat No 25, Bissau, Rajasthan 331027",
        "detailed_address": {
            "ward": null,
            "street": "734F+7X5",
            "city": "Bissau",
            "postal_code": "331027",
            "state": "Rajasthan",
            "country_code": "IN"
        },
        "images": [],
        "link": "https://www.google.com/maps/place/Bilal+Jama+masjid+Lilgran+Bisaun+wat+No+25/data=!4m7!3m6!1s0x3913670056ad3885:0xa756f32bf79ad27b!8m2!3d28.2556343!4d75.0749823!16s%2Fg%2F11vm3lss11!19sChIJhTitVgBnEzkRe9Ka9yvzVqc?authuser=0&hl=en&rclk=1",
        "coordinates": {
            "latitude": 28.255634299999997,
            "longitude": 75.0749823
        }
    },
    {
        "name": "Chauhan sadan",
        "main_category": "Sports club",
        "address": "Chauhan sadan, A251, near Fatima mosque, Bissau, Rajasthan wardno.12",
        "detailed_address": {
            "ward": null,
            "street": "A251, near Fatima mosque",
            "city": "Bissau",
            "postal_code": "wardno.12",
            "state": "Rajasthan",
            "country_code": "IN"
        },
        "images": [
            {
                "about": "All",
                "link": "https://lh5.googleusercontent.com/p/AF1QipMdY-JQAtM9VB8aMfCbz4EUwGOyI21qToy0frLF=w224-h398-k-no"
            }
        ],
        "link": "https://www.google.com/maps/place/Chauhan+sadan/data=!4m7!3m6!1s0x3913675891e10b61:0x5b3b2a97f51b2935!8m2!3d28.2442145!4d75.0828214!16s%2Fg%2F11s5s88q83!19sChIJYQvhkVhnEzkRNSkb9ZcqO1s?authuser=0&hl=en&rclk=1",
        "coordinates": {
            "latitude": 28.2442145,
            "longitude": 75.0828214
        }
    },
    {
        "name": "Mohdsharif",
        "main_category": "Wholesaler",
        "address": "Mohdsharif, arfat masjid, Bissau, Rajasthan 331027",
        "detailed_address": {
            "ward": null,
            "street": "arfat masjid",
            "city": "Bissau",
            "postal_code": "331027",
            "state": "Rajasthan",
            "country_code": "IN"
        },
        "images": [],
        "link": "https://www.google.com/maps/place/Mohdsharif/data=!4m7!3m6!1s0x39136787061cb309:0x8ec59904d7404c49!8m2!3d28.2470117!4d75.0707579!16s%2Fg%2F11q36848cx!19sChIJCbMcBodnEzkRSUxA1wSZxY4?authuser=0&hl=en&rclk=1",
        "coordinates": {
            "latitude": 28.247011699999998,
            "longitude": 75.07075789999999
        }
    }
]