[
    {
        "name": "Rahatgarh Jama Masjid",
        "main_category": "Mosque",
        "address": "Q9MR+793 Rahatgarh Jama Masjid, Rahatgarh, Madhya Pradesh 470119",
        "detailed_address": {
            "ward": null,
            "street": "Q9MR+793",
            "city": "Rahatgarh",
            "postal_code": "470119",
            "state": "Madhya Pradesh",
            "country_code": "IN"
        },
        "images": [
            {
                "about": "All",
                "link": "https://streetviewpixels-pa.googleapis.com/v1/thumbnail?panoid=zSxBi3EeBhOYT9XMgmwB5w&cb_client=maps_sv.tactile.gps&w=224&h=298&yaw=316.5361&pitch=0&thumbfov=100"
            },
            {
                "about": "Street View & 360deg",
                "link": "https://streetviewpixels-pa.googleapis.com/v1/thumbnail?panoid=zSxBi3EeBhOYT9XMgmwB5w&cb_client=maps_sv.tactile.gps&w=224&h=298&yaw=316.5361&pitch=0&thumbfov=100"
            }
        ],
        "link": "https://www.google.com/maps/place/Rahatgarh+Jama+Masjid/data=!4m7!3m6!1s0x397933f13b921acd:0x1653654552a8cee0!8m2!3d23.7831288!4d78.39093!16s%2Fg%2F11g5zwx_p_!19sChIJzRqSO_EzeTkR4M6oUkVlUxY?authuser=0&hl=en&rclk=1",
        "coordinates": {
            "latitude": 23.7831288,
            "longitude": 78.39093
        }
    },
    {
        "name": "Markaz Masjid",
        "main_category": "Mosque",
        "address": "Q9PX+JJP Markaz Masjid, Rahatgarh, Madhya Pradesh 470119",
        "detailed_address": {
            "ward": null,
            "street": "Q9PX+JJP",
            "city": "Rahatgarh",
            "postal_code": "470119",
            "state": "Madhya Pradesh",
            "country_code": "IN"
        },
        "images": [
            {
                "about": "All",
                "link": "https://lh5.googleusercontent.com/p/AF1QipMEJfJZrc6-3OQd-idujFj8sxVwq9nZvoJM2KjH=w397-h298-k-no"
            },
            {
                "about": "Videos",
                "link": "https://lh5.googleusercontent.com/p/AF1QipNYKvjmBkKpwuD2G1osazR5-U7RKFG4SSBY1Jth=w224-h398-k-no"
            }
        ],
        "link": "https://www.google.com/maps/place/Markaz+Masjid/data=!4m7!3m6!1s0x397933ef71f40155:0xf9a706521070e42b!8m2!3d23.7865876!4d78.3990853!16s%2Fg%2F11c47ytxwx!19sChIJVQH0ce8zeTkRK-RwEFIGp_k?authuser=0&hl=en&rclk=1",
        "coordinates": {
            "latitude": 23.786587599999997,
            "longitude": 78.3990853
        }
    },
    {
        "name": "Mansoori Masjid",
        "main_category": "Mosque",
        "address": "Q9PV+XHJ Mansoori Masjid, Rahatgarh, Birpura, Madhya Pradesh 470119",
        "detailed_address": {
            "ward": null,
            "street": "Q9PV+XHJ",
            "city": "Rahatgarh, Birpura",
            "postal_code": "470119",
            "state": "Madhya Pradesh",
            "country_code": "IN"
        },
        "images": [
            {
                "about": "All",
                "link": "https://lh5.googleusercontent.com/p/AF1QipNODYKrztmL2g1gHCp8njmi9an3iQ2g-S1uQt2g=w529-h298-k-no"
            },
            {
                "about": "Dome",
                "link": "https://lh5.googleusercontent.com/p/AF1QipO5sZkg1b0-pwe0JIMotrtRpBdH7vD4pKRmrLaF=w224-h485-k-no"
            }
        ],
        "link": "https://www.google.com/maps/place/Mansoori+Masjid/data=!4m7!3m6!1s0x397933fa9e603c59:0xe295e50c21b2ada0!8m2!3d23.7874522!4d78.3939036!16s%2Fg%2F11c5sqz18q!19sChIJWTxgnvozeTkRoK2yIQzlleI?authuser=0&hl=en&rclk=1",
        "coordinates": {
            "latitude": 23.7874522,
            "longitude": 78.3939036
        }
    },
    {
        "name": "Usmani Masjid",
        "main_category": "Mosque",
        "address": "Q9QV+M5Q Usmani Masjid, Unnamed Rd,, Rahatgarh, Madhya Pradesh 470119",
        "detailed_address": {
            "ward": null,
            "street": "Q9QV+M5Q, Unnamed Rd,",
            "city": "Rahatgarh, Birpura",
            "postal_code": "470119",
            "state": "Madhya Pradesh",
            "country_code": "IN"
        },
        "images": [
            {
                "about": "All",
                "link": "https://lh5.googleusercontent.com/p/AF1QipNrtcewan146YpnSMVUpYpeGH1rgiizb_wEJ1gQ=w224-h398-k-no"
            },
            {
                "about": "Dome",
                "link": "https://lh5.googleusercontent.com/p/AF1QipMbC0zjHrWDYwc_ct6UtljlZhbmr33es0X-TPcg=w224-h398-k-no"
            },
            {
                "about": "Videos",
                "link": "https://lh5.googleusercontent.com/p/AF1QipMbC0zjHrWDYwc_ct6UtljlZhbmr33es0X-TPcg=w224-h398-k-no"
            },
            {
                "about": "Street View & 360deg",
                "link": "https://streetviewpixels-pa.googleapis.com/v1/thumbnail?panoid=9K8gv7WBQ9wSeDEzWkHxag&cb_client=maps_sv.tactile.gps&w=224&h=298&yaw=267.2373&pitch=0&thumbfov=100"
            }
        ],
        "link": "https://www.google.com/maps/place/Usmani+Masjid/data=!4m7!3m6!1s0x397933faf6e2c969:0x1b6dc587222b876e!8m2!3d23.789211!4d78.3929785!16s%2Fg%2F11bzyn00p_!19sChIJacni9vozeTkRbocrIofFbRs?authuser=0&hl=en&rclk=1",
        "coordinates": {
            "latitude": 23.789210999999998,
            "longitude": 78.3929785
        }
    },
    {
        "name": "masjid abu bakar, rahatgarh",
        "main_category": "Mosque",
        "address": "QCR4+F3M masjid abu bakar, rahatgarh, Rahatgarh, Madhya Pradesh 470119",
        "detailed_address": {
            "ward": null,
            "street": "QCR4+F3M",
            "city": "Rahatgarh",
            "postal_code": "470119",
            "state": "Madhya Pradesh",
            "country_code": "IN"
        },
        "images": [
            {
                "about": "All",
                "link": "https://lh5.googleusercontent.com/p/AF1QipP9auwIxnSyLeHOltiryjZbMUcJcdywfSubvK9J=w397-h298-k-no"
            }
        ],
        "link": "https://www.google.com/maps/place/masjid+abu+bakar,+rahatgarh/data=!4m7!3m6!1s0x397933e70984869d:0xc8db6df87abf61ab!8m2!3d23.7912133!4d78.4051802!16s%2Fg%2F11cmhldg_f!19sChIJnYaECeczeTkRq2G_evht28g?authuser=0&hl=en&rclk=1",
        "coordinates": {
            "latitude": 23.7912133,
            "longitude": 78.40518019999999
        }
    },
    {
        "name": "Masjid Aqsa",
        "main_category": "Mosque",
        "address": "QCQ2+Q4M Masjid Aqsa, Rahatgarh, Madhya Pradesh 470119",
        "detailed_address": {
            "ward": null,
            "street": "QCQ2+Q4M",
            "city": "Rahatgarh",
            "postal_code": "470119",
            "state": "Madhya Pradesh",
            "country_code": "IN"
        },
        "images": [
            {
                "about": "All",
                "link": "https://streetviewpixels-pa.googleapis.com/v1/thumbnail?panoid=gyYiyLP0DBe7JYWB_2zZKw&cb_client=maps_sv.tactile.gps&w=224&h=298&yaw=166.37968&pitch=0&thumbfov=100"
            },
            {
                "about": "Street View & 360deg",
                "link": "https://streetviewpixels-pa.googleapis.com/v1/thumbnail?panoid=gyYiyLP0DBe7JYWB_2zZKw&cb_client=maps_sv.tactile.gps&w=224&h=298&yaw=166.37968&pitch=0&thumbfov=100"
            }
        ],
        "link": "https://www.google.com/maps/place/Masjid+Aqsa/data=!4m7!3m6!1s0x397933e5c3c5fa43:0xe6c0382b57f9f9a5!8m2!3d23.7894593!4d78.4002907!16s%2Fg%2F11c56v8pg0!19sChIJQ_rFw-UzeTkRpfn5Vys4wOY?authuser=0&hl=en&rclk=1",
        "coordinates": {
            "latitude": 23.789459299999997,
            "longitude": 78.4002907
        }
    },
    {
        "name": "Muhammadi Masjid",
        "main_category": "Mosque",
        "address": "QCV2+345 Muhammadi Masjid, Rahatgarh, Birpura, Madhya Pradesh 470119",
        "detailed_address": {
            "ward": null,
            "street": "QCV2+345",
            "city": "Rahatgarh, Birpura",
            "postal_code": "470119",
            "state": "Madhya Pradesh",
            "country_code": "IN"
        },
        "images": [
            {
                "about": "All",
                "link": "https://lh5.googleusercontent.com/p/AF1QipOt42uLeG8TFRnxcIXmDXa7ri-8Q5bzOuyVjPJu=w404-h298-k-no"
            },
            {
                "about": "Videos",
                "link": "https://lh5.googleusercontent.com/p/AF1QipP52yrVlyQMqi3A7sZC5gwzjI1LeXdrP7cdEe0F=w224-h398-k-no"
            }
        ],
        "link": "https://www.google.com/maps/place/Muhammadi+Masjid/data=!4m7!3m6!1s0x397933e4111962a9:0xe960931be14a7b22!8m2!3d23.7926403!4d78.400367!16s%2Fg%2F11ddxtt4tp!19sChIJqWIZEeQzeTkRIntK4RuTYOk?authuser=0&hl=en&rclk=1",
        "coordinates": {
            "latitude": 23.7926403,
            "longitude": 78.400367
        }
    },
    {
        "name": "Bilal Masjid",
        "main_category": "Mosque",
        "address": "Q9WW+VH9 Bilal Masjid, Rahatgarh, Kalyanpur Bir, Madhya Pradesh 470119",
        "detailed_address": {
            "ward": null,
            "street": "Q9WW+VH9",
            "city": "Rahatgarh, Kalyanpur Bir",
            "postal_code": "470119",
            "state": "Madhya Pradesh",
            "country_code": "IN"
        },
        "images": [
            {
                "about": "All",
                "link": "https://lh5.googleusercontent.com/p/AF1QipOqLRS2p39Ir6v_KFPeKbUXreATRGn7XKg1F6YU=w224-h298-k-no"
            },
            {
                "about": "Videos",
                "link": "https://lh5.googleusercontent.com/p/AF1QipNuyVSBkeTd8oKOT5Xeh9utdBRfkTGjRKT-Jxx_=w224-h497-k-no"
            }
        ],
        "link": "https://www.google.com/maps/place/Bilal+Masjid/data=!4m7!3m6!1s0x397933e2c5008bf7:0x244d7f11b37a9107!8m2!3d23.7971729!4d78.3964748!16s%2Fg%2F11c602r10z!19sChIJ94sAxeIzeTkRB5F6sxF_TSQ?authuser=0&hl=en&rclk=1",
        "coordinates": {
            "latitude": 23.7971729,
            "longitude": 78.3964748
        }
    },
    {
        "name": "Masjid E Hamzah.",
        "main_category": "Mosque",
        "address": "Q9VX+RMM Masjid E Hamzah., Rahatgarh, Birpura, Madhya Pradesh 470119",
        "detailed_address": {
            "ward": null,
            "street": "Q9VX+RMM",
            "city": "Rahatgarh, Birpura",
            "postal_code": "470119",
            "state": "Madhya Pradesh",
            "country_code": "IN"
        },
        "images": [
            {
                "about": "All",
                "link": "https://lh5.googleusercontent.com/p/AF1QipNmrUsVGC3f7R1NpJ95ncKzvd1onL1HTwsp3IZK=w224-h298-k-no"
            },
            {
                "about": "Street View & 360deg",
                "link": "https://streetviewpixels-pa.googleapis.com/v1/thumbnail?panoid=j-0sHIEQ6_zKfsXFs8ob8g&cb_client=maps_sv.tactile.gps&w=224&h=298&yaw=124.645485&pitch=0&thumbfov=100"
            },
            {
                "about": "Videos",
                "link": "https://lh5.googleusercontent.com/p/AF1QipMOxzzY3QGO4T1k4axC-rTlYT2IJRF9a3xz0Ix1=w224-h398-k-no"
            }
        ],
        "link": "https://www.google.com/maps/place/Masjid+E+Hamzah./data=!4m7!3m6!1s0x397933e390be7677:0x67482e03b7fba6a8!8m2!3d23.7945965!4d78.3991633!16s%2Fg%2F11g64v7nfg!19sChIJd3a-kOMzeTkRqKb7twMuSGc?authuser=0&hl=en&rclk=1",
        "coordinates": {
            "latitude": 23.794596499999997,
            "longitude": 78.3991633
        }
    },
    {
        "name": "Masjid E Quba",
        "main_category": "Mosque",
        "address": "Q9PX+6F2 Masjid E Quba, Rahatgarh, Madhya Pradesh 470119",
        "detailed_address": {
            "ward": null,
            "street": "Q9PX+6F2",
            "city": "Rahatgarh",
            "postal_code": "470119",
            "state": "Madhya Pradesh",
            "country_code": "IN"
        },
        "images": [],
        "link": "https://www.google.com/maps/place/Masjid+E+Quba/data=!4m7!3m6!1s0x397933ef088b853b:0x6122ccf316c704d2!8m2!3d23.7855108!4d78.3986397!16s%2Fg%2F11c2pj_bmg!19sChIJO4WLCO8zeTkR0gTHFvPMImE?authuser=0&hl=en&rclk=1",
        "coordinates": {
            "latitude": 23.785510799999997,
            "longitude": 78.39863969999999
        }
    },
    {
        "name": "Durweshiyan Masjid",
        "main_category": "Mosque",
        "address": "Q9PW+2X9 Durweshiyan Masjid, Rahatgarh, Madhya Pradesh 470119",
        "detailed_address": {
            "ward": null,
            "street": "Q9PW+2X9",
            "city": "Rahatgarh",
            "postal_code": "470119",
            "state": "Madhya Pradesh",
            "country_code": "IN"
        },
        "images": [],
        "link": "https://www.google.com/maps/place/Durweshiyan+Masjid/data=!4m7!3m6!1s0x397933efb1690bbf:0x7ac2092e1e5c9755!8m2!3d23.7850405!4d78.3974769!16s%2Fg%2F11c2pmbgwt!19sChIJvwtpse8zeTkRVZdcHi4Jwno?authuser=0&hl=en&rclk=1",
        "coordinates": {
            "latitude": 23.785040499999997,
            "longitude": 78.3974769
        }
    },
    {
        "name": "Masjid Rahat Muhammad Khan",
        "main_category": "Mosque",
        "address": "Q9JV+9HG Masjid Rahat Muhammad Khan, Sagar, Madhya Pradesh 470119",
        "detailed_address": {
            "ward": null,
            "street": "Q9JV+9HG",
            "city": "Sagar",
            "postal_code": "470119",
            "state": "Madhya Pradesh",
            "country_code": "IN"
        },
        "images": [],
        "link": "https://www.google.com/maps/place/Masjid+Rahat+Muhammad+Khan/data=!4m7!3m6!1s0x3979337d8db090eb:0x98f6df267678ac92!8m2!3d23.7809428!4d78.3939606!16s%2Fg%2F11lg0n3q5p!19sChIJ65CwjX0zeTkRkqx4dibf9pg?authuser=0&hl=en&rclk=1",
        "coordinates": {
            "latitude": 23.7809428,
            "longitude": 78.3939606
        }
    },
    {
        "name": "msjid ishaak'",
        "main_category": "Mosque",
        "address": "Q9PX+4W3 msjid ishaak', Rahatgarh, Madhya Pradesh 470119",
        "detailed_address": {
            "ward": null,
            "street": "Q9PX+4W3",
            "city": "Rahatgarh",
            "postal_code": "470119",
            "state": "Madhya Pradesh",
            "country_code": "IN"
        },
        "images": [
            {
                "about": "All",
                "link": "https://lh5.googleusercontent.com/p/AF1QipOq2FRM3U7TWnDjrz8NTDv2E2nDweOXwkFSRAE=w224-h298-k-no"
            }
        ],
        "link": "https://www.google.com/maps/place/%E0%A4%AE%E0%A4%B8%E0%A5%8D%E0%A4%9C%E0%A4%BF%E0%A4%A6+%E0%A4%87%E0%A4%B8%E0%A5%8D%E0%A4%B9%E0%A4%BE%E0%A4%95%E0%A4%BC/data=!4m7!3m6!1s0x397933296db808bd:0xae5d047207f398bc!8m2!3d23.7852594!4d78.3997872!16s%2Fg%2F11sd97y_hr!19sChIJvQi4bSkzeTkRvJjzB3IEXa4?authuser=0&hl=en&rclk=1",
        "coordinates": {
            "latitude": 23.785259399999997,
            "longitude": 78.39978719999999
        }
    }
]