[
    {
        "name": "Markaz masjid dharur",
        "main_category": "Mosque",
        "address": "R4C6+5G9 Markaz masjid dharur, Dharur Main Rd, Dharur, Maharashtra 431124",
        "detailed_address": {
            "ward": null,
            "street": "R4C6+5G9, Dharur Main Rd",
            "city": "Dharur",
            "postal_code": "431124",
            "state": "Maharashtra",
            "country_code": "IN"
        },
        "images": [
            {
                "about": "All",
                "link": "https://lh5.googleusercontent.com/p/AF1QipMlR2Sa8K0C-4E2YqDaU1pv5J5a2zrpozYm09jz=w529-h298-k-no"
            },
            {
                "about": "By owner",
                "link": "https://lh5.googleusercontent.com/p/AF1QipNYcRQBNfhM1AYYP9WYn6Xv6cNQGV8DlRxMpzuk=w540-h298-k-no"
            }
        ],
        "link": "https://www.google.com/maps/place/Markaz+masjid+dharur/data=!4m7!3m6!1s0x3bc547bd01200edd:0xc9264e709f1e001d!8m2!3d18.8196039!4d76.1110905!16s%2Fg%2F11b6q3g3sk!19sChIJ3Q4gAb1HxTsRHQAen3BOJsk?authuser=0&hl=en&rclk=1",
        "coordinates": {
            "latitude": 18.8196039,
            "longitude": 76.1110905
        }
    },
    {
        "name": "Noorani Masjid Dharur",
        "main_category": "Mosque",
        "address": "R4C5+WV9 Noorani Masjid Dharur, Dharur, Maharashtra 431124",
        "detailed_address": {
            "ward": null,
            "street": "R4C5+WV9",
            "city": "Dharur",
            "postal_code": "431124",
            "state": "Maharashtra",
            "country_code": "IN"
        },
        "images": [
            {
                "about": "All",
                "link": "https://lh5.googleusercontent.com/p/AF1QipNITASMe5Qd6wlZR2UVT5R28WQ8rGoqdVPp_b2U=w224-h298-k-no"
            },
            {
                "about": "Dome",
                "link": "https://lh5.googleusercontent.com/p/AF1QipNcGs_bBkWf9enUphuOxfh-mSupodBladX2yFmK=w687-h298-k-no"
            }
        ],
        "link": "https://www.google.com/maps/place/Noorani+Masjid+Dharur/data=!4m7!3m6!1s0x3bc547bdeef0924b:0xcc84e8be52f1b6ed!8m2!3d18.8222792!4d76.1097325!16s%2Fg%2F11c6vr2ngg!19sChIJS5Lw7r1HxTsR7bbxUr7ohMw?authuser=0&hl=en&rclk=1",
        "coordinates": {
            "latitude": 18.8222792,
            "longitude": 76.10973249999999
        }
    },
    {
        "name": "Takiya Masjid",
        "main_category": "Mosque",
        "address": "R496+F6C Takiya Masjid, Dharur, Maharashtra 431124",
        "detailed_address": {
            "ward": null,
            "street": "R496+F6C",
            "city": "Dharur",
            "postal_code": "431124",
            "state": "Maharashtra",
            "country_code": "IN"
        },
        "images": [
            {
                "about": "All",
                "link": "https://lh5.googleusercontent.com/p/AF1QipP1i6yhuF5wcFFSLna9x-eh37Z6JpiZVNbAgy6m=w224-h395-k-no"
            },
            {
                "about": "Videos",
                "link": "https://lh5.googleusercontent.com/p/AF1QipPAVFa8_ptiDUvNZrsd_yLDlpekW8voAlkuV-yr=w224-h398-k-no"
            }
        ],
        "link": "https://www.google.com/maps/place/Takiya+Masjid/data=!4m7!3m6!1s0x3bc547dccd3df3f7:0x1664448b7c1677ac!8m2!3d18.8186804!4d76.1105032!16s%2Fg%2F11h07yg6bj!19sChIJ9_M9zdxHxTsRrHcWfItEZBY?authuser=0&hl=en&rclk=1",
        "coordinates": {
            "latitude": 18.818680399999998,
            "longitude": 76.1105032
        }
    },
    {
        "name": "Gulzar Masjid",
        "main_category": "Mosque",
        "address": "R495+83H Gulzar Masjid, Dharur, Maharashtra 431124",
        "detailed_address": {
            "ward": null,
            "street": "R495+83H",
            "city": "Dharur",
            "postal_code": "431124",
            "state": "Maharashtra",
            "country_code": "IN"
        },
        "images": [
            {
                "about": "All",
                "link": "https://lh5.googleusercontent.com/p/AF1QipO8TDhlJk6aFQ6CVOZ9n36J68Y-jCcxqUYQYt3a=w397-h298-k-no"
            }
        ],
        "link": "https://www.google.com/maps/place/Gulzar+Masjid/data=!4m7!3m6!1s0x3bc54797e954e805:0x886baed27fe5e592!8m2!3d18.8183068!4d76.1077261!16s%2Fg%2F11cn67bn7v!19sChIJBehU6ZdHxTsRkuXlf9Kua4g?authuser=0&hl=en&rclk=1",
        "coordinates": {
            "latitude": 18.8183068,
            "longitude": 76.1077261
        }
    },
    {
        "name": "Jama Masjid",
        "main_category": "Mosque",
        "address": "R4C5+H7M Jama Masjid, Dharur, Maharashtra 431124",
        "detailed_address": {
            "ward": null,
            "street": "R4C5+H7M",
            "city": "Dharur",
            "postal_code": "431124",
            "state": "Maharashtra",
            "country_code": "IN"
        },
        "images": [
            {
                "about": "All",
                "link": "https://lh5.googleusercontent.com/p/AF1QipNkWxZZasfRr-8QcHe3imJ89oNAd9HP6chQY1sN=w529-h298-k-no"
            },
            {
                "about": "Videos",
                "link": "https://lh5.googleusercontent.com/p/AF1QipNGjDYSpZ0S439HBT6tDwBykRYxEMCDp3RsW3w6=w529-h298-k-no"
            }
        ],
        "link": "https://www.google.com/maps/place/Jama+Masjid/data=!4m7!3m6!1s0x3bc5479622ec46fb:0xe889e8e7317ab489!8m2!3d18.8214695!4d76.1081696!16s%2Fg%2F11c6ts9cl_!19sChIJ-0bsIpZHxTsRibR6Mefoieg?authuser=0&hl=en&rclk=1",
        "coordinates": {
            "latitude": 18.8214695,
            "longitude": 76.1081696
        }
    },
    {
        "name": "Jamia Masjid Dharur",
        "main_category": "Mosque",
        "address": "8Q5H+8CJ Jamia Masjid Dharur, Dharur, Telangana 501121",
        "detailed_address": {
            "ward": null,
            "street": "8Q5H+8CJ",
            "city": "Dharur",
            "postal_code": "501121",
            "state": "Telangana",
            "country_code": "IN"
        },
        "images": [],
        "link": "https://www.google.com/maps/place/Jamia+Masjid+Dharur/data=!4m7!3m6!1s0x3bc95d6e3c30d393:0xcc29e0958803dfbc!8m2!3d17.308339!4d77.7785304!16s%2Fg%2F11fxdx86lx!19sChIJk9MwPG5dyTsRvN8DiJXgKcw?authuser=0&hl=en&rclk=1",
        "coordinates": {
            "latitude": 17.308339,
            "longitude": 77.7785304
        }
    },
    {
        "name": "Dharur Masjid",
        "main_category": "Mosque",
        "address": "QW66+W84 Dharur Masjid, Dharur, Telangana 505455",
        "detailed_address": {
            "ward": null,
            "street": "QW66+W84",
            "city": "Dharur",
            "postal_code": "505455",
            "state": "Telangana",
            "country_code": "IN"
        },
        "images": [],
        "link": "https://www.google.com/maps/place/Dharur+Masjid/data=!4m7!3m6!1s0x3bcd13e1e5f92ff9:0xb82c685881bc10f5!8m2!3d18.7622632!4d78.9108145!16s%2Fg%2F11df0xt2lp!19sChIJ-S_55eETzTsR9RC8gVhoLLg?authuser=0&hl=en&rclk=1",
        "coordinates": {
            "latitude": 18.7622632,
            "longitude": 78.9108145
        }
    },
    {
        "name": "Hazrat Umar masjid",
        "main_category": "Mosque",
        "address": "R4G6+M93 Hazrat Umar masjid, Fort Rd, Dharur, Maharashtra 431124",
        "detailed_address": {
            "ward": null,
            "street": "R4G6+M93, Fort Rd",
            "city": "Dharur",
            "postal_code": "431124",
            "state": "Maharashtra",
            "country_code": "IN"
        },
        "images": [
            {
                "about": "All",
                "link": "https://lh5.googleusercontent.com/p/AF1QipP3SW0izz9-IY6gUXbakray-u_vunWUbmy8AK7u=w224-h398-k-no"
            },
            {
                "about": "Street View & 360deg",
                "link": "https://streetviewpixels-pa.googleapis.com/v1/thumbnail?panoid=PMIDlF5fGIQy-7Hm0W4n-A&cb_client=maps_sv.tactile.gps&w=224&h=298&yaw=333.03333&pitch=0&thumbfov=100"
            },
            {
                "about": "Videos",
                "link": "https://lh5.googleusercontent.com/p/AF1QipNfr_1uuWvmKDWZAGXzKvAyDDUPfttUvCNOw7ss=w224-h398-k-no"
            }
        ],
        "link": "https://www.google.com/maps/place/Hazrat+Umar+masjid/data=!4m7!3m6!1s0x3bc5472f0d9b90ed:0xc9a05bd29cf48c1a!8m2!3d18.8266358!4d76.1109345!16s%2Fg%2F11h1m50bd5!19sChIJ7ZCbDS9HxTsRGoz0nNJboMk?authuser=0&hl=en&rclk=1",
        "coordinates": {
            "latitude": 18.8266358,
            "longitude": 76.1109345
        }
    },
    {
        "name": "Dayera masjid AZAAD NAGAR",
        "main_category": "Mosque",
        "address": "R4F6+5GX Dayera masjid AZAAD NAGAR, Dharur, Maharashtra 431124",
        "detailed_address": {
            "ward": null,
            "street": "R4F6+5GX",
            "city": "Dharur",
            "postal_code": "431124",
            "state": "Maharashtra",
            "country_code": "IN"
        },
        "images": [],
        "link": "https://www.google.com/maps/place/Dayera+masjid+AZAAD+NAGAR/data=!4m7!3m6!1s0x3bc547c1d345103b:0x5bba3e8423f2f0ae!8m2!3d18.8229793!4d76.111369!16s%2Fg%2F11flgdc8wz!19sChIJOxBF08FHxTsRrvDyI4Q-uls?authuser=0&hl=en&rclk=1",
        "coordinates": {
            "latitude": 18.8229793,
            "longitude": 76.111369
        }
    },
    {
        "name": "Qureshi Masjid",
        "main_category": "Mosque",
        "address": "R495+8GF Qureshi Masjid, Qureshi Galli, Dharur, Maharashtra 431124",
        "detailed_address": {
            "ward": null,
            "street": "R495+8GF, Qureshi Galli",
            "city": "Dharur",
            "postal_code": null,
            "state": "Maharashtra",
            "country_code": "IN"
        },
        "images": [],
        "link": "https://www.google.com/maps/place/Qureshi+Masjid/data=!4m7!3m6!1s0x3bc5477635ce64e7:0x90b66507f7133fe4!8m2!3d18.8183226!4d76.108809!16s%2Fg%2F11sc76_jdg!19sChIJ52TONXZHxTsR5D8T9wdltpA?authuser=0&hl=en&rclk=1",
        "coordinates": {
            "latitude": 18.8183226,
            "longitude": 76.108809
        }
    }
]