[
    {
        "name": "MASJID E MOINUDDIN ZAHED, MAKTAB HAZRAT UMAR FAROOQ R.Z",
        "main_category": "Mosque",
        "address": "MASJID E MOINUDDIN ZAHED, MAKTAB HAZRAT UMAR FAROOQ R.Z, SUNNAM BATTI, Edla Wada, Mancherial, Telangana 504208",
        "detailed_address": {
            "ward": null,
            "street": "SUNNAM BATTI, Edla Wada",
            "city": "Mancherial",
            "postal_code": "504208",
            "state": "Telangana",
            "country_code": "IN"
        },
        "images": [
            {
                "about": "All",
                "link": "https://lh5.googleusercontent.com/p/AF1QipOuZshI-VB1JL0e6zeFPUndXtoHfJglw8YGx8nV=w397-h298-k-no"
            },
            {
                "about": "By owner",
                "link": "https://lh5.googleusercontent.com/p/AF1QipOc_etRkgnJTjipRtV1JWj4SfrfCOFFLlPtx0X_=w529-h298-k-no"
            },
            {
                "about": "Videos",
                "link": "https://lh5.googleusercontent.com/p/AF1QipPQpydZIYpSLNJkZSNLaXlqXaEkwttcChw255L1=w224-h398-k-no"
            },
            {
                "about": "Street View & 360deg",
                "link": "https://streetviewpixels-pa.googleapis.com/v1/thumbnail?panoid=xN1uM8-8Ougb0LjMKQEpyQ&cb_client=maps_sv.tactile.gps&w=224&h=298&yaw=184.14812&pitch=0&thumbfov=100"
            }
        ],
        "link": "https://www.google.com/maps/place/MASJID+E+MOINUDDIN+ZAHED,+MAKTAB+HAZRAT+UMAR+FAROOQ+R.Z/data=!4m7!3m6!1s0x3a32cbd20eb48977:0x15c91af9fdef8ae3!8m2!3d18.8653693!4d79.4573734!16s%2Fg%2F11swy46385!19sChIJd4m0DtLLMjoR44rv_fkayRU?authuser=0&hl=en&rclk=1",
        "coordinates": {
            "latitude": 18.865369299999998,
            "longitude": 79.4573734
        }
    },
    {
        "name": "JAMIA MASJID (MARKAZ) MANCHERIAL",
        "main_category": "Mosque",
        "address": "JAMIA MASJID (MARKAZ) MANCHERIAL, Maqsood Nagar, Railway Sta Rd, Mancherial, Telangana 504208",
        "detailed_address": {
            "ward": null,
            "street": "Maqsood Nagar, Railway Sta Rd",
            "city": "Mancherial",
            "postal_code": "504208",
            "state": "Telangana",
            "country_code": "IN"
        },
        "images": [
            {
                "about": "All",
                "link": "https://lh5.googleusercontent.com/p/AF1QipM-K5cC5uboSk6w2mdqdZs11JqGyt420PnyaDM=w397-h298-k-no"
            },
            {
                "about": "Street View & 360deg",
                "link": "https://streetviewpixels-pa.googleapis.com/v1/thumbnail?panoid=2t_nWyTrt6LTPodnThsY_Q&cb_client=maps_sv.tactile.gps&w=224&h=298&yaw=301.807&pitch=0&thumbfov=100"
            }
        ],
        "link": "https://www.google.com/maps/place/JAMIA+MASJID+%28MARKAZ%29+MANCHERIAL/data=!4m7!3m6!1s0x3a32ca7332981fc3:0x904801a97d7d4749!8m2!3d18.8786662!4d79.4481227!16s%2Fg%2F11_t9gzls!19sChIJwx-YMnPKMjoRSUd9fakBSJA?authuser=0&hl=en&rclk=1",
        "coordinates": {
            "latitude": 18.878666199999998,
            "longitude": 79.4481227
        }
    },
    {
        "name": "Masjid-E-zaffar",
        "main_category": "Mosque",
        "address": "VCMX+966 Masjid-E-zaffar, Zafar Nagar, Mancherial, Telangana 504208",
        "detailed_address": {
            "ward": "Zafar Nagar",
            "street": "VCMX+966",
            "city": "Mancherial",
            "postal_code": "504208",
            "state": "Telangana",
            "country_code": "IN"
        },
        "images": [
            {
                "about": "All",
                "link": "https://lh5.googleusercontent.com/p/AF1QipNm2DTd9x7uuz7TNSN1js35U0HcRmqeHdkn1mGz=w397-h298-k-no"
            },
            {
                "about": "Street View & 360deg",
                "link": "https://streetviewpixels-pa.googleapis.com/v1/thumbnail?panoid=jv7wa-9U7nx2wFCE0vHdHg&cb_client=maps_sv.tactile.gps&w=224&h=298&yaw=339.59012&pitch=0&thumbfov=100"
            }
        ],
        "link": "https://www.google.com/maps/place/Masjid-E-zaffar/data=!4m7!3m6!1s0x3a32ca0b2b7b5ea1:0xe0b727326da73e2c!8m2!3d18.8834195!4d79.4480221!16s%2Fg%2F11cr_fbjhp!19sChIJoV57KwvKMjoRLD6nbTInt-A?authuser=0&hl=en&rclk=1",
        "coordinates": {
            "latitude": 18.8834195,
            "longitude": 79.4480221
        }
    },
    {
        "name": "Masjid E Ahle Hadees",
        "main_category": "Mosque",
        "address": "VCHV+RXH Masjid E Ahle Hadees, near A1 Hotel, Iqbal Ahmed Nagar, Mancherial, Telangana 504208",
        "detailed_address": {
            "ward": "Iqbal Ahmed Nagar",
            "street": "VCHV+RXH, near A1 Hotel",
            "city": "Mancherial",
            "postal_code": "504208",
            "state": "Telangana",
            "country_code": "IN"
        },
        "images": [
            {
                "about": "All",
                "link": "https://lh5.googleusercontent.com/p/AF1QipOHg5hJmggm9eatlhmFVXOTDdWDZbinkh_bvFYT=w397-h298-k-no"
            }
        ],
        "link": "https://www.google.com/maps/place/Masjid+E+Ahle+Hadees/data=!4m7!3m6!1s0x3a32ca739dbc90b5:0x396d12ab7c93be86!8m2!3d18.8795742!4d79.4449801!16s%2Fg%2F11g6yk8qs1!19sChIJtZC8nXPKMjoRhr6TfKsSbTk?authuser=0&hl=en&rclk=1",
        "coordinates": {
            "latitude": 18.8795742,
            "longitude": 79.4449801
        }
    },
    {
        "name": "MASJID-E-RIZWAN",
        "main_category": "Mosque",
        "address": "VCWW+C27 MASJID-E-RIZWAN, Mancherial, Telangana 504209",
        "detailed_address": {
            "ward": null,
            "street": "VCWW+C27",
            "city": "Mancherial",
            "postal_code": "504209",
            "state": "Telangana",
            "country_code": "IN"
        },
        "images": [
            {
                "about": "All",
                "link": "https://lh5.googleusercontent.com/p/AF1QipMwb53E2e21eJqB0vL47HJuhbDMvg25G9a8uQEI=w224-h398-k-no"
            },
            {
                "about": "Street View & 360deg",
                "link": "https://streetviewpixels-pa.googleapis.com/v1/thumbnail?panoid=geABrqu7PJBBfZi-gar15Q&cb_client=maps_sv.tactile.gps&w=224&h=298&yaw=213.41835&pitch=0&thumbfov=100"
            }
        ],
        "link": "https://www.google.com/maps/place/MASJID-E-RIZWAN/data=!4m7!3m6!1s0x3a32b58da7fca97b:0xb169a17a1ec89dec!8m2!3d18.8960394!4d79.4450408!16s%2Fg%2F1hc2rzj_z!19sChIJe6n8p421MjoR7J3IHnqhabE?authuser=0&hl=en&rclk=1",
        "coordinates": {
            "latitude": 18.8960394,
            "longitude": 79.4450408
        }
    },
    {
        "name": "Madina Masjid",
        "main_category": "Mosque",
        "address": "VF6H+HRF Madina Masjid, Naspur Colony, Naspur, Mancherial, Telangana 504302",
        "detailed_address": {
            "ward": "Naspur Colony",
            "street": "VF6H+HRF",
            "city": "Naspur, Mancherial",
            "postal_code": "504302",
            "state": "Telangana",
            "country_code": "IN"
        },
        "images": [
            {
                "about": "All",
                "link": "https://lh5.googleusercontent.com/p/AF1QipMwpGZY-TJW9CkfTG0DKaBQrWTVTTeOjrLf6YGq=w529-h298-k-no"
            },
            {
                "about": "Street View & 360deg",
                "link": "https://streetviewpixels-pa.googleapis.com/v1/thumbnail?panoid=1vckaDGA8QCPCWMACdHh_w&cb_client=maps_sv.tactile.gps&w=224&h=298&yaw=173.88863&pitch=0&thumbfov=100"
            }
        ],
        "link": "https://www.google.com/maps/place/Madina+Masjid/data=!4m7!3m6!1s0x3a32c98c60135b39:0xf6135a4c8f0dcb3b!8m2!3d18.8614304!4d79.479548!16s%2Fg%2F1tgn80xm!19sChIJOVsTYIzJMjoRO8sNj0xaE_Y?authuser=0&hl=en&rclk=1",
        "coordinates": {
            "latitude": 18.8614304,
            "longitude": 79.479548
        }
    },
    {
        "name": "Masjid -e- Waheed",
        "main_category": "Mosque",
        "address": "VCPW+3Q3 Masjid -e- Waheed, Mancherial, Telangana 504208",
        "detailed_address": {
            "ward": null,
            "street": "VCPW+3Q3",
            "city": "Mancherial",
            "postal_code": "504208",
            "state": "Telangana",
            "country_code": "IN"
        },
        "images": [
            {
                "about": "All",
                "link": "https://lh5.googleusercontent.com/p/AF1QipNpFfZzDpMxf89aEqq4WUlLw8GBpy_zAuagvDO2=w298-h298-k-no"
            }
        ],
        "link": "https://www.google.com/maps/place/Masjid+-e-+Waheed/data=!4m7!3m6!1s0x3a32ca7538a3edc1:0xb2ec2d8d60f8c3ec!8m2!3d18.8851382!4d79.4469226!16s%2Fg%2F11c60ckx1x!19sChIJwe2jOHXKMjoR7MP4YI0t7LI?authuser=0&hl=en&rclk=1",
        "coordinates": {
            "latitude": 18.8851382,
            "longitude": 79.4469226
        }
    },
    {
        "name": "Masjid-E-Arafath",
        "main_category": "Mosque",
        "address": "VCMR+3H2 Masjid-E-Arafath, Islampura, Mancherial, Telangana 504208",
        "detailed_address": {
            "ward": "Islampura",
            "street": "VCMR+3H2",
            "city": "Mancherial",
            "postal_code": "504208",
            "state": "Telangana",
            "country_code": "IN"
        },
        "images": [
            {
                "about": "All",
                "link": "https://lh5.googleusercontent.com/p/AF1QipP2z5vLxDr-hnYd2EN7WqOWAEKHpBG15QLlArb1=w224-h298-k-no"
            },
            {
                "about": "Street View & 360deg",
                "link": "https://streetviewpixels-pa.googleapis.com/v1/thumbnail?panoid=avDLDet8pc3nG14b9jwRgg&cb_client=maps_sv.tactile.gps&w=224&h=298&yaw=26.789251&pitch=0&thumbfov=100"
            }
        ],
        "link": "https://www.google.com/maps/place/Masjid-E-Arafath/data=!4m7!3m6!1s0x3a32ca7691caee01:0xfcc8cbca71e2ae52!8m2!3d18.8826432!4d79.4413931!16s%2Fg%2F11fxcdj5cf!19sChIJAe7KkXbKMjoRUq7iccrLyPw?authuser=0&hl=en&rclk=1",
        "coordinates": {
            "latitude": 18.8826432,
            "longitude": 79.4413931
        }
    },
    {
        "name": "Krishna Colony Masjid",
        "main_category": "Mosque",
        "address": "VGC4+P8Q Krishna Colony Masjid, Srirampur Colony, Mancherial, Telangana 504303",
        "detailed_address": {
            "ward": "Srirampur Colony",
            "street": "VGC4+P8Q",
            "city": "Mancherial",
            "postal_code": "504303",
            "state": "Telangana",
            "country_code": "IN"
        },
        "images": [
            {
                "about": "All",
                "link": "https://lh5.googleusercontent.com/p/AF1QipO-3G0awhJ0IHGisd0Y9HwPWNEVVTqWStwMKo1B=w224-h398-k-no"
            },
            {
                "about": "Videos",
                "link": "https://lh5.googleusercontent.com/p/AF1QipOgK2cuQuzceMXxmFWhovLAK2xTVynQJaD3vUqI=w224-h398-k-no"
            }
        ],
        "link": "https://www.google.com/maps/place/Krishna+Colony+Masjid/data=!4m7!3m6!1s0x3a32c9c8c9117427:0x5384663c433ceea2!8m2!3d18.8718323!4d79.5058457!16s%2Fg%2F11gdt6f3n1!19sChIJJ3QRycjJMjoRou48QzxmhFM?authuser=0&hl=en&rclk=1",
        "coordinates": {
            "latitude": 18.871832299999998,
            "longitude": 79.5058457
        }
    },
    {
        "name": "Jame Masjid CCC",
        "main_category": "Mosque",
        "address": "VFFQ+M4M Jame Masjid CCC, Masjid rd, R K 5 Colony, Naspur, Mancherial, Telangana 504302",
        "detailed_address": {
            "ward": "R K 5 Colony",
            "street": "VFFQ+M4M, Masjid rd",
            "city": "Naspur, Mancherial",
            "postal_code": "504302",
            "state": "Telangana",
            "country_code": "IN"
        },
        "images": [
            {
                "about": "All",
                "link": "https://lh5.googleusercontent.com/p/AF1QipNgMnPX84oEtZyoLdFX0GSIbLzFpOwxez0Qy7cF=w397-h298-k-no"
            },
            {
                "about": "Street View & 360deg",
                "link": "https://lh5.googleusercontent.com/p/AF1QipNhMM1CMk1MzQqjmof2brPzz94LdcSSOoECWKvq=w224-h298-k-no-pi-20-ya349-ro-0-fo100"
            }
        ],
        "link": "https://www.google.com/maps/place/Jame+Masjid+CCC/data=!4m7!3m6!1s0x3a32c9e92835d0cd:0x2e5ad0d10d935b4a!8m2!3d18.87421!4d79.4878097!16s%2Fg%2F11c32c7c71!19sChIJzdA1KOnJMjoRSluTDdHQWi4?authuser=0&hl=en&rclk=1",
        "coordinates": {
            "latitude": 18.874209999999998,
            "longitude": 79.4878097
        }
    },
    {
        "name": "MASJID-E-HUDA",
        "main_category": "Mosque",
        "address": "VCJP+XH6 MASJID-E-HUDA, Gautami Nagar, Mancherial, Telangana 504208",
        "detailed_address": {
            "ward": "Gautami Nagar",
            "street": "VCJP+XH6",
            "city": "Mancherial",
            "postal_code": "504208",
            "state": "Telangana",
            "country_code": "IN"
        },
        "images": [
            {
                "about": "All",
                "link": "https://lh5.googleusercontent.com/p/AF1QipNcg4YINcZD32wUKzd_OwQDvTetHxdBw_qbLYUE=w224-h298-k-no"
            },
            {
                "about": "Street View & 360deg",
                "link": "https://streetviewpixels-pa.googleapis.com/v1/thumbnail?panoid=kM1xE89JfR7G9IbpXPx_cQ&cb_client=maps_sv.tactile.gps&w=224&h=298&yaw=341.68268&pitch=0&thumbfov=100"
            }
        ],
        "link": "https://www.google.com/maps/place/MASJID-E-HUDA/data=!4m7!3m6!1s0x3a32ca79d70e4bb7:0x2dc21fc4d0147e98!8m2!3d18.8824203!4d79.4363988!16s%2Fg%2F11cs6drznx!19sChIJt0sO13nKMjoRmH4U0MQfwi0?authuser=0&hl=en&rclk=1",
        "coordinates": {
            "latitude": 18.8824203,
            "longitude": 79.43639879999999
        }
    },
    {
        "name": "MASJID-E-SHAHEEN",
        "main_category": "Mosque",
        "address": "VCCX+6FH MASJID-E-SHAHEEN, Unnamed Road, Mancherial, Telangana 504208",
        "detailed_address": {
            "ward": null,
            "street": "VCCX+6FH, Unnamed Road",
            "city": "Mancherial",
            "postal_code": "504208",
            "state": "Telangana",
            "country_code": "IN"
        },
        "images": [
            {
                "about": "All",
                "link": "https://streetviewpixels-pa.googleapis.com/v1/thumbnail?panoid=Z1XUDinYZAJrdAJuGCcaFg&cb_client=maps_sv.tactile.gps&w=224&h=298&yaw=40.03003&pitch=0&thumbfov=100"
            },
            {
                "about": "Street View & 360deg",
                "link": "https://streetviewpixels-pa.googleapis.com/v1/thumbnail?panoid=Z1XUDinYZAJrdAJuGCcaFg&cb_client=maps_sv.tactile.gps&w=224&h=298&yaw=40.03003&pitch=0&thumbfov=100"
            }
        ],
        "link": "https://www.google.com/maps/place/MASJID-E-SHAHEEN/data=!4m7!3m6!1s0x3a32cb56c214794b:0xd2ade06bb92c76bd!8m2!3d18.8705651!4d79.4487429!16s%2Fg%2F11g07z4sts!19sChIJS3kUwlbLMjoRvXYsuWvgrdI?authuser=0&hl=en&rclk=1",
        "coordinates": {
            "latitude": 18.8705651,
            "longitude": 79.4487429
        }
    },
    {
        "name": "Masjid-E-Azam Kareem Auliya",
        "main_category": "Mosque",
        "address": "VCJM+P49 Masjid-E-Azam Kareem Auliya, Unnamed Road, Mancherial, Telangana 504208",
        "detailed_address": {
            "ward": null,
            "street": "VCJM+P49, Unnamed Road",
            "city": "Mancherial",
            "postal_code": "504208",
            "state": "Telangana",
            "country_code": "IN"
        },
        "images": [
            {
                "about": "All",
                "link": "https://lh5.googleusercontent.com/p/AF1QipPxfZQdupq1MCBNDFJuWzWmODK5T-8q0GnCjTo=w224-h398-k-no"
            }
        ],
        "link": "https://www.google.com/maps/place/Masjid-E-Azam+Kareem+Auliya/data=!4m7!3m6!1s0x3a32ca7913d90aa7:0x1c1fe168ba7a4fae!8m2!3d18.8817829!4d79.4328725!16s%2Fg%2F11hc_tjzf2!19sChIJpwrZE3nKMjoRrk96umjhHxw?authuser=0&hl=en&rclk=1",
        "coordinates": {
            "latitude": 18.881782899999997,
            "longitude": 79.4328725
        }
    },
    {
        "name": "MADEENA MASJID",
        "main_category": "Mosque",
        "address": "VCQQ+GX9 MADEENA MASJID, Vikas Nagar, Mancherial, Telangana 504208",
        "detailed_address": {
            "ward": "Vikas Nagar",
            "street": "VCQQ+GX9",
            "city": "Mancherial",
            "postal_code": "504208",
            "state": "Telangana",
            "country_code": "IN"
        },
        "images": [],
        "link": "https://www.google.com/maps/place/MADEENA+MASJID/data=!4m7!3m6!1s0x3a32b5be457777e1:0xa94b12275a77ac85!8m2!3d18.8887758!4d79.4399999!16s%2Fg%2F11gh5l0d1z!19sChIJ4Xd3Rb61MjoRhax3WicSS6k?authuser=0&hl=en&rclk=1",
        "coordinates": {
            "latitude": 18.888775799999998,
            "longitude": 79.43999989999999
        }
    },
    {
        "name": "MASJID E KHAIRUNNISA",
        "main_category": "Mosque",
        "address": "MASJID E KHAIRUNNISA, Mancherial, Telangana 504302",
        "detailed_address": {
            "ward": null,
            "street": null,
            "city": "Mancherial",
            "postal_code": "504302",
            "state": "Telangana",
            "country_code": "IN"
        },
        "images": [
            {
                "about": "All",
                "link": "https://streetviewpixels-pa.googleapis.com/v1/thumbnail?panoid=PwdiKaTScb3jjLNQe4OBzg&cb_client=maps_sv.tactile.gps&w=224&h=298&yaw=258.73358&pitch=0&thumbfov=100"
            },
            {
                "about": "By owner",
                "link": "https://lh5.googleusercontent.com/p/AF1QipOlzego81O01vUXMaR0IkPnM0gY6_PTOYAubmYD=w224-h395-k-no"
            },
            {
                "about": "Street View & 360deg",
                "link": "https://streetviewpixels-pa.googleapis.com/v1/thumbnail?panoid=PwdiKaTScb3jjLNQe4OBzg&cb_client=maps_sv.tactile.gps&w=224&h=298&yaw=258.73358&pitch=0&thumbfov=100"
            }
        ],
        "link": "https://www.google.com/maps/place/MASJID+E+KHAIRUNNISA/data=!4m7!3m6!1s0x3a32cb4d1d8d163b:0x61ae25ddffab28b1!8m2!3d18.8658925!4d79.4523998!16s%2Fg%2F11ndzf94qz!19sChIJOxaNHU3LMjoRsSir_90lrmE?authuser=0&hl=en&rclk=1",
        "coordinates": {
            "latitude": 18.865892499999998,
            "longitude": 79.4523998
        }
    },
    {
        "name": "MASJID-E-NOORAIN",
        "main_category": "Mosque",
        "address": "VCFQ+9FV MASJID-E-NOORAIN, Reddy Colony, Mancherial, Telangana 504208",
        "detailed_address": {
            "ward": "Reddy Colony",
            "street": "VCFQ+9FV",
            "city": "Mancherial",
            "postal_code": "504208",
            "state": "Telangana",
            "country_code": "IN"
        },
        "images": [
            {
                "about": "All",
                "link": "https://streetviewpixels-pa.googleapis.com/v1/thumbnail?panoid=jfQkvjRi73XUUiy2cFgU4Q&cb_client=maps_sv.tactile.gps&w=224&h=298&yaw=306.38293&pitch=0&thumbfov=100"
            },
            {
                "about": "Street View & 360deg",
                "link": "https://streetviewpixels-pa.googleapis.com/v1/thumbnail?panoid=jfQkvjRi73XUUiy2cFgU4Q&cb_client=maps_sv.tactile.gps&w=224&h=298&yaw=306.38293&pitch=0&thumbfov=100"
            }
        ],
        "link": "https://www.google.com/maps/place/MASJID-E-NOORAIN/data=!4m7!3m6!1s0x3a32cb27edba3829:0x47d4434a72563692!8m2!3d18.8734981!4d79.4386736!16s%2Fg%2F11ghnfl4km!19sChIJKTi67SfLMjoRkjZWckpD1Ec?authuser=0&hl=en&rclk=1",
        "coordinates": {
            "latitude": 18.8734981,
            "longitude": 79.4386736
        }
    },
    {
        "name": "Noori Masjid",
        "main_category": "Mosque",
        "address": "Noori Masjid, c.c.c, C.C.C Plant Rd, Gandhi nagar, Naspur, Mancherial, Telangana 504302",
        "detailed_address": {
            "ward": "Gandhi nagar",
            "street": "c.c.c, C.C.C Plant Rd",
            "city": "Naspur, Mancherial",
            "postal_code": "504302",
            "state": "Telangana",
            "country_code": "IN"
        },
        "images": [],
        "link": "https://www.google.com/maps/place/Noori+Masjid/data=!4m7!3m6!1s0x3a32c9eba6e4957f:0x841ba9258603bdb!8m2!3d18.8687021!4d79.4891449!16s%2Fg%2F11gbz9rzkv!19sChIJf5XkpuvJMjoR2ztgWJK6QQg?authuser=0&hl=en&rclk=1",
        "coordinates": {
            "latitude": 18.8687021,
            "longitude": 79.4891449
        }
    },
    {
        "name": "JAMA MASJID NASPUR",
        "main_category": "Mosque",
        "address": "RFW6+MVV JAMA MASJID NASPUR, Naspur, Mancherial, Telangana 504302",
        "detailed_address": {
            "ward": null,
            "street": "RFW6+MVV",
            "city": "Naspur, Mancherial",
            "postal_code": null,
            "state": "Telangana",
            "country_code": "IN"
        },
        "images": [
            {
                "about": "All",
                "link": "https://lh5.googleusercontent.com/p/AF1QipMkhlkxGCtEVqK60YE-lLdJihq_xDOgRXuwE8pU=w529-h298-k-no"
            },
            {
                "about": "Dome",
                "link": "https://lh5.googleusercontent.com/p/AF1QipM3W-LG_tsZO9a82f_x4AwVbk6deI5N95DUW6Sw=w529-h298-k-no"
            },
            {
                "about": "Street View & 360deg",
                "link": "https://streetviewpixels-pa.googleapis.com/v1/thumbnail?panoid=itapbyAMtq31NwnOnyD04w&cb_client=maps_sv.tactile.gps&w=224&h=298&yaw=250.84747&pitch=0&thumbfov=100"
            }
        ],
        "link": "https://www.google.com/maps/place/JAMA+MASJID+NASPUR/data=!4m7!3m6!1s0x3a32ca2e813ace9f:0x311a6126e0864141!8m2!3d18.846748!4d79.4621718!16s%2Fg%2F11f5dfn2_c!19sChIJn846gS7KMjoRQUGG4CZhGjE?authuser=0&hl=en&rclk=1",
        "coordinates": {
            "latitude": 18.846747999999998,
            "longitude": 79.4621718
        }
    },
    {
        "name": "RK6 Market Perila Gundam",
        "main_category": "Mosque",
        "address": "VG95+P7M RK6 Market Perila Gundam, Srirampur Colony, Mancherial, Telangana 504303",
        "detailed_address": {
            "ward": "Srirampur Colony",
            "street": "VG95+P7M",
            "city": "Mancherial",
            "postal_code": "504303",
            "state": "Telangana",
            "country_code": "IN"
        },
        "images": [
            {
                "about": "All",
                "link": "https://streetviewpixels-pa.googleapis.com/v1/thumbnail?panoid=fmXtkv2lpFoLLngbHNrkgg&cb_client=maps_sv.tactile.gps&w=224&h=298&yaw=330.26193&pitch=0&thumbfov=100"
            },
            {
                "about": "Street View & 360deg",
                "link": "https://streetviewpixels-pa.googleapis.com/v1/thumbnail?panoid=fmXtkv2lpFoLLngbHNrkgg&cb_client=maps_sv.tactile.gps&w=224&h=298&yaw=330.26193&pitch=0&thumbfov=100"
            }
        ],
        "link": "https://www.google.com/maps/place/RK6+Market+Perila+Gundam/data=!4m7!3m6!1s0x3a32c95fb9fc0339:0x85e654cb128fe533!8m2!3d18.8697025!4d79.5074927!16s%2Fg%2F11rw_hh8g_!19sChIJOQP8uV_JMjoRM-WPEstU5oU?authuser=0&hl=en&rclk=1",
        "coordinates": {
            "latitude": 18.8697025,
            "longitude": 79.5074927
        }
    },
    {
        "name": "EIDGAH CCC",
        "main_category": "Mosque",
        "address": "VFCM+5XR EIDGAH CCC, C.C.C Plant Rd, Naspur, Mancherial, Telangana 504302",
        "detailed_address": {
            "ward": null,
            "street": "VFCM+5XR, C.C.C Plant Rd",
            "city": "Naspur, Mancherial",
            "postal_code": "504302",
            "state": "Telangana",
            "country_code": "IN"
        },
        "images": [
            {
                "about": "All",
                "link": "https://lh5.googleusercontent.com/p/AF1QipMY3_Iqg83cmzVDwv8-odfe-S7HJF1G8iD8NU6s=w397-h298-k-no"
            },
            {
                "about": "Street View & 360deg",
                "link": "https://streetviewpixels-pa.googleapis.com/v1/thumbnail?panoid=dXcMZVtDQX7Rw2tlEVm5pw&cb_client=maps_sv.tactile.gps&w=224&h=298&yaw=214.05513&pitch=0&thumbfov=100"
            }
        ],
        "link": "https://www.google.com/maps/place/EIDGAH+CCC/data=!4m7!3m6!1s0x3a32c9ec2e22eddf:0xc0ed524327c3f205!8m2!3d18.8704978!4d79.4848961!16s%2Fg%2F11fzfb_t27!19sChIJ3-0iLuzJMjoRBfLDJ0NS7cA?authuser=0&hl=en&rclk=1",
        "coordinates": {
            "latitude": 18.8704978,
            "longitude": 79.4848961
        }
    },
    {
        "name": "Masjid e umar farooq",
        "main_category": "Home builder",
        "address": "VC6X+WR5 Masjid e umar farooq, Mancherial, Telangana 504208",
        "detailed_address": {
            "ward": null,
            "street": "VC6X+WR5",
            "city": "Mancherial",
            "postal_code": "504208",
            "state": "Telangana",
            "country_code": "IN"
        },
        "images": [
            {
                "about": "All",
                "link": "https://streetviewpixels-pa.googleapis.com/v1/thumbnail?panoid=Dav0LJ5IijQ8T6bYbc7VXw&cb_client=maps_sv.tactile.gps&w=224&h=298&yaw=21.404707&pitch=0&thumbfov=100"
            },
            {
                "about": "Street View & 360deg",
                "link": "https://streetviewpixels-pa.googleapis.com/v1/thumbnail?panoid=Dav0LJ5IijQ8T6bYbc7VXw&cb_client=maps_sv.tactile.gps&w=224&h=298&yaw=21.404707&pitch=0&thumbfov=100"
            }
        ],
        "link": "https://www.google.com/maps/place/Masjid+e+umar+farooq/data=!4m7!3m6!1s0x3a32cb68dc11e3fd:0xd36a4b6ad05ca0a5!8m2!3d18.8622703!4d79.4496224!16s%2Fg%2F11h126y66f!19sChIJ_eMR3GjLMjoRpaBc0GpLatM?authuser=0&hl=en&rclk=1",
        "coordinates": {
            "latitude": 18.8622703,
            "longitude": 79.4496224
        }
    },
    {
        "name": "Madina Masjid",
        "main_category": "Mosque",
        "address": "WFH8+MCG Madina Masjid, A-Zone, Ramakrishnapur, Telangana 504301",
        "detailed_address": {
            "ward": null,
            "street": "WFH8+MCG, A-Zone",
            "city": "Ramakrishnapur",
            "postal_code": "504301",
            "state": "Telangana",
            "country_code": "IN"
        },
        "images": [
            {
                "about": "All",
                "link": "https://streetviewpixels-pa.googleapis.com/v1/thumbnail?panoid=4YFFtyimZeQPA5k09C_vAg&cb_client=maps_sv.tactile.gps&w=224&h=298&yaw=205.23555&pitch=0&thumbfov=100"
            },
            {
                "about": "Street View & 360deg",
                "link": "https://streetviewpixels-pa.googleapis.com/v1/thumbnail?panoid=4YFFtyimZeQPA5k09C_vAg&cb_client=maps_sv.tactile.gps&w=224&h=298&yaw=205.23555&pitch=0&thumbfov=100"
            }
        ],
        "link": "https://www.google.com/maps/place/Madina+Masjid/data=!4m7!3m6!1s0x3a32b5d418c84c13:0xbc21949cc38e6a2!8m2!3d18.9291986!4d79.4660747!16s%2Fg%2F11c1s_28b6!19sChIJE0zIGNS1MjoRouY4zEkZwgs?authuser=0&hl=en&rclk=1",
        "coordinates": {
            "latitude": 18.9291986,
            "longitude": 79.4660747
        }
    },
    {
        "name": "Masjid E Meraj",
        "main_category": "Mosque",
        "address": "WFHG+HQ5 Masjid E Meraj, Rama Krishnapuram Rd, B Zone, Ramakrishnapur, Telangana 504301",
        "detailed_address": {
            "ward": "B Zone",
            "street": "WFHG+HQ5, Rama Krishnapuram Rd",
            "city": "Ramakrishnapur",
            "postal_code": "504301",
            "state": "Telangana",
            "country_code": "IN"
        },
        "images": [
            {
                "about": "All",
                "link": "https://streetviewpixels-pa.googleapis.com/v1/thumbnail?panoid=4o1VLs2boV6SbssOKErOsw&cb_client=maps_sv.tactile.gps&w=224&h=298&yaw=39.32104&pitch=0&thumbfov=100"
            },
            {
                "about": "Street View & 360deg",
                "link": "https://streetviewpixels-pa.googleapis.com/v1/thumbnail?panoid=4o1VLs2boV6SbssOKErOsw&cb_client=maps_sv.tactile.gps&w=224&h=298&yaw=39.32104&pitch=0&thumbfov=100"
            }
        ],
        "link": "https://www.google.com/maps/place/Masjid+E+Meraj/data=!4m7!3m6!1s0x3a32b67bf10b3e61:0xf5a4cd303f549393!8m2!3d18.928884!4d79.4769752!16s%2Fg%2F1262gb4_5!19sChIJYT4L8Xu2MjoRk5NUPzDNpPU?authuser=0&hl=en&rclk=1",
        "coordinates": {
            "latitude": 18.928884,
            "longitude": 79.4769752
        }
    },
    {
        "name": "MASJID - E- RAHMANIA",
        "main_category": "Mosque",
        "address": "MASJID - E- RAHMANIA, Unnamed Road, Ram nagar, Teachers Colony, Mancherial, Telangana 504208",
        "detailed_address": {
            "ward": "Ram nagar, Teachers Colony",
            "street": "Unnamed Road",
            "city": "Mancherial",
            "postal_code": "504208",
            "state": "Telangana",
            "country_code": "IN"
        },
        "images": [
            {
                "about": "All",
                "link": "https://streetviewpixels-pa.googleapis.com/v1/thumbnail?panoid=Rop2AwjRzapkMT2OPgSQNA&cb_client=maps_sv.tactile.gps&w=224&h=298&yaw=9.801736&pitch=0&thumbfov=100"
            },
            {
                "about": "Street View & 360deg",
                "link": "https://streetviewpixels-pa.googleapis.com/v1/thumbnail?panoid=Rop2AwjRzapkMT2OPgSQNA&cb_client=maps_sv.tactile.gps&w=224&h=298&yaw=9.801736&pitch=0&thumbfov=100"
            }
        ],
        "link": "https://www.google.com/maps/place/MASJID+-+E-+RAHMANIA/data=!4m7!3m6!1s0x3a32cb65eed92881:0x980ff0a870d468bf!8m2!3d18.8666919!4d79.4418169!16s%2Fg%2F11ry77cyq4!19sChIJgSjZ7mXLMjoRv2jUcKjwD5g?authuser=0&hl=en&rclk=1",
        "coordinates": {
            "latitude": 18.8666919,
            "longitude": 79.44181689999999
        }
    },
    {
        "name": "MASJID E MEHRAJ NTR COLONY",
        "main_category": "Mosque",
        "address": "MASJID E MEHRAJ NTR COLONY, NTR Nagar, Mancherial, Telangana 504208",
        "detailed_address": {
            "ward": "NTR Nagar",
            "street": null,
            "city": "Mancherial",
            "postal_code": "504208",
            "state": "Telangana",
            "country_code": "IN"
        },
        "images": [
            {
                "about": "All",
                "link": "https://lh5.googleusercontent.com/p/AF1QipNIonLNXwG5yxQcI6Qz0ndrRYxKtmsxw7zy3x2J=w224-h298-k-no"
            }
        ],
        "link": "https://www.google.com/maps/place/MASJID+E+MEHRAJ+NTR+COLONY/data=!4m7!3m6!1s0x3a32cbc51c245f8f:0xf6785f73f7fdce32!8m2!3d18.8622587!4d79.4380173!16s%2Fg%2F11np3647yv!19sChIJj18kHMXLMjoRMs7993NfePY?authuser=0&hl=en&rclk=1",
        "coordinates": {
            "latitude": 18.862258699999998,
            "longitude": 79.4380173
        }
    },
    {
        "name": "Mosque",
        "main_category": "Mosque",
        "address": "VFF8+G4 Mosque, Tilak Nagar, Mancherial, Telangana 504302",
        "detailed_address": {
            "ward": "Tilak Nagar",
            "street": "VFF8+G4",
            "city": "Mancherial",
            "postal_code": null,
            "state": "Telangana",
            "country_code": "IN"
        },
        "images": [
            {
                "about": "All",
                "link": "https://streetviewpixels-pa.googleapis.com/v1/thumbnail?panoid=X-s219UdRKNLMWQQjwOgFw&cb_client=maps_sv.tactile.gps&w=224&h=298&yaw=71.25457&pitch=0&thumbfov=100"
            },
            {
                "about": "Street View & 360deg",
                "link": "https://streetviewpixels-pa.googleapis.com/v1/thumbnail?panoid=X-s219UdRKNLMWQQjwOgFw&cb_client=maps_sv.tactile.gps&w=224&h=298&yaw=71.25457&pitch=0&thumbfov=100"
            }
        ],
        "link": "https://www.google.com/maps/place/Mosque/data=!4m7!3m6!1s0x3a32cbc3d04de8c7:0xe4e3c24f1875a200!8m2!3d18.8738898!4d79.4652723!16s%2Fg%2F11rnhxsq7g!19sChIJx-hN0MPLMjoRAKJ1GE_C4-Q?authuser=0&hl=en&rclk=1",
        "coordinates": {
            "latitude": 18.8738898,
            "longitude": 79.4652723
        }
    },
    {
        "name": "Masjid*e*Bilal",
        "main_category": "Mosque",
        "address": "WF37+P44 Masjid*e*Bilal, Mancherial, Telangana 504301",
        "detailed_address": {
            "ward": null,
            "street": "WF37+P44",
            "city": "Mancherial",
            "postal_code": "504301",
            "state": "Telangana",
            "country_code": "IN"
        },
        "images": [
            {
                "about": "All",
                "link": "https://streetviewpixels-pa.googleapis.com/v1/thumbnail?panoid=pN5LYATgnWq90w2hcRhWTQ&cb_client=maps_sv.tactile.gps&w=224&h=298&yaw=0.84927326&pitch=0&thumbfov=100"
            },
            {
                "about": "Street View & 360deg",
                "link": "https://streetviewpixels-pa.googleapis.com/v1/thumbnail?panoid=pN5LYATgnWq90w2hcRhWTQ&cb_client=maps_sv.tactile.gps&w=224&h=298&yaw=0.84927326&pitch=0&thumbfov=100"
            }
        ],
        "link": "https://www.google.com/maps/place/Masjid*e*Bilal/data=!4m7!3m6!1s0x3a32b532c64fb987:0x53849b45891c6c53!8m2!3d18.904606!4d79.4625825!16s%2Fg%2F11rcxc5zw0!19sChIJh7lPxjK1MjoRU2wciUWbhFM?authuser=0&hl=en&rclk=1",
        "coordinates": {
            "latitude": 18.904605999999998,
            "longitude": 79.4625825
        }
    },
    {
        "name": "MASJID-E .MOHAMMAD QAYYUM BHURHANODDIN",
        "main_category": "Mosque",
        "address": "VFJ3+6V9 MASJID-E .MOHAMMAD QAYYUM BHURHANODDIN, Gopalwada, Mancherial, Telangana 504302",
        "detailed_address": {
            "ward": "Gopalwada",
            "street": "VFJ3+6V9",
            "city": "Mancherial",
            "postal_code": "504302",
            "state": "Telangana",
            "country_code": "IN"
        },
        "images": [],
        "link": "https://www.google.com/maps/place/MASJID-E+.MOHAMMAD+QAYYUM+BHURHANODDIN/data=!4m7!3m6!1s0x3a32cb37fcaafae9:0xbdc711c22ddcd3f1!8m2!3d18.8805301!4d79.4547464!16s%2Fg%2F11jghxyc13!19sChIJ6fqq_DfLMjoR8dPcLcIRx70?authuser=0&hl=en&rclk=1",
        "coordinates": {
            "latitude": 18.880530099999998,
            "longitude": 79.45474639999999
        }
    },
    {
        "name": "MASJID-E-MOHAMMADIYA",
        "main_category": "Mosque",
        "address": "WC2J+837 MASJID-E-MOHAMMADIYA, Unnamed Road, Mancherial, Telangana 504208",
        "detailed_address": {
            "ward": null,
            "street": "WC2J+837, Unnamed Road",
            "city": "Mancherial",
            "postal_code": "504208",
            "state": "Telangana",
            "country_code": "IN"
        },
        "images": [
            {
                "about": "All",
                "link": "https://streetviewpixels-pa.googleapis.com/v1/thumbnail?panoid=HKcTC7pE8yO-sQuvHxPCuA&cb_client=maps_sv.tactile.gps&w=224&h=298&yaw=201.12111&pitch=0&thumbfov=100"
            },
            {
                "about": "Street View & 360deg",
                "link": "https://streetviewpixels-pa.googleapis.com/v1/thumbnail?panoid=HKcTC7pE8yO-sQuvHxPCuA&cb_client=maps_sv.tactile.gps&w=224&h=298&yaw=201.12111&pitch=0&thumbfov=100"
            }
        ],
        "link": "https://www.google.com/maps/place/MASJID-E-MOHAMMADIYA/data=!4m7!3m6!1s0x3a32b5f855f4d8b3:0x287c4d3bec085754!8m2!3d18.9007761!4d79.4301579!16s%2Fg%2F11f5v06jv7!19sChIJs9j0Vfi1MjoRVFcI7DtNfCg?authuser=0&hl=en&rclk=1",
        "coordinates": {
            "latitude": 18.900776099999998,
            "longitude": 79.4301579
        }
    },
    {
        "name": "masjid-E-habeebia",
        "main_category": "Mosque",
        "address": "VG55+97M masjid-E-habeebia, Srirampur Bus Stand Rd, RK 8 Colony, Srirampur Colony, Singapur, Mancherial, Telangana 504303",
        "detailed_address": {
            "ward": "RK 8 Colony, Srirampur Colony",
            "street": "VG55+97M, Srirampur Bus Stand Rd",
            "city": "Singapur, Mancherial",
            "postal_code": "504303",
            "state": "Telangana",
            "country_code": "IN"
        },
        "images": [],
        "link": "https://www.google.com/maps/place/masjid-E-habeebia/data=!4m7!3m6!1s0x3a32c9b10d0bcd0d:0x9ac37439be13846d!8m2!3d18.8584683!4d79.5081639!16s%2Fg%2F11c2l9c6q7!19sChIJDc0LDbHJMjoRbYQTvjl0w5o?authuser=0&hl=en&rclk=1",
        "coordinates": {
            "latitude": 18.8584683,
            "longitude": 79.5081639
        }
    },
    {
        "name": "Masjid",
        "main_category": "Place of worship",
        "address": "VF7H+76V Masjid, Atm line, Naspur Colony, Naspur, Telangana 504302",
        "detailed_address": {
            "ward": "Naspur Colony",
            "street": "VF7H+76V, Atm line",
            "city": "Naspur, Mancherial",
            "postal_code": "504302",
            "state": "Telangana",
            "country_code": "IN"
        },
        "images": [
            {
                "about": "All",
                "link": "https://streetviewpixels-pa.googleapis.com/v1/thumbnail?panoid=ZR2NqXB5uxu9GKeFwXHc6Q&cb_client=maps_sv.tactile.gps&w=224&h=298&yaw=268.77222&pitch=0&thumbfov=100"
            },
            {
                "about": "Street View & 360deg",
                "link": "https://streetviewpixels-pa.googleapis.com/v1/thumbnail?panoid=ZR2NqXB5uxu9GKeFwXHc6Q&cb_client=maps_sv.tactile.gps&w=224&h=298&yaw=268.77222&pitch=0&thumbfov=100"
            }
        ],
        "link": "https://www.google.com/maps/place/Masjid/data=!4m7!3m6!1s0x3a32c9e5b2f6610f:0xf3876f4fa52bcbac!8m2!3d18.8632353!4d79.4780346!16s%2Fg%2F11pfyr4y6c!19sChIJD2H2suXJMjoRrMsrpU9vh_M?authuser=0&hl=en&rclk=1",
        "coordinates": {
            "latitude": 18.8632353,
            "longitude": 79.4780346
        }
    },
    {
        "name": "Madina Masjid &Madarsa-e-Islamia",
        "main_category": "Mosque",
        "address": "WFFG+34M Madina Masjid &Madarsa-e-Islamia, B Zone, B.S.Nagar, Ramakrishnapur, Telangana 504301",
        "detailed_address": {
            "ward": "B Zone, B.S.Nagar",
            "street": "WFFG+34M",
            "city": "Ramakrishnapur",
            "postal_code": "504301",
            "state": "Telangana",
            "country_code": "IN"
        },
        "images": [],
        "link": "https://www.google.com/maps/place/Madina+Masjid+%26Madarsa-e-Islamia/data=!4m7!3m6!1s0x3a32b7a3affc7f61:0x74e632100146ab44!8m2!3d18.9227218!4d79.4753102!16s%2Fg%2F11h4z3ky9c!19sChIJYX_8r6O3MjoRRKtGARAy5nQ?authuser=0&hl=en&rclk=1",
        "coordinates": {
            "latitude": 18.922721799999998,
            "longitude": 79.4753102
        }
    },
    {
        "name": "msjd mHmdyh jm`t hl Hdyth mhmmdiiy msjid",
        "main_category": "Mosque",
        "address": "WFHG+GVW msjd mHmdyh jm`t hl Hdyth mhmmdiiy msjid, B Zone, Ramakrishnapur, Telangana 504301",
        "detailed_address": {
            "ward": "B Zone",
            "street": "WFHG+GVW",
            "city": "Ramakrishnapur",
            "postal_code": "504301",
            "state": "Telangana",
            "country_code": "IN"
        },
        "images": [
            {
                "about": "All",
                "link": "https://lh5.googleusercontent.com/p/AF1QipOh9h2PWUX_1BDgONPwYOkle5DEuyOdvHOiIClx=w529-h298-k-no"
            },
            {
                "about": "Dome",
                "link": "https://lh5.googleusercontent.com/p/AF1QipOh9h2PWUX_1BDgONPwYOkle5DEuyOdvHOiIClx=w529-h298-k-no"
            },
            {
                "about": "Street View & 360deg",
                "link": "https://streetviewpixels-pa.googleapis.com/v1/thumbnail?panoid=jCd2yToKSO01oo0gdXSTUg&cb_client=maps_sv.tactile.gps&w=224&h=298&yaw=20.17221&pitch=0&thumbfov=100"
            }
        ],
        "link": "https://www.google.com/maps/place/%D9%85%D8%B3%D8%AC%D8%AF+%D9%85%D8%AD%D9%85%D8%AF%D9%8A%D9%87+%D8%AC%D9%85%D8%A7%D8%B9%D8%AA+%D8%A7%D9%87%D9%84+%D8%AD%D8%AF%D9%8A%D8%AB+%E0%B0%AE%E0%B0%B9%E0%B0%AE%E0%B1%8D%E0%B0%AE%E0%B0%A6%E0%B1%80%E0%B0%AF+%E0%B0%AE%E0%B0%B8%E0%B1%8D%E0%B0%9C%E0%B0%BF%E0%B0%A6%E0%B1%8D%E2%80%AD/data=!4m7!3m6!1s0x3a32b67bf2528b55:0x7515e78bff2371af!8m2!3d18.928871!4d79.4772052!16s%2Fg%2F11g03qh721!19sChIJVYtS8nu2MjoRr3Ej_4vnFXU?authuser=0&hl=en&rclk=1",
        "coordinates": {
            "latitude": 18.928871,
            "longitude": 79.4772052
        }
    }
]