[
    {
        "name": "Lal Masjid",
        "main_category": "Mosque",
        "address": "Lal Masjid, BHIWANI STAND, Quilla Rd, Babra Mohalla, Rohtak, Haryana 124001",
        "detailed_address": {
            "ward": "Babra Mohalla",
            "street": "BHIWANI STAND, Quilla Rd",
            "city": "Rohtak",
            "postal_code": "124001",
            "state": "Haryana",
            "country_code": "IN"
        },
        "images": [
            {
                "about": "All",
                "link": "https://lh5.googleusercontent.com/p/AF1QipMQvOaYVdqEE7A4KDGjQIxjw1hcEtXzA2Zusyqd=w397-h298-k-no"
            },
            {
                "about": "Street View & 360deg",
                "link": "https://streetviewpixels-pa.googleapis.com/v1/thumbnail?panoid=Y_SEAjTq_JHbYbEQx_55Bw&cb_client=maps_sv.tactile.gps&w=224&h=298&yaw=275.2105&pitch=0&thumbfov=100"
            },
            {
                "about": "Videos",
                "link": "https://lh5.googleusercontent.com/p/AF1QipOZlebXkPRStJ_nQp_iVNCOAS8swWbXKvCQWzEh=w224-h398-k-no"
            }
        ],
        "link": "https://www.google.com/maps/place/Lal+Masjid/data=!4m7!3m6!1s0x390d85bb93c615c1:0xb2b4dbf78f3f80f1!8m2!3d28.897572!4d76.5794456!16s%2Fg%2F1hjh6p95f!19sChIJwRXGk7uFDTkR8YA_j_fbtLI?authuser=0&hl=en&rclk=1",
        "coordinates": {
            "latitude": 28.897572,
            "longitude": 76.5794456
        }
    },
    {
        "name": "Masjid Babrala msjid bbraalaa",
        "main_category": "Mosque",
        "address": "7C73+5PF Masjid Babrala msjid bbraalaa, Babrala, Uttar Pradesh 243751",
        "detailed_address": {
            "ward": null,
            "street": "7C73+5PF",
            "city": "Babrala",
            "postal_code": "243751",
            "state": "Uttar Pradesh",
            "country_code": "IN"
        },
        "images": [
            {
                "about": "All",
                "link": "https://lh5.googleusercontent.com/p/AF1QipO4wejrMAOWEFOirfj21bqVBD68jw2bz1EfhUOt=w224-h497-k-no"
            },
            {
                "about": "Street View & 360deg",
                "link": "https://streetviewpixels-pa.googleapis.com/v1/thumbnail?panoid=rYqxUhlwZrxupGsJl7B3qA&cb_client=maps_sv.tactile.gps&w=224&h=298&yaw=173.31096&pitch=0&thumbfov=100"
            },
            {
                "about": "Videos",
                "link": "https://lh5.googleusercontent.com/p/AF1QipPj7kUbxBuPFCdUdOlm2IvMdLV7hD4pm7k_K0Eo=w224-h398-k-no"
            }
        ],
        "link": "https://www.google.com/maps/place/Masjid+Babrala+%E0%A4%AE%E0%A4%B8%E0%A5%8D%E0%A4%9C%E0%A4%BF%E0%A4%A6+%E0%A4%AC%E0%A4%AC%E0%A4%B0%E0%A4%BE%E0%A4%B2%E0%A4%BE/data=!4m7!3m6!1s0x390b33e6dddab837:0x88e2a8cbb6af506d!8m2!3d28.2629309!4d78.4042862!16s%2Fg%2F11b7q1xblt!19sChIJN7ja3eYzCzkRbVCvtsuo4og?authuser=0&hl=en&rclk=1",
        "coordinates": {
            "latitude": 28.262930899999997,
            "longitude": 78.4042862
        }
    },
    {
        "name": "Food court",
        "main_category": "Mosque",
        "address": "Food court, khoja khana street, Babra, Gujarat 365421",
        "detailed_address": {
            "ward": null,
            "street": "khoja khana street",
            "city": "Babra",
            "postal_code": "365421",
            "state": "Gujarat",
            "country_code": "IN"
        },
        "images": [
            {
                "about": "All",
                "link": "https://lh5.googleusercontent.com/p/AF1QipO3BzXw9nHhzdRHrYj09CrTTuHwDC2Tzr3w-_hc=w525-h298-k-no"
            },
            {
                "about": "By owner",
                "link": "https://lh5.googleusercontent.com/p/AF1QipOEwfDNMqxhVC7Ap69NSk0Y3_rgjWIQqwCGmNn1=w224-h298-k-no"
            }
        ],
        "link": "https://www.google.com/maps/place/Food+court/data=!4m7!3m6!1s0x39588c6f277840f5:0xaccc95188cca5039!8m2!3d21.844931!4d71.3043038!16s%2Fg%2F11g6m1d_cw!19sChIJ9UB4J2-MWDkROVDKjBiVzKw?authuser=0&hl=en&rclk=1",
        "coordinates": {
            "latitude": 21.844931,
            "longitude": 71.3043038
        }
    },
    {
        "name": "Jama Masjid",
        "main_category": "Mosque",
        "address": "RX49+FR4 Jama Masjid, Khabariyan, Sihora Baz, Uttar Pradesh 244926",
        "detailed_address": {
            "ward": "Khabariyan",
            "street": "RX49+FR4",
            "city": "Sihora Baz",
            "postal_code": "244926",
            "state": "Uttar Pradesh",
            "country_code": "IN"
        },
        "images": [
            {
                "about": "All",
                "link": "https://lh5.googleusercontent.com/p/AF1QipOKVFvRwFSlLBkxLwjDx1Dxz64dcAkGtsrgExDj=w298-h298-k-no"
            },
            {
                "about": "Videos",
                "link": "https://lh5.googleusercontent.com/p/AF1QipOynRAqDu0Ak_ogAVzvZ1wYELwf4BWntgpm4JqJ=w298-h298-k-no"
            }
        ],
        "link": "https://www.google.com/maps/place/Jama+Masjid/data=!4m7!3m6!1s0x390af25e944eb9c3:0x4c6fcf9e2d8d5cd5!8m2!3d28.806132!4d78.96957!16s%2Fg%2F11fzf99_9b!19sChIJw7lOlF7yCjkR1VyNLZ7Pb0w?authuser=0&hl=en&rclk=1",
        "coordinates": {
            "latitude": 28.806131999999998,
            "longitude": 78.96956999999999
        }
    },
    {
        "name": "Jumma Masjid Babara",
        "main_category": "Mosque",
        "address": "R8X3+488 Jumma Masjid Babara, Babra, Gujarat 365421",
        "detailed_address": {
            "ward": null,
            "street": "R8X3+488",
            "city": "Babra",
            "postal_code": "365421",
            "state": "Gujarat",
            "country_code": "IN"
        },
        "images": [],
        "link": "https://www.google.com/maps/place/Jumma+Masjid+Babara/data=!4m7!3m6!1s0x39588c6589855055:0x279ed49f4ff49736!8m2!3d21.8477822!4d71.3033382!16s%2Fg%2F11c5szgvf3!19sChIJVVCFiWWMWDkRNpf0T5_Unic?authuser=0&hl=en&rclk=1",
        "coordinates": {
            "latitude": 21.847782199999997,
            "longitude": 71.3033382
        }
    },
    {
        "name": "Dargah Sareef Hajrat Saah Gulam Jilani Rah",
        "main_category": "Mosque",
        "address": "Dargah Sareef Hajrat Saah Gulam Jilani Rah, 642/6, Quilla Rd, quilla Mohalla, Rohtak, Haryana 124001",
        "detailed_address": {
            "ward": "quilla Mohalla",
            "street": "642/6, Quilla Rd",
            "city": "Rohtak",
            "postal_code": "124001",
            "state": "Haryana",
            "country_code": "IN"
        },
        "images": [
            {
                "about": "All",
                "link": "//lh3.googleusercontent.com/1GFKBfy270X8xqFXMLFDo39YQ4dhZzAK5XPCIE1oNx2ONIxIkfraXrrehhCN4J5eIQ=w529-h298-k-no"
            }
        ],
        "link": "https://www.google.com/maps/place/Dargah+Sareef+Hajrat+Saah+Gulam+Jilani+Rah/data=!4m7!3m6!1s0x390d85bc7b9978f9:0x806da633a78e54ee!8m2!3d28.8990675!4d76.5801787!16s%2Fg%2F11c2pldg17!19sChIJ-XiZe7yFDTkR7lSOpzOmbYA?authuser=0&hl=en&rclk=1",
        "coordinates": {
            "latitude": 28.899067499999997,
            "longitude": 76.58017869999999
        }
    },
    {
        "name": "yaaa gebnshaah piir || Ya Gebanshah pir ||",
        "main_category": "Mosque",
        "address": "R8V3+8W6 yaaa gebnshaah piir || Ya Gebanshah pir ||, Amrapara Rd, Amarapara, Khakhriya, Babra, Gujarat 365421",
        "detailed_address": {
            "ward": "Amarapara, Khakhriya",
            "street": "R8V3+8W6, Amrapara Rd",
            "city": "Babra",
            "postal_code": "365421",
            "state": "Gujarat",
            "country_code": "IN"
        },
        "images": [
            {
                "about": "All",
                "link": "https://streetviewpixels-pa.googleapis.com/v1/thumbnail?panoid=bHGQMBbMt45oxk_d0U8AxQ&cb_client=maps_sv.tactile.gps&w=224&h=298&yaw=288.8493&pitch=0&thumbfov=100"
            },
            {
                "about": "Latest",
                "link": "https://streetviewpixels-pa.googleapis.com/v1/thumbnail?panoid=bHGQMBbMt45oxk_d0U8AxQ&cb_client=maps_sv.tactile.gps&w=224&h=298&yaw=288.8493&pitch=0&thumbfov=100"
            },
            {
                "about": "Street View & 360deg",
                "link": "https://streetviewpixels-pa.googleapis.com/v1/thumbnail?panoid=bHGQMBbMt45oxk_d0U8AxQ&cb_client=maps_sv.tactile.gps&w=224&h=298&yaw=288.8493&pitch=0&thumbfov=100"
            }
        ],
        "link": "https://www.google.com/maps/place/%E0%AA%AF%E0%AA%BE+%E0%AA%97%E0%AB%87%E0%AA%AC%E0%AA%A8%E0%AA%B6%E0%AA%BE%E0%AA%B9+%E0%AA%AA%E0%AB%80%E0%AA%B0+%7C%7C+Ya+Gebanshah+pir+%7C%7C/data=!4m7!3m6!1s0x39588d5d5b6f5607:0x19639f7e2fc510be!8m2!3d21.8432779!4d71.3047594!16s%2Fg%2F11h43gc2q2!19sChIJB1ZvW12NWDkRvhDFL36fYxk?authuser=0&hl=en&rclk=1",
        "coordinates": {
            "latitude": 21.8432779,
            "longitude": 71.3047594
        }
    },
    {
        "name": "Dawoodi Bohra Masjid Babra",
        "main_category": "Mosque",
        "address": "R8W3+75V Dawoodi Bohra Masjid Babra, Babra, Gujarat 365421",
        "detailed_address": {
            "ward": null,
            "street": "R8W3+75V",
            "city": "Babra",
            "postal_code": "365421",
            "state": "Gujarat",
            "country_code": "IN"
        },
        "images": [],
        "link": "https://www.google.com/maps/place/Dawoodi+Bohra+Masjid+Babra/data=!4m7!3m6!1s0x39588dc0b3014115:0x8895fde74e92ca91!8m2!3d21.845742!4d71.3029117!16s%2Fg%2F11g0zl0qrc!19sChIJFUEBs8CNWDkRkcqSTuf9lYg?authuser=0&hl=en&rclk=1",
        "coordinates": {
            "latitude": 21.845741999999998,
            "longitude": 71.3029117
        }
    },
    {
        "name": "Jama masjid singar",
        "main_category": "Mosque",
        "address": "HRXQ+F4Q Jama masjid singar, Majri, Haryana 124507",
        "detailed_address": {
            "ward": null,
            "street": "HRXQ+F4Q",
            "city": "Majri",
            "postal_code": "124507",
            "state": "Haryana",
            "country_code": "IN"
        },
        "images": [
            {
                "about": "All",
                "link": "https://streetviewpixels-pa.googleapis.com/v1/thumbnail?panoid=W2xJ_uiuenHGPLHxDqaj_g&cb_client=maps_sv.tactile.gps&w=224&h=298&yaw=259.49133&pitch=0&thumbfov=100"
            },
            {
                "about": "Street View & 360deg",
                "link": "https://streetviewpixels-pa.googleapis.com/v1/thumbnail?panoid=W2xJ_uiuenHGPLHxDqaj_g&cb_client=maps_sv.tactile.gps&w=224&h=298&yaw=259.49133&pitch=0&thumbfov=100"
            }
        ],
        "link": "https://www.google.com/maps/place/Jama+masjid+singar/data=!4m7!3m6!1s0x390d0d63645e0121:0xebf2103da2d6cc82!8m2!3d28.5995503!4d76.8359575!16s%2Fg%2F11p5llgm75!19sChIJIQFeZGMNDTkRgszWoj0Q8us?authuser=0&hl=en&rclk=1",
        "coordinates": {
            "latitude": 28.599550299999997,
            "longitude": 76.83595749999999
        }
    },
    {
        "name": "Jamia Masjid Saddiqiya askari cement factory babra gate",
        "main_category": "Mosque",
        "address": "Jamia Masjid Saddiqiya askari cement factory babra gate, Bhabhra Gate, K-Lane Wah, Rawalpindi, Punjab, Pakistan",
        "detailed_address": {
            "ward": "K-Lane",
            "street": "Bhabhra Gate",
            "city": "Wah",
            "postal_code": null,
            "state": "Rawalpindi, Punjab",
            "country_code": "PK"
        },
        "images": [
            {
                "about": "All",
                "link": "https://lh5.googleusercontent.com/p/AF1QipOAn7_4BDXdtNjamJNiACO0zVdsjOX83b1pDX4T=w397-h298-k-no"
            }
        ],
        "link": "https://www.google.com/maps/place/Jamia+Masjid+Saddiqiya+askari+cement+factory+babra+gate/data=!4m7!3m6!1s0x38dfa9caadebde87:0xd5e6fcffc277210b!8m2!3d33.8103107!4d72.730964!16s%2Fg%2F11mpmr5cxk!19sChIJh97rrcqp3zgRCyF3wv_85tU?authuser=0&hl=en&rclk=1",
        "coordinates": {
            "latitude": 33.810310699999995,
            "longitude": 72.730964
        }
    },
    {
        "name": "Masjid babra muhallah",
        "main_category": "Mosque",
        "address": "9VRR+FWR Masjid babra muhallah, Hari Chand Rd, Shergarh, Mardan, Khyber Pakhtunkhwa, Pakistan",
        "detailed_address": {
            "ward": null,
            "street": "9VRR+FWR, Hari Chand Rd",
            "city": "Shergarh",
            "postal_code": null,
            "state": "Mardan, Khyber Pakhtunkhwa",
            "country_code": "PK"
        },
        "images": [],
        "link": "https://www.google.com/maps/place/Masjid+babra+muhallah/data=!4m7!3m6!1s0x38d953ead56bcdc7:0x2d87f11bf3d68ce0!8m2!3d34.391239!4d71.8922701!16s%2Fg%2F11q2ygpvdd!19sChIJx81r1epT2TgR4IzW8xvxhy0?authuser=0&hl=en&rclk=1",
        "coordinates": {
            "latitude": 34.391239,
            "longitude": 71.89227009999999
        }
    },
    {
        "name": "Masjid e Rasool",
        "main_category": "Mosque",
        "address": "7C63+WMX Masjid e Rasool, Babrala, Uttar Pradesh 243751",
        "detailed_address": {
            "ward": null,
            "street": "7C63+WMX",
            "city": "Babrala",
            "postal_code": "243751",
            "state": "Uttar Pradesh",
            "country_code": "IN"
        },
        "images": [],
        "link": "https://www.google.com/maps/place/Masjid+e+Rasool/data=!4m7!3m6!1s0x390b33ba61a2fc5f:0x86aab45795cdea94!8m2!3d28.2623623!4d78.4042235!16s%2Fg%2F11fks3k4sb!19sChIJX_yiYbozCzkRlOrNlVe0qoY?authuser=0&hl=en&rclk=1",
        "coordinates": {
            "latitude": 28.2623623,
            "longitude": 78.4042235
        }
    },
    {
        "name": "Masjid e Rehmania",
        "main_category": "Mosque",
        "address": "VHXH+FJC Masjid e Rehmania, Partap Chowk St, Babra Mohalla, Rohtak, Haryana 124001",
        "detailed_address": {
            "ward": "Babra Mohalla",
            "street": "VHXH+FJC, Partap Chowk St",
            "city": "Rohtak",
            "postal_code": "124001",
            "state": "Haryana",
            "country_code": "IN"
        },
        "images": [],
        "link": "https://www.google.com/maps/place/Masjid+e+Rehmania/data=!4m7!3m6!1s0x390d8546374ea845:0x799f826cb47846c1!8m2!3d28.8986865!4d76.5790194!16s%2Fg%2F11s7m0fk4g!19sChIJRahON0aFDTkRwUZ4tGyCn3k?authuser=0&hl=en&rclk=1",
        "coordinates": {
            "latitude": 28.8986865,
            "longitude": 76.57901939999999
        }
    },
    {
        "name": "Jama masjid jaamaa msjid",
        "main_category": "Mosque",
        "address": "6C3C+2M5 Jama masjid jaamaa msjid, Babra, Maharashtra 431151",
        "detailed_address": {
            "ward": null,
            "street": "6C3C+2M5",
            "city": "Babra",
            "postal_code": "431151",
            "state": "Maharashtra",
            "country_code": "IN"
        },
        "images": [
            {
                "about": "All",
                "link": "https://lh5.googleusercontent.com/p/AF1QipNeVt-Zo3AddDGJF8bRyvDgdIB5aT86IptbxBLa=w397-h298-k-no"
            },
            {
                "about": "Dome",
                "link": "https://lh5.googleusercontent.com/p/AF1QipOqtNyjVNekhlc-fZtFRsDqLNgnDgPvkCBoaF23=w536-h298-k-no"
            },
            {
                "about": "Videos",
                "link": "https://lh5.googleusercontent.com/p/AF1QipM1oYxX5f7Rnqw-AKhAvsjqLV7e7ljKfPJEEVlP=w224-h398-k-no"
            }
        ],
        "link": "https://www.google.com/maps/place/Jama+masjid+%E0%A4%9C%E0%A4%BE%E0%A4%AE%E0%A4%BE+%E0%A4%AE%E0%A4%B8%E0%A5%8D%E0%A4%9C%E0%A4%BF%E0%A4%A6/data=!4m7!3m6!1s0x3bdbc37b4319cc0d:0x1a6681c947e86df9!8m2!3d20.2024808!4d75.4215741!16s%2Fg%2F11tnbltjk_!19sChIJDcwZQ3vD2zsR-W3oR8mBZho?authuser=0&hl=en&rclk=1",
        "coordinates": {
            "latitude": 20.2024808,
            "longitude": 75.4215741
        }
    },
    {
        "name": "Masjide Umar",
        "main_category": "Mosque",
        "address": "R8V3+PQ6 Masjide Umar, Amrapara Rd, near bus stand, Babra, Gujarat 365421",
        "detailed_address": {
            "ward": null,
            "street": "R8V3+PQ6, Amrapara Rd, near bus stand",
            "city": "Babra",
            "postal_code": "365421",
            "state": "Gujarat",
            "country_code": "IN"
        },
        "images": [
            {
                "about": "All",
                "link": "https://lh5.googleusercontent.com/p/AF1QipMVNnsm1wIZ3ePVoTAMosV1ypz5WKDrvqFwXO0E=w224-h398-k-no"
            },
            {
                "about": "Street View & 360deg",
                "link": "https://streetviewpixels-pa.googleapis.com/v1/thumbnail?panoid=YeOqsXs16ZPWA7Aki6aW_A&cb_client=maps_sv.tactile.gps&w=224&h=298&yaw=121.58902&pitch=0&thumbfov=100"
            }
        ],
        "link": "https://www.google.com/maps/place/Masjide+Umar/data=!4m7!3m6!1s0x39588d0dac5f73cb:0xac194d6636cee641!8m2!3d21.8442855!4d71.3044058!16s%2Fg%2F11fl5mkhdk!19sChIJy3NfrA2NWDkRQebONmZNGaw?authuser=0&hl=en&rclk=1",
        "coordinates": {
            "latitude": 21.844285499999998,
            "longitude": 71.3044058
        }
    },
    {
        "name": "Moti Masjid babra",
        "main_category": "Mosque",
        "address": "5Q92+75C Moti Masjid babra, Razar, Charsadda, Charsadda, Khyber Pakhtunkhwa, Pakistan",
        "detailed_address": {
            "ward": "Razar",
            "street": "5Q92+75C",
            "city": "Charsadda",
            "postal_code": null,
            "state": "Charsadda, Khyber Pakhtunkhwa",
            "country_code": "PK"
        },
        "images": [],
        "link": "https://www.google.com/maps/place/Moti+Masjid+babra/data=!4m7!3m6!1s0x38d9391222479f89:0x55527d3d11c063f!8m2!3d34.1681814!4d71.7503855!16s%2Fg%2F11s4w7cr05!19sChIJiZ9HIhI52TgRPwYc0dMnVQU?authuser=0&hl=en&rclk=1",
        "coordinates": {
            "latitude": 34.1681814,
            "longitude": 71.7503855
        }
    },
    {
        "name": "Old Masjid",
        "main_category": "Religious destination",
        "address": "QCHP+6R8 Old Masjid, Nigana, Haryana 124113",
        "detailed_address": {
            "ward": null,
            "street": "QCHP+6R8",
            "city": "Nigana",
            "postal_code": "124113",
            "state": "Haryana",
            "country_code": "IN"
        },
        "images": [],
        "link": "https://www.google.com/maps/place/Old+Masjid/data=!4m7!3m6!1s0x39127f92ba5f4941:0xfc1df5388e87e27a!8m2!3d28.7780313!4d76.4370829!16s%2Fg%2F11skxbxykg!19sChIJQUlfupJ_EjkReuKHjjj1Hfw?authuser=0&hl=en&rclk=1",
        "coordinates": {
            "latitude": 28.7780313,
            "longitude": 76.4370829
        }
    }
]