[
    {
        "name": "Noori Masjid",
        "main_category": "Mosque",
        "address": "44PC+5P4 Noori Masjid, Maheshpura, Doraha Bazpur, Harlalpur, Uttarakhand",
        "detailed_address": {
            "ward": "Doraha Bazpur",
            "street": "44PC+5P4, Maheshpura",
            "city": "Harlalpur, Maheshpura",
            "postal_code": null,
            "state": "Uttarakhand",
            "country_code": "IN"
        },
        "images": [],
        "link": "https://www.google.com/maps/place/Noori+Masjid/data=!4m7!3m6!1s0x390a65c2ba3ac78d:0x98c304ea6797af52!8m2!3d29.1353984!4d79.1218154!16s%2Fg%2F11hbkk297t!19sChIJjcc6usJlCjkRUq-XZ-oEw5g?authuser=0&hl=en&rclk=1",
        "coordinates": {
            "latitude": 29.1353984,
            "longitude": 79.1218154
        }
    },
    {
        "name": "Masjid Koyle Wali",
        "main_category": "Mosque",
        "address": "R27F+688 Masjid Koyle Wali, Rampur Swar Bazpur Marg, Quilla, Rampur, Uttar Pradesh 244901",
        "detailed_address": {
            "ward": "Quilla",
            "street": "R27F+688, Rampur Swar Bazpur Marg",
            "city": "Rampur",
            "postal_code": "244901",
            "state": "Uttar Pradesh",
            "country_code": "IN"
        },
        "images": [
            {
                "about": "All",
                "link": "https://streetviewpixels-pa.googleapis.com/v1/thumbnail?panoid=x6ul1LPrEU1JbTxPJC7IiA&cb_client=maps_sv.tactile.gps&w=224&h=298&yaw=187.68082&pitch=0&thumbfov=100"
            },
            {
                "about": "Street View & 360deg",
                "link": "https://streetviewpixels-pa.googleapis.com/v1/thumbnail?panoid=x6ul1LPrEU1JbTxPJC7IiA&cb_client=maps_sv.tactile.gps&w=224&h=298&yaw=187.68082&pitch=0&thumbfov=100"
            },
            {
                "about": "Videos",
                "link": "https://lh5.googleusercontent.com/p/AF1QipOfwpbbAHPesDzt22qG0QuUbTJ2is7sRxXMNrqV=w224-h398-k-no"
            }
        ],
        "link": "https://www.google.com/maps/place/Masjid+Koyle+Wali/data=!4m7!3m6!1s0x390a8d33917f0cd5:0x5b2d01caf3059e59!8m2!3d28.8130421!4d79.0233179!16s%2Fg%2F12m965yh5!19sChIJ1Qx_kTONCjkRWZ4F88oBLVs?authuser=0&hl=en&rclk=1",
        "coordinates": {
            "latitude": 28.813042099999997,
            "longitude": 79.0233179
        }
    },
    {
        "name": "Bazpur Gurudwara",
        "main_category": "Gurudwara",
        "address": "545X+7P3 Bazpur Gurudwara, Bazpur, Uttarakhand 262401",
        "detailed_address": {
            "ward": null,
            "street": "545X+7P3",
            "city": "Bazpur",
            "postal_code": "262401",
            "state": "Uttarakhand",
            "country_code": "IN"
        },
        "images": [
            {
                "about": "All",
                "link": "https://streetviewpixels-pa.googleapis.com/v1/thumbnail?panoid=is_BKJKaBcamyL5KW2Kelg&cb_client=maps_sv.tactile.gps&w=224&h=298&yaw=14.003519&pitch=0&thumbfov=100"
            },
            {
                "about": "Street View & 360deg",
                "link": "https://streetviewpixels-pa.googleapis.com/v1/thumbnail?panoid=is_BKJKaBcamyL5KW2Kelg&cb_client=maps_sv.tactile.gps&w=224&h=298&yaw=14.003519&pitch=0&thumbfov=100"
            }
        ],
        "link": "https://www.google.com/maps/place/Bazpur+Gurudwara/data=!4m7!3m6!1s0x390a65812d3fffff:0x4ce54c7a3656319a!8m2!3d29.1581438!4d79.1492972!16s%2Fg%2F11txmz8tf5!19sChIJ__8_LYFlCjkRmjFWNnpM5Uw?authuser=0&hl=en&rclk=1",
        "coordinates": {
            "latitude": 29.158143799999998,
            "longitude": 79.14929719999999
        }
    },
    {
        "name": "Jama masjid",
        "main_category": "Housing complex",
        "address": "6657+G7X Jama masjid, Barhani, Uttarakhand 263401",
        "detailed_address": {
            "ward": null,
            "street": "6657+G7X",
            "city": "Barhani",
            "postal_code": "263401",
            "state": "Uttarakhand",
            "country_code": "IN"
        },
        "images": [],
        "link": "https://www.google.com/maps/place/Jama+masjid/data=!4m7!3m6!1s0x390a715a867ab251:0xc7e6e0883c4d5904!8m2!3d29.2088764!4d79.2132133!16s%2Fg%2F11vbr2p0h8!19sChIJUbJ6hlpxCjkRBFlNPIjg5sc?authuser=0&hl=en&rclk=1",
        "coordinates": {
            "latitude": 29.208876399999998,
            "longitude": 79.21321329999999
        }
    },
    {
        "name": "Master Clinic",
        "main_category": "Doctor",
        "address": "Master Clinic, Master Clinic Jama Masjid, Gaon, Bazpur, Uttarakhand 263401",
        "detailed_address": {
            "ward": null,
            "street": "Master Clinic Jama Masjid, Gaon",
            "city": "Bazpur, Maheshpura",
            "postal_code": "263401",
            "state": "Uttarakhand",
            "country_code": "IN"
        },
        "images": [],
        "link": "https://www.google.com/maps/place/Master+Clinic/data=!4m7!3m6!1s0x390a65c5b4d6be31:0x36ef9aa570777aac!8m2!3d29.1316801!4d79.1179833!16s%2Fg%2F11t18dwdrn!19sChIJMb7WtMVlCjkRrHp3cKWa7zY?authuser=0&hl=en&rclk=1",
        "coordinates": {
            "latitude": 29.131680099999997,
            "longitude": 79.11798329999999
        }
    },
    {
        "name": "Chand masjid",
        "main_category": "Mosque",
        "address": "6X63+MHV Chand masjid, Kashipur, Uttarakhand 244713",
        "detailed_address": {
            "ward": null,
            "street": "6X63+MHV",
            "city": "Kashipur",
            "postal_code": "244713",
            "state": "Uttarakhand",
            "country_code": "IN"
        },
        "images": [
            {
                "about": "All",
                "link": "https://streetviewpixels-pa.googleapis.com/v1/thumbnail?panoid=vAC6624uXbVUNDEIqBGF1g&cb_client=maps_sv.tactile.gps&w=224&h=298&yaw=47.623558&pitch=0&thumbfov=100"
            },
            {
                "about": "Street View & 360deg",
                "link": "https://streetviewpixels-pa.googleapis.com/v1/thumbnail?panoid=vAC6624uXbVUNDEIqBGF1g&cb_client=maps_sv.tactile.gps&w=224&h=298&yaw=47.623558&pitch=0&thumbfov=100"
            }
        ],
        "link": "https://www.google.com/maps/place/Chand+masjid/data=!4m7!3m6!1s0x390a43032bf40a09:0xe1c03ab309e4a8de!8m2!3d29.2117491!4d78.9539307!16s%2Fg%2F11vlft2f7r!19sChIJCQr0KwNDCjkR3qjkCbM6wOE?authuser=0&hl=en&rclk=1",
        "coordinates": {
            "latitude": 29.2117491,
            "longitude": 78.9539307
        }
    },
    {
        "name": "NOORI MASJID",
        "main_category": "Mosque",
        "address": "NOORI MASJID, 262401, Bazpur, Uncha Gaon, Kanauri, Uttarakhand 263401",
        "detailed_address": {
            "ward": "Bazpur",
            "street": "262401",
            "city": "Uncha Gaon, Kanauri",
            "postal_code": "263401",
            "state": "Uttarakhand",
            "country_code": "IN"
        },
        "images": [],
        "link": "https://www.google.com/maps/place/NOORI+MASJID/data=!4m7!3m6!1s0x390a677cf769ce03:0xaeabc65c5e7766ec!8m2!3d29.1513748!4d79.1054121!16s%2Fg%2F11vlqcx89_!19sChIJA85p93xnCjkR7GZ3XlzGq64?authuser=0&hl=en&rclk=1",
        "coordinates": {
            "latitude": 29.1513748,
            "longitude": 79.1054121
        }
    },
    {
        "name": "R k Enterprise",
        "main_category": "Cement Supplier",
        "address": "R k Enterprise, shakar Jama masjid, Rampura, Bazpur, Uttarakhand 262401",
        "detailed_address": {
            "ward": null,
            "street": "shakar Jama masjid, Rampura",
            "city": "Bazpur, Sarkara",
            "postal_code": "262401",
            "state": "Uttarakhand",
            "country_code": "IN"
        },
        "images": [
            {
                "about": "All",
                "link": "https://lh5.googleusercontent.com/p/AF1QipPmh78kqlOtaZuJsKaFaqdQdS2imM8Re_hPCMLo=w224-h298-k-no"
            },
            {
                "about": "By owner",
                "link": "https://lh5.googleusercontent.com/p/AF1QipNPvcHLIElEIa79AnLdpLl7I5tdmKjtoaRAtx8b=w224-h398-k-no"
            },
            {
                "about": "Videos",
                "link": "https://lh5.googleusercontent.com/p/AF1QipNPvcHLIElEIa79AnLdpLl7I5tdmKjtoaRAtx8b=w224-h398-k-no"
            }
        ],
        "link": "https://www.google.com/maps/place/R+k+Enterprise/data=!4m7!3m6!1s0x390a695ee378366d:0xb21f4d723e85a9c4!8m2!3d29.16398!4d79.093838!16s%2Fg%2F11ty1433sm!19sChIJbTZ4415pCjkRxKmFPnJNH7I?authuser=0&hl=en&rclk=1",
        "coordinates": {
            "latitude": 29.16398,
            "longitude": 79.09383799999999
        }
    },
    {
        "name": "MOHD IRSHAD JAN SEVA KENDRA",
        "main_category": "Digital printing service",
        "address": "5355+X76 MOHD IRSHAD JAN SEVA KENDRA, Bijar khata, Bijarkhata, Bazpur Rd, near ADDE WALI MASJID, Maswasi, 244924",
        "detailed_address": {
            "ward": null,
            "street": "5355+X76, Bijar khata, Bijarkhata, Bazpur Rd, near ADDE WALI MASJID",
            "city": "Maswasi, Sultanpur",
            "postal_code": "244924",
            "state": "Uttarakhand",
            "country_code": "IN"
        },
        "images": [
            {
                "about": "All",
                "link": "https://streetviewpixels-pa.googleapis.com/v1/thumbnail?panoid=Pjxq5sKRmR_qipIYvPJ9KA&cb_client=maps_sv.tactile.gps&w=224&h=298&yaw=296.62766&pitch=0&thumbfov=100"
            },
            {
                "about": "Street View & 360deg",
                "link": "https://streetviewpixels-pa.googleapis.com/v1/thumbnail?panoid=Pjxq5sKRmR_qipIYvPJ9KA&cb_client=maps_sv.tactile.gps&w=224&h=298&yaw=296.62766&pitch=0&thumbfov=100"
            }
        ],
        "link": "https://www.google.com/maps/place/MOHD+IRSHAD+JAN+SEVA+KENDRA/data=!4m7!3m6!1s0x390a69200a6ac70f:0xf245201a46dc223e!8m2!3d29.1599108!4d79.0581424!16s%2Fg%2F11t9dn6l27!19sChIJD8dqCiBpCjkRPiLcRhogRfI?authuser=0&hl=en&rclk=1",
        "coordinates": {
            "latitude": 29.1599108,
            "longitude": 79.0581424
        }
    },
    {
        "name": "Punjab Dairy",
        "main_category": "Dairy store",
        "address": "Punjab Dairy, Punjab Dairy 1 Malariya Road Ward No .2, near Raja Masjid, Mundia Pistor, Uttarakhand 262401",
        "detailed_address": {
            "ward": null,
            "street": "Punjab Dairy 1 Malariya Road Ward No .2, near Raja Masjid",
            "city": "Mundia Pistor",
            "postal_code": "262401",
            "state": "Uttarakhand",
            "country_code": "IN"
        },
        "images": [
            {
                "about": "All",
                "link": "https://streetviewpixels-pa.googleapis.com/v1/thumbnail?panoid=gmDmwfzRV8FSOU-bNNRd7w&cb_client=maps_sv.tactile.gps&w=224&h=298&yaw=328.12204&pitch=0&thumbfov=100"
            },
            {
                "about": "Street View & 360deg",
                "link": "https://streetviewpixels-pa.googleapis.com/v1/thumbnail?panoid=gmDmwfzRV8FSOU-bNNRd7w&cb_client=maps_sv.tactile.gps&w=224&h=298&yaw=328.12204&pitch=0&thumbfov=100"
            }
        ],
        "link": "https://www.google.com/maps/place/Punjab+Dairy/data=!4m7!3m6!1s0x390a65fc4fdba56b:0x92c3253cd39bec1e!8m2!3d29.1518591!4d79.1407321!16s%2Fg%2F11jsxwgxm_!19sChIJa6XbT_xlCjkRHuyb0zwlw5I?authuser=0&hl=en&rclk=1",
        "coordinates": {
            "latitude": 29.1518591,
            "longitude": 79.1407321
        }
    }
]