[
    {
        "name": "Gusia Jamia Masjid Roonet",
        "main_category": "Mosque",
        "address": "W4RP+4G6 Gusia Jamia Masjid Roonet, Rount Gandala Road, Udhampur, Jammu and Kashmir 182101",
        "detailed_address": {
            "ward": "Krimachi, Bali",
            "street": "W4RP+4G6, Rount Gandala Road",
            "city": "Udhampur",
            "postal_code": "182101",
            "state": "Jammu and Kashmir",
            "country_code": "IN"
        },
        "images": [],
        "link": "https://www.google.com/maps/place/Gusia+Jamia+Masjid+Roonet/data=!4m7!3m6!1s0x391dd369f999b425:0xe2f02b54fb8076da!8m2!3d32.9402883!4d75.1362685!16s%2Fg%2F11r2lwp_g0!19sChIJJbSZ-WnTHTkR2naA-1Qr8OI?authuser=0&hl=en&rclk=1",
        "coordinates": {
            "latitude": 32.9402883,
            "longitude": 75.1362685
        }
    },
    {
        "name": "Sailain Talab Jama Masjid",
        "main_category": "Mosque",
        "address": "W4CH+2QX Sailain Talab Jama Masjid, Lambi Gali, Udhampur, Jammu and Kashmir 182101",
        "detailed_address": {
            "ward": "Lambi Gali",
            "street": "W4CH+2QX",
            "city": "Udhampur",
            "postal_code": "182101",
            "state": "Jammu and Kashmir",
            "country_code": "IN"
        },
        "images": [
            {
                "about": "All",
                "link": "https://lh5.googleusercontent.com/p/AF1QipPKbYs6s7pIbFwFqrxeeRG8D5KQJ3Jln1CpsG6L=w288-h298-k-no"
            },
            {
                "about": "Dome",
                "link": "https://lh5.googleusercontent.com/p/AF1QipMyidm4aDuuqWrD22mvRp_1S_QbmiwoOkpP6C8h=w295-h298-k-no"
            }
        ],
        "link": "https://www.google.com/maps/place/Sailain+Talab+Jama+Masjid/data=!4m7!3m6!1s0x391dd2c05ce8038f:0x7b1e53b68fe5431c!8m2!3d32.9201059!4d75.1294979!16s%2Fg%2F124ym2thf!19sChIJjwPoXMDSHTkRHEPlj7ZTHns?authuser=0&hl=en&rclk=1",
        "coordinates": {
            "latitude": 32.920105899999996,
            "longitude": 75.12949789999999
        }
    },
    {
        "name": "Eid Gah Jama Masjid Udhampur",
        "main_category": "Mosque",
        "address": "W4HQ+597 Eid Gah Jama Masjid Udhampur, Indra Nagar, Udhampur, Ladan, Jammu and Kashmir 182101",
        "detailed_address": {
            "ward": "Indra Nagar",
            "street": "W4HQ+597",
            "city": "Udhampur, Ladan",
            "postal_code": "182101",
            "state": "Jammu and Kashmir",
            "country_code": "IN"
        },
        "images": [
            {
                "about": "All",
                "link": "https://lh5.googleusercontent.com/p/AF1QipOQRGeKvLWDNPfKpLjhO8JP4IEbQ0W2pxU7PoMf=w397-h298-k-no"
            },
            {
                "about": "Videos",
                "link": "https://lh5.googleusercontent.com/p/AF1QipPi22_-iGP3Lblu6lB8kMYgDaFc2_MBy1OTtDdy=w298-h298-k-no"
            }
        ],
        "link": "https://www.google.com/maps/place/Eid+Gah+Jama+Masjid+Udhampur/data=!4m7!3m6!1s0x391dd296b895b6bf:0x44019cc7f420e2ce!8m2!3d32.9279093!4d75.1384096!16s%2Fg%2F124sx5mqv!19sChIJv7aVuJbSHTkRzuIg9MecAUQ?authuser=0&hl=en&rclk=1",
        "coordinates": {
            "latitude": 32.927909299999996,
            "longitude": 75.1384096
        }
    },
    {
        "name": "STN masjid Air Force station mosque",
        "main_category": "Mosque",
        "address": "W44X+QCR STN masjid Air Force station mosque, Unnamed Road, Kotli Bala, Udhampur, Jammu and Kashmir 182101",
        "detailed_address": {
            "ward": "Kotli Bala",
            "street": "W44X+QCR, Unnamed Road",
            "city": "Udhampur",
            "postal_code": "182101",
            "state": "Jammu and Kashmir",
            "country_code": "IN"
        },
        "images": [
            {
                "about": "All",
                "link": "https://lh5.googleusercontent.com/p/AF1QipPUc57wt2ZAxoQY_WeinTLa2x4NjrQp-xgOMquG=w224-h298-k-no"
            }
        ],
        "link": "https://www.google.com/maps/place/STN+masjid+Air+Force+station+mosque/data=!4m7!3m6!1s0x391dd3b809456743:0xf54233e5f8c120c3!8m2!3d32.9069983!4d75.1485182!16s%2Fg%2F11q_2tx95c!19sChIJQ2dFCbjTHTkRwyDB-OUzQvU?authuser=0&hl=en&rclk=1",
        "coordinates": {
            "latitude": 32.9069983,
            "longitude": 75.1485182
        }
    },
    {
        "name": "Jamia masjid railway udhampur",
        "main_category": "Mosque",
        "address": "W5C2+R2W Jamia masjid railway udhampur, Bharat Nagar, Udhampur, Jammu and Kashmir 182101",
        "detailed_address": {
            "ward": "Bharat Nagar",
            "street": "W5C2+R2W",
            "city": "Udhampur",
            "postal_code": "182101",
            "state": "Jammu and Kashmir",
            "country_code": "IN"
        },
        "images": [
            {
                "about": "All",
                "link": "https://lh5.googleusercontent.com/p/AF1QipNJpBXjCHATBWvFTL1C-AtSfKxBb3awSO4qEeiU=w397-h298-k-no"
            },
            {
                "about": "Videos",
                "link": "https://lh5.googleusercontent.com/p/AF1QipPQPaKz4F8fSpmvzhgyffOm5bq_H_Xto_7wjB6g=w224-h298-k-no"
            }
        ],
        "link": "https://www.google.com/maps/place/Jamia+masjid+railway+udhampur/data=!4m7!3m6!1s0x391dd331e0770337:0xc3e519e44b95b652!8m2!3d32.9221173!4d75.1500873!16s%2Fg%2F11p9ssqx0v!19sChIJNwN34DHTHTkRUraVS-QZ5cM?authuser=0&hl=en&rclk=1",
        "coordinates": {
            "latitude": 32.9221173,
            "longitude": 75.1500873
        }
    },
    {
        "name": "Masjid",
        "main_category": "Mosque",
        "address": "W4PM+QXG Masjid, Raghunathpura, Udhampur, 182101",
        "detailed_address": {
            "ward": "Raghunathpura",
            "street": "W4PM+QXG",
            "city": "Udhampur",
            "postal_code": "182101",
            "state": null,
            "country_code": "IN"
        },
        "images": [
            {
                "about": "All",
                "link": "https://lh5.googleusercontent.com/p/AF1QipMvhueyKY5bL6dV4T0qOnYBs6kM5ovwgiIlJP8L=w529-h298-k-no"
            }
        ],
        "link": "https://www.google.com/maps/place/Masjid/data=!4m7!3m6!1s0x391dd3c34ddf89f3:0x7c82dee32e2d37b!8m2!3d32.9369339!4d75.1349595!16s%2Fg%2F11q7f_7f86!19sChIJ84nfTcPTHTkRe9PiMu4tyAc?authuser=0&hl=en&rclk=1",
        "coordinates": {
            "latitude": 32.9369339,
            "longitude": 75.1349595
        }
    },
    {
        "name": "Masjid Shareef",
        "main_category": "Mosque",
        "address": "W5Q2+8M Masjid Shareef, Jakheni, Udhampur, 182101",
        "detailed_address": {
            "ward": "Jakheni",
            "street": "W5Q2+8M",
            "city": "Udhampur",
            "postal_code": null,
            "state": null,
            "country_code": "IN"
        },
        "images": [
            {
                "about": "All",
                "link": "https://lh5.googleusercontent.com/p/AF1QipPc9fhQhVxjCsjlhqn5oNMnBoR4OZccsp33ptRP=w529-h298-k-no"
            }
        ],
        "link": "https://www.google.com/maps/place/Masjid+Shareef/data=!4m7!3m6!1s0x391dd3de77e48ff9:0x7a019c48befd0cb3!8m2!3d32.9382607!4d75.151637!16s%2Fg%2F11rmxc6tv8!19sChIJ-Y_kd97THTkRswz9vkicAXo?authuser=0&hl=en&rclk=1",
        "coordinates": {
            "latitude": 32.9382607,
            "longitude": 75.151637
        }
    },
    {
        "name": "Zama masjid baddali",
        "main_category": "Mosque",
        "address": "W48R+9JX Zama masjid baddali, Kallar Himiti, Karan Nagar, Udhampur, Jammu and Kashmir 182101",
        "detailed_address": {
            "ward": "Kallar Himiti, Karan Nagar",
            "street": "W48R+9JX",
            "city": "Udhampur",
            "postal_code": "182101",
            "state": "Jammu and Kashmir",
            "country_code": "IN"
        },
        "images": [
            {
                "about": "All",
                "link": "https://lh5.googleusercontent.com/p/AF1QipOFQjYsu5O9eJ1tE09tCVKVUTNKv_mRwy4mlepB=w397-h298-k-no"
            }
        ],
        "link": "https://www.google.com/maps/place/Zama+masjid+baddali/data=!4m7!3m6!1s0x391dd3f4ef033e7f:0xcde59432d4a99f5b!8m2!3d32.9159847!4d75.1416173!16s%2Fg%2F11v9kk689d!19sChIJfz4D7_TTHTkRW5-p1DKU5c0?authuser=0&hl=en&rclk=1",
        "coordinates": {
            "latitude": 32.915984699999996,
            "longitude": 75.1416173
        }
    }
]