[
    {
        "name": "Jama Masjid And Muslim Cemetery Kotputli Jaipur",
        "main_category": "Mosque",
        "address": "P54X+VXR Jama Masjid And Muslim Cemetery Kotputli Jaipur, Kotputli, Rajasthan 303108",
        "detailed_address": {
            "ward": null,
            "street": "P54X+VXR",
            "city": "Kotputli",
            "postal_code": "303108",
            "state": "Rajasthan",
            "country_code": "IN"
        },
        "images": [
            {
                "about": "All",
                "link": "https://lh5.googleusercontent.com/p/AF1QipOqYSAbQWD4mFGfBJa-Td1uo3N4gjBepi8TVpL7=w397-h298-k-no"
            },
            {
                "about": "Videos",
                "link": "https://lh5.googleusercontent.com/p/AF1QipNo1tpYeG4dLLlUFF5B1ACrYSa-ec59u-e1RGnr=w224-h398-k-no"
            }
        ],
        "link": "https://www.google.com/maps/place/Jama+Masjid+And+Muslim+Cemetery+Kotputli+Jaipur/data=!4m7!3m6!1s0x396d440d68f39235:0x368c91842fad3c46!8m2!3d27.7072481!4d76.1999012!16s%2Fg%2F11f0l1qjfp!19sChIJNZLzaA1EbTkRRjytL4SRjDY?authuser=0&hl=en&rclk=1",
        "coordinates": {
            "latitude": 27.707248099999997,
            "longitude": 76.1999012
        }
    },
    {
        "name": "ya hajib sankat var baba",
        "main_category": "Mosque",
        "address": "P579+QQH ya hajib sankat var baba, surdas vali gali, Kotputli, Rajasthan 303108",
        "detailed_address": {
            "ward": null,
            "street": "P579+QQH, surdas vali gali",
            "city": "Kotputli",
            "postal_code": null,
            "state": "Rajasthan",
            "country_code": "IN"
        },
        "images": [],
        "link": "https://www.google.com/maps/place/ya+hajib+sankat+var+baba/data=!4m7!3m6!1s0x396d47e6f90660f7:0x50a6106660b202d2!8m2!3d27.7144282!4d76.1694783!16s%2Fg%2F11srb2_m1k!19sChIJ92AG-eZHbTkR0gKyYGYQplA?authuser=0&hl=en&rclk=1",
        "coordinates": {
            "latitude": 27.7144282,
            "longitude": 76.1694783
        }
    },
    {
        "name": "Bazar masjid",
        "main_category": "Mosque",
        "address": "P632+FGC Bazar masjid, Azad Chowk, Gulshan Nagar, Kotputli, Rajasthan 303108",
        "detailed_address": {
            "ward": "Gulshan Nagar",
            "street": "P632+FGC, Azad Chowk",
            "city": "Kotputli",
            "postal_code": "303108",
            "state": "Rajasthan",
            "country_code": "IN"
        },
        "images": [
            {
                "about": "All",
                "link": "https://lh5.googleusercontent.com/p/AF1QipMAxI4uUhlFC1_yg7mUSz9WSS6JP4yl7XvXfisR=w397-h298-k-no"
            }
        ],
        "link": "https://www.google.com/maps/place/Bazar+masjid/data=!4m7!3m6!1s0x396d450b0dd5d67b:0xc11bf4f9f2e25cb8!8m2!3d27.7037204!4d76.2012346!16s%2Fg%2F11l2hpxy99!19sChIJe9bVDQtFbTkRuFzi8vn0G8E?authuser=0&hl=en&rclk=1",
        "coordinates": {
            "latitude": 27.703720399999998,
            "longitude": 76.20123459999999
        }
    },
    {
        "name": "kottputlii thsiil msjid",
        "main_category": "Mosque",
        "address": "P632+86V kottputlii thsiil msjid, Panchayat Smiti Ke Pass, Kotputli, Rajasthan 303108",
        "detailed_address": {
            "ward": null,
            "street": "P632+86V Panchayat Smiti Ke Pass",
            "city": "Kotputli",
            "postal_code": "303108",
            "state": "Rajasthan",
            "country_code": "IN"
        },
        "images": [],
        "link": "https://www.google.com/maps/place/%E0%A4%95%E0%A5%8B%E0%A4%9F%E0%A4%AA%E0%A5%81%E0%A4%A4%E0%A4%B2%E0%A5%80+%E0%A4%A4%E0%A4%B9%E0%A4%B8%E0%A5%80%E0%A4%B2+%E0%A4%AE%E0%A4%B8%E0%A5%8D%E0%A4%9C%E0%A4%BF%E0%A4%A6/data=!4m7!3m6!1s0x396d4525b8f979a7:0x66b9e01536c0ddfc!8m2!3d27.7033729!4d76.2005469!16s%2Fg%2F11s9x4rmww!19sChIJp3n5uCVFbTkR_N3ANhXguWY?authuser=0&hl=en&rclk=1",
        "coordinates": {
            "latitude": 27.703372899999998,
            "longitude": 76.20054689999999
        }
    }
]