[
    {
        "name": "Navipeth Jamiya Masjid",
        "main_category": "Mosque",
        "address": "2QXV+WQR Navipeth Jamiya Masjid, Navipet, Guledagudda, Karnataka",
        "detailed_address": {
            "ward": null,
            "street": "2QXV+WQR, Navipet",
            "city": "Guledagudda",
            "postal_code": null,
            "state": "Karnataka",
            "country_code": "IN"
        },
        "images": [],
        "link": "https://www.google.com/maps/place/Navipeth+Jamiya+Masjid/data=!4m7!3m6!1s0x3bb87fc7ef8e0bfb:0xfe4d9002d929b9cf!8m2!3d16.0498688!4d75.7943951!16s%2Fg%2F11g18y6pt4!19sChIJ-wuO78d_uDsRz7kp2QKQTf4?authuser=0&hl=en&rclk=1",
        "coordinates": {
            "latitude": 16.0498688,
            "longitude": 75.7943951
        }
    },
    {
        "name": "Macca Masjid",
        "main_category": "Mosque",
        "address": "3Q5R+4J9 Macca Masjid, Guledagudda, Mukeshvari Nagar, Karnataka 587203",
        "detailed_address": {
            "ward": null,
            "street": "3Q5R+4J9",
            "city": "Guledagudda, Mukeshvari Nagar",
            "postal_code": "587203",
            "state": "Karnataka",
            "country_code": "IN"
        },
        "images": [
            {
                "about": "All",
                "link": "https://lh5.googleusercontent.com/p/AF1QipPtvgP82PEZGMZkMVErOd1SBFaLpuptntofTkBh=w224-h298-k-no"
            }
        ],
        "link": "https://www.google.com/maps/place/Macca+Masjid/data=!4m7!3m6!1s0x3bc78124a7b5c18f:0x2f59909a6c1a7d48!8m2!3d16.0577763!4d75.7916006!16s%2Fg%2F11fd4xz3g6!19sChIJj8G1pySBxzsRSH0abJqQWS8?authuser=0&hl=en&rclk=1",
        "coordinates": {
            "latitude": 16.0577763,
            "longitude": 75.7916006
        }
    },
    {
        "name": "Bagavan masjid (husain paeth )",
        "main_category": "Mosque",
        "address": "2QXR+VV4 Bagavan masjid (husain paeth ), NH367, Guledagudda, Karnataka 587203",
        "detailed_address": {
            "ward": null,
            "street": "2QXR+VV4, NH367",
            "city": "Guledagudda",
            "postal_code": "587203",
            "state": "Karnataka",
            "country_code": "IN"
        },
        "images": [
            {
                "about": "All",
                "link": "https://lh5.googleusercontent.com/p/AF1QipOzdloY1sBrD6KVSHsq_1hrHY7LbLa22YM5ryuG=w224-h398-k-no"
            },
            {
                "about": "Videos",
                "link": "https://lh5.googleusercontent.com/p/AF1QipOdT99JyzELxyXBIGGk-HNOoUIRGQoQVhMm6zby=w224-h398-k-no"
            }
        ],
        "link": "https://www.google.com/maps/place/Bagavan+masjid+%28husain+paeth+%29/data=!4m7!3m6!1s0x3bb87f6c9d1dd5ff:0xf219d8eb929aef63!8m2!3d16.0496389!4d75.7921936!16s%2Fg%2F11ff3zn391!19sChIJ_9UdnWx_uDsRY--akuvYGfI?authuser=0&hl=en&rclk=1",
        "coordinates": {
            "latitude": 16.049638899999998,
            "longitude": 75.79219359999999
        }
    },
    {
        "name": "Mosque",
        "main_category": "Mosque",
        "address": "2QXP+VR3 Mosque, Guledagudda, Karnataka 587203",
        "detailed_address": {
            "ward": null,
            "street": "2QXP+VR3",
            "city": "Guledagudda",
            "postal_code": "587203",
            "state": "Karnataka",
            "country_code": "IN"
        },
        "images": [
            {
                "about": "All",
                "link": "https://streetviewpixels-pa.googleapis.com/v1/thumbnail?panoid=esz6MPxonwOludgVZoJtkg&cb_client=maps_sv.tactile.gps&w=224&h=298&yaw=153.95547&pitch=0&thumbfov=100"
            },
            {
                "about": "Street View & 360deg",
                "link": "https://streetviewpixels-pa.googleapis.com/v1/thumbnail?panoid=esz6MPxonwOludgVZoJtkg&cb_client=maps_sv.tactile.gps&w=224&h=298&yaw=153.95547&pitch=0&thumbfov=100"
            }
        ],
        "link": "https://www.google.com/maps/place/Mosque/data=!4m7!3m6!1s0x3bb87f5e83b732fb:0x145a06cec25dffae!8m2!3d16.0496397!4d75.7870415!16s%2Fg%2F11fx7tf4vr!19sChIJ-zK3g15_uDsRrv9dws4GWhQ?authuser=0&hl=en&rclk=1",
        "coordinates": {
            "latitude": 16.0496397,
            "longitude": 75.7870415
        }
    },
    {
        "name": "Yaseen Masjid",
        "main_category": "Mosque",
        "address": "3Q3V+JV5 Yaseen Masjid, SH 57, Guledagudda, Karnataka 587203",
        "detailed_address": {
            "ward": null,
            "street": "3Q3V+JV5, SH 57",
            "city": "Guledagudda",
            "postal_code": "587203",
            "state": "Karnataka",
            "country_code": "IN"
        },
        "images": [
            {
                "about": "All",
                "link": "https://streetviewpixels-pa.googleapis.com/v1/thumbnail?panoid=uKI30W7BwD5tXKLrGYLlNQ&cb_client=maps_sv.tactile.gps&w=224&h=298&yaw=103.768196&pitch=0&thumbfov=100"
            },
            {
                "about": "Street View & 360deg",
                "link": "https://streetviewpixels-pa.googleapis.com/v1/thumbnail?panoid=uKI30W7BwD5tXKLrGYLlNQ&cb_client=maps_sv.tactile.gps&w=224&h=298&yaw=103.768196&pitch=0&thumbfov=100"
            }
        ],
        "link": "https://www.google.com/maps/place/Yaseen+Masjid/data=!4m7!3m6!1s0x3bb87f44e7857931:0x598e8772be949309!8m2!3d16.0540013!4d75.7947454!16s%2Fg%2F11nww646h2!19sChIJMXmF50R_uDsRCZOUvnKHjlk?authuser=0&hl=en&rclk=1",
        "coordinates": {
            "latitude": 16.0540013,
            "longitude": 75.7947454
        }
    }
]