[
    {
        "name": "Jamia Masjid Seel Doda",
        "main_category": "Mosque",
        "address": "Jamia Masjid Seel Doda, Seel, Doda, Jammu and Kashmir 182202",
        "detailed_address": {
            "ward": null,
            "street": "Seel",
            "city": "Doda",
            "postal_code": "182202",
            "state": "Jammu and Kashmir",
            "country_code": "IN"
        },
        "images": [
            {
                "about": "All",
                "link": "https://lh5.googleusercontent.com/p/AF1QipMuErE4W4vq12kULB3GI_3grYIvzlqaQisHj7LW=w224-h298-k-no"
            },
            {
                "about": "By owner",
                "link": "https://lh5.googleusercontent.com/p/AF1QipNY72N1Vs3RdrJv7BYcdCJb5ZTnrTyMCZ_T6dA6=w224-h298-k-no"
            },
            {
                "about": "Street View & 360deg",
                "link": "https://lh5.googleusercontent.com/p/AF1QipNWA0tsLNJo3OpE4GfgvGfEw0lfSYTuconmeykE=w224-h298-k-no-pi27.333984-ya140-ro0-fo100"
            }
        ],
        "link": "https://www.google.com/maps/place/Jamia+Masjid+Seel+Doda/data=!4m7!3m6!1s0x391da522af0ca003:0xa0e9471ce76f5ca!8m2!3d33.1773622!4d75.5905785!16s%2Fg%2F11np3h66f_!19sChIJA6AMryKlHTkRyvV2znGUDgo?authuser=0&hl=en&rclk=1",
        "coordinates": {
            "latitude": 33.1773622,
            "longitude": 75.59057849999999
        }
    },
    {
        "name": "Masjid Abuzar Rehmatabad",
        "main_category": "Mosque",
        "address": "Masjid Abuzar Rehmatabad, Filter Plant Road, Doda, Jammu and Kashmir 182202",
        "detailed_address": {
            "ward": null,
            "street": "Filter Plant Road",
            "city": "Doda",
            "postal_code": "182202",
            "state": "Jammu and Kashmir",
            "country_code": "IN"
        },
        "images": [
            {
                "about": "All",
                "link": "https://lh5.googleusercontent.com/p/AF1QipNwz2Yj-n7yEe8uxLzymkwe9_TcjoT7fIpeOSUP=w529-h298-k-no"
            },
            {
                "about": "By owner",
                "link": "https://lh5.googleusercontent.com/p/AF1QipP8hR4BKBnM1nADI7GaB6lBZU41-itiLwb4PR5P=w529-h298-k-no"
            }
        ],
        "link": "https://www.google.com/maps/place/Masjid+Abuzar+Rehmatabad/data=!4m7!3m6!1s0x391da5ce0086e111:0x93d6e4d7b76f2eb0!8m2!3d33.1506288!4d75.541808!16s%2Fg%2F11p9lgs5mz!19sChIJEeGGAM6lHTkRsC5vt9fk1pM?authuser=0&hl=en&rclk=1",
        "coordinates": {
            "latitude": 33.1506288,
            "longitude": 75.541808
        }
    },
    {
        "name": "Jamia Masjid Doda jm` msjd ddwddh",
        "main_category": "Mosque",
        "address": "4GWV+GV7 Jamia Masjid Doda jm` msjd ddwddh, Aqramabad, Thalanga, Doda, Jammu and Kashmir 182202",
        "detailed_address": {
            "ward": "Aqramabad, Thalanga",
            "street": "4GWV+GV7",
            "city": "Doda",
            "postal_code": "182202",
            "state": "Jammu and Kashmir",
            "country_code": "IN"
        },
        "images": [
            {
                "about": "All",
                "link": "https://lh5.googleusercontent.com/p/AF1QipO18Op_bhbC7aBd1vz5EiSD7hJe_m3gKY5E9MtK=w259-h298-k-no"
            },
            {
                "about": "Videos",
                "link": "https://lh5.googleusercontent.com/p/AF1QipMgmG2v0l-uuDHLMsQwON4g8FXduvwn5finBUc=w224-h398-k-no"
            }
        ],
        "link": "https://www.google.com/maps/place/Jamia+Masjid+Doda+%D8%AC%D8%A7%D9%85%D8%B9+%D9%85%D8%B3%D8%AC%D8%AF+%DA%88%D9%88%DA%88%DB%81%E2%80%AD/data=!4m7!3m6!1s0x391da547313df973:0xa77c2110645bbcd0!8m2!3d33.1462966!4d75.5446583!16s%2Fg%2F1261pgwp1!19sChIJc_k9MUelHTkR0LxbZBAhfKc?authuser=0&hl=en&rclk=1",
        "coordinates": {
            "latitude": 33.1462966,
            "longitude": 75.5446583
        }
    },
    {
        "name": "Masjid An-Noor msjd lnWwr",
        "main_category": "Mosque",
        "address": "4GWX+FXP Masjid An-Noor msjd lnWwr, Thalanga, Doda, Jammu and Kashmir 182202",
        "detailed_address": {
            "ward": "Thalanga",
            "street": "4GWX+FXP",
            "city": "Doda",
            "postal_code": "182202",
            "state": "Jammu and Kashmir",
            "country_code": "IN"
        },
        "images": [
            {
                "about": "All",
                "link": "https://lh5.googleusercontent.com/p/AF1QipN4q0E2qw7h7NzeI01fK6YyxLMQ65GJPXeWaFlV=w397-h298-k-no"
            },
            {
                "about": "Videos",
                "link": "https://lh5.googleusercontent.com/p/AF1QipM1PBNNwb0eQ92g0O2ydTT6eUl-0K0rL34ABqQn=w224-h398-k-no"
            }
        ],
        "link": "https://www.google.com/maps/place/Masjid+An-Noor+%D9%85%D8%B3%D8%AC%D8%AF+%D8%A7%D9%84%D9%86%D9%91%D9%88%D8%B1%E2%80%AD/data=!4m7!3m6!1s0x391da5403497b1dd:0xe23d814e77a50dce!8m2!3d33.1462062!4d75.5499459!16s%2Fg%2F12632gd4g!19sChIJ3bGXNEClHTkRzg2ld06BPeI?authuser=0&hl=en&rclk=1",
        "coordinates": {
            "latitude": 33.1462062,
            "longitude": 75.5499459
        }
    },
    {
        "name": "Jamia Masjid Akramabad",
        "main_category": "Mosque",
        "address": "Jamia Masjid Akramabad, Akram Abad, Thalanga, Doda, 182202",
        "detailed_address": {
            "ward": "Thalanga",
            "street": "Akram Abad",
            "city": "Doda",
            "postal_code": null,
            "state": null,
            "country_code": "IN"
        },
        "images": [
            {
                "about": "All",
                "link": "https://lh5.googleusercontent.com/p/AF1QipML3kcPhoEYF4uLS5NgCiB4izxLbV1_SgSV7bdq=w529-h298-k-no"
            },
            {
                "about": "Videos",
                "link": "https://lh5.googleusercontent.com/p/AF1QipOESIjGgH4VX66B0dzcWV8HBnS9bkxFvFUqyO_c=w224-h398-k-no"
            }
        ],
        "link": "https://www.google.com/maps/place/Jamia+Masjid+Akramabad/data=!4m7!3m6!1s0x391da5b080f61a07:0x67de060143e44cfb!8m2!3d33.1457234!4d75.5360029!16s%2Fg%2F11lktk5xzn!19sChIJBxr2gLClHTkR-0zkQwEG3mc?authuser=0&hl=en&rclk=1",
        "coordinates": {
            "latitude": 33.1457234,
            "longitude": 75.5360029
        }
    },
    {
        "name": "Masjid Sah, Doda",
        "main_category": "Mosque",
        "address": "4GXV+9XX Masjid Sah, Doda, Beoli Rd, Thalanga, Doda, 182202",
        "detailed_address": {
            "ward": "Thalanga",
            "street": "4GXV+9XX, Beoli Rd",
            "city": "Doda",
            "postal_code": "182202",
            "state": null,
            "country_code": "IN"
        },
        "images": [
            {
                "about": "All",
                "link": "https://lh5.googleusercontent.com/p/AF1QipOTx6CBIb7NoBeYy7BLuR2aOa3PK8zDKvBIzlsN=w647-h298-k-no"
            }
        ],
        "link": "https://www.google.com/maps/place/Masjid+Sah,+Doda/data=!4m7!3m6!1s0x391da5e42cf8377d:0xb45d5c838d5b1c7c!8m2!3d33.1484752!4d75.5449896!16s%2Fg%2F11qpzww5tn!19sChIJfTf4LOSlHTkRfBxbjYNcXbQ?authuser=0&hl=en&rclk=1",
        "coordinates": {
            "latitude": 33.1484752,
            "longitude": 75.5449896
        }
    },
    {
        "name": "Masjid taqwa usmanabad lower nagri doda",
        "main_category": "Mosque",
        "address": "4HR3+RR4 Masjid taqwa usmanabad lower nagri doda, Thalanga, Doda, 182202",
        "detailed_address": {
            "ward": "Thalanga",
            "street": "4HR3+RR4",
            "city": "Doda",
            "postal_code": "182202",
            "state": null,
            "country_code": "IN"
        },
        "images": [
            {
                "about": "All",
                "link": "https://lh5.googleusercontent.com/p/AF1QipMcR5E1IWxtV6a848811lPrmm3htJJgVmkj4pje=w224-h298-k-no"
            }
        ],
        "link": "https://www.google.com/maps/place/Masjid+taqwa+usmanabad+lower+nagri+doda/data=!4m7!3m6!1s0x391da57530d9f6c5:0x2f230b64820ae42a!8m2!3d33.1420049!4d75.5545834!16s%2Fg%2F11nsrhm2jw!19sChIJxfbZMHWlHTkRKuQKgmQLIy8?authuser=0&hl=en&rclk=1",
        "coordinates": {
            "latitude": 33.142004899999996,
            "longitude": 75.5545834
        }
    },
    {
        "name": "Masjid Umar Farooq msjd shryf `mr fwq mHlh blwn",
        "main_category": "Mosque",
        "address": "4GXW+2J5 Masjid Umar Farooq msjd shryf `mr fwq mHlh blwn, Unnamed Road, Thalanga, Doda, 182202",
        "detailed_address": {
            "ward": "Thalanga",
            "street": "4GXW+2J5, Unnamed Road",
            "city": "Doda",
            "postal_code": "182202",
            "state": null,
            "country_code": "IN"
        },
        "images": [],
        "link": "https://www.google.com/maps/place/Masjid+Umar+Farooq+%D9%85%D8%B3%D8%AC%D8%AF+%D8%B4%D8%B1%DB%8C%D9%81+%D8%B9%D9%85%D8%B1+%D9%81%D8%A7%D9%88%D9%82+%D9%85%D8%AD%D9%84%DB%81+%D8%A8%D9%84%D9%88%D8%A7%D9%86%E2%80%AD/data=!4m7!3m6!1s0x391da549f06b5b7f:0x7d12cca767f14cb3!8m2!3d33.1475086!4d75.5466066!16s%2Fg%2F11nmhlxqfy!19sChIJf1tr8EmlHTkRs0zxZ6fMEn0?authuser=0&hl=en&rclk=1",
        "coordinates": {
            "latitude": 33.1475086,
            "longitude": 75.54660659999999
        }
    },
    {
        "name": "Masjid Huda Doda msjd hudy",
        "main_category": "Mosque",
        "address": "4GVV+J6 Masjid Huda Doda msjd hudy, Aqramabad, Thalanga, Doda, 182202",
        "detailed_address": {
            "ward": "Aqramabad, Thalanga",
            "street": "4GVV+J6",
            "city": "Doda",
            "postal_code": "182202",
            "state": null,
            "country_code": "IN"
        },
        "images": [
            {
                "about": "All",
                "link": "https://lh5.googleusercontent.com/p/AF1QipP6K5Gyi19vjAT2RtwxZVyBxbX2VU6Sgvfm0Mvj=w224-h398-k-no"
            },
            {
                "about": "Dome",
                "link": "https://lh5.googleusercontent.com/p/AF1QipP6K5Gyi19vjAT2RtwxZVyBxbX2VU6Sgvfm0Mvj=w224-h398-k-no"
            }
        ],
        "link": "https://www.google.com/maps/place/Masjid+Huda+Doda+%D9%85%D8%B3%D8%AC%D8%AF+%DA%BE%D9%8F%D8%AF%D9%B0%DB%8C%E2%80%AD/data=!4m7!3m6!1s0x391da57e5e1a4c97:0x9468578bd4032b42!8m2!3d33.1440584!4d75.543161!16s%2Fg%2F11t7cvz2y2!19sChIJl0waXn6lHTkRQisD1ItXaJQ?authuser=0&hl=en&rclk=1",
        "coordinates": {
            "latitude": 33.1440584,
            "longitude": 75.543161
        }
    },
    {
        "name": "Masjid Al-Badar Mussarat Nagar Doda",
        "main_category": "Mosque",
        "address": "5H32+67W Masjid Al-Badar Mussarat Nagar Doda, Doda, 182201",
        "detailed_address": {
            "ward": null,
            "street": "5H32+67W",
            "city": "Doda",
            "postal_code": null,
            "state": null,
            "country_code": "IN"
        },
        "images": [],
        "link": "https://www.google.com/maps/place/Masjid+Al-Badar+Mussarat+Nagar+Doda/data=!4m7!3m6!1s0x391da5a44af40a41:0x34ebbd883a4cf867!8m2!3d33.1531167!4d75.5507161!16s%2Fg%2F11rk223ph4!19sChIJQQr0SqSlHTkRZ_hMOoi96zQ?authuser=0&hl=en&rclk=1",
        "coordinates": {
            "latitude": 33.1531167,
            "longitude": 75.5507161
        }
    },
    {
        "name": "Hamdan-pur mosque",
        "main_category": "Mosque",
        "address": "4GXR+FQJ Hamdan-pur mosque, Beoli Rd, Doda, 182202",
        "detailed_address": {
            "ward": null,
            "street": "4GXR+FQJ, Beoli Rd",
            "city": "Doda",
            "postal_code": "182202",
            "state": null,
            "country_code": "IN"
        },
        "images": [],
        "link": "https://www.google.com/maps/place/Hamdan-pur+mosque/data=!4m7!3m6!1s0x391da584f3b9cccf:0x2abc5e8e1146f10d!8m2!3d33.1487228!4d75.5418785!16s%2Fg%2F11qpzwv34p!19sChIJz8y584SlHTkRDfFGEY5evCo?authuser=0&hl=en&rclk=1",
        "coordinates": {
            "latitude": 33.1487228,
            "longitude": 75.5418785
        }
    },
    {
        "name": "Masjid Iqra Complex msjd shryf qr",
        "main_category": "Mosque",
        "address": "4GWV+JWG Masjid Iqra Complex msjd shryf qr, Unnamed Road, Aqramabad, Thalanga, Doda, 182202",
        "detailed_address": {
            "ward": "Aqramabad, Thalanga",
            "street": "4GWV+JWG, Unnamed Road",
            "city": "Doda",
            "postal_code": "182202",
            "state": null,
            "country_code": "IN"
        },
        "images": [],
        "link": "https://www.google.com/maps/place/Masjid+Iqra+Complex+%D9%85%D8%B3%D8%AC%D8%AF+%D8%B4%D8%B1%DB%8C%D9%81+%D8%A7%D9%82%D8%B1%D8%A7%D8%A1%E2%80%AD/data=!4m7!3m6!1s0x391da58f6eed1cb7:0x7048864bc0a5369a!8m2!3d33.1465633!4d75.544834!16s%2Fg%2F11nmhl_z8q!19sChIJtxztbo-lHTkRmjalwEuGSHA?authuser=0&hl=en&rclk=1",
        "coordinates": {
            "latitude": 33.1465633,
            "longitude": 75.544834
        }
    },
    {
        "name": "Jamia masjid astan shareef, Doda, India",
        "main_category": "Mosque",
        "address": "4GWX+R7F Jamia masjid astan shareef, Doda, India, Bharat Rd, Thalanga, Doda, Jammu and Kashmir 182202",
        "detailed_address": {
            "ward": "Thalanga",
            "street": "4GWX+R7F, Bharat Rd",
            "city": "Doda",
            "postal_code": "182202",
            "state": "Jammu and Kashmir",
            "country_code": "IN"
        },
        "images": [
            {
                "about": "All",
                "link": "https://lh5.googleusercontent.com/p/AF1QipMvLjjP4WkT2nbZGwXM91Ntjkv8LTE452fX8L_D=w529-h298-k-no"
            }
        ],
        "link": "https://www.google.com/maps/place/Jamia+masjid+astan+shareef,+Doda,+India/data=!4m7!3m6!1s0x391da53fd7986233:0x47147738bdceccef!8m2!3d33.1470531!4d75.5481774!16s%2Fg%2F11n0f553xw!19sChIJM2KY1z-lHTkR78zOvTh3FEc?authuser=0&hl=en&rclk=1",
        "coordinates": {
            "latitude": 33.1470531,
            "longitude": 75.5481774
        }
    },
    {
        "name": "Old Jamia Masjid Dashnan Doda",
        "main_category": "Mosque",
        "address": "5HF7+975 Old Jamia Masjid Dashnan Doda, Agrika, 182201",
        "detailed_address": {
            "ward": null,
            "street": "5HF7+975",
            "city": "Agrika",
            "postal_code": null,
            "state": null,
            "country_code": "IN"
        },
        "images": [],
        "link": "https://www.google.com/maps/place/Old+Jamia+Masjid+Dashnan+Doda/data=!4m7!3m6!1s0x391da59a8df21a03:0x72841817fe4957d8!8m2!3d33.1733885!4d75.5632256!16s%2Fg%2F11nxy6cpdl!19sChIJAxryjZqlHTkR2FdJ_hcYhHI?authuser=0&hl=en&rclk=1",
        "coordinates": {
            "latitude": 33.1733885,
            "longitude": 75.5632256
        }
    },
    {
        "name": "jm`h msjd frkhn abd ghtt,ddwddh",
        "main_category": "Mosque",
        "address": "4HVG+Q7C jm`h msjd frkhn abd ghtt,ddwddh, Unnamed Road, Arnora Ghat, Doda, Jammu and Kashmir 182201",
        "detailed_address": {
            "ward": "Arnora Ghat",
            "street": "4HVG+Q7C, Unnamed Road",
            "city": "Doda",
            "postal_code": "182201",
            "state": "Jammu and Kashmir",
            "country_code": "IN"
        },
        "images": [],
        "link": "https://www.google.com/maps/place/%D8%AC%D8%A7%D9%85%D8%B9%DB%81+%D9%85%D8%B3%D8%AC%D8%AF+%D9%81%D8%B1%DA%A9%D8%A7%D9%86+%D8%A2%D8%A8%D8%A7%D8%AF+%DA%AF%DA%BE%D9%B9%D8%8C%DA%88%D9%88%DA%88%DB%81%E2%80%AD/data=!4m7!3m6!1s0x391da5b48b652d19:0x315b34376de53c08!8m2!3d33.1444497!4d75.5756465!16s%2Fg%2F11mb0k9k34!19sChIJGS1li7SlHTkRCDzlbTc0WzE?authuser=0&hl=en&rclk=1",
        "coordinates": {
            "latitude": 33.144449699999996,
            "longitude": 75.57564649999999
        }
    },
    {
        "name": "msjd lnwr frydyh ddwddh",
        "main_category": "Mosque",
        "address": "4GWX+GW6 msjd lnwr frydyh ddwddh, Bharat Rd, Thalanga, Doda, Jammu and Kashmir 182202",
        "detailed_address": {
            "ward": "Thalanga",
            "street": "4GWX+GW6, Bharat Rd",
            "city": "Doda",
            "postal_code": "182202",
            "state": "Jammu and Kashmir",
            "country_code": "IN"
        },
        "images": [],
        "link": "https://www.google.com/maps/place/%D9%85%D8%B3%D8%AC%D8%AF+%D8%A7%D9%84%D9%86%D9%88%D8%B1+%D9%81%D8%B1%DB%8C%D8%AF%DB%8C%DB%81+%DA%88%D9%88%DA%88%DB%81%E2%80%AD/data=!4m7!3m6!1s0x391da51c742c7aa7:0xef98d35ed1eeb715!8m2!3d33.1462842!4d75.54978!16s%2Fg%2F11lsbr8d9v!19sChIJp3osdBylHTkRFbfu0V7TmO8?authuser=0&hl=en&rclk=1",
        "coordinates": {
            "latitude": 33.1462842,
            "longitude": 75.54978
        }
    },
    {
        "name": "Masjid Sharif",
        "main_category": "Mosque",
        "address": "4GQQ+FPH Masjid Sharif, Doda, 182202",
        "detailed_address": {
            "ward": null,
            "street": "4GQQ+FPH",
            "city": "Doda",
            "postal_code": null,
            "state": null,
            "country_code": "IN"
        },
        "images": [],
        "link": "https://www.google.com/maps/place/Masjid+Sharif/data=!4m7!3m6!1s0x391da56da1ccd80d:0x3c153ddd3662230!8m2!3d33.1386847!4d75.5393602!16s%2Fg%2F11nxd10hld!19sChIJDdjMoW2lHTkRMCJm091TwQM?authuser=0&hl=en&rclk=1",
        "coordinates": {
            "latitude": 33.1386847,
            "longitude": 75.53936019999999
        }
    },
    {
        "name": "msjd shryf shnl mHlh,shhr ddwddh",
        "main_category": "Mosque",
        "address": "4GXR+44F msjd shryf shnl mHlh,shhr ddwddh, Beoli Rd, Doda, 182202",
        "detailed_address": {
            "ward": null,
            "street": "4GXR+44F, Beoli Rd",
            "city": "Doda",
            "postal_code": "182202",
            "state": null,
            "country_code": "IN"
        },
        "images": [],
        "link": "https://www.google.com/maps/place/%D9%85%D8%B3%D8%AC%D8%AF+%D8%B4%D8%B1%DB%8C%D9%81+%D8%B4%D9%86%D8%A7%D9%84+%D9%85%D8%AD%D9%84%DB%81%D8%8C%D8%B4%DA%BE%D8%B1+%DA%88%D9%88%DA%88%DB%81%E2%80%AD/data=!4m7!3m6!1s0x391da577f5686963:0xe22b35e75220e920!8m2!3d33.1478046!4d75.5403121!16s%2Fg%2F11nzy9rww3!19sChIJY2lo9XelHTkRIOkgUuc1K-I?authuser=0&hl=en&rclk=1",
        "coordinates": {
            "latitude": 33.1478046,
            "longitude": 75.5403121
        }
    },
    {
        "name": "Masjid parmaz, Doda",
        "main_category": "Mosque",
        "address": "4HV5+WPR Masjid parmaz, Doda, Unnamed Road, Kahla, 182202",
        "detailed_address": {
            "ward": null,
            "street": "4HV5+WPR, Unnamed Road",
            "city": "Kahla",
            "postal_code": "182202",
            "state": null,
            "country_code": "IN"
        },
        "images": [
            {
                "about": "All",
                "link": "https://lh5.googleusercontent.com/p/AF1QipOBhHAA8GeCbvxaHJtsmRzSlRbxa0c2e_14gRKn=w529-h298-k-no"
            }
        ],
        "link": "https://www.google.com/maps/place/Masjid+parmaz,+Doda/data=!4m7!3m6!1s0x391da557efb604a7:0xfbc87fec0da84fbf!8m2!3d33.1448614!4d75.5592779!16s%2Fg%2F11qp_r172k!19sChIJpwS271elHTkRv0-oDex_yPs?authuser=0&hl=en&rclk=1",
        "coordinates": {
            "latitude": 33.144861399999996,
            "longitude": 75.5592779
        }
    },
    {
        "name": "Masjid Bus stand Doda",
        "main_category": "Mosque",
        "address": "4GVW+MP8 Masjid Bus stand Doda, Thalanga, Doda, Jammu and Kashmir 182202",
        "detailed_address": {
            "ward": "Thalanga",
            "street": "4GVW+MP8",
            "city": "Doda",
            "postal_code": "182202",
            "state": "Jammu and Kashmir",
            "country_code": "IN"
        },
        "images": [
            {
                "about": "All",
                "link": "https://lh5.googleusercontent.com/p/AF1QipNhKhD2c47ds0ixByYmWoU_T1UJ-PryJjIOm_RT=w224-h398-k-no"
            }
        ],
        "link": "https://www.google.com/maps/place/Masjid+Bus+stand+Doda/data=!4m7!3m6!1s0x391da52db800c6d5:0x338c81408c48e5f4!8m2!3d33.1441861!4d75.5468467!16s%2Fg%2F11v02vmlxx!19sChIJ1cYAuC2lHTkR9OVIjECBjDM?authuser=0&hl=en&rclk=1",
        "coordinates": {
            "latitude": 33.1441861,
            "longitude": 75.5468467
        }
    },
    {
        "name": "Masjid Ali, Sah Doda",
        "main_category": "Mosque",
        "address": "Masjid Ali, Sah Doda, Sah Mohallah, near Chinar, Doda, Jammu and Kashmir 182202",
        "detailed_address": {
            "ward": null,
            "street": "Sah Mohallah, near Chinar",
            "city": "Doda",
            "postal_code": "182202",
            "state": "Jammu and Kashmir",
            "country_code": "IN"
        },
        "images": [
            {
                "about": "All",
                "link": "https://lh5.googleusercontent.com/p/AF1QipMkdFiehA6Qh2_zQweeDe1UdSCUxikES-9N7tOh=w224-h485-k-no"
            }
        ],
        "link": "https://www.google.com/maps/place/Masjid+Ali,+Sah+Doda/data=!4m7!3m6!1s0x391da5db09616bab:0x233b762c3158e35c!8m2!3d33.1511843!4d75.5451925!16s%2Fg%2F11r4q80_zw!19sChIJq2thCdulHTkRXONYMSx2OyM?authuser=0&hl=en&rclk=1",
        "coordinates": {
            "latitude": 33.1511843,
            "longitude": 75.5451925
        }
    },
    {
        "name": "Jamia Masjid Sazan Doda",
        "main_category": "Mosque",
        "address": "5FHW+69P Jamia Masjid Sazan Doda, Doda, Haleja, 182202",
        "detailed_address": {
            "ward": null,
            "street": "5FHW+69P",
            "city": "Doda, Haleja",
            "postal_code": null,
            "state": null,
            "country_code": "IN"
        },
        "images": [
            {
                "about": "All",
                "link": "https://lh5.googleusercontent.com/p/AF1QipMW_AK4FWI5rGaXyYLYYyWN2hSda6m_d8xLNy_D=w224-h398-k-no"
            },
            {
                "about": "Videos",
                "link": "https://lh5.googleusercontent.com/p/AF1QipPRPfCA8nLYn-o6bzFoSs8EH0EDOFEgmoeKVk_U=w224-h395-k-no"
            }
        ],
        "link": "https://www.google.com/maps/place/Jamia+Masjid+Sazan+Doda/data=!4m7!3m6!1s0x391dbb76593928cf:0x6a77cd3025527f86!8m2!3d33.178082!4d75.4959544!16s%2Fg%2F11ny4hdqs0!19sChIJzyg5WXa7HTkRhn9SJTDNd2o?authuser=0&hl=en&rclk=1",
        "coordinates": {
            "latitude": 33.178081999999996,
            "longitude": 75.4959544
        }
    },
    {
        "name": "Masjid Shareef Tondwa msjd shryf twndw",
        "main_category": "Mosque",
        "address": "4GRX+X67 Masjid Shareef Tondwa msjd shryf twndw, Unnamed Road, Tondua, Bandoda, Doda, 182202",
        "detailed_address": {
            "ward": "Tondua, Bandoda",
            "street": "4GRX+X67, Unnamed Road",
            "city": "Doda",
            "postal_code": "182202",
            "state": null,
            "country_code": "IN"
        },
        "images": [
            {
                "about": "All",
                "link": "https://lh5.googleusercontent.com/p/AF1QipM20NVN0eHJWOF8BiFbEo0Wq756rTlAcmUSACHH=w224-h298-k-no"
            }
        ],
        "link": "https://www.google.com/maps/place/Masjid+Shareef+Tondwa+%D9%85%D8%B3%D8%AC%D8%AF+%D8%B4%D8%B1%DB%8C%D9%81+%D8%AA%D9%88%D9%86%D8%AF%D9%88%D8%A7%E2%80%AD/data=!4m7!3m6!1s0x391da5e3ef7dca37:0x82ddefc1344a7e0e!8m2!3d33.1424246!4d75.5480454!16s%2Fg%2F11q1l9jn52!19sChIJN8p97-OlHTkRDn5KNMHv3YI?authuser=0&hl=en&rclk=1",
        "coordinates": {
            "latitude": 33.1424246,
            "longitude": 75.54804539999999
        }
    },
    {
        "name": "Jamia Masjid Nagri",
        "main_category": "Mosque",
        "address": "Jamia Masjid Nagri, Thalanga, Doda, 182202",
        "detailed_address": {
            "ward": "Thalanga",
            "street": null,
            "city": "Doda",
            "postal_code": "182202",
            "state": null,
            "country_code": "IN"
        },
        "images": [],
        "link": "https://www.google.com/maps/place/Jamia+Masjid+Nagri/data=!4m7!3m6!1s0x391da55c01c23801:0xbef8bd10a0d00612!8m2!3d33.1445688!4d75.5512758!16s%2Fg%2F11rvk10wxy!19sChIJATjCAVylHTkREgbQoBC9-L4?authuser=0&hl=en&rclk=1",
        "coordinates": {
            "latitude": 33.1445688,
            "longitude": 75.5512758
        }
    },
    {
        "name": "msjd l hjry, Hmd abd,ddwddh",
        "main_category": "Mosque",
        "address": "4HW2+VW5 msjd l hjry, Hmd abd,ddwddh, Santosh Nagar, Nagri, 182202",
        "detailed_address": {
            "ward": null,
            "street": "4HW2+VW5, Santosh Nagar, Nagri",
            "city": "Doda",
            "postal_code": "182202",
            "state": null,
            "country_code": "IN"
        },
        "images": [],
        "link": "https://www.google.com/maps/place/%D9%85%D8%B3%D8%AC%D8%AF+%D8%A7%D9%84+%DA%BE%D8%AC%D8%B1%DB%8C%D8%8C+%D8%A7%D8%AD%D9%85%D8%AF+%D8%A2%D8%A8%D8%A7%D8%AF%D8%8C%DA%88%D9%88%DA%88%DB%81%E2%80%AD/data=!4m7!3m6!1s0x391da5d673416185:0xcf33b022c3cce556!8m2!3d33.1471429!4d75.5523706!16s%2Fg%2F11n907383d!19sChIJhWFBc9alHTkRVuXMwyKwM88?authuser=0&hl=en&rclk=1",
        "coordinates": {
            "latitude": 33.1471429,
            "longitude": 75.5523706
        }
    },
    {
        "name": "msjd khbr abd fryd abd ddwddh",
        "main_category": "Mosque",
        "address": "4GRP+XPW msjd khbr abd fryd abd ddwddh, Pul Doda, Aqramabad, Bandoda, Doda, Jammu and Kashmir 182202",
        "detailed_address": {
            "ward": "Aqramabad, Bandoda",
            "street": "4GRP+XPW, Pul Doda",
            "city": "Doda",
            "postal_code": "182202",
            "state": "Jammu and Kashmir",
            "country_code": "IN"
        },
        "images": [
            {
                "about": "All",
                "link": "https://lh5.googleusercontent.com/p/AF1QipP7B5kKJ0TIxRz8m8OOpCjrZDC1IU1sXmNx5xMw=w298-h298-k-no"
            },
            {
                "about": "Dome",
                "link": "https://lh5.googleusercontent.com/p/AF1QipP7B5kKJ0TIxRz8m8OOpCjrZDC1IU1sXmNx5xMw=w298-h298-k-no"
            },
            {
                "about": "Videos",
                "link": "https://lh5.googleusercontent.com/p/AF1QipPlkYGN7tSCyl-tzn3au9YEVo3fNVmH7bADpT2Y=w224-h398-k-no"
            }
        ],
        "link": "https://www.google.com/maps/place/%D9%85%D8%B3%D8%AC%D8%AF+%D8%A7%DA%A9%D8%A8%D8%B1+%D8%A2%D8%A8%D8%A7%D8%AF+%D9%81%D8%B1%DB%8C%D8%AF+%D8%A2%D8%A8%D8%A7%D8%AF+%DA%88%D9%88%DA%88%DB%81%E2%80%AD/data=!4m7!3m6!1s0x391da5398b67feb3:0xebc0463f515dbcfd!8m2!3d33.1424759!4d75.5368222!16s%2Fg%2F11nz0wf_bd!19sChIJs_5nizmlHTkR_bxdUT9GwOs?authuser=0&hl=en&rclk=1",
        "coordinates": {
            "latitude": 33.1424759,
            "longitude": 75.5368222
        }
    },
    {
        "name": "Madni Masjid Sharief",
        "main_category": "Mosque",
        "address": "4GWP+7CJ Madni Masjid Sharief, Thalanga, Akramabad, Doda, Jammu and Kashmir 182202",
        "detailed_address": {
            "ward": "Thalanga",
            "street": "4GWP+7CJ",
            "city": "Akramabad, Doda",
            "postal_code": null,
            "state": "Jammu and Kashmir",
            "country_code": "IN"
        },
        "images": [],
        "link": "https://www.google.com/maps/place/Madni+Masjid+Sharief/data=!4m7!3m6!1s0x391da576f8a8b533:0x36fbae6d0d46bd2e!8m2!3d33.1457234!4d75.5360029!16s%2Fg%2F11pcrmbxfw!19sChIJM7Wo-HalHTkRLr1GDW2u-zY?authuser=0&hl=en&rclk=1",
        "coordinates": {
            "latitude": 33.1457234,
            "longitude": 75.5360029
        }
    },
    {
        "name": "Al-Qalam Masjid Ahmedabad",
        "main_category": "Mosque",
        "address": "4HX2+539 Al-Qalam Masjid Ahmedabad, Thalanga, Doda, 182202",
        "detailed_address": {
            "ward": "Thalanga",
            "street": "4HX2+539",
            "city": "Doda",
            "postal_code": "182202",
            "state": null,
            "country_code": "IN"
        },
        "images": [],
        "link": "https://www.google.com/maps/place/Al-Qalam+Masjid+Ahmedabad/data=!4m7!3m6!1s0x391da55a0bc62cd3:0x920e1463572b86eb!8m2!3d33.1479055!4d75.5502473!16s%2Fg%2F11rp8jf7zr!19sChIJ0yzGC1qlHTkR64YrV2MUDpI?authuser=0&hl=en&rclk=1",
        "coordinates": {
            "latitude": 33.1479055,
            "longitude": 75.5502473
        }
    },
    {
        "name": "Jamia masjid, Bandoda",
        "main_category": "Mosque",
        "address": "4GRV+H9G Jamia masjid, Bandoda, Aqramabad, Bandoda, Doda, Jammu and Kashmir 182202",
        "detailed_address": {
            "ward": "Aqramabad, Bandoda",
            "street": "4GRV+H9G",
            "city": "Doda",
            "postal_code": "182202",
            "state": "Jammu and Kashmir",
            "country_code": "IN"
        },
        "images": [],
        "link": "https://www.google.com/maps/place/Jamia+masjid,+Bandoda/data=!4m7!3m6!1s0x391da55009564e9f:0x3119ab00419f419e!8m2!3d33.1414267!4d75.5434383!16s%2Fg%2F11n0f5g0xp!19sChIJn05WCVClHTkRnkGfQQCrGTE?authuser=0&hl=en&rclk=1",
        "coordinates": {
            "latitude": 33.1414267,
            "longitude": 75.54343829999999
        }
    },
    {
        "name": "Masjid bilal, lower nagri, Doda",
        "main_category": "Mosque",
        "address": "4HR2+XPR Masjid bilal, lower nagri, Doda, Unnamed Road, Thalanga, Doda, Jammu and Kashmir 182202",
        "detailed_address": {
            "ward": "Thalanga",
            "street": "4HR2+XPR, Unnamed Road",
            "city": "Doda",
            "postal_code": "182202",
            "state": "Jammu and Kashmir",
            "country_code": "IN"
        },
        "images": [
            {
                "about": "All",
                "link": "https://lh5.googleusercontent.com/p/AF1QipM_D7ALCOjQaXSjUOD4HctnGLR4q-uxm4QOJZQx=w224-h298-k-no"
            },
            {
                "about": "Videos",
                "link": "https://lh5.googleusercontent.com/p/AF1QipPIIq3VAvkXn5IX0f2kDH9v3Y-fSB0b0Hs9W4zg=w529-h298-k-no"
            }
        ],
        "link": "https://www.google.com/maps/place/Masjid+bilal,+lower+nagri,+Doda/data=!4m7!3m6!1s0x391da565b696949b:0xd433c1384d0ab49d!8m2!3d33.1424863!4d75.5517571!16s%2Fg%2F11qr35qrln!19sChIJm5SWtmWlHTkRnbQKTTjBM9Q?authuser=0&hl=en&rclk=1",
        "coordinates": {
            "latitude": 33.1424863,
            "longitude": 75.5517571
        }
    },
    {
        "name": "Masjid Ameer Hamza , Nagri, Doda",
        "main_category": "Mosque",
        "address": "4HV2+V96 Masjid Ameer Hamza , Nagri, Doda, Unnamed Road, Thalanga, Doda, Jammu and Kashmir 182202",
        "detailed_address": {
            "ward": "Thalanga",
            "street": "4HV2+V96, Unnamed Road",
            "city": "Doda",
            "postal_code": "182202",
            "state": "Jammu and Kashmir",
            "country_code": "IN"
        },
        "images": [],
        "link": "https://www.google.com/maps/place/Masjid+Ameer+Hamza+,+Nagri,+Doda/data=!4m7!3m6!1s0x391da51150d88f21:0xf32401f344827c7d!8m2!3d33.1446553!4d75.5508901!16s%2Fg%2F11n0g0x15s!19sChIJIY_YUBGlHTkRfXyCRPMBJPM?authuser=0&hl=en&rclk=1",
        "coordinates": {
            "latitude": 33.1446553,
            "longitude": 75.55089009999999
        }
    },
    {
        "name": "msjd bw bkhr, ddwddh",
        "main_category": "Mosque",
        "address": "msjd bw bkhr, ddwddh, Bus Stand, Tondua, Thalanga, Doda, Jammu and Kashmir 182202",
        "detailed_address": {
            "ward": "Tondua, Thalanga",
            "street": "Bus Stand",
            "city": "Doda",
            "postal_code": "182202",
            "state": "Jammu and Kashmir",
            "country_code": "IN"
        },
        "images": [],
        "link": "https://www.google.com/maps/place/%D9%85%D8%B3%D8%AC%D8%AF+%D8%A7%D8%A8%D9%88+%D8%A8%DA%A9%D8%B1%D8%8C+%DA%88%D9%88%DA%88%DB%81%E2%80%AD/data=!4m7!3m6!1s0x391da555cdf4322d:0xb3e4a5811e517fc4!8m2!3d33.143243!4d75.5458953!16s%2Fg%2F11p3h3x6dd!19sChIJLTL0zVWlHTkRxH9RHoGl5LM?authuser=0&hl=en&rclk=1",
        "coordinates": {
            "latitude": 33.143243,
            "longitude": 75.5458953
        }
    },
    {
        "name": "Masjid Al-Qalam, Doda",
        "main_category": "Mosque",
        "address": "4GVX+V4W Masjid Al-Qalam, Doda, Thalanga, Doda, 182202",
        "detailed_address": {
            "ward": "Thalanga",
            "street": "4GVX+V4W",
            "city": "Doda",
            "postal_code": null,
            "state": null,
            "country_code": "IN"
        },
        "images": [],
        "link": "https://www.google.com/maps/place/Masjid+Al-Qalam,+Doda/data=!4m7!3m6!1s0x391da58b835685f5:0x33b791727753faed!8m2!3d33.1447303!4d75.5478256!16s%2Fg%2F11rk221th5!19sChIJ9YVWg4ulHTkR7fpTd3KRtzM?authuser=0&hl=en&rclk=1",
        "coordinates": {
            "latitude": 33.1447303,
            "longitude": 75.5478256
        }
    },
    {
        "name": "Masjid Shareef Doduhot",
        "main_category": "Mosque",
        "address": "5H58+J89 Masjid Shareef Doduhot, Doda, Agrika, 182201",
        "detailed_address": {
            "ward": null,
            "street": "5H58+J89",
            "city": "Doda, Agrika",
            "postal_code": null,
            "state": null,
            "country_code": "IN"
        },
        "images": [],
        "link": "https://www.google.com/maps/place/Masjid+Shareef+Doduhot/data=!4m7!3m6!1s0x391da5b52b329209:0xfa49f0ac6da9cec0!8m2!3d33.1590338!4d75.56585!16s%2Fg%2F11tmfz8lyv!19sChIJCZIyK7WlHTkRwM6pbazwSfo?authuser=0&hl=en&rclk=1",
        "coordinates": {
            "latitude": 33.159033799999996,
            "longitude": 75.56585
        }
    },
    {
        "name": "Mohalla Masjid Shareef Panchal",
        "main_category": "Mosque",
        "address": "4GVW+HX4 Mohalla Masjid Shareef Panchal, Panshal Goudhari Mangota Marmat, Doda, Jammu and Kashmir 182201",
        "detailed_address": {
            "ward": "Thalanga",
            "street": "4GVW+HX4, Panshal Goudhari Mangota Marmat",
            "city": "Doda",
            "postal_code": "182201",
            "state": "Jammu and Kashmir",
            "country_code": "IN"
        },
        "images": [],
        "link": "https://www.google.com/maps/place/Mohalla+Masjid+Shareef+Panchal/data=!4m7!3m6!1s0x391da5df49b2193d:0x298833a7146a0fb2!8m2!3d33.1438765!4d75.547451!16s%2Fg%2F11nxq1kyk6!19sChIJPRmySd-lHTkRsg9qFKcziCk?authuser=0&hl=en&rclk=1",
        "coordinates": {
            "latitude": 33.1438765,
            "longitude": 75.547451
        }
    },
    {
        "name": "Masjid Sah Mohalla msjd shryf sh mHlWh",
        "main_category": "Mosque",
        "address": "4GXW+G4V Masjid Sah Mohalla msjd shryf sh mHlWh, Thalanga, Doda, Jammu and Kashmir 182202",
        "detailed_address": {
            "ward": "Thalanga",
            "street": "4GXW+G4V",
            "city": "Doda",
            "postal_code": null,
            "state": "Jammu and Kashmir",
            "country_code": "IN"
        },
        "images": [],
        "link": "https://www.google.com/maps/place/Masjid+Sah+Mohalla+%D9%85%D8%B3%D8%AC%D8%AF+%D8%B4%D8%B1%DB%8C%D9%81+%D8%B3%D8%A7%DB%81+%D9%85%D8%AD%D9%84%D9%91%DB%81%E2%80%AD/data=!4m7!3m6!1s0x391da5dc4dd29f63:0xeebeedb21563fa07!8m2!3d33.1488609!4d75.545288!16s%2Fg%2F11v0dymk9p!19sChIJY5_STdylHTkRB_pjFbLtvu4?authuser=0&hl=en&rclk=1",
        "coordinates": {
            "latitude": 33.148860899999995,
            "longitude": 75.545288
        }
    },
    {
        "name": "Sadiqabad Mosque",
        "main_category": "Mosque",
        "address": "4GWR+VV2 Sadiqabad Mosque, Aqramabad, Thalanga, Doda, Jammu and Kashmir 182202",
        "detailed_address": {
            "ward": "Aqramabad, Thalanga",
            "street": "4GWR+VV2",
            "city": "Doda",
            "postal_code": "182202",
            "state": "Jammu and Kashmir",
            "country_code": "IN"
        },
        "images": [
            {
                "about": "All",
                "link": "https://lh5.googleusercontent.com/p/AF1QipNP64pQH1GJzbl9EjAjVa0lL70z3Jdev8bmdixt=w224-h399-k-no"
            },
            {
                "about": "Videos",
                "link": "https://lh5.googleusercontent.com/p/AF1QipNP64pQH1GJzbl9EjAjVa0lL70z3Jdev8bmdixt=w224-h399-k-no"
            }
        ],
        "link": "https://www.google.com/maps/place/Sadiqabad+Mosque/data=!4m7!3m6!1s0x391da5fef720dceb:0x18c45af7f65f1249!8m2!3d33.1471298!4d75.5421433!16s%2Fg%2F11kj2bkd0l!19sChIJ69wg9_6lHTkRSRJf9vdaxBg?authuser=0&hl=en&rclk=1",
        "coordinates": {
            "latitude": 33.1471298,
            "longitude": 75.54214329999999
        }
    },
    {
        "name": "msjd khy mm bw Hnyfh ttwnddw ddwdd Hnyfh ttwnddw ddwdd",
        "main_category": "Mosque",
        "address": "4GRW+8F msjd khy mm bw Hnyfh ttwnddw ddwdd Hnyfh ttwnddw ddwdd, Tondua, Doda, 182202",
        "detailed_address": {
            "ward": "Tondua",
            "street": "4GRW+8F",
            "city": "Doda",
            "postal_code": "182202",
            "state": null,
            "country_code": "IN"
        },
        "images": [],
        "link": "https://www.google.com/maps/place/%D9%85%D8%B3%D8%AC%D8%AF+%DA%A9%DB%92+%D8%A7%D9%85%D8%A7%D9%85+%D8%A7%D8%A8%D9%88+%D8%AD%D9%86%DB%8C%D9%81%DB%81+%D9%B9%D9%88%D9%86%DA%88%D9%88%D8%A7+%DA%88%D9%88%DA%88%D8%A7+%D8%AD%D9%86%DB%8C%D9%81%DB%81+%D9%B9%D9%88%D9%86%DA%88%D9%88%D8%A7+%DA%88%D9%88%DA%88%D8%A7%E2%80%AD/data=!4m7!3m6!1s0x391da5b110f5a451:0xad27148275e026ff!8m2!3d33.1408013!4d75.5461498!16s%2Fg%2F11pdxz2wmm!19sChIJUaT1ELGlHTkR_ybgdYIUJ60?authuser=0&hl=en&rclk=1",
        "coordinates": {
            "latitude": 33.1408013,
            "longitude": 75.5461498
        }
    },
    {
        "name": "Masjid Sharief Khunoo",
        "main_category": "Mosque",
        "address": "4GWX+76V Masjid Sharief Khunoo, Thalanga, Doda, 182202",
        "detailed_address": {
            "ward": "Thalanga",
            "street": "4GWX+76V",
            "city": "Doda",
            "postal_code": null,
            "state": null,
            "country_code": "IN"
        },
        "images": [],
        "link": "https://www.google.com/maps/place/Masjid+Sharief+Khunoo/data=!4m7!3m6!1s0x391da5fad55e55db:0x37b017f52afab4e8!8m2!3d33.1457497!4d75.5480491!16s%2Fg%2F11q46nnhyj!19sChIJ21Ve1fqlHTkR6LT6KvUXsDc?authuser=0&hl=en&rclk=1",
        "coordinates": {
            "latitude": 33.145749699999996,
            "longitude": 75.5480491
        }
    },
    {
        "name": "Jamia masjid,pulldoda",
        "main_category": "Mosque",
        "address": "4HP6+M8P Jamia masjid,pulldoda, Pul Doda, Derka, Kahla, 182201",
        "detailed_address": {
            "ward": "Pul Doda",
            "street": "4HP6+M8P",
            "city": "Derka, Kahla",
            "postal_code": "182201",
            "state": null,
            "country_code": "IN"
        },
        "images": [],
        "link": "https://www.google.com/maps/place/Jamia+masjid,pulldoda/data=!4m7!3m6!1s0x391da54f3b36c801:0x7b337eac07f4875c!8m2!3d33.1376614!4d75.559602!16s%2Fg%2F11t0t8n329!19sChIJAcg2O0-lHTkRXIf0B6x-M3s?authuser=0&hl=en&rclk=1",
        "coordinates": {
            "latitude": 33.1376614,
            "longitude": 75.559602
        }
    }
]