[
    {
        "name": "Madina Masjid",
        "main_category": "Mosque",
        "address": "Madina Masjid, Government Junior College, Bhainsa, Telangana 504103",
        "detailed_address": {
            "ward": null,
            "street": "Government Junior College",
            "city": "Bhainsa",
            "postal_code": "504103",
            "state": "Telangana",
            "country_code": "IN"
        },
        "images": [
            {
                "about": "All",
                "link": "https://lh5.googleusercontent.com/p/AF1QipOgBfteuhgcz0S1My3oVNL-oqzpmOdD4y-HbFp6=w224-h398-k-no"
            },
            {
                "about": "Videos",
                "link": "https://lh5.googleusercontent.com/p/AF1QipOgBfteuhgcz0S1My3oVNL-oqzpmOdD4y-HbFp6=w224-h398-k-no"
            }
        ],
        "link": "https://www.google.com/maps/place/Madina+Masjid/data=!4m7!3m6!1s0x3bcdfe5aef2fd1e3:0x48c8397dc97ab0f6!8m2!3d19.1096769!4d77.9643594!16s%2Fg%2F11b7w99d4p!19sChIJ49Ev71r-zTsR9rB6yX05yEg?authuser=0&hl=en&rclk=1",
        "coordinates": {
            "latitude": 19.1096769,
            "longitude": 77.96435939999999
        }
    },
    {
        "name": "Masjid Panjesha",
        "main_category": "Mosque",
        "address": "Masjid Panjesha, masjid, panjesha marg, Bhainsa, Telangana 504103",
        "detailed_address": {
            "ward": null,
            "street": "masjid, panjesha marg",
            "city": "Bhainsa",
            "postal_code": null,
            "state": "Telangana",
            "country_code": "IN"
        },
        "images": [
            {
                "about": "All",
                "link": "https://lh5.googleusercontent.com/p/AF1QipO_s7rO64wG93YIcBuS6JQ_1TYMJqeHQFlVg1VY=w397-h298-k-no"
            },
            {
                "about": "Dome",
                "link": "https://lh5.googleusercontent.com/p/AF1QipNHmjHjXgfpP2Zu9d-le8RNY-FJC6BKJpNrJs1L=w397-h298-k-no"
            },
            {
                "about": "Videos",
                "link": "https://lh5.googleusercontent.com/p/AF1QipOXCbPtkew6WuGaOFY_ABwGxvaDcIKzLFKX_hg=w518-h298-k-no"
            },
            {
                "about": "Street View & 360deg",
                "link": "https://streetviewpixels-pa.googleapis.com/v1/thumbnail?panoid=TzWRqkK3svgcJm4jbP1L2g&cb_client=maps_sv.tactile.gps&w=224&h=298&yaw=271.78186&pitch=0&thumbfov=100"
            }
        ],
        "link": "https://www.google.com/maps/place/Masjid+Panjesha/data=!4m7!3m6!1s0x3bcdfe45594b318b:0xa9a4527a0d3bdd4e!8m2!3d19.1114013!4d77.9614446!16s%2Fg%2F11xfvxc4m!19sChIJizFLWUX-zTsRTt07DXpSpKk?authuser=0&hl=en&rclk=1",
        "coordinates": {
            "latitude": 19.1114013,
            "longitude": 77.9614446
        }
    },
    {
        "name": "Eid-Gah",
        "main_category": "Mosque",
        "address": "4XC4+J65 Eid-Gah, Palsi Road, Telangana 504103",
        "detailed_address": {
            "ward": null,
            "street": "4XC4+J65, Palsi Road",
            "city": null,
            "postal_code": "504103",
            "state": "Telangana",
            "country_code": "IN"
        },
        "images": [
            {
                "about": "All",
                "link": "https://lh5.googleusercontent.com/p/AF1QipOOHcV4Av33YHc62QhAq_rcGytaOXJ01tzQjBAj=w397-h298-k-no"
            }
        ],
        "link": "https://www.google.com/maps/place/Eid-Gah/data=!4m7!3m6!1s0x3bcdfe4b41f2b35b:0x49272df21ed88662!8m2!3d19.1215231!4d77.9556209!16s%2Fg%2F11b7lhbkzd!19sChIJW7PyQUv-zTsRYobYHvItJ0k?authuser=0&hl=en&rclk=1",
        "coordinates": {
            "latitude": 19.121523099999997,
            "longitude": 77.9556209
        }
    },
    {
        "name": "Masjid-e-Umar Farooq",
        "main_category": "Mosque",
        "address": "4X79+M2F Masjid-e-Umar Farooq, Umar Farooq St, Abadi, Bhainsa, Telangana 504103",
        "detailed_address": {
            "ward": "Abadi",
            "street": "4X79+M2F, Umar Farooq St",
            "city": "Bhainsa",
            "postal_code": "504103",
            "state": "Telangana",
            "country_code": "IN"
        },
        "images": [
            {
                "about": "All",
                "link": "https://lh5.googleusercontent.com/p/AF1QipOvyueRdlKI1LWXMOUq4HQk_p0gWPT1L__u-YB_=w529-h298-k-no"
            },
            {
                "about": "Videos",
                "link": "https://lh5.googleusercontent.com/p/AF1QipPjjkM98HDCDQzzsJgD5fJLCS-wEGPUH3t9Uucv=w529-h298-k-no"
            }
        ],
        "link": "https://www.google.com/maps/place/Masjid-e-Umar+Farooq/data=!4m7!3m6!1s0x3bcdfe50d026f4b3:0x9d2df10fc48b7b47!8m2!3d19.1141962!4d77.9675498!16s%2Fg%2F11c1s1_b43!19sChIJs_Qm0FD-zTsRR3uLxA_xLZ0?authuser=0&hl=en&rclk=1",
        "coordinates": {
            "latitude": 19.1141962,
            "longitude": 77.9675498
        }
    },
    {
        "name": "MASJID-E-MOMINAN",
        "main_category": "Mosque",
        "address": "4X76+4V9 MASJID-E-MOMINAN, mominan Galli, Siddhartha Nagar, Bhainsa, Telangana 504103",
        "detailed_address": {
            "ward": "Siddhartha Nagar",
            "street": "4X76+4V9, mominan Galli",
            "city": "Bhainsa",
            "postal_code": "504103",
            "state": "Telangana",
            "country_code": "IN"
        },
        "images": [
            {
                "about": "All",
                "link": "https://streetviewpixels-pa.googleapis.com/v1/thumbnail?panoid=wIOL1P3Wb5yEneQhKoLidw&cb_client=maps_sv.tactile.gps&w=224&h=298&yaw=210.08919&pitch=0&thumbfov=100"
            },
            {
                "about": "Street View & 360deg",
                "link": "https://streetviewpixels-pa.googleapis.com/v1/thumbnail?panoid=wIOL1P3Wb5yEneQhKoLidw&cb_client=maps_sv.tactile.gps&w=224&h=298&yaw=210.08919&pitch=0&thumbfov=100"
            }
        ],
        "link": "https://www.google.com/maps/place/MASJID-E-MOMINAN/data=!4m7!3m6!1s0x3bcdfe4fe1772615:0x1ea8449dd9031e42!8m2!3d19.1127883!4d77.9622459!16s%2Fg%2F11bymwdg7g!19sChIJFSZ34U_-zTsRQh4D2Z1EqB4?authuser=0&hl=en&rclk=1",
        "coordinates": {
            "latitude": 19.1127883,
            "longitude": 77.9622459
        }
    },
    {
        "name": "Jama Masjid",
        "main_category": "Mosque",
        "address": "4X76+PG6 Jama Masjid, Bhainsa, Telangana 504103",
        "detailed_address": {
            "ward": null,
            "street": "4X76+PG6",
            "city": "Bhainsa",
            "postal_code": "504103",
            "state": "Telangana",
            "country_code": "IN"
        },
        "images": [
            {
                "about": "All",
                "link": "https://lh5.googleusercontent.com/p/AF1QipOOgrUHLOdMq4ow9ZchExpw_0X5LRQ1t-ZLKZci=w662-h298-k-no"
            },
            {
                "about": "Dome",
                "link": "https://lh5.googleusercontent.com/p/AF1QipPr_r1EirkoSqgjJEldigr-BwPB1jUsSJBexJ7Z=w224-h298-k-no"
            },
            {
                "about": "Street View & 360deg",
                "link": "https://streetviewpixels-pa.googleapis.com/v1/thumbnail?panoid=yxaH3rSsDoJursPMBlAz6g&cb_client=maps_sv.tactile.gps&w=224&h=298&yaw=164.59575&pitch=0&thumbfov=100"
            }
        ],
        "link": "https://www.google.com/maps/place/Jama+Masjid/data=!4m7!3m6!1s0x3bcdfe4fcb6d4d3b:0x5b221d8cd9bf7450!8m2!3d19.1142804!4d77.961278!16s%2Fg%2F11by_ln6gj!19sChIJO01ty0_-zTsRUHS_2YwdIls?authuser=0&hl=en&rclk=1",
        "coordinates": {
            "latitude": 19.1142804,
            "longitude": 77.961278
        }
    },
    {
        "name": "Masjid E Tauheed Bhainsa",
        "main_category": "Mosque",
        "address": "Masjid E Tauheed Bhainsa, Government Junior College, near jr, Bhainsa, Telangana 504103",
        "detailed_address": {
            "ward": null,
            "street": "Government Junior College, near jr",
            "city": "Bhainsa",
            "postal_code": "504103",
            "state": "Telangana",
            "country_code": "IN"
        },
        "images": [
            {
                "about": "All",
                "link": "https://lh5.googleusercontent.com/p/AF1QipMm50rm2MxaD2v9fbc6hxmfw_aaHQngywumOIRQ=w529-h298-k-no"
            }
        ],
        "link": "https://www.google.com/maps/place/Masjid+E+Tauheed+Bhainsa/data=!4m7!3m6!1s0x3bcdfe5abe12d209:0xcb0d4c3a60c43c0e!8m2!3d19.1106262!4d77.9637239!16s%2Fg%2F11g8nzxgs0!19sChIJCdISvlr-zTsRDjzEYDpMDcs?authuser=0&hl=en&rclk=1",
        "coordinates": {
            "latitude": 19.1106262,
            "longitude": 77.96372389999999
        }
    },
    {
        "name": "masjid Abbu Bakar",
        "main_category": "Place of worship",
        "address": "4X68+JHW masjid Abbu Bakar, Bhainsa, Telangana 504103",
        "detailed_address": {
            "ward": null,
            "street": "4X68+JHW",
            "city": "Bhainsa",
            "postal_code": "504103",
            "state": "Telangana",
            "country_code": "IN"
        },
        "images": [
            {
                "about": "All",
                "link": "https://lh5.googleusercontent.com/p/AF1QipMjNnfOKEjJl9YMFzFzz95iTCBdW6sBGtnDwm3e=w397-h298-k-no"
            },
            {
                "about": "Videos",
                "link": "https://lh5.googleusercontent.com/p/AF1QipMz3AyOnMKKEipiB52e3jztMHz2rSw3o9oqffRf=w224-h398-k-no"
            }
        ],
        "link": "https://www.google.com/maps/place/masjid+Abbu+Bakar/data=!4m7!3m6!1s0x3bcdfe5a7461957f:0x7d00f2f5551ffdde!8m2!3d19.1116031!4d77.9664603!16s%2Fg%2F11c1v367gg!19sChIJf5VhdFr-zTsR3v0fVfXyAH0?authuser=0&hl=en&rclk=1",
        "coordinates": {
            "latitude": 19.1116031,
            "longitude": 77.9664603
        }
    },
    {
        "name": "Osman Masjid",
        "main_category": "Mosque",
        "address": "4X47+RJX Osman Masjid, Asad Baba Nagar, Bhainsa, Telangana 504103",
        "detailed_address": {
            "ward": "Asad Baba Nagar",
            "street": "4X47+RJX",
            "city": "Bhainsa",
            "postal_code": "504103",
            "state": "Telangana",
            "country_code": "IN"
        },
        "images": [
            {
                "about": "All",
                "link": "https://lh5.googleusercontent.com/p/AF1QipMJk-qQCTUMu7cD5Elt9Zqk6YOwEwkijfuR4K7W=w224-h298-k-no"
            }
        ],
        "link": "https://www.google.com/maps/place/Osman+Masjid/data=!4m7!3m6!1s0x3bcdfe5b6bc0025d:0x854fb770d38fd2a3!8m2!3d19.107103!4d77.9641068!16s%2Fg%2F11cn6jvztk!19sChIJXQLAa1v-zTsRo9KP03C3T4U?authuser=0&hl=en&rclk=1",
        "coordinates": {
            "latitude": 19.107103,
            "longitude": 77.9641068
        }
    },
    {
        "name": "EK MINAR MASJID",
        "main_category": "Mosque",
        "address": "4X58+8P8 EK MINAR MASJID, Asad Baba Nagar, Bhainsa, Telangana 504103",
        "detailed_address": {
            "ward": "Asad Baba Nagar",
            "street": "4X58+8P8",
            "city": "Bhainsa",
            "postal_code": "504103",
            "state": "Telangana",
            "country_code": "IN"
        },
        "images": [],
        "link": "https://www.google.com/maps/place/EK+MINAR+MASJID/data=!4m7!3m6!1s0x3bcdfe5bc8742e03:0x9e4aca298cc82934!8m2!3d19.1082968!4d77.9668355!16s%2Fg%2F11c1wjq5wm!19sChIJAy50yFv-zTsRNCnIjCnKSp4?authuser=0&hl=en&rclk=1",
        "coordinates": {
            "latitude": 19.108296799999998,
            "longitude": 77.9668355
        }
    },
    {
        "name": "Jama Masjid",
        "main_category": "Mosque",
        "address": "4438+75M Jama Masjid, Unnamed Road, Chackpalli, Arli (Khurd), Telangana 504104",
        "detailed_address": {
            "ward": null,
            "street": "4438+75M, Unnamed Road",
            "city": "Chackpalli, Arli (Khurd)",
            "postal_code": "504104",
            "state": "Telangana",
            "country_code": "IN"
        },
        "images": [
            {
                "about": "All",
                "link": "https://lh5.googleusercontent.com/p/AF1QipPVNRfnN6RRZAs2VFmY0pQ9iWwcEzoKrjL36E-g=w224-h298-k-no"
            },
            {
                "about": "Street View & 360deg",
                "link": "https://streetviewpixels-pa.googleapis.com/v1/thumbnail?panoid=k9-fkU2NOO7Q3tKQ_7kn4A&cb_client=maps_sv.tactile.gps&w=224&h=298&yaw=310.84067&pitch=0&thumbfov=100"
            }
        ],
        "link": "https://www.google.com/maps/place/Jama+Masjid/data=!4m7!3m6!1s0x3bcdf759442ad593:0x9d3101a5cbafb91e!8m2!3d19.1032189!4d78.1154349!16s%2Fg%2F11gdgxt0hd!19sChIJk9UqRFn3zTsRHrmvy6UBMZ0?authuser=0&hl=en&rclk=1",
        "coordinates": {
            "latitude": 19.103218899999998,
            "longitude": 78.1154349
        }
    },
    {
        "name": "Zulfaquar Masjid",
        "main_category": "Mosque",
        "address": "Zulfaquar Masjid, Batti Galli, Bhainsa, Telangana 504103",
        "detailed_address": {
            "ward": null,
            "street": "Batti Galli",
            "city": "Bhainsa",
            "postal_code": "504103",
            "state": "Telangana",
            "country_code": "IN"
        },
        "images": [
            {
                "about": "All",
                "link": "https://lh5.googleusercontent.com/p/AF1QipM7E1ptmA3StCAANJRjlMm3n5uoMxAV_h7Zmycy=w645-h298-k-no"
            },
            {
                "about": "By owner",
                "link": "https://lh5.googleusercontent.com/p/AF1QipMbizTqvcVQus_gQbzxFRC87HvLcmH9Z_lLAqe3=w529-h298-k-no"
            },
            {
                "about": "Videos",
                "link": "https://lh5.googleusercontent.com/p/AF1QipMbizTqvcVQus_gQbzxFRC87HvLcmH9Z_lLAqe3=w529-h298-k-no"
            },
            {
                "about": "Street View & 360deg",
                "link": "https://streetviewpixels-pa.googleapis.com/v1/thumbnail?panoid=RlM5Kmut7SKS_-xEUA-pDQ&cb_client=maps_sv.tactile.gps&w=224&h=298&yaw=186.6167&pitch=0&thumbfov=100"
            }
        ],
        "link": "https://www.google.com/maps/place/Zulfaquar+Masjid/data=!4m7!3m6!1s0x3bcdfe458e005063:0x3327cc952a5d40c3!8m2!3d19.1106687!4d77.9585257!16s%2Fg%2F11b7lgcncq!19sChIJY1AAjkX-zTsRw0BdKpXMJzM?authuser=0&hl=en&rclk=1",
        "coordinates": {
            "latitude": 19.110668699999998,
            "longitude": 77.9585257
        }
    },
    {
        "name": "Jaama Masjid (Mosque)",
        "main_category": "Mosque",
        "address": "VXM3+WC6 Jaama Masjid (Mosque), Basar, Telangana 504101",
        "detailed_address": {
            "ward": null,
            "street": "VXM3+WC6",
            "city": "Basar",
            "postal_code": null,
            "state": "Telangana",
            "country_code": "IN"
        },
        "images": [
            {
                "about": "All",
                "link": "https://lh5.googleusercontent.com/p/AF1QipMWV6-UuvlEpdM-mQ_4Zfqa1HdPA9JbxAzJYqO8=w529-h298-k-no"
            },
            {
                "about": "Street View & 360deg",
                "link": "https://streetviewpixels-pa.googleapis.com/v1/thumbnail?panoid=2gah_burbv_GIwJUX1bIHg&cb_client=maps_sv.tactile.gps&w=224&h=298&yaw=39.893948&pitch=0&thumbfov=100"
            },
            {
                "about": "Videos",
                "link": "https://lh5.googleusercontent.com/p/AF1QipM_8lpyWtdAT78QwGOYpQAG1mgquWvX860wTTH4=w224-h398-k-no"
            }
        ],
        "link": "https://www.google.com/maps/place/Jaama+Masjid+%28Mosque%29/data=!4m7!3m6!1s0x3bcde1fdd318d0b1:0xdbc2475fe58f185!8m2!3d18.8847972!4d77.9535133!16s%2Fg%2F11ghfsvdpd!19sChIJsdAY0_3hzTsRhfFY_nUkvA0?authuser=0&hl=en&rclk=1",
        "coordinates": {
            "latitude": 18.884797199999998,
            "longitude": 77.9535133
        }
    },
    {
        "name": "Kaali Masjid",
        "main_category": "Mosque",
        "address": "4X86+8VM Kaali Masjid, Bhainsa, Telangana 504103",
        "detailed_address": {
            "ward": null,
            "street": "4X86+8VM",
            "city": "Bhainsa",
            "postal_code": "504103",
            "state": "Telangana",
            "country_code": "IN"
        },
        "images": [
            {
                "about": "All",
                "link": "https://lh5.googleusercontent.com/p/AF1QipNvpnN9du_Lqo4FX_49BMYz5aPwfiDJ7HoIQmPi=w529-h298-k-no"
            },
            {
                "about": "Street View & 360deg",
                "link": "https://streetviewpixels-pa.googleapis.com/v1/thumbnail?panoid=7UNkzkU4nN0TY7Q7b8LN0g&cb_client=maps_sv.tactile.gps&w=224&h=298&yaw=291.4201&pitch=0&thumbfov=100"
            }
        ],
        "link": "https://www.google.com/maps/place/Kaali+Masjid/data=!4m7!3m6!1s0x3bcdff01ee4823b7:0x7c003f504db3c40c!8m2!3d19.1158403!4d77.9621864!16s%2Fg%2F11f6mcqf45!19sChIJtyNI7gH_zTsRDMSzTVA_AHw?authuser=0&hl=en&rclk=1",
        "coordinates": {
            "latitude": 19.1158403,
            "longitude": 77.9621864
        }
    },
    {
        "name": "Madinah Masjid (mdynh msjd)",
        "main_category": "Mosque",
        "address": "CVGG+H5V Madinah Masjid (mdynh msjd), Bazar Chauk Rd, Himayatnagar, Maharashtra 431802",
        "detailed_address": {
            "ward": null,
            "street": "CVGG+H5V, Bazar Chauk Rd",
            "city": "Himayatnagar",
            "postal_code": "431802",
            "state": "Maharashtra",
            "country_code": "IN"
        },
        "images": [
            {
                "about": "All",
                "link": "https://lh5.googleusercontent.com/p/AF1QipOdEIIm5wWw_rpt-RRZz8XFoU0HLR4hHNsY27mv=w224-h398-k-no"
            },
            {
                "about": "Dome",
                "link": "https://lh5.googleusercontent.com/p/AF1QipPJnfi6UXnfb9ATyfHnKeCF1cQ8SSiWNosUUGYy=w224-h497-k-no"
            },
            {
                "about": "Street View & 360deg",
                "link": "https://lh5.googleusercontent.com/p/AF1QipOYzhFTpgoh_uW64BydVdE-U7poG9GqspbJ5Nhw=w224-h298-k-no-pi-10-ya176-ro-0-fo100"
            }
        ],
        "link": "https://www.google.com/maps/place/Madinah+Masjid+%28%D9%85%D8%AF%DB%8C%D9%86%DB%81+%D9%85%D8%B3%D8%AC%D8%AF%29%E2%80%AD/data=!4m7!3m6!1s0x3bd1f68c168013ed:0x89d1f3ee21b7dd2c!8m2!3d19.4264971!4d77.8754327!16s%2Fg%2F11b8twts1c!19sChIJ7ROAFoz20TsRLN23Ie7z0Yk?authuser=0&hl=en&rclk=1",
        "coordinates": {
            "latitude": 19.4264971,
            "longitude": 77.87543269999999
        }
    },
    {
        "name": "Masjid-E-Bilal",
        "main_category": "Religious destination",
        "address": "Ward no 8, Masjid-E-Bilal, Baraimam galliy, Bhainsa, Telangana 504103",
        "detailed_address": {
            "ward": null,
            "street": "Ward no 8, Baraimam galliy",
            "city": "Bhainsa",
            "postal_code": null,
            "state": "Telangana",
            "country_code": "IN"
        },
        "images": [
            {
                "about": "All",
                "link": "https://lh5.googleusercontent.com/p/AF1QipOeXRMip_U4-IJ_CiZ4cDzZz7qhp7J8WPm3x4w7=w397-h298-k-no"
            }
        ],
        "link": "https://www.google.com/maps/place/Masjid-E-Bilal/data=!4m7!3m6!1s0x3bcdff7d9ed1862d:0xc152153d2799454f!8m2!3d19.1132198!4d77.963905!16s%2Fg%2F11j018hd_k!19sChIJLYbRnn3_zTsRT0WZJz0VUsE?authuser=0&hl=en&rclk=1",
        "coordinates": {
            "latitude": 19.1132198,
            "longitude": 77.963905
        }
    },
    {
        "name": "ISLAMIA MASJID",
        "main_category": "Mosque",
        "address": "33P9+Q3G ISLAMIA MASJID, Unnamed Road, Pendapalle, Telangana 504109",
        "detailed_address": {
            "ward": null,
            "street": "33P9+Q3G, Unnamed Road",
            "city": "Pendapalle",
            "postal_code": "504109",
            "state": "Telangana",
            "country_code": "IN"
        },
        "images": [
            {
                "about": "All",
                "link": "https://lh5.googleusercontent.com/p/AF1QipNA9wPkaN0CRVUg1Rys0LL_Sup5TOGwnCqzUSB2=w529-h298-k-no"
            }
        ],
        "link": "https://www.google.com/maps/place/ISLAMIA+MASJID/data=!4m7!3m6!1s0x3bcdf9a84cf030af:0x3505c992c42fe512!8m2!3d19.0869441!4d78.0677168!16s%2Fg%2F11h1lsvqdn!19sChIJrzDwTKj5zTsREuUvxJLJBTU?authuser=0&hl=en&rclk=1",
        "coordinates": {
            "latitude": 19.0869441,
            "longitude": 78.0677168
        }
    },
    {
        "name": "Masjid-E-Imam Unnissa",
        "main_category": "Mosque",
        "address": "4X88+73C Masjid-E-Imam Unnissa, Bhainsa, Telangana 504103",
        "detailed_address": {
            "ward": null,
            "street": "4X88+73C",
            "city": "Bhainsa",
            "postal_code": "504103",
            "state": "Telangana",
            "country_code": "IN"
        },
        "images": [
            {
                "about": "All",
                "link": "https://lh5.googleusercontent.com/p/AF1QipORlGPKY9FRAFC3XxBuza88SqSRlppowqS9wh5p=w397-h298-k-no"
            }
        ],
        "link": "https://www.google.com/maps/place/Masjid-E-Imam+Unnissa/data=!4m7!3m6!1s0x3bcdff48f9d34921:0xbfa3a3b4df1b04b1!8m2!3d19.1156767!4d77.965154!16s%2Fg%2F11n60wjr3b!19sChIJIUnT-Uj_zTsRsQQb37Sjo78?authuser=0&hl=en&rclk=1",
        "coordinates": {
            "latitude": 19.115676699999998,
            "longitude": 77.965154
        }
    },
    {
        "name": "IDARA ANFA-UL-MADARIS",
        "main_category": "Mosque",
        "address": "IDARA ANFA-UL-MADARIS, Umar Farooq Abadi, Bhainsa, Telangana 504103",
        "detailed_address": {
            "ward": null,
            "street": "Umar Farooq Abadi",
            "city": "Bhainsa",
            "postal_code": "504103",
            "state": "Telangana",
            "country_code": "IN"
        },
        "images": [
            {
                "about": "All",
                "link": "https://lh5.googleusercontent.com/p/AF1QipPHPq1F6S-Jxnp_wDdHlAHytrupIIfvwy_tNQFx=w448-h298-k-no"
            },
            {
                "about": "Latest",
                "link": "https://lh5.googleusercontent.com/p/AF1QipPyxSdeB3xF-nAJEGYLvSywPfshWd3zqaiBjyux=w447-h298-k-no"
            },
            {
                "about": "Dome",
                "link": "https://lh5.googleusercontent.com/p/AF1QipPI33m8kBHvNJ19LKvq1S52p-Xo-WJUDxdXTjiE=w397-h298-k-no"
            }
        ],
        "link": "https://www.google.com/maps/place/IDARA+ANFA-UL-MADARIS/data=!4m7!3m6!1s0x3bcdff684c744727:0xdd4c8e59a5a31e73!8m2!3d19.1142023!4d77.9690341!16s%2Fg%2F11j2ccx398!19sChIJJ0d0TGj_zTsRcx6jpVmOTN0?authuser=0&hl=en&rclk=1",
        "coordinates": {
            "latitude": 19.1142023,
            "longitude": 77.9690341
        }
    },
    {
        "name": "Macca Masjid - Nandigaon",
        "main_category": "Mosque",
        "address": "VX4V+H84 Macca Masjid - Nandigaon, Nandigaon, Telangana 503245",
        "detailed_address": {
            "ward": null,
            "street": "VX4V+H84",
            "city": "Nandigaon",
            "postal_code": "503245",
            "state": "Telangana",
            "country_code": "IN"
        },
        "images": [
            {
                "about": "All",
                "link": "https://lh5.googleusercontent.com/p/AF1QipMfVAUsb2kw-Ydu5ql1GI-5rvxG-DO5bazlHP8o=w224-h398-k-no"
            },
            {
                "about": "Videos",
                "link": "https://lh5.googleusercontent.com/p/AF1QipPApveB8USABIZijC5LH1nIl1xVwN5VrRXQYDFR=w238-h298-k-no"
            }
        ],
        "link": "https://www.google.com/maps/place/Macca+Masjid+-+Nandigaon/data=!4m7!3m6!1s0x3bcde119d638785b:0xdf451e0f3385337b!8m2!3d18.8563765!4d77.9933382!16s%2Fg%2F11c0xyx9wk!19sChIJW3g41hnhzTsRezOFMw8eRd8?authuser=0&hl=en&rclk=1",
        "coordinates": {
            "latitude": 18.8563765,
            "longitude": 77.9933382
        }
    },
    {
        "name": "Masjid E Al-Mujib (msjd lmujiyb)",
        "main_category": "Mosque",
        "address": "CVFH+39P Masjid E Al-Mujib (msjd lmujiyb), Bhokar - Kinwat Rd, Himayatnagar, Maharashtra 431802",
        "detailed_address": {
            "ward": null,
            "street": "CVFH+39P, Bhokar - Kinwat Rd",
            "city": "Himayatnagar",
            "postal_code": "431802",
            "state": "Maharashtra",
            "country_code": "IN"
        },
        "images": [
            {
                "about": "All",
                "link": "https://lh5.googleusercontent.com/p/AF1QipMZqogcMuBQTCGzZR8PyjH3MolxMueFvkU7gYqL=w224-h398-k-no"
            },
            {
                "about": "Videos",
                "link": "https://lh5.googleusercontent.com/p/AF1QipNzqs-MlZeW1eBMAsbXkqPPf5kJzy8TdAlZMpTZ=w224-h403-k-no"
            }
        ],
        "link": "https://www.google.com/maps/place/Masjid+E+Al-Mujib+%28%D9%85%D8%B3%D8%AC%D8%AF+%D8%A7%D9%84%D9%85%D9%8F%D8%AC%D9%90%DB%8C%D8%A8%29%E2%80%AD/data=!4m7!3m6!1s0x3bd1f68b342d2023:0x4596307441cd1795!8m2!3d19.4227026!4d77.8784564!16s%2Fg%2F11cknpj9tb!19sChIJIyAtNIv20TsRlRfNQXQwlkU?authuser=0&hl=en&rclk=1",
        "coordinates": {
            "latitude": 19.422702599999997,
            "longitude": 77.87845639999999
        }
    },
    {
        "name": "Madina Masjid",
        "main_category": "Mosque",
        "address": "XWPC+CGC Madina Masjid, Mudhole St, Mudhole, Telangana 504102",
        "detailed_address": {
            "ward": null,
            "street": "XWPC+CGC, Mudhole St",
            "city": "Mudhole",
            "postal_code": "504102",
            "state": "Telangana",
            "country_code": "IN"
        },
        "images": [
            {
                "about": "All",
                "link": "https://lh5.googleusercontent.com/p/AF1QipOHTMLGNi6R8b3j-xqlImxFnO5KrHdnZUIJ1HRV=w224-h398-k-no"
            },
            {
                "about": "Videos",
                "link": "https://lh5.googleusercontent.com/p/AF1QipM0cRxabGW_HeDfxkrndRK4d7J9L0vDNompxYW8=w224-h398-k-no"
            }
        ],
        "link": "https://www.google.com/maps/place/Madina+Masjid/data=!4m7!3m6!1s0x3bce07fc0d5ab6d9:0xef39beed9a49c2b0!8m2!3d18.9860691!4d77.9212626!16s%2Fg%2F11fyzflsc6!19sChIJ2bZaDfwHzjsRsMJJmu2-Oe8?authuser=0&hl=en&rclk=1",
        "coordinates": {
            "latitude": 18.986069099999998,
            "longitude": 77.92126259999999
        }
    },
    {
        "name": "Deen E Muhammad Dargah",
        "main_category": "Mosque",
        "address": "4X87+PMF Deen E Muhammad Dargah, Bhainsa, Telangana 504103",
        "detailed_address": {
            "ward": null,
            "street": "4X87+PMF",
            "city": "Bhainsa",
            "postal_code": "504103",
            "state": "Telangana",
            "country_code": "IN"
        },
        "images": [
            {
                "about": "All",
                "link": "https://lh5.googleusercontent.com/p/AF1QipOjJbLOUYw6Pxfw-8EALNSN8W--epO21gauvNnb=w529-h298-k-no"
            },
            {
                "about": "Street View & 360deg",
                "link": "https://streetviewpixels-pa.googleapis.com/v1/thumbnail?panoid=tSy1vGoZql9lmCR-tz0BWg&cb_client=maps_sv.tactile.gps&w=224&h=298&yaw=100.65559&pitch=0&thumbfov=100"
            },
            {
                "about": "Videos",
                "link": "https://lh5.googleusercontent.com/p/AF1QipM78TCDvGWsxM6Rgqw1fzUdE8b_HqwE60dJEVBP=w298-h298-k-no"
            }
        ],
        "link": "https://www.google.com/maps/place/Deen+E+Muhammad+Dargah/data=!4m7!3m6!1s0x3bcdff0bce791d5b:0x5d1dfe69be5f14ea!8m2!3d19.1168214!4d77.9641861!16s%2Fg%2F11fq8r95lt!19sChIJWx15zgv_zTsR6hRfvmn-HV0?authuser=0&hl=en&rclk=1",
        "coordinates": {
            "latitude": 19.1168214,
            "longitude": 77.96418609999999
        }
    },
    {
        "name": "Masjid e maulana ,maulana nagar",
        "main_category": "Mosque",
        "address": "72F2+24 Masjid e maulana ,maulana nagar, Brahmeswar, Telangana 504103",
        "detailed_address": {
            "ward": null,
            "street": "72F2+24",
            "city": "Brahmeswar",
            "postal_code": null,
            "state": "Telangana",
            "country_code": "IN"
        },
        "images": [
            {
                "about": "All",
                "link": "https://lh5.googleusercontent.com/p/AF1QipNv947Skcmp3K0eopkcwrJOze1gMFfp_Xui5xvu=w397-h298-k-no"
            }
        ],
        "link": "https://www.google.com/maps/place/Masjid+e+maulana+,maulana+nagar/data=!4m7!3m6!1s0x3bd203a724388b9d:0x21f1cb8ff5f02f1d!8m2!3d19.2725064!4d78.000345!16s%2Fg%2F11pvfzpyn7!19sChIJnYs4JKcD0jsRHS_w9Y_L8SE?authuser=0&hl=en&rclk=1",
        "coordinates": {
            "latitude": 19.272506399999997,
            "longitude": 78.000345
        }
    },
    {
        "name": "Madhar Khan Masjid",
        "main_category": "Mosque",
        "address": "4X23+8HV Madhar Khan Masjid, National Highway 222, Khan Auto Nagar, Bhainsa, Telangana 504103",
        "detailed_address": {
            "ward": "Khan Auto Nagar",
            "street": "4X23+8HV, National Highway 222",
            "city": "Bhainsa",
            "postal_code": "504103",
            "state": "Telangana",
            "country_code": "IN"
        },
        "images": [
            {
                "about": "All",
                "link": "https://lh5.googleusercontent.com/p/AF1QipP4jH7ci67OCVEgu1wVQwpiCe72He4UsCTtc1xk=w224-h298-k-no"
            },
            {
                "about": "Videos",
                "link": "https://lh5.googleusercontent.com/p/AF1QipMrCsnr1McjqZ4FBzwNNlZ3wQO3cQXke1QE6onm=w529-h298-k-no"
            }
        ],
        "link": "https://www.google.com/maps/place/Madhar+Khan+Masjid/data=!4m7!3m6!1s0x3bcdfe41b557545b:0xd92f6034489efa34!8m2!3d19.1008595!4d77.9539175!16s%2Fg%2F11b7c49jxk!19sChIJW1RXtUH-zTsRNPqeSDRgL9k?authuser=0&hl=en&rclk=1",
        "coordinates": {
            "latitude": 19.1008595,
            "longitude": 77.9539175
        }
    },
    {
        "name": "Makka masjid",
        "main_category": "Mosque",
        "address": "4X49+5GM Makka masjid, Owaisi nagar, Bhainsa, Telangana 504103",
        "detailed_address": {
            "ward": "Owaisi nagar",
            "street": "4X49+5GM",
            "city": "Bhainsa",
            "postal_code": "504103",
            "state": "Telangana",
            "country_code": "IN"
        },
        "images": [
            {
                "about": "All",
                "link": "https://lh5.googleusercontent.com/p/AF1QipOVp7oa0V5AS7MKc9oRUP0V9DMhuRA6LbaVxY2i=w224-h298-k-no"
            },
            {
                "about": "Videos",
                "link": "https://lh5.googleusercontent.com/p/AF1QipN80o16-wIDVhH9Hx2XPgMpHCfcdsMCFXsx0xne=w400-h298-k-no"
            }
        ],
        "link": "https://www.google.com/maps/place/Makka+masjid/data=!4m7!3m6!1s0x3bcdff0eae709cdd:0x6854d10775edfe3!8m2!3d19.1054591!4d77.9688006!16s%2Fg%2F11j7cswkz7!19sChIJ3Zxwrg7_zTsR499edxBNhQY?authuser=0&hl=en&rclk=1",
        "coordinates": {
            "latitude": 19.105459099999997,
            "longitude": 77.9688006
        }
    },
    {
        "name": "MOHAMMADIYA MASJID",
        "main_category": "Mosque",
        "address": "XVR7+2R5 MOHAMMADIYA MASJID, Nandgam, Telangana 504102",
        "detailed_address": {
            "ward": null,
            "street": "XVR7+2R5",
            "city": "Nandgam",
            "postal_code": "504102",
            "state": "Telangana",
            "country_code": "IN"
        },
        "images": [
            {
                "about": "All",
                "link": "https://lh5.googleusercontent.com/p/AF1QipNmGIGza_X-bueNJJKra2fFHfqPA__DQVwqXhBX=w529-h298-k-no"
            }
        ],
        "link": "https://www.google.com/maps/place/MOHAMMADIYA+MASJID/data=!4m7!3m6!1s0x3bce07528ded7757:0x80b1e2eefa1c65c1!8m2!3d18.9900182!4d77.8646149!16s%2Fg%2F11tcm00p9l!19sChIJV3ftjVIHzjsRwWUc-u7isYA?authuser=0&hl=en&rclk=1",
        "coordinates": {
            "latitude": 18.990018199999998,
            "longitude": 77.86461489999999
        }
    },
    {
        "name": "Mahimba Drgah",
        "main_category": "Mosque",
        "address": "C3C9+5CM Mahimba Drgah, SH-230, Ritha, Maharashtra 431803",
        "detailed_address": {
            "ward": null,
            "street": "C3C9+5CM, SH-230",
            "city": "Ritha",
            "postal_code": null,
            "state": "Maharashtra",
            "country_code": "IN"
        },
        "images": [
            {
                "about": "All",
                "link": "https://lh5.googleusercontent.com/p/AF1QipPVftp4KRL__XHRt5WJQ9DBuiWuR8FrmKHsB4OF=w529-h298-k-no"
            },
            {
                "about": "Latest",
                "link": "https://lh5.googleusercontent.com/p/AF1QipPEFRbhxpHAT2luC195CQbwOguOapmltShYspir=w224-h398-k-no"
            },
            {
                "about": "Videos",
                "link": "https://lh5.googleusercontent.com/p/AF1QipPEFRbhxpHAT2luC195CQbwOguOapmltShYspir=w224-h398-k-no"
            }
        ],
        "link": "https://www.google.com/maps/place/Mahimba+Drgah/data=!4m7!3m6!1s0x3bd21b0316765077:0xefe33c5c199d737d!8m2!3d19.420463!4d78.0685409!16s%2Fg%2F11rfqp99rk!19sChIJd1B2FgMb0jsRfXOdGVw84-8?authuser=0&hl=en&rclk=1",
        "coordinates": {
            "latitude": 19.420462999999998,
            "longitude": 78.0685409
        }
    },
    {
        "name": "Jama Masjid Pardi B",
        "main_category": "Mosque",
        "address": "6XVR+PJM Jama Masjid Pardi B, Pardi busirg Mandal kubeer District nirmal, Pardi Buzurg, Telangana 504103",
        "detailed_address": {
            "ward": null,
            "street": "6XVR+PJM, Pardi busirg Mandal kubeer District nirmal",
            "city": "Pardi Buzurg",
            "postal_code": "504103",
            "state": "Telangana",
            "country_code": "IN"
        },
        "images": [
            {
                "about": "All",
                "link": "https://lh5.googleusercontent.com/p/AF1QipPJ3qccJ-QXe5TW3JkRrj0kNvwcZXMGBunX_LqE=w224-h298-k-no"
            }
        ],
        "link": "https://www.google.com/maps/place/Jama+Masjid+Pardi+B/data=!4m7!3m6!1s0x3bd201e0084b5091:0x17b1e1fad65c2105!8m2!3d19.2443343!4d77.9915575!16s%2Fg%2F11jcjmtwwt!19sChIJkVBLCOAB0jsRBSFc1vrhsRc?authuser=0&hl=en&rclk=1",
        "coordinates": {
            "latitude": 19.2443343,
            "longitude": 77.9915575
        }
    },
    {
        "name": "Jama masjid",
        "main_category": "Mosque",
        "address": "Jama masjid, Mahendher fertiliser, Ola, Telangana 504109",
        "detailed_address": {
            "ward": null,
            "street": "Mahendher fertiliser",
            "city": "Ola",
            "postal_code": "504109",
            "state": "Telangana",
            "country_code": "IN"
        },
        "images": [
            {
                "about": "All",
                "link": "https://lh5.googleusercontent.com/p/AF1QipNtbaCXVv1Oz3MKcnN6tBOIH0Vui1TGVQGRE7yQ=w224-h497-k-no"
            }
        ],
        "link": "https://www.google.com/maps/place/Jama+masjid/data=!4m7!3m6!1s0x3bd207e78142f0d5:0xfe16d5ecc5fee1da!8m2!3d19.1802439!4d78.0713271!16s%2Fg%2F11fv3lytz1!19sChIJ1fBCgecH0jsR2uH-xezVFv4?authuser=0&hl=en&rclk=1",
        "coordinates": {
            "latitude": 19.1802439,
            "longitude": 78.07132709999999
        }
    },
    {
        "name": "Masjid",
        "main_category": "Mosque",
        "address": "575J+M85 Masjid, Rd, Boragaon, Boregaon, Telangana 504110",
        "detailed_address": {
            "ward": null,
            "street": "575J+M85, Rd",
            "city": "Boragaon, Boregaon",
            "postal_code": "504110",
            "state": "Telangana",
            "country_code": "IN"
        },
        "images": [],
        "link": "https://www.google.com/maps/place/Masjid/data=!4m7!3m6!1s0x3bcdf5566038f497:0x4b6461d2e0d594e4!8m2!3d19.1591405!4d78.2808603!16s%2Fg%2F11r9h611j1!19sChIJl_Q4YFb1zTsR5JTV4NJhZEs?authuser=0&hl=en&rclk=1",
        "coordinates": {
            "latitude": 19.1591405,
            "longitude": 78.2808603
        }
    },
    {
        "name": "Jama Masjid",
        "main_category": "Place of worship",
        "address": "3W6R+V78 Jama Masjid, Dahegaon, Telangana 504102",
        "detailed_address": {
            "ward": null,
            "street": "3W6R+V78",
            "city": "Dahegaon",
            "postal_code": "504102",
            "state": "Telangana",
            "country_code": "IN"
        },
        "images": [
            {
                "about": "All",
                "link": "https://lh5.googleusercontent.com/p/AF1QipOpN31pNYpR7NQ4r9SRQZDNfbL3FvXhAe5_kdyV=w397-h298-k-no"
            },
            {
                "about": "Street View & 360deg",
                "link": "https://streetviewpixels-pa.googleapis.com/v1/thumbnail?panoid=y2grLjiOCNG9IRiaQNr5Hw&cb_client=maps_sv.tactile.gps&w=224&h=298&yaw=83.45545&pitch=0&thumbfov=100"
            }
        ],
        "link": "https://www.google.com/maps/place/Jama+Masjid/data=!4m7!3m6!1s0x3bcdfdefea2d5cf5:0x8b06b880e886f9f3!8m2!3d19.062155!4d77.9407105!16s%2Fg%2F11btxhlp73!19sChIJ9Vwt6u_9zTsR8_mG6IC4Bos?authuser=0&hl=en&rclk=1",
        "coordinates": {
            "latitude": 19.062155,
            "longitude": 77.9407105
        }
    },
    {
        "name": "Masijd",
        "main_category": "Mosque",
        "address": "37RJ+GWX Masijd, Sirgapur, Telangana 504306",
        "detailed_address": {
            "ward": null,
            "street": "37RJ+GWX",
            "city": "Sirgapur",
            "postal_code": "504306",
            "state": "Telangana",
            "country_code": "IN"
        },
        "images": [
            {
                "about": "All",
                "link": "https://lh5.googleusercontent.com/p/AF1QipOhMnCvOzTCVgOmsyAdlUkttXFc1OTSHkkrd5XR=w298-h298-k-no"
            }
        ],
        "link": "https://www.google.com/maps/place/Masijd/data=!4m7!3m6!1s0x3bcdf33758e9a9e3:0xdf1a41fcd63d0884!8m2!3d19.0913546!4d78.2823573!16s%2Fg%2F11ssjwr2t4!19sChIJ46npWDfzzTsRhAg91vxBGt8?authuser=0&hl=en&rclk=1",
        "coordinates": {
            "latitude": 19.0913546,
            "longitude": 78.2823573
        }
    },
    {
        "name": "Dargah masjid",
        "main_category": "Mosque",
        "address": "4X86+MR9 Dargah masjid, Old Bazar Rd, Bhainsa, Telangana 504103",
        "detailed_address": {
            "ward": null,
            "street": "4X86+MR9, Old Bazar Rd",
            "city": "Bhainsa",
            "postal_code": "504103",
            "state": "Telangana",
            "country_code": "IN"
        },
        "images": [
            {
                "about": "All",
                "link": "https://lh5.googleusercontent.com/p/AF1QipNIUk8WfUNOZtV-nRP4L6sQk1UzLXzZNZ6w9k5S=w224-h298-k-no"
            }
        ],
        "link": "https://www.google.com/maps/place/Dargah+masjid/data=!4m7!3m6!1s0x3bcdff763fbf880f:0x512b48d84c4231e0!8m2!3d19.1167346!4d77.962365!16s%2Fg%2F11sz2st0k3!19sChIJD4i_P3b_zTsR4DFCTNhIK1E?authuser=0&hl=en&rclk=1",
        "coordinates": {
            "latitude": 19.1167346,
            "longitude": 77.96236499999999
        }
    },
    {
        "name": "Owaisi masjid",
        "main_category": "Mosque",
        "address": "4X3C+PVW Owaisi masjid, Rd number 2, Bhainsa, Telangana 504103",
        "detailed_address": {
            "ward": null,
            "street": "4X3C+PVW, Rd number 2",
            "city": "Bhainsa",
            "postal_code": "504103",
            "state": "Telangana",
            "country_code": "IN"
        },
        "images": [
            {
                "about": "All",
                "link": "https://lh5.googleusercontent.com/p/AF1QipN2qBcj1bacLG5mkM1RyVE5_C19TB5ipjsUp5W4=w224-h398-k-no"
            },
            {
                "about": "Videos",
                "link": "https://lh5.googleusercontent.com/p/AF1QipPg6bt5oVPHbgyL3OHfx8y4qnQzO4BpXG1pVetp=w224-h398-k-no"
            }
        ],
        "link": "https://www.google.com/maps/place/Owaisi+masjid/data=!4m7!3m6!1s0x3bcdffb38f817769:0x3746a83dd7b84291!8m2!3d19.1044739!4d77.9714137!16s%2Fg%2F11s5627lk5!19sChIJaXeBj7P_zTsRkUK41z2oRjc?authuser=0&hl=en&rclk=1",
        "coordinates": {
            "latitude": 19.1044739,
            "longitude": 77.9714137
        }
    },
    {
        "name": "Masjid e Ilaqa e Mashaiq",
        "main_category": "Mosque",
        "address": "4X86+MR9 Masjid e Ilaqa e Mashaiq, Old Bazar Rd, Bhainsa, Telangana 504103",
        "detailed_address": {
            "ward": null,
            "street": "4X86+MR9, Old Bazar Rd",
            "city": "Bhainsa",
            "postal_code": "504103",
            "state": "Telangana",
            "country_code": "IN"
        },
        "images": [
            {
                "about": "All",
                "link": "https://lh5.googleusercontent.com/p/AF1QipNfAiKqiFdK6KltawTrdk7jCRBIweacxwWVSPM=w397-h298-k-no"
            },
            {
                "about": "Street View & 360deg",
                "link": "https://streetviewpixels-pa.googleapis.com/v1/thumbnail?panoid=TQH9Ts2VN92I-rJ5eOJ2Mw&cb_client=maps_sv.tactile.gps&w=224&h=298&yaw=330.3619&pitch=0&thumbfov=100"
            }
        ],
        "link": "https://www.google.com/maps/place/Masjid+e+Ilaqa+e+Mashaiq/data=!4m7!3m6!1s0x3bcdffbb718107df:0x308312419b8ea3ee!8m2!3d19.11667!4d77.9621098!16s%2Fg%2F11np7rc810!19sChIJ3weBcbv_zTsR7qOOm0ESgzA?authuser=0&hl=en&rclk=1",
        "coordinates": {
            "latitude": 19.11667,
            "longitude": 77.9621098
        }
    },
    {
        "name": "Aqsa Masjid",
        "main_category": "Mosque",
        "address": "4X4G+44V Aqsa Masjid, Bhainsa, Telangana 504103",
        "detailed_address": {
            "ward": null,
            "street": "4X4G+44V",
            "city": "Bhainsa",
            "postal_code": "504103",
            "state": "Telangana",
            "country_code": "IN"
        },
        "images": [
            {
                "about": "All",
                "link": "https://lh5.googleusercontent.com/p/AF1QipPqrgfGxuOuRGpWm8sYrEsWg6SZm8deox-iUVps=w224-h398-k-no"
            },
            {
                "about": "Videos",
                "link": "https://lh5.googleusercontent.com/p/AF1QipNp4puXfZz_YiaCnY8rE_z7XyyyC9HrAlKrb4je=w224-h407-k-no"
            }
        ],
        "link": "https://www.google.com/maps/place/Aqsa+Masjid/data=!4m7!3m6!1s0x3bcdffefc08d1e65:0x78398d3d727b1cd0!8m2!3d19.1053514!4d77.9752969!16s%2Fg%2F11jf0jv14x!19sChIJZR6NwO__zTsR0Bx7cj2NOXg?authuser=0&hl=en&rclk=1",
        "coordinates": {
            "latitude": 19.1053514,
            "longitude": 77.9752969
        }
    },
    {
        "name": "Masjid-e-Ibrahim",
        "main_category": "Mosque",
        "address": "4X3F+MGW Masjid-e-Ibrahim, Owasi Nagar, Bhainsa, Telangana 504103",
        "detailed_address": {
            "ward": "Owasi Nagar",
            "street": "4X3F+MGW",
            "city": "Bhainsa",
            "postal_code": "504103",
            "state": "Telangana",
            "country_code": "IN"
        },
        "images": [
            {
                "about": "All",
                "link": "https://lh5.googleusercontent.com/p/AF1QipOoEU1YJySEn4_7Zhos4eNXZNQ-pk7MftimqMF5=w529-h298-k-no"
            }
        ],
        "link": "https://www.google.com/maps/place/Masjid-e-Ibrahim/data=!4m7!3m6!1s0x3bcdff2e3ed8c869:0x9a1ebb33c7592548!8m2!3d19.1042258!4d77.9738428!16s%2Fg%2F11jpgpwxgp!19sChIJacjYPi7_zTsRSCVZxzO7Hpo?authuser=0&hl=en&rclk=1",
        "coordinates": {
            "latitude": 19.1042258,
            "longitude": 77.9738428
        }
    },
    {
        "name": "Jama Masjid Pardi B",
        "main_category": "Mosque",
        "address": "6XCW+6F9 Jama Masjid Pardi B, Pardi Buzurg, Telangana 504103",
        "detailed_address": {
            "ward": null,
            "street": "6XCW+6F9",
            "city": "Pardi Buzurg",
            "postal_code": null,
            "state": "Telangana",
            "country_code": "IN"
        },
        "images": [],
        "link": "https://www.google.com/maps/place/Jama+Masjid+Pardi+B/data=!4m7!3m6!1s0x3bd20148945ee801:0xd11637936393bbec!8m2!3d19.2205263!4d77.9962228!16s%2Fg%2F11fthgbfmp!19sChIJAehelEgB0jsR7LuTY5M3FtE?authuser=0&hl=en&rclk=1",
        "coordinates": {
            "latitude": 19.2205263,
            "longitude": 77.9962228
        }
    },
    {
        "name": "Masjid-e-mohammed ali khan",
        "main_category": "Mosque",
        "address": "4X66+HJX Masjid-e-mohammed ali khan, Bhainsa, Telangana 504103",
        "detailed_address": {
            "ward": null,
            "street": "4X66+HJX",
            "city": "Bhainsa",
            "postal_code": "504103",
            "state": "Telangana",
            "country_code": "IN"
        },
        "images": [
            {
                "about": "All",
                "link": "https://streetviewpixels-pa.googleapis.com/v1/thumbnail?panoid=39f_Mz6M83l5eWrRefQxzw&cb_client=maps_sv.tactile.gps&w=224&h=298&yaw=265.18326&pitch=0&thumbfov=100"
            },
            {
                "about": "Street View & 360deg",
                "link": "https://streetviewpixels-pa.googleapis.com/v1/thumbnail?panoid=39f_Mz6M83l5eWrRefQxzw&cb_client=maps_sv.tactile.gps&w=224&h=298&yaw=265.18326&pitch=0&thumbfov=100"
            },
            {
                "about": "Videos",
                "link": "https://lh5.googleusercontent.com/p/AF1QipMY87evyv6RoYiXQuZEw1V3Q34OFkAoNJEVmwbQ=w298-h298-k-no"
            }
        ],
        "link": "https://www.google.com/maps/place/Masjid-e-mohammed+ali+khan/data=!4m7!3m6!1s0x3bcdff51973f1793:0x47b905b99f17ef30!8m2!3d19.1115918!4d77.9615985!16s%2Fg%2F11pzpc_hb7!19sChIJkxc_l1H_zTsRMO8Xn7kFuUc?authuser=0&hl=en&rclk=1",
        "coordinates": {
            "latitude": 19.1115918,
            "longitude": 77.9615985
        }
    },
    {
        "name": "Masjid Mahboobia",
        "main_category": "Mosque",
        "address": "4X47+736 Masjid Mahboobia, Bhainsa, Telangana 504103",
        "detailed_address": {
            "ward": null,
            "street": "4X47+736",
            "city": "Bhainsa",
            "postal_code": "504103",
            "state": "Telangana",
            "country_code": "IN"
        },
        "images": [
            {
                "about": "All",
                "link": "https://lh5.googleusercontent.com/p/AF1QipM9e4THfGjaSsFz6RYbiYNNCEq4WrIJHxRRPiv6=w228-h298-k-no"
            },
            {
                "about": "Dome",
                "link": "https://lh5.googleusercontent.com/p/AF1QipM9e4THfGjaSsFz6RYbiYNNCEq4WrIJHxRRPiv6=w228-h298-k-no"
            }
        ],
        "link": "https://www.google.com/maps/place/Masjid+Mahboobia/data=!4m7!3m6!1s0x3bcdffa54730d159:0x3070551ca0bf95d2!8m2!3d19.1056685!4d77.9626302!16s%2Fg%2F11n001s619!19sChIJWdEwR6X_zTsR0pW_oBxVcDA?authuser=0&hl=en&rclk=1",
        "coordinates": {
            "latitude": 19.1056685,
            "longitude": 77.96263019999999
        }
    },
    {
        "name": "Masjid e WALI",
        "main_category": "Mosque",
        "address": "4X49+MWR Masjid e WALI, Rd Number 1, Bhainsa, Telangana 504103",
        "detailed_address": {
            "ward": null,
            "street": "4X49+MWR, Rd Number 1",
            "city": "Bhainsa",
            "postal_code": "504103",
            "state": "Telangana",
            "country_code": "IN"
        },
        "images": [
            {
                "about": "All",
                "link": "https://lh5.googleusercontent.com/p/AF1QipOvIoUrmf9OpedxBCUmHqXLmvBm4XVmagcdl5xZ=w529-h298-k-no"
            }
        ],
        "link": "https://www.google.com/maps/place/Masjid+e+WALI/data=!4m7!3m6!1s0x3bcdffe159c3e0c5:0x924cdf0a90587653!8m2!3d19.1067472!4d77.9697721!16s%2Fg%2F11lrryyhw2!19sChIJxeDDWeH_zTsRU3ZYkArfTJI?authuser=0&hl=en&rclk=1",
        "coordinates": {
            "latitude": 19.106747199999997,
            "longitude": 77.9697721
        }
    },
    {
        "name": "Dargah masjid",
        "main_category": "Mosque",
        "address": "4X85+RH4 Dargah masjid, Kisan Gally, Bhainsa, Telangana 504103",
        "detailed_address": {
            "ward": null,
            "street": "4X85+RH4, Kisan Gally",
            "city": "Bhainsa",
            "postal_code": "504103",
            "state": "Telangana",
            "country_code": "IN"
        },
        "images": [
            {
                "about": "All",
                "link": "https://lh5.googleusercontent.com/p/AF1QipN4VLE-280gwizsDZzevDhrzb-4vErUu_kLw4xV=w646-h298-k-no"
            },
            {
                "about": "Dome",
                "link": "https://lh5.googleusercontent.com/p/AF1QipO1DbHoxwCUVcQ4eJegcdaGQr-6jkAtYlV5XWLm=w397-h298-k-no"
            }
        ],
        "link": "https://www.google.com/maps/place/Dargah+masjid/data=!4m7!3m6!1s0x3bcdff8149341c71:0x4ab8fbf5c4f17c84!8m2!3d19.1170017!4d77.9589653!16s%2Fg%2F11n8wky035!19sChIJcRw0SYH_zTsRhHzxxPX7uEo?authuser=0&hl=en&rclk=1",
        "coordinates": {
            "latitude": 19.1170017,
            "longitude": 77.9589653
        }
    },
    {
        "name": "Quadanshah ali",
        "main_category": "Mosque",
        "address": "4X5F+FPC Quadanshah ali, Bhainsa, Telangana 504103",
        "detailed_address": {
            "ward": null,
            "street": "4X5F+FPC",
            "city": "Bhainsa",
            "postal_code": "504103",
            "state": "Telangana",
            "country_code": "IN"
        },
        "images": [
            {
                "about": "All",
                "link": "https://lh5.googleusercontent.com/p/AF1QipMo7YMe2R_8NWsr4i4G96ZYcdtTynI2neUeg7HU=w298-h298-k-no"
            },
            {
                "about": "Latest",
                "link": "https://lh5.googleusercontent.com/p/AF1QipPV1Ee2nFbroYB0I39O80uIKn1n3QT-YfKFZs3w=w298-h298-k-no"
            }
        ],
        "link": "https://www.google.com/maps/place/Quadanshah+ali/data=!4m7!3m6!1s0x3bcdff7a411bd27f:0xf18f2bb4d86febfc!8m2!3d19.1086944!4d77.9742549!16s%2Fg%2F11l6yhsc3v!19sChIJf9IbQXr_zTsR_Otv2LQrj_E?authuser=0&hl=en&rclk=1",
        "coordinates": {
            "latitude": 19.108694399999997,
            "longitude": 77.97425489999999
        }
    },
    {
        "name": "Jama Masjid (Dhagaon)",
        "main_category": "Mosque",
        "address": "2V3M+H5J Jama Masjid (Dhagaon), Dhagaon, Telangana 504102",
        "detailed_address": {
            "ward": null,
            "street": "2V3M+H5J",
            "city": "Dhagaon",
            "postal_code": "504102",
            "state": "Telangana",
            "country_code": "IN"
        },
        "images": [
            {
                "about": "All",
                "link": "https://lh5.googleusercontent.com/p/AF1QipM7A9z4eknFuDnupeVpi7lcgrsExIjumjSeNyi5=w397-h298-k-no"
            }
        ],
        "link": "https://www.google.com/maps/place/Jama+Masjid+%28Dhagaon%29/data=!4m7!3m6!1s0x3bce0727bed48a03:0xca3f528a32d322e2!8m2!3d19.0039639!4d77.8828794!16s%2Fg%2F11trgx4wrs!19sChIJA4rUvicHzjsR4iLTMopSP8o?authuser=0&hl=en&rclk=1",
        "coordinates": {
            "latitude": 19.0039639,
            "longitude": 77.8828794
        }
    },
    {
        "name": "dawal malik dargah(Dhagaon)",
        "main_category": "Mosque",
        "address": "2V3M+965 dawal malik dargah(Dhagaon), Dhagaon, Telangana 504102",
        "detailed_address": {
            "ward": null,
            "street": "2V3M+965",
            "city": "Dhagaon",
            "postal_code": "504102",
            "state": "Telangana",
            "country_code": "IN"
        },
        "images": [],
        "link": "https://www.google.com/maps/place/dawal+malik+dargah%28Dhagaon%29/data=!4m7!3m6!1s0x3bce0784a4b48061:0xdbf15b4f084afd8f!8m2!3d19.0031897!4d77.8832948!16s%2Fg%2F11kjm3syc4!19sChIJYYC0pIQHzjsRj_1KCE9b8ds?authuser=0&hl=en&rclk=1",
        "coordinates": {
            "latitude": 19.0031897,
            "longitude": 77.8832948
        }
    },
    {
        "name": "MASJIDE MUSTAFA",
        "main_category": "Mosque",
        "address": "7W6R+5RH MASJIDE MUSTAFA, Kubeer, Telangana 504103",
        "detailed_address": {
            "ward": null,
            "street": "7W6R+5RH",
            "city": "Kubeer",
            "postal_code": "504103",
            "state": "Telangana",
            "country_code": "IN"
        },
        "images": [
            {
                "about": "All",
                "link": "https://lh5.googleusercontent.com/p/AF1QipNwZnAjdozosqiOu_dwTdtxnrM30gTYdey2Lx0Z=w529-h298-k-no"
            }
        ],
        "link": "https://www.google.com/maps/place/MASJIDE+MUSTAFA/data=!4m7!3m6!1s0x3bd201ed686f678f:0x7633282881e75a49!8m2!3d19.2604289!4d77.942096!16s%2Fg%2F11ftvbkbd3!19sChIJj2dvaO0B0jsRSVrngSgoM3Y?authuser=0&hl=en&rclk=1",
        "coordinates": {
            "latitude": 19.2604289,
            "longitude": 77.94209599999999
        }
    },
    {
        "name": "Jamamasjid",
        "main_category": "Mosque",
        "address": "7W6V+HF4 Jamamasjid, Main Road, Kubeer, Telangana 504103",
        "detailed_address": {
            "ward": null,
            "street": "7W6V+HF4, Main Road",
            "city": "Kubeer",
            "postal_code": "504103",
            "state": "Telangana",
            "country_code": "IN"
        },
        "images": [],
        "link": "https://www.google.com/maps/place/Jamamasjid/data=!4m7!3m6!1s0x3bd201f63f663507:0xcf27423fc86287f2!8m2!3d19.2613867!4d77.943711!16s%2Fg%2F11hd6y_1v0!19sChIJBzVmP_YB0jsR8odiyD9CJ88?authuser=0&hl=en&rclk=1",
        "coordinates": {
            "latitude": 19.2613867,
            "longitude": 77.943711
        }
    },
    {
        "name": "DARGA-E-HAZRATH AMRUH SAAB",
        "main_category": "Mosque",
        "address": "4VJR+5R2 DARGA-E-HAZRATH AMRUH SAAB, Bamni, Telangana 504103",
        "detailed_address": {
            "ward": null,
            "street": "4VJR+5R2",
            "city": "Bamni",
            "postal_code": "504103",
            "state": "Telangana",
            "country_code": "IN"
        },
        "images": [
            {
                "about": "All",
                "link": "https://lh5.googleusercontent.com/p/AF1QipMesDtmO_OMgJMBFOgcHSGD1PKN8XuG4822yYvF=w224-h298-k-no"
            }
        ],
        "link": "https://www.google.com/maps/place/DARGA-E-HAZRATH+AMRUH+SAAB/data=!4m7!3m6!1s0x3bce01ff76cf16eb:0x3ce087629589b43!8m2!3d19.1303904!4d77.8920271!16s%2Fg%2F11pcwyxd64!19sChIJ6xbPdv8BzjsRQ5tYKXYIzgM?authuser=0&hl=en&rclk=1",
        "coordinates": {
            "latitude": 19.1303904,
            "longitude": 77.89202709999999
        }
    },
    {
        "name": "Jama masjid",
        "main_category": "Mosque",
        "address": "Jama masjid, Tondakur, Shahpur, Telangana 503212",
        "detailed_address": {
            "ward": null,
            "street": null,
            "city": "Tondakur, Shahpur",
            "postal_code": "503212",
            "state": "Telangana",
            "country_code": "IN"
        },
        "images": [
            {
                "about": "All",
                "link": "https://lh5.googleusercontent.com/p/AF1QipNJkXI0yOKU5uJX7mxl53MxCr5qCJnUe5MVRAQ2=w529-h298-k-no"
            }
        ],
        "link": "https://www.google.com/maps/place/Jama+masjid/data=!4m7!3m6!1s0x3bcde9b6689d0d6d:0xd82ac2d148723667!8m2!3d18.9007382!4d78.1827624!16s%2Fg%2F11ty4q1_7p!19sChIJbQ2daLbpzTsRZzZySNHCKtg?authuser=0&hl=en&rclk=1",
        "coordinates": {
            "latitude": 18.9007382,
            "longitude": 78.1827624
        }
    },
    {
        "name": "JAMA MASJID DONIGAON",
        "main_category": "Mosque",
        "address": "55FQ+XQ JAMA MASJID DONIGAON, Kamkati, Telangana 504306",
        "detailed_address": {
            "ward": null,
            "street": "55FQ+XQ",
            "city": "Kamkati",
            "postal_code": null,
            "state": "Telangana",
            "country_code": "IN"
        },
        "images": [
            {
                "about": "All",
                "link": "https://lh5.googleusercontent.com/p/AF1QipOcrP3ZWoav0O1Z6rGX_6OftdQIJAazGnrsiLDj=w529-h298-k-no"
            }
        ],
        "link": "https://www.google.com/maps/place/JAMA+MASJID+DONIGAON/data=!4m7!3m6!1s0x3bcdf7f087ac0961:0x2f00dd62ed8835bd!8m2!3d19.174912!4d78.1893461!16s%2Fg%2F11rm__366k!19sChIJYQmsh_D3zTsRvTWI7WLdAC8?authuser=0&hl=en&rclk=1",
        "coordinates": {
            "latitude": 19.174912,
            "longitude": 78.1893461
        }
    },
    {
        "name": "Masjid-e-Taweed",
        "main_category": "Mosque",
        "address": "W49M+X9V Masjid-e-Taweed, Ummeda, Telangana 503212",
        "detailed_address": {
            "ward": null,
            "street": "W49M+X9V",
            "city": "Ummeda",
            "postal_code": "503212",
            "state": "Telangana",
            "country_code": "IN"
        },
        "images": [],
        "link": "https://www.google.com/maps/place/Masjid-e-Taweed/data=!4m7!3m6!1s0x3bcdef84711adc7f:0x8386494f394d9ae7!8m2!3d18.9199843!4d78.1334202!16s%2Fg%2F11f9zdrpmj!19sChIJf9wacYTvzTsR55pNOU9JhoM?authuser=0&hl=en&rclk=1",
        "coordinates": {
            "latitude": 18.9199843,
            "longitude": 78.1334202
        }
    },
    {
        "name": "Jama masjid ashta",
        "main_category": "Mosque",
        "address": "W2M3+V9P Jama masjid ashta, Ashta, Telangana 504101",
        "detailed_address": {
            "ward": null,
            "street": "W2M3+V9P",
            "city": "Ashta",
            "postal_code": "504101",
            "state": "Telangana",
            "country_code": "IN"
        },
        "images": [
            {
                "about": "All",
                "link": "https://lh5.googleusercontent.com/p/AF1QipNjBoodYqVose-KC_U9008apZf7Ob61rgyPMNGI=w224-h360-k-no"
            }
        ],
        "link": "https://www.google.com/maps/place/Jama+masjid+ashta/data=!4m7!3m6!1s0x3bcde35a9ce42b59:0xffe320028c1cbff8!8m2!3d18.9347189!4d78.0034513!16s%2Fg%2F11pz2s9spl!19sChIJWSvknFrjzTsR-L8cjAIg4_8?authuser=0&hl=en&rclk=1",
        "coordinates": {
            "latitude": 18.9347189,
            "longitude": 78.0034513
        }
    },
    {
        "name": "Thimmapur masjid",
        "main_category": "Mosque",
        "address": "435F+Q9G Thimmapur masjid, Unnamed Road, Thimmapur, Telangana 504109",
        "detailed_address": {
            "ward": null,
            "street": "435F+Q9G, Unnamed Road",
            "city": "Thimmapur",
            "postal_code": "504109",
            "state": "Telangana",
            "country_code": "IN"
        },
        "images": [],
        "link": "https://www.google.com/maps/place/Thimmapur+masjid/data=!4m7!3m6!1s0x3bcdf93c28513963:0x7dcfb1f3b4f8e7af!8m2!3d19.1094489!4d78.0734603!16s%2Fg%2F11qzbkts3t!19sChIJYzlRKDz5zTsRr-f4tPOxz30?authuser=0&hl=en&rclk=1",
        "coordinates": {
            "latitude": 19.1094489,
            "longitude": 78.0734603
        }
    },
    {
        "name": "Jamiya Masjid",
        "main_category": "Mosque",
        "address": "Jamiya Masjid, Panchagudi, Dharmara, Telangana 504104",
        "detailed_address": {
            "ward": null,
            "street": null,
            "city": "Panchagudi, Dharmara",
            "postal_code": "504104",
            "state": "Telangana",
            "country_code": "IN"
        },
        "images": [
            {
                "about": "All",
                "link": "https://lh5.googleusercontent.com/p/AF1QipM5i9IOOHW-ZlNoFoGvKpt8OwSV4QWEo83MMoeP=w397-h298-k-no"
            },
            {
                "about": "By owner",
                "link": "https://lh5.googleusercontent.com/p/AF1QipOih7VnTsEr7XFFl5v9hERLp6_XWIpIrFwoZPL2=w397-h298-k-no"
            }
        ],
        "link": "https://www.google.com/maps/place/Jamiya+Masjid/data=!4m7!3m6!1s0x3bcde5f57d5ce841:0x54a16d15ab8d2131!8m2!3d18.9698223!4d78.0838299!16s%2Fg%2F11g23bk4d8!19sChIJQehcffXlzTsRMSGNqxVtoVQ?authuser=0&hl=en&rclk=1",
        "coordinates": {
            "latitude": 18.9698223,
            "longitude": 78.0838299
        }
    },
    {
        "name": "Masjid-e-ubaidullah",
        "main_category": "Mosque",
        "address": "6763+MPH Masjid-e-ubaidullah, Sarangpur, Telangana 504110",
        "detailed_address": {
            "ward": null,
            "street": "6763+MPH",
            "city": "Sarangpur",
            "postal_code": null,
            "state": "Telangana",
            "country_code": "IN"
        },
        "images": [],
        "link": "https://www.google.com/maps/place/Masjid-e-ubaidullah/data=!4m7!3m6!1s0x3bd20b252120dd91:0x7c73203f3c9c251a!8m2!3d19.2116901!4d78.2543469!16s%2Fg%2F11t9pbrlmq!19sChIJkd0gISUL0jsRGiWcPD8gc3w?authuser=0&hl=en&rclk=1",
        "coordinates": {
            "latitude": 19.2116901,
            "longitude": 78.2543469
        }
    },
    {
        "name": "JAMA MASJID",
        "main_category": "Mosque",
        "address": "433W+VC6 JAMA MASJID, Unnamed Road, Kallur, Telangana 504109",
        "detailed_address": {
            "ward": null,
            "street": "433W+VC6, Unnamed Road",
            "city": "Kallur",
            "postal_code": "504109",
            "state": "Telangana",
            "country_code": "IN"
        },
        "images": [
            {
                "about": "All",
                "link": "https://lh5.googleusercontent.com/p/AF1QipOehavqrhgCuigDU9-wJhAi77sU1lww4lrOImr-=w224-h459-k-no"
            },
            {
                "about": "Videos",
                "link": "https://lh5.googleusercontent.com/p/AF1QipOehavqrhgCuigDU9-wJhAi77sU1lww4lrOImr-=w224-h459-k-no"
            }
        ],
        "link": "https://www.google.com/maps/place/JAMA+MASJID/data=!4m7!3m6!1s0x3bcdf93e953482f7:0xc3dff5e66af38f82!8m2!3d19.1046594!4d78.0960113!16s%2Fg%2F11gwhk1782!19sChIJ94I0lT75zTsRgo_zaub138M?authuser=0&hl=en&rclk=1",
        "coordinates": {
            "latitude": 19.1046594,
            "longitude": 78.0960113
        }
    },
    {
        "name": "Maqbara masjid",
        "main_category": "Mosque",
        "address": "4X86+WF7 Maqbara masjid, Bhainsa, Telangana 504103",
        "detailed_address": {
            "ward": null,
            "street": "4X86+WF7",
            "city": "Bhainsa",
            "postal_code": "504103",
            "state": "Telangana",
            "country_code": "IN"
        },
        "images": [],
        "link": "https://www.google.com/maps/place/Maqbara+masjid/data=!4m7!3m6!1s0x3bcdff260e3b794f:0x8b0a022e971e6e24!8m2!3d19.117272!4d77.9611583!16s%2Fg%2F11sq9gjl68!19sChIJT3k7Dib_zTsRJG4ely4CCos?authuser=0&hl=en&rclk=1",
        "coordinates": {
            "latitude": 19.117272,
            "longitude": 77.9611583
        }
    },
    {
        "name": "Masjid e mohammadiya",
        "main_category": "Mosque",
        "address": "4X78+7FX Masjid e mohammadiya, Bhainsa, Telangana 504103",
        "detailed_address": {
            "ward": null,
            "street": "4X78+7FX",
            "city": "Bhainsa",
            "postal_code": "504103",
            "state": "Telangana",
            "country_code": "IN"
        },
        "images": [],
        "link": "https://www.google.com/maps/place/Masjid+e+mohammadiya/data=!4m7!3m6!1s0x3bcdffafe5575e1f:0xadcb9e0d27ec98a!8m2!3d19.1131596!4d77.9653526!16s%2Fg%2F11qbh1lndc!19sChIJH15X5a__zTsRisl-0uC53Ao?authuser=0&hl=en&rclk=1",
        "coordinates": {
            "latitude": 19.1131596,
            "longitude": 77.9653526
        }
    },
    {
        "name": "Majid e abubakar",
        "main_category": "Mosque",
        "address": "4X68+H97 Majid e abubakar, New Abadi, Bhainsa, Telangana 504103",
        "detailed_address": {
            "ward": "New Abadi",
            "street": "4X68+H97",
            "city": "Bhainsa",
            "postal_code": "504103",
            "state": "Telangana",
            "country_code": "IN"
        },
        "images": [],
        "link": "https://www.google.com/maps/place/Majid+e+abubakar/data=!4m7!3m6!1s0x3bcdff58c1da7aab:0x219623bea3a45cb3!8m2!3d19.1113411!4d77.9659192!16s%2Fg%2F11sz2t10vn!19sChIJq3rawVj_zTsRs1yko74jliE?authuser=0&hl=en&rclk=1",
        "coordinates": {
            "latitude": 19.1113411,
            "longitude": 77.9659192
        }
    },
    {
        "name": "Haji Sahab Masjid",
        "main_category": "Mosque",
        "address": "4X76+WR5 Haji Sahab Masjid, Bhainsa, Telangana 504103",
        "detailed_address": {
            "ward": null,
            "street": "4X76+WR5",
            "city": "Bhainsa",
            "postal_code": "504103",
            "state": "Telangana",
            "country_code": "IN"
        },
        "images": [
            {
                "about": "All",
                "link": "https://streetviewpixels-pa.googleapis.com/v1/thumbnail?panoid=E_Lcerv3_HJ3ugkKDO5GGw&cb_client=maps_sv.tactile.gps&w=224&h=298&yaw=91.78546&pitch=0&thumbfov=100"
            },
            {
                "about": "Street View & 360deg",
                "link": "https://streetviewpixels-pa.googleapis.com/v1/thumbnail?panoid=E_Lcerv3_HJ3ugkKDO5GGw&cb_client=maps_sv.tactile.gps&w=224&h=298&yaw=91.78546&pitch=0&thumbfov=100"
            }
        ],
        "link": "https://www.google.com/maps/place/Haji+Sahab+Masjid/data=!4m7!3m6!1s0x3bcdffd89e630f21:0x6958ac2f4082e62d!8m2!3d19.114766!4d77.9621118!16s%2Fg%2F11r0wdt94j!19sChIJIQ9jntj_zTsRLeaCQC-sWGk?authuser=0&hl=en&rclk=1",
        "coordinates": {
            "latitude": 19.114766,
            "longitude": 77.9621118
        }
    },
    {
        "name": "Masjid E Madeena",
        "main_category": "Mosque",
        "address": "3XX8+XMW Masjid E Madeena, Vinayak Nagar, Bhainsa, Telangana 504103",
        "detailed_address": {
            "ward": "Vinayak Nagar",
            "street": "3XX8+XMW",
            "city": "Bhainsa",
            "postal_code": "504103",
            "state": "Telangana",
            "country_code": "IN"
        },
        "images": [
            {
                "about": "All",
                "link": "https://lh5.googleusercontent.com/p/AF1QipPutXHUROA6mOXdkgxxpjmhAgWeIiAppmcpdGjo=w397-h298-k-no"
            }
        ],
        "link": "https://www.google.com/maps/place/Masjid+E+Madeena/data=!4m7!3m6!1s0x3bcdfe67609b6a17:0xd10b98fe9ebd9b74!8m2!3d19.1!4d77.9667!16s%2Fg%2F11b7tns2dg!19sChIJF2qbYGf-zTsRdJu9nv6YC9E?authuser=0&hl=en&rclk=1",
        "coordinates": {
            "latitude": 19.099999999999998,
            "longitude": 77.9667
        }
    },
    {
        "name": "Sarkari masjid",
        "main_category": "Mosque",
        "address": "4X76+7FF Sarkari masjid, Bhainsa, Telangana 504103",
        "detailed_address": {
            "ward": null,
            "street": "4X76+7FF",
            "city": "Bhainsa",
            "postal_code": "504103",
            "state": "Telangana",
            "country_code": "IN"
        },
        "images": [],
        "link": "https://www.google.com/maps/place/Sarkari+masjid/data=!4m7!3m6!1s0x3bcdff1e48424da9:0xe5975291b8aab459!8m2!3d19.1131196!4d77.9611631!16s%2Fg%2F11sq9fy4l6!19sChIJqU1CSB7_zTsRWbSquJFSl-U?authuser=0&hl=en&rclk=1",
        "coordinates": {
            "latitude": 19.113119599999997,
            "longitude": 77.9611631
        }
    },
    {
        "name": "Jama masjid (Kotalgaom)",
        "main_category": "Mosque",
        "address": "42X5+48M Jama masjid (Kotalgaom), Kotalgaom, Bhainsa, Kotalgaon, Telangana 504109",
        "detailed_address": {
            "ward": "Kotalgaom",
            "street": "42X5+48M",
            "city": "Bhainsa, Kotalgaon",
            "postal_code": null,
            "state": "Telangana",
            "country_code": "IN"
        },
        "images": [],
        "link": "https://www.google.com/maps/place/Jama+masjid+%28Kotalgaom%29/data=!4m7!3m6!1s0x3bcdff620818b4cb:0x849464b5944d2dae!8m2!3d19.1478345!4d78.0082907!16s%2Fg%2F11tnw1x59k!19sChIJy7QYCGL_zTsRri1NlLVklIQ?authuser=0&hl=en&rclk=1",
        "coordinates": {
            "latitude": 19.1478345,
            "longitude": 78.0082907
        }
    },
    {
        "name": "Masjid e Fatima",
        "main_category": "Mosque",
        "address": "4X5G+9P4 Masjid e Fatima, Bhainsa, Telangana 504103",
        "detailed_address": {
            "ward": null,
            "street": "4X5G+9P4",
            "city": "Bhainsa",
            "postal_code": "504103",
            "state": "Telangana",
            "country_code": "IN"
        },
        "images": [],
        "link": "https://www.google.com/maps/place/Masjid+e+Fatima/data=!4m7!3m6!1s0x3bcdffb3b5a3debf:0x2063de0cbf29b1de!8m2!3d19.1083892!4d77.9768327!16s%2Fg%2F11l29xysl3!19sChIJv96jtbP_zTsR3rEpvwzeYyA?authuser=0&hl=en&rclk=1",
        "coordinates": {
            "latitude": 19.108389199999998,
            "longitude": 77.9768327
        }
    },
    {
        "name": "Momino mosque",
        "main_category": "Mosque",
        "address": "4X38+64M Momino mosque, New Abadi, Bhainsa, Telangana 504103",
        "detailed_address": {
            "ward": "New Abadi",
            "street": "4X38+64M",
            "city": "Bhainsa",
            "postal_code": "504103",
            "state": "Telangana",
            "country_code": "IN"
        },
        "images": [],
        "link": "https://www.google.com/maps/place/Momino+mosque/data=!4m7!3m6!1s0x3bcdfffea979f1ef:0x5d2c7b949536d054!8m2!3d19.1030811!4d77.9652985!16s%2Fg%2F11kqn0r70h!19sChIJ7_F5qf7_zTsRVNA2lZR7LF0?authuser=0&hl=en&rclk=1",
        "coordinates": {
            "latitude": 19.1030811,
            "longitude": 77.9652985
        }
    },
    {
        "name": "Dulha masjid",
        "main_category": "Mosque",
        "address": "4X76+QPR Dulha masjid, Bhainsa, Telangana 504103",
        "detailed_address": {
            "ward": null,
            "street": "4X76+QPR",
            "city": "Bhainsa",
            "postal_code": "504103",
            "state": "Telangana",
            "country_code": "IN"
        },
        "images": [
            {
                "about": "All",
                "link": "https://streetviewpixels-pa.googleapis.com/v1/thumbnail?panoid=25yq9p5lcGF0kLZIy1l_KA&cb_client=maps_sv.tactile.gps&w=224&h=298&yaw=300.3951&pitch=0&thumbfov=100"
            },
            {
                "about": "Street View & 360deg",
                "link": "https://streetviewpixels-pa.googleapis.com/v1/thumbnail?panoid=25yq9p5lcGF0kLZIy1l_KA&cb_client=maps_sv.tactile.gps&w=224&h=298&yaw=300.3951&pitch=0&thumbfov=100"
            }
        ],
        "link": "https://www.google.com/maps/place/Dulha+masjid/data=!4m7!3m6!1s0x3bcdff11036a7bc1:0x2af6a0e9a007d28e!8m2!3d19.1144859!4d77.9617514!16s%2Fg%2F11pzpf_hcw!19sChIJwXtqAxH_zTsRjtIHoOmg9io?authuser=0&hl=en&rclk=1",
        "coordinates": {
            "latitude": 19.1144859,
            "longitude": 77.9617514
        }
    },
    {
        "name": "Masjid e noor banu",
        "main_category": "Mosque",
        "address": "4298+7M3 Masjid e noor banu, Ekgaon, Telangana 504103",
        "detailed_address": {
            "ward": null,
            "street": "4298+7M3",
            "city": "Ekgaon",
            "postal_code": "504103",
            "state": "Telangana",
            "country_code": "IN"
        },
        "images": [],
        "link": "https://www.google.com/maps/place/Masjid+e+noor+banu/data=!4m7!3m6!1s0x3bcdff742aedeb0d:0x1cc2047094df4e93!8m2!3d19.1181434!4d78.0166847!16s%2Fg%2F11h6443h1y!19sChIJDevtKnT_zTsRk07flHAEwhw?authuser=0&hl=en&rclk=1",
        "coordinates": {
            "latitude": 19.118143399999997,
            "longitude": 78.0166847
        }
    },
    {
        "name": "Masjid e Gausheya",
        "main_category": "Mosque",
        "address": "4VRH+QWR Masjid e Gausheya, Bamni, Telangana 504103",
        "detailed_address": {
            "ward": null,
            "street": "4VRH+QWR",
            "city": "Bamni",
            "postal_code": "504103",
            "state": "Telangana",
            "country_code": "IN"
        },
        "images": [],
        "link": "https://www.google.com/maps/place/Masjid+e+Gausheya/data=!4m7!3m6!1s0x3bce01ed15c57fa9:0x41081cab448ddcaa!8m2!3d19.1419818!4d77.8797538!16s%2Fg%2F11rf9xpdcx!19sChIJqX_FFe0BzjsRqtyNRKscCEE?authuser=0&hl=en&rclk=1",
        "coordinates": {
            "latitude": 19.1419818,
            "longitude": 77.8797538
        }
    },
    {
        "name": "Madeena masjid",
        "main_category": "Mosque",
        "address": "52C6+V34 Madeena masjid, Chintalabori, Telangana 504103",
        "detailed_address": {
            "ward": null,
            "street": "52C6+V34",
            "city": "Chintalabori",
            "postal_code": null,
            "state": "Telangana",
            "country_code": "IN"
        },
        "images": [
            {
                "about": "All",
                "link": "https://lh5.googleusercontent.com/p/AF1QipMK8U9XiEJoWxLfkBnHyUzlWbQAePRAVYRAQ2ur=w529-h298-k-no"
            },
            {
                "about": "By owner",
                "link": "https://lh5.googleusercontent.com/p/AF1QipOllghA3y7jUpq94FnppCCHhxbVsr8vEQHYkxbD=w661-h298-k-no"
            },
            {
                "about": "Videos",
                "link": "https://lh5.googleusercontent.com/p/AF1QipOSmx7jmu354SZxJNeZI2Gg4GPFUcswRac7BEwh=w224-h398-k-no"
            }
        ],
        "link": "https://www.google.com/maps/place/Madeena+masjid/data=!4m7!3m6!1s0x3bcdffe967e8faaf:0xe0043d36fece529!8m2!3d19.1722582!4d78.0101075!16s%2Fg%2F11lgkmzqrf!19sChIJr_roZ-n_zTsRKeXsb9NDAA4?authuser=0&hl=en&rclk=1",
        "coordinates": {
            "latitude": 19.172258199999998,
            "longitude": 78.01010749999999
        }
    },
    {
        "name": "smshaanvaattik",
        "main_category": "Mosque",
        "address": "539X+CCJ smshaanvaattik, adilaabaadu, Telangana 504109",
        "detailed_address": {
            "ward": null,
            "street": "539X+CCJ",
            "city": "adilaabaadu",
            "postal_code": "504109",
            "state": "Telangana",
            "country_code": "IN"
        },
        "images": [],
        "link": "https://www.google.com/maps/place/%E0%B0%B8%E0%B1%8D%E0%B0%AE%E0%B0%B6%E0%B0%BE%E0%B0%A8%E0%B0%B5%E0%B0%BE%E0%B0%9F%E0%B0%BF%E0%B0%95/data=!4m7!3m6!1s0x3bcdf97b97a183ab:0xe00cb011d279594d!8m2!3d19.1682263!4d78.0990057!16s%2Fg%2F11v5bbbfvm!19sChIJq4Ohl3v5zTsRTVl50hGwDOA?authuser=0&hl=en&rclk=1",
        "coordinates": {
            "latitude": 19.1682263,
            "longitude": 78.09900569999999
        }
    },
    {
        "name": "Jamiya masjeed",
        "main_category": "Mosque",
        "address": "2V6P+24P Jamiya masjeed, Dhagaon, Telangana 504102",
        "detailed_address": {
            "ward": null,
            "street": "2V6P+24P",
            "city": "Dhagaon",
            "postal_code": "504102",
            "state": "Telangana",
            "country_code": "IN"
        },
        "images": [],
        "link": "https://www.google.com/maps/place/Jamiya+masjeed/data=!4m7!3m6!1s0x3bce0737cb5af415:0x208e894c4f477351!8m2!3d19.0100923!4d77.8853172!16s%2Fg%2F11q3__dgl3!19sChIJFfRayzcHzjsRUXNHT0yJjiA?authuser=0&hl=en&rclk=1",
        "coordinates": {
            "latitude": 19.0100923,
            "longitude": 77.8853172
        }
    },
    {
        "name": "MASJIDE ZAHED",
        "main_category": "Mosque",
        "address": "7W6W+6C8 MASJIDE ZAHED, Unnamed Road, Kubeer, Telangana 504103",
        "detailed_address": {
            "ward": null,
            "street": "7W6W+6C8, Unnamed Road",
            "city": "Kubeer",
            "postal_code": "504103",
            "state": "Telangana",
            "country_code": "IN"
        },
        "images": [],
        "link": "https://www.google.com/maps/place/MASJIDE+ZAHED/data=!4m7!3m6!1s0x3bd201d240c1d4d9:0x9a09b54656d17b2f!8m2!3d19.2605386!4d77.9460674!16s%2Fg%2F11jfjjz3rr!19sChIJ2dTBQNIB0jsRL3vRVka1CZo?authuser=0&hl=en&rclk=1",
        "coordinates": {
            "latitude": 19.2605386,
            "longitude": 77.94606739999999
        }
    },
    {
        "name": "Jama masjid Mohammadia godapur",
        "main_category": "Mosque",
        "address": "6V2P+QWW Jama masjid Mohammadia godapur, Godapur, Telangana 504103",
        "detailed_address": {
            "ward": null,
            "street": "6V2P+QWW",
            "city": "Godapur",
            "postal_code": "504103",
            "state": "Telangana",
            "country_code": "IN"
        },
        "images": [
            {
                "about": "All",
                "link": "https://lh5.googleusercontent.com/p/AF1QipOdourqdP8sWhaWV0YaXg9ScrPW1OTbCooNBCfj=w224-h298-k-no"
            }
        ],
        "link": "https://www.google.com/maps/place/Jama+masjid+Mohammadia+godapur/data=!4m7!3m6!1s0x3bd1ff67c74f1d71:0x6fbccdef3e8d57!8m2!3d19.2027752!4d77.8869778!16s%2Fg%2F11rn96vg7f!19sChIJcR1Px2f_0TsRV40-7828bwA?authuser=0&hl=en&rclk=1",
        "coordinates": {
            "latitude": 19.202775199999998,
            "longitude": 77.8869778
        }
    },
    {
        "name": "Boregaon masjid",
        "main_category": "Mosque",
        "address": "575J+M85 Boregaon masjid, Rd, Boragaon, Boregaon, Telangana 504110",
        "detailed_address": {
            "ward": null,
            "street": "575J+M85, Rd",
            "city": "Boragaon, Boregaon",
            "postal_code": "504110",
            "state": "Telangana",
            "country_code": "IN"
        },
        "images": [],
        "link": "https://www.google.com/maps/place/Boregaon+masjid/data=!4m7!3m6!1s0x3bcdf5a37f0f4a77:0xa7ed0f87592cc9dd!8m2!3d19.1591431!4d78.2808539!16s%2Fg%2F11nfw3wdvw!19sChIJd0oPf6P1zTsR3cksWYcP7ac?authuser=0&hl=en&rclk=1",
        "coordinates": {
            "latitude": 19.159143099999998,
            "longitude": 78.2808539
        }
    },
    {
        "name": "Jama Masjid Limba",
        "main_category": "Mosque",
        "address": "523V+7F2 Jama Masjid Limba, Limba Khurd, Telangana 504109",
        "detailed_address": {
            "ward": null,
            "street": "523V+7F2",
            "city": "Limba Khurd",
            "postal_code": "504109",
            "state": "Telangana",
            "country_code": "IN"
        },
        "images": [
            {
                "about": "All",
                "link": "https://lh5.googleusercontent.com/p/AF1QipOCmS3JQnOFRiCPYeUAMv18tmU6BqtHCXY29Izd=w529-h298-k-no"
            }
        ],
        "link": "https://www.google.com/maps/place/Jama+Masjid+Limba/data=!4m7!3m6!1s0x3bcdf91c30be5c01:0x41b0942c84df9744!8m2!3d19.1531407!4d78.0436445!16s%2Fg%2F11v9z80ywd!19sChIJAVy-MBz5zTsRRJffhCyUsEE?authuser=0&hl=en&rclk=1",
        "coordinates": {
            "latitude": 19.153140699999998,
            "longitude": 78.0436445
        }
    },
    {
        "name": "Jama Masjid",
        "main_category": "Association or organization",
        "address": "4XR4+6G Jama Masjid, Mirzapur, Siddur, Telangana 504103",
        "detailed_address": {
            "ward": null,
            "street": "4XR4+6G",
            "city": "Mirzapur, Siddur",
            "postal_code": "504103",
            "state": "Telangana",
            "country_code": "IN"
        },
        "images": [],
        "link": "https://www.google.com/maps/place/Jama+Masjid/data=!4m7!3m6!1s0x3bcdff170abc4c7d:0x7f87ae410c8c72e!8m2!3d19.1389125!4d77.9577969!16s%2Fg%2F11vcm2zgyv!19sChIJfUy8Chf_zTsRLsfIEOR6-Ac?authuser=0&hl=en&rclk=1",
        "coordinates": {
            "latitude": 19.1389125,
            "longitude": 77.95779689999999
        }
    },
    {
        "name": "Masjid e rahmat wayi lingi sanwli",
        "main_category": "Mosque",
        "address": "5VHV+7M Masjid e rahmat wayi lingi sanwli, Sanwali, Telangana 504103",
        "detailed_address": {
            "ward": null,
            "street": "5VHV+7M",
            "city": "Sanwali",
            "postal_code": null,
            "state": "Telangana",
            "country_code": "IN"
        },
        "images": [
            {
                "about": "All",
                "link": "https://lh5.googleusercontent.com/p/AF1QipN9J21oh3Ur8fqthELnkMMHYOc3UiZxEweF8CyE=w529-h298-k-no"
            }
        ],
        "link": "https://www.google.com/maps/place/Masjid+e+rahmat+wayi+lingi+sanwli/data=!4m7!3m6!1s0x3bd1ff51b4c00ebd:0x99ad3e5f1ac806ec!8m2!3d19.1781415!4d77.8941574!16s%2Fg%2F11rp5ck9mf!19sChIJvQ7AtFH_0TsR7AbIGl8-rZk?authuser=0&hl=en&rclk=1",
        "coordinates": {
            "latitude": 19.1781415,
            "longitude": 77.8941574
        }
    },
    {
        "name": "Mosque",
        "main_category": "Mosque",
        "address": "54G3+83C Mosque, Unnamed Road, Kuntala, Telangana 504109",
        "detailed_address": {
            "ward": null,
            "street": "54G3+83C, Unnamed Road",
            "city": "Kuntala",
            "postal_code": "504109",
            "state": "Telangana",
            "country_code": "IN"
        },
        "images": [],
        "link": "https://www.google.com/maps/place/Mosque/data=!4m7!3m6!1s0x3bcdf9d025e5219f:0x95288131dbc628f8!8m2!3d19.1758173!4d78.1026331!16s%2Fg%2F11nn534w_k!19sChIJnyHlJdD5zTsR-CjG2zGBKJU?authuser=0&hl=en&rclk=1",
        "coordinates": {
            "latitude": 19.1758173,
            "longitude": 78.10263309999999
        }
    },
    {
        "name": "Jamamasjid",
        "main_category": "Mosque",
        "address": "2X6W+RJ9 Jamamasjid, Edbid, Telangana 504102",
        "detailed_address": {
            "ward": null,
            "street": "2X6W+RJ9",
            "city": "Edbid",
            "postal_code": "504102",
            "state": "Telangana",
            "country_code": "IN"
        },
        "images": [],
        "link": "https://www.google.com/maps/place/Jamamasjid/data=!4m7!3m6!1s0x3bcdfd9419127871:0xbb4ac3774c96936d!8m2!3d19.0120371!4d77.9966174!16s%2Fg%2F11rchyqlgj!19sChIJcXgSGZT9zTsRbZOWTHfDSrs?authuser=0&hl=en&rclk=1",
        "coordinates": {
            "latitude": 19.0120371,
            "longitude": 77.99661739999999
        }
    },
    {
        "name": "Masjid",
        "main_category": "Mosque",
        "address": "23HP+VRV Masjid, Lokeshwaram, Telangana 504104",
        "detailed_address": {
            "ward": null,
            "street": "23HP+VRV",
            "city": "Lokeshwaram",
            "postal_code": null,
            "state": "Telangana",
            "country_code": "IN"
        },
        "images": [],
        "link": "https://www.google.com/maps/place/Masjid/data=!4m7!3m6!1s0x3bcdfb3d97c6beb1:0xffec44d109005d16!8m2!3d19.029744!4d78.0870508!16s%2Fg%2F11sy1hj3tx!19sChIJsb7Glz37zTsRFl0ACdFE7P8?authuser=0&hl=en&rclk=1",
        "coordinates": {
            "latitude": 19.029744,
            "longitude": 78.0870508
        }
    },
    {
        "name": "Masjid",
        "main_category": "Mosque",
        "address": "VW8Q+JJP Masjid, Basar, Telangana 504101",
        "detailed_address": {
            "ward": null,
            "street": "VW8Q+JJP",
            "city": "Basar",
            "postal_code": null,
            "state": "Telangana",
            "country_code": "IN"
        },
        "images": [
            {
                "about": "All",
                "link": "https://streetviewpixels-pa.googleapis.com/v1/thumbnail?panoid=tXejCpgeH-Dci7VJdoZVIg&cb_client=maps_sv.tactile.gps&w=224&h=298&yaw=211.38228&pitch=0&thumbfov=100"
            },
            {
                "about": "Street View & 360deg",
                "link": "https://streetviewpixels-pa.googleapis.com/v1/thumbnail?panoid=tXejCpgeH-Dci7VJdoZVIg&cb_client=maps_sv.tactile.gps&w=224&h=298&yaw=211.38228&pitch=0&thumbfov=100"
            }
        ],
        "link": "https://www.google.com/maps/place/Masjid/data=!4m7!3m6!1s0x3bcde10cc7f5aca5:0x9964a345088a20b6!8m2!3d18.8665932!4d77.9390706!16s%2Fg%2F11rvgjzrxx!19sChIJpaz1xwzhzTsRtiCKCEWjZJk?authuser=0&hl=en&rclk=1",
        "coordinates": {
            "latitude": 18.8665932,
            "longitude": 77.9390706
        }
    },
    {
        "name": "Jama Masjid",
        "main_category": "Mosque",
        "address": "24MG+M6H Jama Masjid, Rajura, Telangana 504104",
        "detailed_address": {
            "ward": null,
            "street": "24MG+M6H",
            "city": "Rajura",
            "postal_code": "504104",
            "state": "Telangana",
            "country_code": "IN"
        },
        "images": [],
        "link": "https://www.google.com/maps/place/Jama+Masjid/data=!4m7!3m6!1s0x3bcdf16c0271a325:0x36c8259feb23b1f8!8m2!3d19.0341967!4d78.125624!16s%2Fg%2F11sh79cpjj!19sChIJJaNxAmzxzTsR-LEj658lyDY?authuser=0&hl=en&rclk=1",
        "coordinates": {
            "latitude": 19.0341967,
            "longitude": 78.125624
        }
    },
    {
        "name": "Jama masijid",
        "main_category": "Mosque",
        "address": "X4GH+G53 Jama masijid, Pipri, Telangana 504104",
        "detailed_address": {
            "ward": null,
            "street": "X4GH+G53",
            "city": "Pipri",
            "postal_code": "504104",
            "state": "Telangana",
            "country_code": "IN"
        },
        "images": [],
        "link": "https://www.google.com/maps/place/Jama+masijid/data=!4m7!3m6!1s0x3bcdefbf1ef8ccff:0x33ae37cb52dc7205!8m2!3d18.9762572!4d78.1279359!16s%2Fg%2F11rn4j23nd!19sChIJ_8z4Hr_vzTsRBXLcUss3rjM?authuser=0&hl=en&rclk=1",
        "coordinates": {
            "latitude": 18.9762572,
            "longitude": 78.1279359
        }
    },
    {
        "name": "Jama Maszid Gadchanda",
        "main_category": "Mosque",
        "address": "245G+97V Jama Maszid Gadchanda, Unnamed Road, Gadchanda, Telangana 504104",
        "detailed_address": {
            "ward": null,
            "street": "245G+97V, Unnamed Road",
            "city": "Gadchanda",
            "postal_code": "504104",
            "state": "Telangana",
            "country_code": "IN"
        },
        "images": [
            {
                "about": "All",
                "link": "https://lh5.googleusercontent.com/p/AF1QipPvUhKVjZGK_yVdEaDa1y-gcAkjUIrGfLOxS1xR=w529-h298-k-no"
            }
        ],
        "link": "https://www.google.com/maps/place/Jama+Maszid+Gadchanda/data=!4m7!3m6!1s0x3bcdf11ee4eaa0b3:0x5074c88c16549bd7!8m2!3d19.0084902!4d78.1256743!16s%2Fg%2F11flc1zb5k!19sChIJs6Dq5B7xzTsR15tUFozIdFA?authuser=0&hl=en&rclk=1",
        "coordinates": {
            "latitude": 19.0084902,
            "longitude": 78.1256743
        }
    }
]