[
    {
        "name": "Bhinga Sabji Mandi",
        "main_category": "Market",
        "address": "Bhinga Sabji Mandi, NEAR Jama masjid, New Sabzi Mandi, Bhinga, Uttar Pradesh 271831",
        "detailed_address": {
            "ward": "New Sabzi Mandi",
            "street": "NEAR Jama masjid",
            "city": "Bhinga",
            "postal_code": "271831",
            "state": "Uttar Pradesh",
            "country_code": "IN"
        },
        "images": [
            {
                "about": "All",
                "link": "https://lh5.googleusercontent.com/p/AF1QipOjg05y62Mh3tFds7ljyDV0tyQaBTVmxSTvmbam=w662-h298-k-no"
            },
            {
                "about": "Inside",
                "link": "https://lh5.googleusercontent.com/p/AF1QipOZlJmqgf_0ZqOtbYml1OEeX5O2CGJDffP7xNUS=w662-h298-k-no"
            },
            {
                "about": "Videos",
                "link": "https://lh5.googleusercontent.com/p/AF1QipMk21sIPle9AjDv6x6_Y0_UjDMlJhNOUOu2elXM=w224-h398-k-no"
            },
            {
                "about": "By owner",
                "link": "https://lh5.googleusercontent.com/p/AF1QipPJ5K-Czxik_hlEBAQqhlw6Qc7SGDue2B2NoIz5=w529-h298-k-no"
            }
        ],
        "link": "https://www.google.com/maps/place/Bhinga+Sabji+Mandi/data=!4m7!3m6!1s0x399834b9f55ee523:0xa5808417b419f0bb!8m2!3d27.7029255!4d81.9371656!16s%2Fg%2F11g8bv1fvf!19sChIJI-Ve9bk0mDkRu_AZtBeEgKU?authuser=0&hl=en&rclk=1",
        "coordinates": {
            "latitude": 27.7029255,
            "longitude": 81.9371656
        }
    },
    {
        "name": "Raza Jama Masjid Raza Nagar",
        "main_category": "Mosque",
        "address": "PW3J+JP8 Raza Jama Masjid Raza Nagar, Bhinga, Uttar Pradesh 271831",
        "detailed_address": {
            "ward": null,
            "street": "PW3J+JP8",
            "city": "Bhinga",
            "postal_code": "271831",
            "state": "Uttar Pradesh",
            "country_code": "IN"
        },
        "images": [
            {
                "about": "All",
                "link": "https://lh5.googleusercontent.com/p/AF1QipMvkh8IUunV8SiQoM73Lt4IypKjsIS0z_SGibg=w224-h398-k-no"
            },
            {
                "about": "Dome",
                "link": "https://lh5.googleusercontent.com/p/AF1QipP_c6w9IQwaGCdFyAz5m-VGUJgqGTcWoAbtbYY=w224-h298-k-no"
            }
        ],
        "link": "https://www.google.com/maps/place/Raza+Jama+Masjid+Raza+Nagar/data=!4m7!3m6!1s0x399834b87ee162bd:0x51c159b3347fc29c!8m2!3d27.7040363!4d81.9318412!16s%2Fg%2F11g6rkxjqd!19sChIJvWLhfrg0mDkRnMJ_NLNZwVE?authuser=0&hl=en&rclk=1",
        "coordinates": {
            "latitude": 27.7040363,
            "longitude": 81.9318412
        }
    },
    {
        "name": "Masjid Satti Chaura",
        "main_category": "Mosque",
        "address": "MWWM+WRR Masjid Satti Chaura, Bhinga, Uttar Pradesh 271831",
        "detailed_address": {
            "ward": null,
            "street": "MWWM+WRR",
            "city": "Bhinga",
            "postal_code": "271831",
            "state": "Uttar Pradesh",
            "country_code": "IN"
        },
        "images": [
            {
                "about": "All",
                "link": "https://lh5.googleusercontent.com/p/AF1QipN1pX5nCMA2KkvGR6abub9MAas5pPCXNHQGdQZR=w224-h398-k-no"
            }
        ],
        "link": "https://www.google.com/maps/place/Masjid+Satti+Chaura/data=!4m7!3m6!1s0x399834b6f452546b:0x4527fc0541a47439!8m2!3d27.6973558!4d81.9345075!16s%2Fg%2F11g8lj4wjv!19sChIJa1RS9LY0mDkROXSkQQX8J0U?authuser=0&hl=en&rclk=1",
        "coordinates": {
            "latitude": 27.6973558,
            "longitude": 81.9345075
        }
    },
    {
        "name": "Masjid Laxamanpur Kothi",
        "main_category": "Mosque",
        "address": "VR6G+783 Masjid Laxamanpur Kothi, Bhinga Range, Uttar Pradesh 271831",
        "detailed_address": {
            "ward": null,
            "street": "VR6G+783",
            "city": "Bhinga Range",
            "postal_code": null,
            "state": "Uttar Pradesh",
            "country_code": "IN"
        },
        "images": [
            {
                "about": "All",
                "link": "https://lh5.googleusercontent.com/p/AF1QipNNiNR60S2Tj8fmqvrOo51qkRfQEzOSpD32v0-r=w529-h298-k-no"
            },
            {
                "about": "Videos",
                "link": "https://lh5.googleusercontent.com/p/AF1QipNOwvgX2zr3eqqvZWsb5oUOO3Yi2oRLe1DIX1lq=w224-h398-k-no"
            }
        ],
        "link": "https://www.google.com/maps/place/Masjid+Laxamanpur+Kothi/data=!4m7!3m6!1s0x3998492c4c35d8fd:0x33f4c8b8a445ba6c!8m2!3d27.8606397!4d81.8258081!16s%2Fg%2F11j5cf99w1!19sChIJ_dg1TCxJmDkRbLpFpLjI9DM?authuser=0&hl=en&rclk=1",
        "coordinates": {
            "latitude": 27.8606397,
            "longitude": 81.8258081
        }
    },
    {
        "name": "Masjid Mohalla Ansari",
        "main_category": "Mosque",
        "address": "PW2P+43H Masjid Mohalla Ansari, Bhinga, Uttar Pradesh 271831",
        "detailed_address": {
            "ward": null,
            "street": "PW2P+43H",
            "city": "Bhinga",
            "postal_code": "271831",
            "state": "Uttar Pradesh",
            "country_code": "IN"
        },
        "images": [
            {
                "about": "All",
                "link": "https://lh5.googleusercontent.com/p/AF1QipMbRMu6m2tYXnYk6y9gviJgkozPcxSR_VFffTVn=w397-h298-k-no"
            }
        ],
        "link": "https://www.google.com/maps/place/Masjid+Mohalla+Ansari/data=!4m7!3m6!1s0x399834b76daa56e1:0xb365a266a0b2d5a0!8m2!3d27.7003229!4d81.9352402!16s%2Fg%2F11dz_pzgfz!19sChIJ4Vaqbbc0mDkRoNWyoGaiZbM?authuser=0&hl=en&rclk=1",
        "coordinates": {
            "latitude": 27.7003229,
            "longitude": 81.9352402
        }
    },
    {
        "name": "Noori Maszid",
        "main_category": "Mosque",
        "address": "M2QQ+H4X Noori Maszid, Darjipurwa, Bhinga, Durgapur, Uttar Pradesh 271831",
        "detailed_address": {
            "ward": "Darjipurwa",
            "street": "M2QQ+H4X",
            "city": "Bhinga, Durgapur",
            "postal_code": "271831",
            "state": "Uttar Pradesh",
            "country_code": "IN"
        },
        "images": [
            {
                "about": "All",
                "link": "https://lh5.googleusercontent.com/p/AF1QipNWpTtLAUkPlM2dY2zi-S4JyLLfkKVqCSkVZLVK=w224-h298-k-no"
            },
            {
                "about": "Videos",
                "link": "https://lh5.googleusercontent.com/p/AF1QipNrYygNUQIo2b8cnwndmUaFdrkx1tmcw_7wHkRj=w224-h398-k-no"
            }
        ],
        "link": "https://www.google.com/maps/place/Noori+Maszid/data=!4m7!3m6!1s0x3999cdf8adbac599:0xc24d15afef31daae!8m2!3d27.6889754!4d82.0378706!16s%2Fg%2F11qpw6_d5_!19sChIJmcW6rfjNmTkRrtox768VTcI?authuser=0&hl=en&rclk=1",
        "coordinates": {
            "latitude": 27.6889754,
            "longitude": 82.03787059999999
        }
    },
    {
        "name": "Noorani Masjid",
        "main_category": "Mosque",
        "address": "PW3P+F6G Noorani Masjid, Bhinga, Uttar Pradesh 271831",
        "detailed_address": {
            "ward": null,
            "street": "PW3P+F6G",
            "city": "Bhinga",
            "postal_code": "271831",
            "state": "Uttar Pradesh",
            "country_code": "IN"
        },
        "images": [
            {
                "about": "All",
                "link": "https://lh5.googleusercontent.com/p/AF1QipNCdAFH-Ppxhb5qi6ntAuyk3vHJfdWKkB49utfm=w224-h298-k-no"
            },
            {
                "about": "Videos",
                "link": "https://lh5.googleusercontent.com/p/AF1QipNiLV7qaG73cebju7Fv7F9Wt1ln70Ws20YY977p=w397-h298-k-no"
            }
        ],
        "link": "https://www.google.com/maps/place/Noorani+Masjid/data=!4m7!3m6!1s0x399834b9bce14de1:0x5f2b3347230c668b!8m2!3d27.7036865!4d81.9355699!16s%2Fg%2F11bzsdzsh6!19sChIJ4U3hvLk0mDkRi2YMI0czK18?authuser=0&hl=en&rclk=1",
        "coordinates": {
            "latitude": 27.7036865,
            "longitude": 81.93556989999999
        }
    },
    {
        "name": "Junubi Masjid",
        "main_category": "Mosque",
        "address": "PW2J+4H9 Junubi Masjid, Bhinga, Uttar Pradesh 271831",
        "detailed_address": {
            "ward": null,
            "street": "PW2J+4H9",
            "city": "Bhinga",
            "postal_code": "271831",
            "state": "Uttar Pradesh",
            "country_code": "IN"
        },
        "images": [
            {
                "about": "All",
                "link": "https://lh5.googleusercontent.com/p/AF1QipNXthPFz0kof3k9JwtGdYDrwaQO5rM0fc59llrC=w224-h398-k-no"
            },
            {
                "about": "Videos",
                "link": "https://lh5.googleusercontent.com/p/AF1QipNXthPFz0kof3k9JwtGdYDrwaQO5rM0fc59llrC=w224-h398-k-no"
            }
        ],
        "link": "https://www.google.com/maps/place/Junubi+Masjid/data=!4m7!3m6!1s0x399834c81dd388ab:0xb2123d7eedea5735!8m2!3d27.7002863!4d81.9314999!16s%2Fg%2F11hb57dlkw!19sChIJq4jTHcg0mDkRNVfq7X49ErI?authuser=0&hl=en&rclk=1",
        "coordinates": {
            "latitude": 27.7002863,
            "longitude": 81.93149989999999
        }
    },
    {
        "name": "Sahroja masjid",
        "main_category": "Mosque",
        "address": "PW2P+43Q Sahroja masjid, Bhinga, Uttar Pradesh 271831",
        "detailed_address": {
            "ward": null,
            "street": "PW2P+43Q",
            "city": "Bhinga",
            "postal_code": "271831",
            "state": "Uttar Pradesh",
            "country_code": "IN"
        },
        "images": [
            {
                "about": "All",
                "link": "https://lh5.googleusercontent.com/p/AF1QipPdSfSVHU_AmKX4rTWleTNkBdbq9RMWLh1PBu3w=w397-h298-k-no"
            }
        ],
        "link": "https://www.google.com/maps/place/Sahroja+masjid/data=!4m7!3m6!1s0x399834b76d094cd7:0x9a13f7cce290c1e!8m2!3d27.7003314!4d81.9352273!16s%2Fg%2F11dftg0zkd!19sChIJ10wJbbc0mDkRHgwpznw_oQk?authuser=0&hl=en&rclk=1",
        "coordinates": {
            "latitude": 27.7003314,
            "longitude": 81.9352273
        }
    },
    {
        "name": "masjid",
        "main_category": "Mosque",
        "address": "PW3J+Q24 masjid, Bankatwa Tendwa, Bhinga, Uttar Pradesh 271831",
        "detailed_address": {
            "ward": null,
            "street": "PW3J+Q24",
            "city": "Bankatwa Tendwa, Bhinga",
            "postal_code": "271831",
            "state": "Uttar Pradesh",
            "country_code": "IN"
        },
        "images": [
            {
                "about": "All",
                "link": "https://lh5.googleusercontent.com/p/AF1QipPdgY3ajiM_c8plmlG-vM8UtmF3tcMrwwM93OVi=w224-h485-k-no"
            },
            {
                "about": "Dome",
                "link": "https://lh5.googleusercontent.com/p/AF1QipMdlkMkls4qlhJLbQUotvQmWzSZNqtlhlIX1ts=w224-h298-k-no"
            },
            {
                "about": "Street View & 360deg",
                "link": "https://streetviewpixels-pa.googleapis.com/v1/thumbnail?panoid=5uDKcvq30tiphzh-EH8g-Q&cb_client=maps_sv.tactile.gps&w=224&h=298&yaw=17.981627&pitch=0&thumbfov=100"
            }
        ],
        "link": "https://www.google.com/maps/place/masjid/data=!4m7!3m6!1s0x399834c70baf2f1b:0xd3a78cde7b1551ba!8m2!3d27.7043829!4d81.9300862!16s%2Fg%2F11f1263flz!19sChIJGy-vC8c0mDkRulEVe96Mp9M?authuser=0&hl=en&rclk=1",
        "coordinates": {
            "latitude": 27.7043829,
            "longitude": 81.93008619999999
        }
    },
    {
        "name": "Jama masjid",
        "main_category": "School",
        "address": "PW2Q+W4J Jama masjid, Ikauna-Bhinga Sampark Marg, Bhinga, Uttar Pradesh 271831",
        "detailed_address": {
            "ward": null,
            "street": "PW2Q+W4J, Ikauna-Bhinga Sampark Marg",
            "city": "Bhinga",
            "postal_code": "271831",
            "state": "Uttar Pradesh",
            "country_code": "IN"
        },
        "images": [
            {
                "about": "All",
                "link": "https://lh5.googleusercontent.com/p/AF1QipOyqRiiBaWERScM3EOjD0ZX2SrmlYPBo3I2bHgi=w529-h298-k-no"
            }
        ],
        "link": "https://www.google.com/maps/place/Jama+masjid/data=!4m7!3m6!1s0x399834ba053cabf3:0x870bf062714389f1!8m2!3d27.7023361!4d81.9377693!16s%2Fg%2F11dzvhgcpy!19sChIJ86s8Bbo0mDkR8YlDcWLwC4c?authuser=0&hl=en&rclk=1",
        "coordinates": {
            "latitude": 27.7023361,
            "longitude": 81.9377693
        }
    },
    {
        "name": "Badrahwa masjid msjid bdddhrhvaa",
        "main_category": "Apartment building",
        "address": "RW78+QPH Badrahwa masjid msjid bdddhrhvaa, badrahwa hempur, Bhinga, Uttar Pradesh 271840",
        "detailed_address": {
            "ward": null,
            "street": "RW78+QPH, badrahwa hempur",
            "city": "Bhinga, Shahpur Pure Shivdin",
            "postal_code": "271840",
            "state": "Uttar Pradesh",
            "country_code": "IN"
        },
        "images": [
            {
                "about": "All",
                "link": "https://lh5.googleusercontent.com/p/AF1QipMsWlDSU9ohXyRfzNvelLFmYZWehaSjwlRAN7nv=w224-h398-k-no"
            },
            {
                "about": "Exterior",
                "link": "https://lh5.googleusercontent.com/p/AF1QipMsWlDSU9ohXyRfzNvelLFmYZWehaSjwlRAN7nv=w224-h398-k-no"
            },
            {
                "about": "Videos",
                "link": "https://lh5.googleusercontent.com/p/AF1QipPcExT6FVj0h4qDFfLCxTcN5cErZr7aFrNwur1c=w224-h389-k-no"
            },
            {
                "about": "From visitors",
                "link": "https://lh5.googleusercontent.com/p/AF1QipMp1QyX-s5X4SZh_Dpn9nh56_E-dAlGOCBJuJYL=w224-h398-k-no"
            }
        ],
        "link": "https://www.google.com/maps/place/Badrahwa+masjid+%E0%A4%AE%E0%A4%B8%E0%A4%9C%E0%A4%BF%E0%A4%A6+%E0%A4%AC%E0%A5%9C%E0%A4%B0%E0%A4%B9%E0%A4%B5%E0%A4%BE/data=!4m7!3m6!1s0x399837a58715213f:0x9fc9f589be7f5331!8m2!3d27.8144261!4d81.9168748!16s%2Fg%2F11p4zcpnlv!19sChIJPyEVh6U3mDkRMVN_von1yZ8?authuser=0&hl=en&rclk=1",
        "coordinates": {
            "latitude": 27.8144261,
            "longitude": 81.9168748
        }
    },
    {
        "name": "Hari masjid",
        "main_category": "Mosque",
        "address": "HJR7+79P Hari masjid, Bhinga Rd, Baikuntha, Bahraich, Uttar Pradesh 271802",
        "detailed_address": {
            "ward": "Baikuntha",
            "street": "HJR7+79P, Bhinga Rd",
            "city": "Bahraich",
            "postal_code": "271802",
            "state": "Uttar Pradesh",
            "country_code": "IN"
        },
        "images": [
            {
                "about": "All",
                "link": "https://lh5.googleusercontent.com/p/AF1QipNNWrAKeIB_86Lx7orOS8gDj6u7NKxXQtDH7lJ4=w224-h298-k-no"
            },
            {
                "about": "Dome",
                "link": "https://lh5.googleusercontent.com/p/AF1QipOk0ulTSIZsbJesUD_psF6l0kk_Opyvpq23ulUf=w237-h298-k-no"
            },
            {
                "about": "Street View & 360deg",
                "link": "https://streetviewpixels-pa.googleapis.com/v1/thumbnail?panoid=ZXzyTLrs7LluFioULWZ5bw&cb_client=maps_sv.tactile.gps&w=224&h=298&yaw=355.5712&pitch=0&thumbfov=100"
            }
        ],
        "link": "https://www.google.com/maps/place/Hari+masjid/data=!4m7!3m6!1s0x3999ada62728c121:0x34a934145dac6fbf!8m2!3d27.5907211!4d81.61346!16s%2Fg%2F11r7hdhnmx!19sChIJIcEoJ6atmTkRv2-sXRQ0qTQ?authuser=0&hl=en&rclk=1",
        "coordinates": {
            "latitude": 27.5907211,
            "longitude": 81.61345999999999
        }
    },
    {
        "name": "Badi Maszid Bhinga",
        "main_category": "Mosque",
        "address": "PW2Q+W38 Badi Maszid Bhinga, Bhinga, Uttar Pradesh 271831",
        "detailed_address": {
            "ward": null,
            "street": "PW2Q+W38",
            "city": "Bhinga",
            "postal_code": "271831",
            "state": "Uttar Pradesh",
            "country_code": "IN"
        },
        "images": [
            {
                "about": "All",
                "link": "https://lh5.googleusercontent.com/p/AF1QipNK3VxGkySb6DdqxdGRliEyhZhH-RtGl0hGKoRG=w224-h398-k-no"
            }
        ],
        "link": "https://www.google.com/maps/place/Badi+Maszid+Bhinga/data=!4m7!3m6!1s0x3998353e741facb9:0x3a0f2097bb57f8fb!8m2!3d27.7022898!4d81.9376982!16s%2Fg%2F11txqxc03k!19sChIJuawfdD41mDkR-_hXu5cgDzo?authuser=0&hl=en&rclk=1",
        "coordinates": {
            "latitude": 27.7022898,
            "longitude": 81.9376982
        }
    },
    {
        "name": "Bhinga Shrawasti",
        "main_category": "Mosque",
        "address": "PW3M+QW3 Bhinga Shrawasti, Bhinga, Uttar Pradesh 271831",
        "detailed_address": {
            "ward": null,
            "street": "PW3M+QW3",
            "city": "Bhinga",
            "postal_code": "271831",
            "state": "Uttar Pradesh",
            "country_code": "IN"
        },
        "images": [],
        "link": "https://www.google.com/maps/place/Bhinga+Shrawasti/data=!4m7!3m6!1s0x399835617d0b10b3:0x5d7bc5fb0f25392!8m2!3d27.7043817!4d81.9347929!16s%2Fg%2F11vl30xjjv!19sChIJsxALfWE1mDkRklPysF-81wU?authuser=0&hl=en&rclk=1",
        "coordinates": {
            "latitude": 27.7043817,
            "longitude": 81.93479289999999
        }
    },
    {
        "name": "RAZAA masjid GILAULI",
        "main_category": "Mosque",
        "address": "JQVM+W76 RAZAA masjid GILAULI, Bharaich Bhinga Rd, Husenpur Khuruhri, Uttar Pradesh 271804",
        "detailed_address": {
            "ward": null,
            "street": "JQVM+W76, Bharaich Bhinga Rd",
            "city": "Husenpur Khuruhri",
            "postal_code": "271804",
            "state": "Uttar Pradesh",
            "country_code": "IN"
        },
        "images": [
            {
                "about": "All",
                "link": "https://lh5.googleusercontent.com/p/AF1QipMfHq6q-Zy0jVD2OZr2jl2joLKrX-2Cb7sFVmZP=w433-h298-k-no"
            },
            {
                "about": "Street View & 360deg",
                "link": "https://streetviewpixels-pa.googleapis.com/v1/thumbnail?panoid=MeHRiQoJY8llxdVyXRwYjA&cb_client=maps_sv.tactile.gps&w=224&h=298&yaw=44.417007&pitch=0&thumbfov=100"
            },
            {
                "about": "Videos",
                "link": "https://lh5.googleusercontent.com/p/AF1QipPZOuKb0xApjk4byWjOYcLpZlNcFCRYO3BC49nN=w224-h398-k-no"
            }
        ],
        "link": "https://www.google.com/maps/place/RAZAA+masjid+GILAULI/data=!4m7!3m6!1s0x3999b589aa2de711:0x5ec89be8b98fe19c!8m2!3d27.6447846!4d81.7831556!16s%2Fg%2F11td5r35nf!19sChIJEectqom1mTkRnOGPueibyF4?authuser=0&hl=en&rclk=1",
        "coordinates": {
            "latitude": 27.644784599999998,
            "longitude": 81.7831556
        }
    },
    {
        "name": "Shastri Nagar home 18 junubi masjid",
        "main_category": "High school",
        "address": "PW2J+PFH Shastri Nagar home 18 junubi masjid, Unnamed Road, Bhinga, Uttar Pradesh 271831",
        "detailed_address": {
            "ward": null,
            "street": "PW2J+PFH, Unnamed Road",
            "city": "Bhinga",
            "postal_code": "271831",
            "state": "Uttar Pradesh",
            "country_code": "IN"
        },
        "images": [],
        "link": "https://www.google.com/maps/place/Shastri+Nagar+home+18+junubi+masjid/data=!4m7!3m6!1s0x399835e108bdf39d:0x1bfaac17b2bfbb18!8m2!3d27.7018082!4d81.9312491!16s%2Fg%2F11r2wft92g!19sChIJnfO9COE1mDkRGLu_shes-hs?authuser=0&hl=en&rclk=1",
        "coordinates": {
            "latitude": 27.7018082,
            "longitude": 81.9312491
        }
    },
    {
        "name": "Noorani Masjid bhinga",
        "main_category": "Mosque",
        "address": "PW9Q+J7F Noorani Masjid bhinga, SH 96A, Bhinga, Bhinga Range, Uttar Pradesh 271831",
        "detailed_address": {
            "ward": null,
            "street": "PW9Q+J7F, SH 96A",
            "city": "Bhinga, Bhinga Range",
            "postal_code": "271831",
            "state": "Uttar Pradesh",
            "country_code": "IN"
        },
        "images": [
            {
                "about": "All",
                "link": "https://streetviewpixels-pa.googleapis.com/v1/thumbnail?panoid=X0xv0u8l8QvbcwFGwx4dcQ&cb_client=maps_sv.tactile.gps&w=224&h=298&yaw=282.63297&pitch=0&thumbfov=100"
            },
            {
                "about": "Street View & 360deg",
                "link": "https://streetviewpixels-pa.googleapis.com/v1/thumbnail?panoid=X0xv0u8l8QvbcwFGwx4dcQ&cb_client=maps_sv.tactile.gps&w=224&h=298&yaw=282.63297&pitch=0&thumbfov=100"
            }
        ],
        "link": "https://www.google.com/maps/place/Noorani+Masjid+bhinga/data=!4m7!3m6!1s0x3998354b75530c3d:0x147cee7b9f406bf9!8m2!3d27.7197669!4d81.9370916!16s%2Fg%2F11kjlw2p8r!19sChIJPQxTdUs1mDkR-WtAn3vufBQ?authuser=0&hl=en&rclk=1",
        "coordinates": {
            "latitude": 27.7197669,
            "longitude": 81.9370916
        }
    },
    {
        "name": "Markaz jama masjid",
        "main_category": "School",
        "address": "PW2Q+85G Markaz jama masjid, Bhinga, Uttar Pradesh 271831",
        "detailed_address": {
            "ward": null,
            "street": "PW2Q+85G",
            "city": "Bhinga",
            "postal_code": "271831",
            "state": "Uttar Pradesh",
            "country_code": "IN"
        },
        "images": [],
        "link": "https://www.google.com/maps/place/Markaz+jama+masjid/data=!4m7!3m6!1s0x399835c94ed31c35:0x48c17676d009dd81!8m2!3d27.7008076!4d81.9379426!16s%2Fg%2F11hzypdjl7!19sChIJNRzTTsk1mDkRgd0J0HZ2wUg?authuser=0&hl=en&rclk=1",
        "coordinates": {
            "latitude": 27.700807599999997,
            "longitude": 81.9379426
        }
    }
]