[
    {
        "name": "Madina Masjid",
        "main_category": "Mosque",
        "address": "XRRR+6HJ Madina Masjid, Nagla Shahu, Uttar Pradesh 250406",
        "detailed_address": {
            "ward": null,
            "street": "XRRR+6HJ",
            "city": "Nagla Shahu",
            "postal_code": "250406",
            "state": "Uttar Pradesh",
            "country_code": "IN"
        },
        "images": [
            {
                "about": "All",
                "link": "https://lh5.googleusercontent.com/p/AF1QipNRecvgxFdc-s9TL1J__1N_wm_wjzaWHkYkcnak=w224-h398-k-no"
            },
            {
                "about": "Latest",
                "link": "https://lh5.googleusercontent.com/p/AF1QipMZIf4RQ7PiNxbdWNVUWG8ggEuHMFXotiX-obcb=w224-h398-k-no"
            },
            {
                "about": "Videos",
                "link": "https://lh5.googleusercontent.com/p/AF1QipNdfaNVecpn3cQv07kU7SGc-iA-334MO5As_gJa=w224-h398-k-no"
            },
            {
                "about": "Street View & 360deg",
                "link": "https://streetviewpixels-pa.googleapis.com/v1/thumbnail?panoid=mxUGjLDbTkVEYHaXMgz4lQ&cb_client=maps_sv.tactile.gps&w=224&h=298&yaw=126.64528&pitch=0&thumbfov=100"
            }
        ],
        "link": "https://www.google.com/maps/place/Madina+Masjid/data=!4m7!3m6!1s0x390c7964ac657beb:0x1fe3c896ad6ea604!8m2!3d28.9905967!4d77.8414037!16s%2Fg%2F11g8cyd48h!19sChIJ63tlrGR5DDkRBKZurZbI4x8?authuser=0&hl=en&rclk=1",
        "coordinates": {
            "latitude": 28.990596699999998,
            "longitude": 77.8414037
        }
    },
    {
        "name": "Jama Masjid",
        "main_category": "Mosque",
        "address": "XVP2+42R Jama Masjid, Jae, Uttar Pradesh 250001",
        "detailed_address": {
            "ward": null,
            "street": "XVP2+42R",
            "city": "Jae",
            "postal_code": "250001",
            "state": "Uttar Pradesh",
            "country_code": "IN"
        },
        "images": [
            {
                "about": "All",
                "link": "https://lh5.googleusercontent.com/p/AF1QipOnnHQwhEWT1pJQnw1qvo-tP5-BcO8DE2aOxiOv=w529-h298-k-no"
            },
            {
                "about": "Street View & 360deg",
                "link": "https://streetviewpixels-pa.googleapis.com/v1/thumbnail?panoid=3HqlzqcsrHOs3xfsyB_uXw&cb_client=maps_sv.tactile.gps&w=224&h=298&yaw=346.14084&pitch=0&thumbfov=100"
            },
            {
                "about": "Videos",
                "link": "https://lh5.googleusercontent.com/p/AF1QipMN5aFJd9A1FXRU2e8prX3JuBn7ePSYI77wL4Z6=w224-h398-k-no"
            }
        ],
        "link": "https://www.google.com/maps/place/Jama+Masjid/data=!4m7!3m6!1s0x390c7968bf5876c9:0xa91c98fe8710b950!8m2!3d28.985366!4d77.8500083!16s%2Fg%2F11d_9fkqml!19sChIJyXZYv2h5DDkRULkQh_6YHKk?authuser=0&hl=en&rclk=1",
        "coordinates": {
            "latitude": 28.985366,
            "longitude": 77.8500083
        }
    },
    {
        "name": "Jama Masjid Agwanpur",
        "main_category": "Mosque",
        "address": "Jama Masjid Agwanpur, Agwanpur Rd, Parikshitgarh, Agwanpur, Uttar Pradesh 250406",
        "detailed_address": {
            "ward": null,
            "street": "Agwanpur Rd",
            "city": "Parikshitgarh, Agwanpur",
            "postal_code": "250406",
            "state": "Uttar Pradesh",
            "country_code": "IN"
        },
        "images": [
            {
                "about": "All",
                "link": "https://lh5.googleusercontent.com/p/AF1QipPAi4pJ85lrXr-uGBll_YmMvzQtIIPsICjSwgyH=w224-h298-k-no"
            },
            {
                "about": "Street View & 360deg",
                "link": "https://streetviewpixels-pa.googleapis.com/v1/thumbnail?panoid=D445-T52bTAK_sWwtsbX1w&cb_client=maps_sv.tactile.gps&w=224&h=298&yaw=324.51038&pitch=0&thumbfov=100"
            }
        ],
        "link": "https://www.google.com/maps/place/Jama+Masjid+Agwanpur/data=!4m7!3m6!1s0x390b86952f8ae995:0x4b56dd870debdf39!8m2!3d28.9961424!4d77.9974107!16s%2Fg%2F11f3b2cbbl!19sChIJlemKL5WGCzkROd_rDYfdVks?authuser=0&hl=en&rclk=1",
        "coordinates": {
            "latitude": 28.9961424,
            "longitude": 77.9974107
        }
    },
    {
        "name": "Masjid Qureshiyan Parikshitgarh",
        "main_category": "Mosque",
        "address": "XWGM+HF7 Masjid Qureshiyan Parikshitgarh, Parikshitgarh, Uttar Pradesh 250406",
        "detailed_address": {
            "ward": null,
            "street": "XWGM+HF7",
            "city": "Parikshitgarh",
            "postal_code": "250406",
            "state": "Uttar Pradesh",
            "country_code": "IN"
        },
        "images": [
            {
                "about": "All",
                "link": "https://streetviewpixels-pa.googleapis.com/v1/thumbnail?panoid=PIq_fjkfdb1YcFv45SrwSQ&cb_client=maps_sv.tactile.gps&w=224&h=298&yaw=262.33878&pitch=0&thumbfov=100"
            },
            {
                "about": "Street View & 360deg",
                "link": "https://streetviewpixels-pa.googleapis.com/v1/thumbnail?panoid=PIq_fjkfdb1YcFv45SrwSQ&cb_client=maps_sv.tactile.gps&w=224&h=298&yaw=262.33878&pitch=0&thumbfov=100"
            }
        ],
        "link": "https://www.google.com/maps/place/Masjid+Qureshiyan+Parikshitgarh/data=!4m7!3m6!1s0x390b87575449ab3b:0xd82f91ebc8e49559!8m2!3d28.9764216!4d77.9336729!16s%2Fg%2F11csr_l41z!19sChIJO6tJVFeHCzkRWZXkyOuRL9g?authuser=0&hl=en&rclk=1",
        "coordinates": {
            "latitude": 28.9764216,
            "longitude": 77.93367289999999
        }
    },
    {
        "name": "Haji Toshif wali masjid",
        "main_category": "Mosque",
        "address": "WW6R+WJ3 Haji Toshif wali masjid, Mawana Kithaur Hapur Road, Radhna Inayatpur, Uttar Pradesh 250106",
        "detailed_address": {
            "ward": null,
            "street": "WW6R+WJ3, Mawana Kithaur Hapur Road",
            "city": "Radhna Inayatpur",
            "postal_code": "250106",
            "state": "Uttar Pradesh",
            "country_code": "IN"
        },
        "images": [
            {
                "about": "All",
                "link": "https://lh5.googleusercontent.com/p/AF1QipPoywwprMrY5WKIYk3MrLKBIZqEVsfDkWc1KIFz=w224-h298-k-no"
            },
            {
                "about": "Street View & 360deg",
                "link": "https://streetviewpixels-pa.googleapis.com/v1/thumbnail?panoid=s8w7BvlU8ceKT_q9AqZI0w&cb_client=maps_sv.tactile.gps&w=224&h=298&yaw=230.6378&pitch=0&thumbfov=100"
            }
        ],
        "link": "https://www.google.com/maps/place/Haji+Toshif+wali+masjid/data=!4m7!3m6!1s0x390b8064ef0b027b:0xb9c8665bb3d74d5!8m2!3d28.9122575!4d77.941535!16s%2Fg%2F11g9w091jv!19sChIJewIL72SACzkR1XQ9u2WGnAs?authuser=0&hl=en&rclk=1",
        "coordinates": {
            "latitude": 28.9122575,
            "longitude": 77.941535
        }
    },
    {
        "name": "Ghante wali Masjid",
        "main_category": "Mosque",
        "address": "WW5V+WMC Ghante wali Masjid, goviNdpurii maarg, Govindpuri, Radhna Inayatpur, Uttar Pradesh 250106",
        "detailed_address": {
            "ward": null,
            "street": "WW5V+WMC, goviNdpurii maarg",
            "city": "Govindpuri, Radhna Inayatpur",
            "postal_code": "250106",
            "state": "Uttar Pradesh",
            "country_code": "IN"
        },
        "images": [
            {
                "about": "All",
                "link": "https://lh5.googleusercontent.com/p/AF1QipNq_ULBReOZYYUIlEmpr9xQarxqrYz6tIz9wJOf=w224-h298-k-no"
            },
            {
                "about": "Videos",
                "link": "https://lh5.googleusercontent.com/p/AF1QipPJ9gv30ToKSn5OHew2UtDA7yU8-32y_mrGS7Th=w529-h298-k-no"
            }
        ],
        "link": "https://www.google.com/maps/place/Ghante+wali+Masjid/data=!4m7!3m6!1s0x390b8065677eade7:0x9971a787b41605f6!8m2!3d28.9098199!4d77.9441366!16s%2Fg%2F11g8yf58c8!19sChIJ561-Z2WACzkR9gUWtIencZk?authuser=0&hl=en&rclk=1",
        "coordinates": {
            "latitude": 28.9098199,
            "longitude": 77.9441366
        }
    },
    {
        "name": "Masjid",
        "main_category": "Mosque",
        "address": "3XX2+GW2 Masjid, Meerut, Uttar Pradesh 250402",
        "detailed_address": {
            "ward": null,
            "street": "3XX2+GW2",
            "city": "Meerut",
            "postal_code": "250402",
            "state": "Uttar Pradesh",
            "country_code": "IN"
        },
        "images": [
            {
                "about": "All",
                "link": "https://streetviewpixels-pa.googleapis.com/v1/thumbnail?panoid=qkzFqH3qSeYdYIgf7Kmksg&cb_client=maps_sv.tactile.gps&w=224&h=298&yaw=316.1688&pitch=0&thumbfov=100"
            },
            {
                "about": "Street View & 360deg",
                "link": "https://streetviewpixels-pa.googleapis.com/v1/thumbnail?panoid=qkzFqH3qSeYdYIgf7Kmksg&cb_client=maps_sv.tactile.gps&w=224&h=298&yaw=316.1688&pitch=0&thumbfov=100"
            }
        ],
        "link": "https://www.google.com/maps/place/Masjid/data=!4m7!3m6!1s0x390b884a1e33ac8d:0xff3e2ff1c48f93b7!8m2!3d29.0987562!4d77.9522574!16s%2Fg%2F11f10dts33!19sChIJjawzHkqICzkRt5OPxPEvPv8?authuser=0&hl=en&rclk=1",
        "coordinates": {
            "latitude": 29.0987562,
            "longitude": 77.9522574
        }
    },
    {
        "name": "Jama Masjid Asilpur",
        "main_category": "Mosque",
        "address": "V2WF+272 Jama Masjid Asilpur, Asilpur, Jarauda, Uttar Pradesh 250104",
        "detailed_address": {
            "ward": null,
            "street": "V2WF+272",
            "city": "Asilpur, Jarauda",
            "postal_code": "250104",
            "state": "Uttar Pradesh",
            "country_code": "IN"
        },
        "images": [
            {
                "about": "All",
                "link": "https://lh5.googleusercontent.com/p/AF1QipN_usjXRHlXo2qZFczM3rCE1ySCdbNMFyvS0HvM=w397-h298-k-no"
            },
            {
                "about": "Street View & 360deg",
                "link": "https://streetviewpixels-pa.googleapis.com/v1/thumbnail?panoid=eBLkwncn_s6O0YcjdCg1qg&cb_client=maps_sv.tactile.gps&w=224&h=298&yaw=275.4317&pitch=0&thumbfov=100"
            }
        ],
        "link": "https://www.google.com/maps/place/Jama+Masjid+Asilpur/data=!4m7!3m6!1s0x390b838f99b2d9c3:0xf71d206f7005f2c0!8m2!3d28.8950239!4d78.0231267!16s%2Fg%2F11h7kl1hkl!19sChIJw9mymY-DCzkRwPIFcG8gHfc?authuser=0&hl=en&rclk=1",
        "coordinates": {
            "latitude": 28.895023899999998,
            "longitude": 78.02312669999999
        }
    },
    {
        "name": "Madina Masjid",
        "main_category": "Mosque",
        "address": "XVQQ+8R3 Madina Masjid, Khajoori, Uttar Pradesh 250406",
        "detailed_address": {
            "ward": null,
            "street": "XVQQ+8R3",
            "city": "Khajoori",
            "postal_code": "250406",
            "state": "Uttar Pradesh",
            "country_code": "IN"
        },
        "images": [
            {
                "about": "All",
                "link": "https://lh5.googleusercontent.com/p/AF1QipOswb69PU9746IXcflp2OGyNXrB8ik9gtTYXugP=w529-h298-k-no"
            }
        ],
        "link": "https://www.google.com/maps/place/Madina+Masjid/data=!4m7!3m6!1s0x390c78e6b3b2a6e3:0xb387cd6efb0c24df!8m2!3d28.9882705!4d77.8895327!16s%2Fg%2F11g8jrjdn8!19sChIJ46ays-Z4DDkR3yQM-27Nh7M?authuser=0&hl=en&rclk=1",
        "coordinates": {
            "latitude": 28.9882705,
            "longitude": 77.88953269999999
        }
    },
    {
        "name": "Bilal Masjid kayasth Baddha",
        "main_category": "Mosque",
        "address": "WRQW+4R2 Bilal Masjid kayasth Baddha, Kayastha Badha, Kayasth Barha, Uttar Pradesh 250001",
        "detailed_address": {
            "ward": null,
            "street": "WRQW+4R2",
            "city": "Kayastha Badha, Kayasth Barha",
            "postal_code": "250001",
            "state": "Uttar Pradesh",
            "country_code": "IN"
        },
        "images": [
            {
                "about": "All",
                "link": "https://lh5.googleusercontent.com/p/AF1QipNHYDHAsedQElSKElw0dGkpnYwNJb9Z6sINdLg4=w224-h298-k-no"
            }
        ],
        "link": "https://www.google.com/maps/place/Bilal+Masjid+kayasth+Baddha/data=!4m7!3m6!1s0x390c7fe1a1814635:0x466f923c1fd34464!8m2!3d28.9377562!4d77.8470126!16s%2Fg%2F11fmys7xzr!19sChIJNUaBoeF_DDkRZETTHzySb0Y?authuser=0&hl=en&rclk=1",
        "coordinates": {
            "latitude": 28.9377562,
            "longitude": 77.8470126
        }
    },
    {
        "name": "MADINA MASJID",
        "main_category": "Mosque",
        "address": "XWHF+295 MADINA MASJID, madina masjid road parikshit garh, Behlolpur Dabathala Rd, Parikshitgarh, Uttar Pradesh 250406",
        "detailed_address": {
            "ward": null,
            "street": "XWHF+295, madina masjid road parikshit garh, Behlolpur Dabathala Rd",
            "city": "Parikshitgarh",
            "postal_code": "250406",
            "state": "Uttar Pradesh",
            "country_code": "IN"
        },
        "images": [
            {
                "about": "All",
                "link": "https://lh5.googleusercontent.com/p/AF1QipPUeFy2oC98d0O5SmhsmUYIs3Po92KAAFwkWpdB=w224-h298-k-no"
            },
            {
                "about": "Street View & 360deg",
                "link": "https://streetviewpixels-pa.googleapis.com/v1/thumbnail?panoid=i80M--pFE6pKwaOxdPytHA&cb_client=maps_sv.tactile.gps&w=224&h=298&yaw=167.05783&pitch=0&thumbfov=100"
            }
        ],
        "link": "https://www.google.com/maps/place/MADINA+MASJID/data=!4m7!3m6!1s0x390c78a66d1392c3:0xea78c22b29b698b5!8m2!3d28.9775188!4d77.9234987!16s%2Fg%2F11c6vgn6f1!19sChIJw5ITbaZ4DDkRtZi2KSvCeOo?authuser=0&hl=en&rclk=1",
        "coordinates": {
            "latitude": 28.9775188,
            "longitude": 77.9234987
        }
    },
    {
        "name": "Madina Maszid",
        "main_category": "Mosque",
        "address": "Madina Maszid, Islamu thekedar Road, Narangpur, Jataula, Uttar Pradesh 250406",
        "detailed_address": {
            "ward": null,
            "street": "Islamu thekedar Road",
            "city": "Narangpur, Jataula",
            "postal_code": "250406",
            "state": "Uttar Pradesh",
            "country_code": "IN"
        },
        "images": [
            {
                "about": "All",
                "link": "https://lh5.googleusercontent.com/p/AF1QipOESAb2-s7HFQbT5NkTpWemeHdLmyc4qx_8IX39=w224-h298-k-no"
            },
            {
                "about": "Videos",
                "link": "https://lh5.googleusercontent.com/p/AF1QipOEr4EJeDrxeg4QUCBXSjXUvjkj6Fmxg6OlJxbd=w224-h398-k-no"
            }
        ],
        "link": "https://www.google.com/maps/place/Madina+Maszid/data=!4m7!3m6!1s0x390b8709232efc79:0xab38126a06180890!8m2!3d28.9753645!4d78.0024658!16s%2Fg%2F11hmz4q_f7!19sChIJefwuIwmHCzkRkAgYBmoSOKs?authuser=0&hl=en&rclk=1",
        "coordinates": {
            "latitude": 28.975364499999998,
            "longitude": 78.0024658
        }
    },
    {
        "name": "Gulzaria Masjid",
        "main_category": "Mosque",
        "address": "XVQQ+F35 Gulzaria Masjid, Khajoori, Uttar Pradesh 250406",
        "detailed_address": {
            "ward": null,
            "street": "XVQQ+F35",
            "city": "Khajoori",
            "postal_code": "250406",
            "state": "Uttar Pradesh",
            "country_code": "IN"
        },
        "images": [
            {
                "about": "All",
                "link": "https://lh5.googleusercontent.com/p/AF1QipO_Vxszx1wbaHFfalFqAhnZORX1tHf_R58IO967=w661-h298-k-no"
            },
            {
                "about": "Dome",
                "link": "https://lh5.googleusercontent.com/p/AF1QipO_Vxszx1wbaHFfalFqAhnZORX1tHf_R58IO967=w661-h298-k-no"
            }
        ],
        "link": "https://www.google.com/maps/place/Gulzaria+Masjid/data=!4m7!3m6!1s0x390c78e14ecadc59:0xf1c9e966bff3390!8m2!3d28.9886259!4d77.8877191!16s%2Fg%2F11g8_26kv8!19sChIJWdzKTuF4DDkRkDP_a5aeHA8?authuser=0&hl=en&rclk=1",
        "coordinates": {
            "latitude": 28.9886259,
            "longitude": 77.8877191
        }
    },
    {
        "name": "Nambardar Masjid",
        "main_category": "Mosque",
        "address": "XXWX+W2X Nambardar Masjid, Agwanpur, Uttar Pradesh 250406",
        "detailed_address": {
            "ward": null,
            "street": "XXWX+W2X",
            "city": "Agwanpur",
            "postal_code": "250406",
            "state": "Uttar Pradesh",
            "country_code": "IN"
        },
        "images": [
            {
                "about": "All",
                "link": "https://lh5.googleusercontent.com/p/AF1QipPBVTZyfhfJSds6tYr0IR3L0tMR6CAH2yWX-A7k=w224-h298-k-no"
            },
            {
                "about": "Street View & 360deg",
                "link": "https://streetviewpixels-pa.googleapis.com/v1/thumbnail?panoid=U1cRUQTGyesU7GsF8sRmOA&cb_client=maps_sv.tactile.gps&w=224&h=298&yaw=269.78522&pitch=0&thumbfov=100"
            },
            {
                "about": "Videos",
                "link": "https://lh5.googleusercontent.com/p/AF1QipMjxtgetdOmMc-do0PO5boOxt9DZzzsxiqQuj-s=w224-h398-k-no"
            }
        ],
        "link": "https://www.google.com/maps/place/Nambardar+Masjid/data=!4m7!3m6!1s0x390b87c83d398201:0xef0cf18bad1f172e!8m2!3d28.9973612!4d77.9976203!16s%2Fg%2F11gsyzmd__!19sChIJAYI5PciHCzkRLhcfrYvxDO8?authuser=0&hl=en&rclk=1",
        "coordinates": {
            "latitude": 28.9973612,
            "longitude": 77.9976203
        }
    },
    {
        "name": "Madina Masjid kayasth baddha",
        "main_category": "Mosque",
        "address": "WRRX+XHF Madina Masjid kayasth baddha, Kayastha Badha, Kayasth Barha, Uttar Pradesh 250001",
        "detailed_address": {
            "ward": null,
            "street": "WRRX+XHF",
            "city": "Kayastha Badha, Kayasth Barha",
            "postal_code": "250001",
            "state": "Uttar Pradesh",
            "country_code": "IN"
        },
        "images": [
            {
                "about": "All",
                "link": "https://lh5.googleusercontent.com/p/AF1QipMQl3G52K9wyhoNt7MYOx68iZyEf0sAz8CoF8Bt=w224-h485-k-no"
            }
        ],
        "link": "https://www.google.com/maps/place/Madina+Masjid+kayasth+baddha/data=!4m7!3m6!1s0x390c7fa15f914e27:0x55e251582c08bb65!8m2!3d28.9424267!4d77.848925!16s%2Fg%2F11jgcxdvb8!19sChIJJ06RX6F_DDkRZbsILFhR4lU?authuser=0&hl=en&rclk=1",
        "coordinates": {
            "latitude": 28.9424267,
            "longitude": 77.848925
        }
    },
    {
        "name": "Masjid abubakar",
        "main_category": "Mosque",
        "address": "XVP3+36R Masjid abubakar, Kila Parikshit Garh Rd, Jai, Nagla Shahu, Uttar Pradesh 250001",
        "detailed_address": {
            "ward": null,
            "street": "XVP3+36R, Kila Parikshit Garh Rd",
            "city": "Jai, Nagla Shahu",
            "postal_code": "250001",
            "state": "Uttar Pradesh",
            "country_code": "IN"
        },
        "images": [
            {
                "about": "All",
                "link": "https://lh5.googleusercontent.com/p/AF1QipPiyp38SI98_TayYAoItycOFKWKW1nmLSujB0kw=w224-h473-k-no"
            }
        ],
        "link": "https://www.google.com/maps/place/Masjid+abubakar/data=!4m7!3m6!1s0x390c79da05f376b7:0x527c9bf2daea46eb!8m2!3d28.9852255!4d77.8530092!16s%2Fg%2F11j006fkrm!19sChIJt3bzBdp5DDkR60bq2vKbfFI?authuser=0&hl=en&rclk=1",
        "coordinates": {
            "latitude": 28.9852255,
            "longitude": 77.8530092
        }
    },
    {
        "name": "Manihar Masjid",
        "main_category": "Mosque",
        "address": "2X43+FF8 Manihar Masjid, Puthi, Poothi, Uttar Pradesh 250406",
        "detailed_address": {
            "ward": null,
            "street": "2X43+FF8",
            "city": "Puthi, Poothi",
            "postal_code": "250406",
            "state": "Uttar Pradesh",
            "country_code": "IN"
        },
        "images": [
            {
                "about": "All",
                "link": "https://lh5.googleusercontent.com/p/AF1QipPbEeiJQWQYBnI2WMlEBCFfyYZVFgiLNM-5d_Ww=w529-h298-k-no"
            },
            {
                "about": "Dome",
                "link": "https://lh5.googleusercontent.com/p/AF1QipOm_NiUrFdhWiBFhiidUkt6tFZmkgbVRD7SaWku=w224-h398-k-no"
            },
            {
                "about": "Videos",
                "link": "https://lh5.googleusercontent.com/p/AF1QipMPVUdARKsYpB3Gu3AriuVBkT5ffR_4wB64TvPz=w224-h398-k-no"
            },
            {
                "about": "Street View & 360deg",
                "link": "https://streetviewpixels-pa.googleapis.com/v1/thumbnail?panoid=fhbuzdoTz5mBHk1nKgzknw&cb_client=maps_sv.tactile.gps&w=224&h=298&yaw=296.06207&pitch=0&thumbfov=100"
            }
        ],
        "link": "https://www.google.com/maps/place/Manihar+Masjid/data=!4m7!3m6!1s0x390b87aaa85a3d49:0x5018debd1e3c5e27!8m2!3d29.0061665!4d77.9537117!16s%2Fg%2F11fsr8sdmj!19sChIJST1aqKqHCzkRJ148Hr3eGFA?authuser=0&hl=en&rclk=1",
        "coordinates": {
            "latitude": 29.0061665,
            "longitude": 77.9537117
        }
    },
    {
        "name": "_ MASJID QURESHIYAN _msjid k'ureshiyaan_msjd qryshyn",
        "main_category": "Mosque",
        "address": "XXWW+HFP _ MASJID QURESHIYAN _msjid k'ureshiyaan_msjd qryshyn, Agwanpur, Uttar Pradesh 250406",
        "detailed_address": {
            "ward": null,
            "street": "XXWW+HFP",
            "city": "Agwanpur",
            "postal_code": "250406",
            "state": "Uttar Pradesh",
            "country_code": "IN"
        },
        "images": [
            {
                "about": "All",
                "link": "https://lh5.googleusercontent.com/p/AF1QipPonE5vBmZnygOtEKu723z0VCurRHB78NjYE-IZ=w224-h299-k-no"
            }
        ],
        "link": "https://www.google.com/maps/place/_+MASJID+QURESHIYAN+_%E0%A4%AE%E0%A4%B8%E0%A5%8D%E0%A4%9C%E0%A4%BF%E0%A4%A6+%E0%A4%95%E0%A4%BC%E0%A5%81%E0%A4%B0%E0%A5%87%E0%A4%B6%E0%A4%BF%E0%A4%AF%E0%A4%BE%E0%A4%A8_%D9%85%D8%B3%D8%AC%D8%AF+%D9%82%D8%B1%DB%8C%D8%B4%DB%8C%D8%A7%D9%86%E2%80%AD/data=!4m7!3m6!1s0x390b871c4fdc5501:0xb8703591c4a16257!8m2!3d28.9964688!4d77.9961876!16s%2Fg%2F11gxn17nyw!19sChIJAVXcTxyHCzkRV2KhxJE1cLg?authuser=0&hl=en&rclk=1",
        "coordinates": {
            "latitude": 28.9964688,
            "longitude": 77.9961876
        }
    },
    {
        "name": "Masjid akhlaq husain/msjd khlq Hsyn",
        "main_category": "Mosque",
        "address": "VWVH+P8Q Masjid akhlaq husain/msjd khlq Hsyn, Behrora, Uttar Pradesh 250106",
        "detailed_address": {
            "ward": null,
            "street": "VWVH+P8Q",
            "city": "Behrora",
            "postal_code": "250106",
            "state": "Uttar Pradesh",
            "country_code": "IN"
        },
        "images": [
            {
                "about": "All",
                "link": "https://lh5.googleusercontent.com/p/AF1QipMCDQ6MsFQ082feSUiXYQjpkgipiE9oPfkFVxB9=w224-h298-k-no"
            }
        ],
        "link": "https://www.google.com/maps/place/Masjid+akhlaq+husain%2F%D9%85%D8%B3%D8%AC%D8%AF+%D8%A7%D8%AE%D9%84%D8%A7%D9%82+%D8%AD%D8%B3%D9%8A%D9%86%E2%80%AD/data=!4m7!3m6!1s0x390b81c1bb7b70bf:0x1ec978c66075095!8m2!3d28.8943423!4d77.9283505!16s%2Fg%2F11f79z_gr3!19sChIJv3B7u8GBCzkRlVAHZoyX7AE?authuser=0&hl=en&rclk=1",
        "coordinates": {
            "latitude": 28.894342299999998,
            "longitude": 77.9283505
        }
    },
    {
        "name": "MARKAZ Masjid",
        "main_category": "Mosque",
        "address": "3W2H+RFJ MARKAZ Masjid, Mawana-Kithaur-Hapur Marg, Satla, Uttar Pradesh 250402",
        "detailed_address": {
            "ward": null,
            "street": "3W2H+RFJ, Mawana-Kithaur-Hapur Marg",
            "city": "Satla",
            "postal_code": "250402",
            "state": "Uttar Pradesh",
            "country_code": "IN"
        },
        "images": [
            {
                "about": "All",
                "link": "https://lh5.googleusercontent.com/p/AF1QipPNgzMBEWxpElC5BIvD0Q0LiQUnhxn1HPUiCtfi=w224-h482-k-no"
            },
            {
                "about": "Street View & 360deg",
                "link": "https://streetviewpixels-pa.googleapis.com/v1/thumbnail?panoid=lmvUaLwkcL6IsfujvdHmQw&cb_client=maps_sv.tactile.gps&w=224&h=298&yaw=22.142523&pitch=0&thumbfov=100"
            },
            {
                "about": "Videos",
                "link": "https://lh5.googleusercontent.com/p/AF1QipPyRIaOwHjiLLsrZae6UBIn1MccostN83A87_Sk=w298-h298-k-no"
            }
        ],
        "link": "https://www.google.com/maps/place/MARKAZ+Masjid/data=!4m7!3m6!1s0x390b87ff5de643d3:0x4fbff5b668f96bf4!8m2!3d29.0520758!4d77.9286316!16s%2Fg%2F11fzf7dkcc!19sChIJ00PmXf-HCzkR9Gv5aLb1v08?authuser=0&hl=en&rclk=1",
        "coordinates": {
            "latitude": 29.052075799999997,
            "longitude": 77.9286316
        }
    },
    {
        "name": "Peer wali Masjid",
        "main_category": "Mosque",
        "address": "WW4V+RQH Peer wali Masjid, Radhna Inayatpur, Uttar Pradesh 250104",
        "detailed_address": {
            "ward": null,
            "street": "WW4V+RQH",
            "city": "Radhna Inayatpur",
            "postal_code": "250104",
            "state": "Uttar Pradesh",
            "country_code": "IN"
        },
        "images": [
            {
                "about": "All",
                "link": "https://lh5.googleusercontent.com/p/AF1QipNtdAHrykmoI5Myp6Nu6WG5-LdU_VlA1kU6mHy1=w224-h298-k-no"
            },
            {
                "about": "Videos",
                "link": "https://lh5.googleusercontent.com/p/AF1QipP7Hmq_VmbEgJt81lRUzLwsF_vCOATMQRQ-tK7A=w224-h398-k-no"
            }
        ],
        "link": "https://www.google.com/maps/place/Peer+wali+Masjid/data=!4m7!3m6!1s0x390b81ff6e1eecd7:0xb8927d8be26fb8b!8m2!3d28.9070725!4d77.9444861!16s%2Fg%2F11fhvz45dy!19sChIJ1-webv-BCzkRi_smvtgniQs?authuser=0&hl=en&rclk=1",
        "coordinates": {
            "latitude": 28.907072499999998,
            "longitude": 77.94448609999999
        }
    },
    {
        "name": "Pachhayli masjid",
        "main_category": "Mosque",
        "address": "3W2G+V8 Pachhayli masjid, Satla, Uttar Pradesh 250402",
        "detailed_address": {
            "ward": null,
            "street": "3W2G+V8",
            "city": "Satla",
            "postal_code": null,
            "state": "Uttar Pradesh",
            "country_code": "IN"
        },
        "images": [
            {
                "about": "All",
                "link": "https://lh5.googleusercontent.com/p/AF1QipP6dN0scruY_DQWnpLiQoLKr25sN18-LCgJANdQ=w397-h298-k-no"
            },
            {
                "about": "Videos",
                "link": "https://lh5.googleusercontent.com/p/AF1QipOOaKh2UKArrIeoWc77ohLk3AgY3EP15nw0C9Ir=w529-h298-k-no"
            }
        ],
        "link": "https://www.google.com/maps/place/Pachhayli+masjid/data=!4m7!3m6!1s0x390c795973a9587d:0x7b534e2710526893!8m2!3d29.0521913!4d77.9257481!16s%2Fg%2F11s2n9vcd8!19sChIJfVipc1l5DDkRk2hSECdOU3s?authuser=0&hl=en&rclk=1",
        "coordinates": {
            "latitude": 29.052191299999997,
            "longitude": 77.92574809999999
        }
    },
    {
        "name": "Masjid Ahle hadees Radhna inayatpur",
        "main_category": "Mosque",
        "address": "WW4V+476 Masjid Ahle hadees Radhna inayatpur, Radhna Inayatpur, Uttar Pradesh 250106",
        "detailed_address": {
            "ward": null,
            "street": "WW4V+476",
            "city": "Radhna Inayatpur",
            "postal_code": "250106",
            "state": "Uttar Pradesh",
            "country_code": "IN"
        },
        "images": [
            {
                "about": "All",
                "link": "https://lh5.googleusercontent.com/p/AF1QipPzsdRNmjKsEpAMZpfCJ2LU5jupHJ7y6usbEnGM=w224-h298-k-no"
            }
        ],
        "link": "https://www.google.com/maps/place/Masjid+Ahle+hadees+Radhna+inayatpur/data=!4m7!3m6!1s0x390b8191e8b994bb:0xf1b713a64192c54a!8m2!3d28.9052755!4d77.9431289!16s%2Fg%2F11g072r0jw!19sChIJu5S56JGBCzkRSsWSQaYTt_E?authuser=0&hl=en&rclk=1",
        "coordinates": {
            "latitude": 28.9052755,
            "longitude": 77.94312889999999
        }
    },
    {
        "name": "Aqsa Masjid kayasth Baddha",
        "main_category": "Mosque",
        "address": "WRQX+9FH Aqsa Masjid kayasth Baddha, Ali Rd, Kayastha Badha, Kayasth Barha, Uttar Pradesh 250001",
        "detailed_address": {
            "ward": null,
            "street": "WRQX+9FH, Ali Rd",
            "city": "Kayastha Badha, Kayasth Barha",
            "postal_code": "250001",
            "state": "Uttar Pradesh",
            "country_code": "IN"
        },
        "images": [
            {
                "about": "All",
                "link": "https://streetviewpixels-pa.googleapis.com/v1/thumbnail?panoid=MgOSHtY43ZOWEYQDKfNNnw&cb_client=maps_sv.tactile.gps&w=224&h=298&yaw=247.84035&pitch=0&thumbfov=100"
            },
            {
                "about": "Street View & 360deg",
                "link": "https://streetviewpixels-pa.googleapis.com/v1/thumbnail?panoid=MgOSHtY43ZOWEYQDKfNNnw&cb_client=maps_sv.tactile.gps&w=224&h=298&yaw=247.84035&pitch=0&thumbfov=100"
            }
        ],
        "link": "https://www.google.com/maps/place/Aqsa+Masjid+kayasth+Baddha/data=!4m7!3m6!1s0x390c7f9035a83321:0x2973179e30caafb3!8m2!3d28.9384396!4d77.8487205!16s%2Fg%2F11q1vytbcg!19sChIJITOoNZB_DDkRs6_KMJ4Xcyk?authuser=0&hl=en&rclk=1",
        "coordinates": {
            "latitude": 28.9384396,
            "longitude": 77.8487205
        }
    },
    {
        "name": "Jama Masjid",
        "main_category": "Mosque",
        "address": "XWR2+XRH Jama Masjid, Rasulpur Ikla, Ahmadnagar Badhla, Uttar Pradesh 250406",
        "detailed_address": {
            "ward": null,
            "street": "XWR2+XRH",
            "city": "Rasulpur Ikla, Ahmadnagar Badhla",
            "postal_code": "250406",
            "state": "Uttar Pradesh",
            "country_code": "IN"
        },
        "images": [],
        "link": "https://www.google.com/maps/place/Jama+Masjid/data=!4m7!3m6!1s0x390c79b2b6eb9139:0x43b8614abcdb2189!8m2!3d28.9924342!4d77.9021209!16s%2Fg%2F11p6bsv84h!19sChIJOZHrtrJ5DDkRiSHbvEphuEM?authuser=0&hl=en&rclk=1",
        "coordinates": {
            "latitude": 28.992434199999998,
            "longitude": 77.9021209
        }
    },
    {
        "name": "Mohammadi masjid",
        "main_category": "Mosque",
        "address": "XRVV+XMX Mohammadi masjid, Nagla Shahu, Morna, Uttar Pradesh 250001",
        "detailed_address": {
            "ward": null,
            "street": "XRVV+XMX",
            "city": "Nagla Shahu, Morna",
            "postal_code": "250001",
            "state": "Uttar Pradesh",
            "country_code": "IN"
        },
        "images": [
            {
                "about": "All",
                "link": "https://lh5.googleusercontent.com/p/AF1QipN_efDNPCA0Q7YgXsx8IyuaZ2RdpsgAMPVpWY6r=w528-h298-k-no"
            },
            {
                "about": "Street View & 360deg",
                "link": "https://streetviewpixels-pa.googleapis.com/v1/thumbnail?panoid=2x88p2ESGL1bmHa_S7-fGQ&cb_client=maps_sv.tactile.gps&w=224&h=298&yaw=81.20148&pitch=0&thumbfov=100"
            }
        ],
        "link": "https://www.google.com/maps/place/Mohammadi+masjid/data=!4m7!3m6!1s0x390c794eaee243d1:0x97020d0af6371fe3!8m2!3d28.9949982!4d77.8442428!16s%2Fg%2F11j94qdbp3!19sChIJ0UPirk55DDkR4x839goNApc?authuser=0&hl=en&rclk=1",
        "coordinates": {
            "latitude": 28.994998199999998,
            "longitude": 77.8442428
        }
    },
    {
        "name": "Jama Masjid",
        "main_category": "Mosque",
        "address": "XWHJ+J8C Jama Masjid, Parikshitgarh, Uttar Pradesh 250406",
        "detailed_address": {
            "ward": null,
            "street": "XWHJ+J8C",
            "city": "Parikshitgarh",
            "postal_code": "250406",
            "state": "Uttar Pradesh",
            "country_code": "IN"
        },
        "images": [
            {
                "about": "All",
                "link": "https://streetviewpixels-pa.googleapis.com/v1/thumbnail?panoid=IiYg3jxRyDAOsPsRY_B4bA&cb_client=maps_sv.tactile.gps&w=224&h=298&yaw=315.8894&pitch=0&thumbfov=100"
            },
            {
                "about": "Street View & 360deg",
                "link": "https://streetviewpixels-pa.googleapis.com/v1/thumbnail?panoid=IiYg3jxRyDAOsPsRY_B4bA&cb_client=maps_sv.tactile.gps&w=224&h=298&yaw=315.8894&pitch=0&thumbfov=100"
            }
        ],
        "link": "https://www.google.com/maps/place/Jama+Masjid/data=!4m7!3m6!1s0x390b87abffdb6269:0x1ccbb0ddd69bb783!8m2!3d28.9790671!4d77.9307605!16s%2Fg%2F11h1qqrh31!19sChIJaWLb_6uHCzkRg7eb1t2wyxw?authuser=0&hl=en&rclk=1",
        "coordinates": {
            "latitude": 28.979067099999998,
            "longitude": 77.93076049999999
        }
    },
    {
        "name": "Hamza masjid",
        "main_category": "Mosque",
        "address": "XRPX+74Q Hamza masjid, Meerut, Jae, Uttar Pradesh 250001",
        "detailed_address": {
            "ward": null,
            "street": "XRPX+74Q",
            "city": "Meerut, Jae",
            "postal_code": null,
            "state": "Uttar Pradesh",
            "country_code": "IN"
        },
        "images": [
            {
                "about": "All",
                "link": "https://streetviewpixels-pa.googleapis.com/v1/thumbnail?panoid=Tb8sWFUf588U6gQFRn0jfQ&cb_client=maps_sv.tactile.gps&w=224&h=298&yaw=341.5289&pitch=0&thumbfov=100"
            },
            {
                "about": "Street View & 360deg",
                "link": "https://streetviewpixels-pa.googleapis.com/v1/thumbnail?panoid=Tb8sWFUf588U6gQFRn0jfQ&cb_client=maps_sv.tactile.gps&w=224&h=298&yaw=341.5289&pitch=0&thumbfov=100"
            }
        ],
        "link": "https://www.google.com/maps/place/Hamza+masjid/data=!4m7!3m6!1s0x390c79ac3a3b5c49:0x5a06adb0ad53a7f0!8m2!3d28.9857129!4d77.8478739!16s%2Fg%2F11v0x3lj76!19sChIJSVw7Oqx5DDkR8KdTrbCtBlo?authuser=0&hl=en&rclk=1",
        "coordinates": {
            "latitude": 28.9857129,
            "longitude": 77.8478739
        }
    },
    {
        "name": "Chhappar Wali Masjid",
        "main_category": "Mosque",
        "address": "3WX8+P34 Chhappar Wali Masjid, Mawana, Uttar Pradesh 250401",
        "detailed_address": {
            "ward": null,
            "street": "3WX8+P34",
            "city": "Mawana",
            "postal_code": "250401",
            "state": "Uttar Pradesh",
            "country_code": "IN"
        },
        "images": [
            {
                "about": "All",
                "link": "https://lh5.googleusercontent.com/p/AF1QipNnqqKQ-q5kloGfYhwZsIkEcJdHOQu-ym-sWOOx=w224-h480-k-no"
            }
        ],
        "link": "https://www.google.com/maps/place/Chhappar+Wali+Masjid/data=!4m7!3m6!1s0x390c7718b656b97f:0x3374fbc9fadf09bc!8m2!3d29.0992346!4d77.9152298!16s%2Fg%2F11rtqdq9wg!19sChIJf7lWthh3DDkRvAnf-sn7dDM?authuser=0&hl=en&rclk=1",
        "coordinates": {
            "latitude": 29.0992346,
            "longitude": 77.91522979999999
        }
    },
    {
        "name": "Aqsa Masjid",
        "main_category": "Mosque",
        "address": "WXXM+PXF Aqsa Masjid, Agwanpur, Shodatt, Uttar Pradesh 250406",
        "detailed_address": {
            "ward": null,
            "street": "WXXM+PXF",
            "city": "Agwanpur, Shodatt",
            "postal_code": "250406",
            "state": "Uttar Pradesh",
            "country_code": "IN"
        },
        "images": [
            {
                "about": "All",
                "link": "https://lh5.googleusercontent.com/p/AF1QipOLRYw8mqB5_T9n20-7WbhO3rGxJEvnms-foM4u=w224-h298-k-no"
            },
            {
                "about": "Street View & 360deg",
                "link": "https://streetviewpixels-pa.googleapis.com/v1/thumbnail?panoid=0ccQSq1GKBz9Mh_2V-cNbg&cb_client=maps_sv.tactile.gps&w=224&h=298&yaw=124.14802&pitch=0&thumbfov=100"
            }
        ],
        "link": "https://www.google.com/maps/place/Aqsa+Masjid/data=!4m7!3m6!1s0x390b81273d5a5095:0xff4819909dd08f56!8m2!3d28.9498002!4d77.9855625!16s%2Fg%2F11sxvd5f7h!19sChIJlVBaPSeBCzkRVo_QnZAZSP8?authuser=0&hl=en&rclk=1",
        "coordinates": {
            "latitude": 28.9498002,
            "longitude": 77.9855625
        }
    },
    {
        "name": "Makki masjid",
        "main_category": "Mosque",
        "address": "XRRQ+4W9 Makki masjid, Nagla Shahu, Rukanpur, Uttar Pradesh 250001",
        "detailed_address": {
            "ward": null,
            "street": "XRRQ+4W9",
            "city": "Nagla Shahu, Rukanpur",
            "postal_code": "250001",
            "state": "Uttar Pradesh",
            "country_code": "IN"
        },
        "images": [
            {
                "about": "All",
                "link": "https://lh5.googleusercontent.com/p/AF1QipMj0GQcQYpKMojYUx1bzu2LHq7fBVpFGQMfhwV7=w224-h298-k-no"
            },
            {
                "about": "Latest",
                "link": "https://lh5.googleusercontent.com/p/AF1QipOZhBOjbFQWV4f66wS07R3Cj6ujmHY7hlEQkN19=w529-h298-k-no"
            }
        ],
        "link": "https://www.google.com/maps/place/Makki+masjid/data=!4m7!3m6!1s0x390c793e6fde3775:0x8ac44e8843c7724b!8m2!3d28.9903625!4d77.8394219!16s%2Fg%2F11k9j8n88w!19sChIJdTfebz55DDkRS3LHQ4hOxIo?authuser=0&hl=en&rclk=1",
        "coordinates": {
            "latitude": 28.9903625,
            "longitude": 77.83942189999999
        }
    },
    {
        "name": "Masjid mustufai",
        "main_category": "Mosque",
        "address": "XWHP+9FF Masjid mustufai, Mawana-Kithaur, Marg, Khajoori Darwaza, Parikshitgarh, Uttar Pradesh 250406",
        "detailed_address": {
            "ward": "Mohalla Raja Darwaza, Khajoori Darwaza",
            "street": "XWHP+9FF, Mawana-Kithaur, Marg",
            "city": "Parikshitgarh",
            "postal_code": "250406",
            "state": "Uttar Pradesh",
            "country_code": "IN"
        },
        "images": [
            {
                "about": "All",
                "link": "https://streetviewpixels-pa.googleapis.com/v1/thumbnail?panoid=dl5XYmcTIu9BmB4gDFd2bQ&cb_client=maps_sv.tactile.gps&w=224&h=298&yaw=268.81104&pitch=0&thumbfov=100"
            },
            {
                "about": "Street View & 360deg",
                "link": "https://streetviewpixels-pa.googleapis.com/v1/thumbnail?panoid=dl5XYmcTIu9BmB4gDFd2bQ&cb_client=maps_sv.tactile.gps&w=224&h=298&yaw=268.81104&pitch=0&thumbfov=100"
            }
        ],
        "link": "https://www.google.com/maps/place/Masjid+mustufai/data=!4m7!3m6!1s0x390b874a2fd378cf:0xcfe497fa65691524!8m2!3d28.9784318!4d77.9361609!16s%2Fg%2F11s4flz25q!19sChIJz3jTL0qHCzkRJBVpZfqX5M8?authuser=0&hl=en&rclk=1",
        "coordinates": {
            "latitude": 28.9784318,
            "longitude": 77.93616089999999
        }
    },
    {
        "name": "chhwtty msjd Choti Masjid",
        "main_category": "Mosque",
        "address": "V2R2+VG4 chhwtty msjd Choti Masjid, Unnamed Rd, Jarauda, Uttar Pradesh 250104",
        "detailed_address": {
            "ward": null,
            "street": "V2R2+VG4, Unnamed Rd",
            "city": "Jarauda",
            "postal_code": "250104",
            "state": "Uttar Pradesh",
            "country_code": "IN"
        },
        "images": [],
        "link": "https://www.google.com/maps/place/%DA%86%DA%BE%D9%88%D9%B9%DB%8C+%D9%85%D8%B3%D8%AC%D8%AF+Choti+Masjid%E2%80%AD/data=!4m7!3m6!1s0x390b81e8beadb497:0xddc917b58c59ba8c!8m2!3d28.8921298!4d78.0013274!16s%2Fg%2F11bvv58m7x!19sChIJl7StvuiBCzkRjLpZjLUXyd0?authuser=0&hl=en&rclk=1",
        "coordinates": {
            "latitude": 28.8921298,
            "longitude": 78.0013274
        }
    },
    {
        "name": "Aqsa Masjid",
        "main_category": "Mosque",
        "address": "Aqsa Masjid, Faruqi Coloni, Mohalla Dhakpeer, Parikshitgarh, Uttar Pradesh 250406",
        "detailed_address": {
            "ward": "Mohalla Dhakpeer",
            "street": "Faruqi Coloni",
            "city": "Parikshitgarh",
            "postal_code": "250406",
            "state": "Uttar Pradesh",
            "country_code": "IN"
        },
        "images": [
            {
                "about": "All",
                "link": "https://streetviewpixels-pa.googleapis.com/v1/thumbnail?panoid=353PdXe3eKT-0URRZ2r1Iw&cb_client=maps_sv.tactile.gps&w=224&h=298&yaw=338.67947&pitch=0&thumbfov=100"
            },
            {
                "about": "Street View & 360deg",
                "link": "https://streetviewpixels-pa.googleapis.com/v1/thumbnail?panoid=353PdXe3eKT-0URRZ2r1Iw&cb_client=maps_sv.tactile.gps&w=224&h=298&yaw=338.67947&pitch=0&thumbfov=100"
            }
        ],
        "link": "https://www.google.com/maps/place/Aqsa+Masjid/data=!4m7!3m6!1s0x390b870a3fb9b303:0x5324774bf366a46e!8m2!3d28.9792981!4d77.9310283!16s%2Fg%2F11l721sxs8!19sChIJA7O5PwqHCzkRbqRm80t3JFM?authuser=0&hl=en&rclk=1",
        "coordinates": {
            "latitude": 28.979298099999998,
            "longitude": 77.9310283
        }
    },
    {
        "name": "Masjid Ek Minara",
        "main_category": "Religious institution",
        "address": "Masjid Ek Minara, Parikshitgarh, Uttar Pradesh 250406",
        "detailed_address": {
            "ward": null,
            "street": null,
            "city": "Parikshitgarh",
            "postal_code": null,
            "state": "Uttar Pradesh",
            "country_code": "IN"
        },
        "images": [
            {
                "about": "All",
                "link": "https://streetviewpixels-pa.googleapis.com/v1/thumbnail?panoid=tebSkxr6cLYmS2hxuHyaug&cb_client=maps_sv.tactile.gps&w=224&h=298&yaw=120.778305&pitch=0&thumbfov=100"
            },
            {
                "about": "Street View & 360deg",
                "link": "https://streetviewpixels-pa.googleapis.com/v1/thumbnail?panoid=tebSkxr6cLYmS2hxuHyaug&cb_client=maps_sv.tactile.gps&w=224&h=298&yaw=120.778305&pitch=0&thumbfov=100"
            }
        ],
        "link": "https://www.google.com/maps/place/Masjid+Ek+Minara/data=!4m7!3m6!1s0x390b875938d79f1f:0x9941da71862a483f!8m2!3d28.9812618!4d77.9322968!16s%2Fg%2F11t9k9mfpy!19sChIJH5_XOFmHCzkRP0gqhnHaQZk?authuser=0&hl=en&rclk=1",
        "coordinates": {
            "latitude": 28.9812618,
            "longitude": 77.9322968
        }
    },
    {
        "name": "TAYYAB MASJID _Tyb msjd",
        "main_category": "Mosque",
        "address": "XXWV+R8J TAYYAB MASJID _Tyb msjd, Agwanpur, Uttar Pradesh 250406",
        "detailed_address": {
            "ward": null,
            "street": "XXWV+R8J",
            "city": "Agwanpur",
            "postal_code": "250406",
            "state": "Uttar Pradesh",
            "country_code": "IN"
        },
        "images": [
            {
                "about": "All",
                "link": "https://streetviewpixels-pa.googleapis.com/v1/thumbnail?panoid=miRJcXC6_Dei-jLLiMRPFw&cb_client=maps_sv.tactile.gps&w=224&h=298&yaw=29.964796&pitch=0&thumbfov=100"
            },
            {
                "about": "Street View & 360deg",
                "link": "https://streetviewpixels-pa.googleapis.com/v1/thumbnail?panoid=miRJcXC6_Dei-jLLiMRPFw&cb_client=maps_sv.tactile.gps&w=224&h=298&yaw=29.964796&pitch=0&thumbfov=100"
            }
        ],
        "link": "https://www.google.com/maps/place/TAYYAB+MASJID+_%D8%B7%DB%8C%D8%A8+%D9%85%D8%B3%D8%AC%D8%AF%E2%80%AD/data=!4m7!3m6!1s0x390b872c7b917c49:0xad5bcf62564480c6!8m2!3d28.9970823!4d77.9932475!16s%2Fg%2F11v637ctf0!19sChIJSXyReyyHCzkRxoBEVmLPW60?authuser=0&hl=en&rclk=1",
        "coordinates": {
            "latitude": 28.9970823,
            "longitude": 77.9932475
        }
    },
    {
        "name": "Husaini Masjid",
        "main_category": "Mosque",
        "address": "XXWV+R8J Husaini Masjid, Meerut, Uttar Pradesh 250406",
        "detailed_address": {
            "ward": null,
            "street": "XXWV+R8J",
            "city": "Meerut",
            "postal_code": "250406",
            "state": "Uttar Pradesh",
            "country_code": "IN"
        },
        "images": [
            {
                "about": "All",
                "link": "https://streetviewpixels-pa.googleapis.com/v1/thumbnail?panoid=miRJcXC6_Dei-jLLiMRPFw&cb_client=maps_sv.tactile.gps&w=224&h=298&yaw=30.013527&pitch=0&thumbfov=100"
            },
            {
                "about": "Street View & 360deg",
                "link": "https://streetviewpixels-pa.googleapis.com/v1/thumbnail?panoid=miRJcXC6_Dei-jLLiMRPFw&cb_client=maps_sv.tactile.gps&w=224&h=298&yaw=30.013527&pitch=0&thumbfov=100"
            }
        ],
        "link": "https://www.google.com/maps/place/Husaini+Masjid/data=!4m7!3m6!1s0x390b875770a2eb3b:0x272e82575e8116a8!8m2!3d28.9970694!4d77.9932395!16s%2Fg%2F11ptv6bq24!19sChIJO-uicFeHCzkRqBaBXleCLic?authuser=0&hl=en&rclk=1",
        "coordinates": {
            "latitude": 28.997069399999997,
            "longitude": 77.9932395
        }
    },
    {
        "name": "Jama Masazid",
        "main_category": "Mosque",
        "address": "XXW4+9MQ Jama Masazid, Poothi, Uttar Pradesh 250406",
        "detailed_address": {
            "ward": null,
            "street": "XXW4+9MQ",
            "city": "Poothi",
            "postal_code": "250406",
            "state": "Uttar Pradesh",
            "country_code": "IN"
        },
        "images": [],
        "link": "https://www.google.com/maps/place/Jama+Masazid/data=!4m7!3m6!1s0x390b8713ffffffff:0x57f5658d2b354994!8m2!3d28.9959566!4d77.9567323!16s%2Fg%2F11gcckdrv_!19sChIJ_____xOHCzkRlEk1K41l9Vc?authuser=0&hl=en&rclk=1",
        "coordinates": {
            "latitude": 28.9959566,
            "longitude": 77.9567323
        }
    },
    {
        "name": "Ashrafi masjid shodatt",
        "main_category": "Mosque",
        "address": "WXXP+393 Ashrafi masjid shodatt, Shodatt, Uttar Pradesh 250406",
        "detailed_address": {
            "ward": null,
            "street": "WXXP+393",
            "city": "Shodatt",
            "postal_code": "250406",
            "state": "Uttar Pradesh",
            "country_code": "IN"
        },
        "images": [
            {
                "about": "All",
                "link": "https://streetviewpixels-pa.googleapis.com/v1/thumbnail?panoid=D2ggL1BGkOhvU1FDOdEQYA&cb_client=maps_sv.tactile.gps&w=224&h=298&yaw=66.385&pitch=0&thumbfov=100"
            },
            {
                "about": "Street View & 360deg",
                "link": "https://streetviewpixels-pa.googleapis.com/v1/thumbnail?panoid=D2ggL1BGkOhvU1FDOdEQYA&cb_client=maps_sv.tactile.gps&w=224&h=298&yaw=66.385&pitch=0&thumbfov=100"
            }
        ],
        "link": "https://www.google.com/maps/place/Ashrafi+masjid+shodatt/data=!4m7!3m6!1s0x390b81eb209a792b:0x258d11bd991aa7f!8m2!3d28.9476272!4d77.9859245!16s%2Fg%2F11s3y77dxm!19sChIJK3maIOuBCzkRf6qR2RvRWAI?authuser=0&hl=en&rclk=1",
        "coordinates": {
            "latitude": 28.9476272,
            "longitude": 77.9859245
        }
    },
    {
        "name": "Aqsa Masjid Kila",
        "main_category": "Mosque",
        "address": "XWJH+873 Aqsa Masjid Kila, Parikshitgarh, Uttar Pradesh 250406",
        "detailed_address": {
            "ward": null,
            "street": "XWJH+873",
            "city": "Parikshitgarh",
            "postal_code": "250406",
            "state": "Uttar Pradesh",
            "country_code": "IN"
        },
        "images": [
            {
                "about": "All",
                "link": "https://streetviewpixels-pa.googleapis.com/v1/thumbnail?panoid=V_JpJ3ZdVKgRWaLqqtsNRQ&cb_client=maps_sv.tactile.gps&w=224&h=298&yaw=95.28102&pitch=0&thumbfov=100"
            },
            {
                "about": "Street View & 360deg",
                "link": "https://streetviewpixels-pa.googleapis.com/v1/thumbnail?panoid=V_JpJ3ZdVKgRWaLqqtsNRQ&cb_client=maps_sv.tactile.gps&w=224&h=298&yaw=95.28102&pitch=0&thumbfov=100"
            }
        ],
        "link": "https://www.google.com/maps/place/Aqsa+Masjid+Kila/data=!4m7!3m6!1s0x390c799f5ba97e01:0x7bc93a9601266518!8m2!3d28.980757!4d77.9281617!16s%2Fg%2F11vjhhvx43!19sChIJAX6pW595DDkRGGUmAZY6yXs?authuser=0&hl=en&rclk=1",
        "coordinates": {
            "latitude": 28.980756999999997,
            "longitude": 77.92816169999999
        }
    },
    {
        "name": "Beech Wali Masjid",
        "main_category": "Mosque",
        "address": "WW5V+PVQ Beech Wali Masjid, Radhna Inayatpur, Uttar Pradesh 250106",
        "detailed_address": {
            "ward": null,
            "street": "WW5V+PVQ",
            "city": "Radhna Inayatpur",
            "postal_code": "250106",
            "state": "Uttar Pradesh",
            "country_code": "IN"
        },
        "images": [
            {
                "about": "All",
                "link": "https://lh5.googleusercontent.com/p/AF1QipM8tOQO0dWXzKbnT1tpd4avQGD-fCpNWdjiARkH=w529-h298-k-no"
            }
        ],
        "link": "https://www.google.com/maps/place/Beech+Wali+Masjid/data=!4m7!3m6!1s0x390b8103acc62437:0xad7a9b8215cdbe31!8m2!3d28.9093385!4d77.9447421!16s%2Fg%2F11fl9m4plm!19sChIJNyTGrAOBCzkRMb7NFYKbeq0?authuser=0&hl=en&rclk=1",
        "coordinates": {
            "latitude": 28.909338499999997,
            "longitude": 77.9447421
        }
    },
    {
        "name": "Mustufai masjid Qila parikshitgarh",
        "main_category": "Book store",
        "address": "Mustufai masjid Qila parikshitgarh, Meerut Rd, Mohalla Raja Darwaza, Parikshitgarh, Uttar Pradesh 250406",
        "detailed_address": {
            "ward": "Mohalla Raja Darwaza",
            "street": "Meerut Rd",
            "city": "Parikshitgarh",
            "postal_code": "250406",
            "state": "Uttar Pradesh",
            "country_code": "IN"
        },
        "images": [
            {
                "about": "All",
                "link": "https://streetviewpixels-pa.googleapis.com/v1/thumbnail?panoid=Tp_Qbxd_QalYMaYtjufKog&cb_client=maps_sv.tactile.gps&w=224&h=298&yaw=157.47069&pitch=0&thumbfov=100"
            },
            {
                "about": "Street View & 360deg",
                "link": "https://streetviewpixels-pa.googleapis.com/v1/thumbnail?panoid=Tp_Qbxd_QalYMaYtjufKog&cb_client=maps_sv.tactile.gps&w=224&h=298&yaw=157.47069&pitch=0&thumbfov=100"
            }
        ],
        "link": "https://www.google.com/maps/place/Mustufai+masjid+Qila+parikshitgarh/data=!4m7!3m6!1s0x390b87f140648adb:0x3ced83ff5d5202a3!8m2!3d28.9793412!4d77.9358981!16s%2Fg%2F11t1b7zpcb!19sChIJ24pkQPGHCzkRowJSXf-D7Tw?authuser=0&hl=en&rclk=1",
        "coordinates": {
            "latitude": 28.9793412,
            "longitude": 77.9358981
        }
    }
]