[
    {
        "name": "Station Chariali Masjid",
        "main_category": "Mosque",
        "address": "XJQQ+PGV Station Chariali Masjid, Nazira Ali Rd, Sivasagar, Assam 785640",
        "detailed_address": {
            "ward": null,
            "street": "XJQQ+PGV, Nazira Ali Rd",
            "city": "Sivasagar",
            "postal_code": "785640",
            "state": "Assam",
            "country_code": "IN"
        },
        "images": [
            {
                "about": "All",
                "link": "https://lh5.googleusercontent.com/p/AF1QipNScZi5XGaZH9qQepknTfDdt6u6SeRpWRWxVwsy=w529-h298-k-no"
            },
            {
                "about": "Videos",
                "link": "https://lh5.googleusercontent.com/p/AF1QipMvQm4kG3tgze7red3EvBPmoQdskp3VR31VMgLp=w224-h398-k-no"
            }
        ],
        "link": "https://www.google.com/maps/place/Station+Chariali+Masjid/data=!4m7!3m6!1s0x3747314e7bbdacbf:0x8b0127d8c0046ef!8m2!3d26.9893512!4d94.6388092!16s%2Fg%2F1tlmlpnt!19sChIJv6y9e04xRzcR70YAjH0SsAg?authuser=0&hl=en&rclk=1",
        "coordinates": {
            "latitude": 26.989351199999998,
            "longitude": 94.6388092
        }
    },
    {
        "name": "Ranghar Chariali Masjid",
        "main_category": "Mosque",
        "address": "XJCC+7W7 Ranghar Chariali Masjid, Dicial Dhulia Gaon, Assam 785697",
        "detailed_address": {
            "ward": null,
            "street": "XJCC+7W7",
            "city": "Dicial Dhulia Gaon",
            "postal_code": null,
            "state": "Assam",
            "country_code": "IN"
        },
        "images": [
            {
                "about": "All",
                "link": "https://lh5.googleusercontent.com/p/AF1QipNo5M350MMxZh7Gz9O748OitLiFRs_aLfJuCXNd=w224-h398-k-no"
            },
            {
                "about": "Videos",
                "link": "https://lh5.googleusercontent.com/p/AF1QipNywtVhF12lfPSx-T2hkj85gihJyCArzYFyAmEj=w396-h298-k-no"
            }
        ],
        "link": "https://www.google.com/maps/place/Ranghar+Chariali+Masjid/data=!4m7!3m6!1s0x37473117a50edc87:0xe976c6dca4308c9!8m2!3d26.9706647!4d94.6223014!16s%2Fg%2F11f4z7jywq!19sChIJh9wOpRcxRzcRyQhDym1slw4?authuser=0&hl=en&rclk=1",
        "coordinates": {
            "latitude": 26.9706647,
            "longitude": 94.6223014
        }
    },
    {
        "name": "Babupatty Markaz Masjid",
        "main_category": "Mosque",
        "address": "XJPH+94G Babupatty Markaz Masjid, Sivasagar, Assam 785640",
        "detailed_address": {
            "ward": null,
            "street": "XJPH+94G",
            "city": "Sivasagar",
            "postal_code": "785640",
            "state": "Assam",
            "country_code": "IN"
        },
        "images": [
            {
                "about": "All",
                "link": "https://lh5.googleusercontent.com/p/AF1QipP-SehcDSuHAnpXrJyRdp8lc_0-D08RblfIUtDT=w224-h398-k-no"
            },
            {
                "about": "Videos",
                "link": "https://lh5.googleusercontent.com/p/AF1QipMIqNSHvPseyqz2an0g-skHpNiVZ6wP5X8nqXE=w224-h398-k-no"
            }
        ],
        "link": "https://www.google.com/maps/place/Babupatty+Markaz+Masjid/data=!4m7!3m6!1s0x374731416217e6bf:0xa87fbd6c0c93a0e1!8m2!3d26.9859317!4d94.6278167!16s%2Fg%2F11c5813x1c!19sChIJv-YXYkExRzcR4aCTDGy9f6g?authuser=0&hl=en&rclk=1",
        "coordinates": {
            "latitude": 26.9859317,
            "longitude": 94.6278167
        }
    },
    {
        "name": "Darbar Road Masjid",
        "main_category": "Mosque",
        "address": "XJMF+P8J Darbar Road Masjid, Thana Road, Dikhow Mothari Rd, Sivasagar, Assam 785640",
        "detailed_address": {
            "ward": null,
            "street": "XJMF+P8J, Thana Road, Dikhow Mothari Rd",
            "city": "Sivasagar, Arjun Guri",
            "postal_code": "785640",
            "state": "Assam",
            "country_code": "IN"
        },
        "images": [
            {
                "about": "All",
                "link": "https://lh5.googleusercontent.com/p/AF1QipOd0I9RQgmQ7Nt353YwwqZ7liQfpM4mGHbKY-MD=w397-h298-k-no"
            }
        ],
        "link": "https://www.google.com/maps/place/Darbar+Road+Masjid/data=!4m7!3m6!1s0x3747316a69628885:0x86a8e84e9cf17ed3!8m2!3d26.9843482!4d94.6232678!16s%2Fg%2F11ddx69_8h!19sChIJhYhiaWoxRzcR037xnE7oqIY?authuser=0&hl=en&rclk=1",
        "coordinates": {
            "latitude": 26.9843482,
            "longitude": 94.6232678
        }
    },
    {
        "name": "Jengonikatia Jumma Masjid",
        "main_category": "Mosque",
        "address": "XJVC+XHQ Jengonikatia Jumma Masjid, Jengonikatia, NH37, Sivasagar, Assam 785640",
        "detailed_address": {
            "ward": "Jengonikatia",
            "street": "XJVC+XHQ, Jengonikatia, NH37",
            "city": "Sivasagar, Pachi Pathar",
            "postal_code": "785640",
            "state": "Assam",
            "country_code": "IN"
        },
        "images": [
            {
                "about": "All",
                "link": "https://lh5.googleusercontent.com/p/AF1QipMGM4sB0BpVoPPHJAGxQtj-Vmvw0g2e3ujkdjlY=w397-h298-k-no"
            },
            {
                "about": "Latest",
                "link": "https://lh5.googleusercontent.com/p/AF1QipMA_cPLbCgw7jst-GdEJLvUBpIgIFfOq4ybMQp1=w660-h298-k-no"
            },
            {
                "about": "Videos",
                "link": "https://lh5.googleusercontent.com/p/AF1QipPa2Ozb8yvOP64uj3Edh1qqwBYkavXmbneu3iaD=w224-h398-k-no"
            }
        ],
        "link": "https://www.google.com/maps/place/Jengonikatia+Jumma+Masjid/data=!4m7!3m6!1s0x3747316693691323:0xbca33086df666a07!8m2!3d26.9949551!4d94.6214793!16s%2Fg%2F1tf5c2xc!19sChIJIxNpk2YxRzcRB2pm34Ywo7w?authuser=0&hl=en&rclk=1",
        "coordinates": {
            "latitude": 26.9949551,
            "longitude": 94.62147929999999
        }
    },
    {
        "name": "B.G. Road Jama Masjid",
        "main_category": "Mosque",
        "address": "XJPV+Q49 B.G. Road Jama Masjid, BG Rd, Sivasagar, Assam 785640",
        "detailed_address": {
            "ward": null,
            "street": "XJPV+Q49, BG Rd",
            "city": "Sivasagar",
            "postal_code": "785640",
            "state": "Assam",
            "country_code": "IN"
        },
        "images": [
            {
                "about": "All",
                "link": "https://lh5.googleusercontent.com/p/AF1QipMAfv4lfK7akOQNpWIjeG31M5TFywCxEqzxcrPS=w529-h298-k-no"
            }
        ],
        "link": "https://www.google.com/maps/place/B.G.+Road+Jama+Masjid/data=!4m7!3m6!1s0x3747314c8cef7277:0x77c773b060c4809d!8m2!3d26.9869097!4d94.6428625!16s%2Fg%2F1tk6t87w!19sChIJd3LvjEwxRzcRnYDEYLBzx3c?authuser=0&hl=en&rclk=1",
        "coordinates": {
            "latitude": 26.9869097,
            "longitude": 94.64286249999999
        }
    },
    {
        "name": "Dhai Ali Mosque",
        "main_category": "Mosque",
        "address": "XJPC+XMQ Dhai Ali Mosque, Dhai Ali, Sivasagar, Bailung Pathar, Assam 785640",
        "detailed_address": {
            "ward": "Dhai Ali",
            "street": "XJPC+XMQ",
            "city": "Sivasagar, Bailung Pathar",
            "postal_code": "785640",
            "state": "Assam",
            "country_code": "IN"
        },
        "images": [
            {
                "about": "All",
                "link": "https://lh5.googleusercontent.com/p/AF1QipMqd1TZSbw8B-QysnwO0yIZZ4qkko3L1fnKBYQ=w224-h298-k-no"
            },
            {
                "about": "Dome",
                "link": "https://lh5.googleusercontent.com/p/AF1QipPWD8n63EkK98aW0EDa2AS8rvsOXicGViR5FCbi=w397-h298-k-no"
            }
        ],
        "link": "https://www.google.com/maps/place/Dhai+Ali+Mosque/data=!4m7!3m6!1s0x3747316975a5742f:0xfe8eaf17862ffd6a!8m2!3d26.987473!4d94.6217206!16s%2Fg%2F11hbndhjgz!19sChIJL3SldWkxRzcRav0vhhevjv4?authuser=0&hl=en&rclk=1",
        "coordinates": {
            "latitude": 26.987472999999998,
            "longitude": 94.62172059999999
        }
    },
    {
        "name": "Sadar Masjid(central mosque)Sdr msjd",
        "main_category": "Mosque",
        "address": "XJPM+W5R Sadar Masjid(central mosque)Sdr msjd, Dolmukh Chariali, Sivasagar, Assam 785640",
        "detailed_address": {
            "ward": "Dolmukh Chariali",
            "street": "XJPM+W5R",
            "city": "Sivasagar",
            "postal_code": "785640",
            "state": "Assam",
            "country_code": "IN"
        },
        "images": [
            {
                "about": "All",
                "link": "https://lh5.googleusercontent.com/p/AF1QipPwfS_nzP1K1U1No-0qE39N_4sxqRQfxFq54K9Q=w529-h298-k-no"
            }
        ],
        "link": "https://www.google.com/maps/place/Sadar+Masjid%28central+mosque%29%D8%B5%D8%AF%D8%B1+%D9%85%D8%B3%D8%AC%D8%AF%E2%80%AD/data=!4m7!3m6!1s0x37473145b8656fc1:0x59045682eabf6075!8m2!3d26.9873743!4d94.6328883!16s%2Fg%2F1tfk2sw2!19sChIJwW9luEUxRzcRdWC_6oJWBFk?authuser=0&hl=en&rclk=1",
        "coordinates": {
            "latitude": 26.9873743,
            "longitude": 94.63288829999999
        }
    },
    {
        "name": "Taxiali Masjid",
        "main_category": "Mosque",
        "address": "XJV6+QG8 Taxiali Masjid, Taxi Ali, Jengonikatia, Sivasagar, Chaul Kora No.1, Assam 785640",
        "detailed_address": {
            "ward": "Jengonikatia",
            "street": "XJV6+QG8, Taxi Ali",
            "city": "Sivasagar, Chaul Kora No.1",
            "postal_code": "785640",
            "state": "Assam",
            "country_code": "IN"
        },
        "images": [
            {
                "about": "All",
                "link": "https://lh5.googleusercontent.com/p/AF1QipPT1Ajghrp0RNEu5JEgmL1kFe7djVjIninYp7RG=w224-h398-k-no"
            }
        ],
        "link": "https://www.google.com/maps/place/Taxiali+Masjid/data=!4m7!3m6!1s0x3747317a58fa2c13:0xbbbba7f56d962095!8m2!3d26.9944189!4d94.6113344!16s%2Fg%2F11h9y6dmn8!19sChIJEyz6WHoxRzcRlSCWbfWnu7s?authuser=0&hl=en&rclk=1",
        "coordinates": {
            "latitude": 26.9944189,
            "longitude": 94.61133439999999
        }
    },
    {
        "name": "Jengonikatia 2no Jumma Masjid",
        "main_category": "Mosque",
        "address": "2J4F+5JC Jengonikatia 2no Jumma Masjid, Dhai Ali, Kath Para, Assam 785640",
        "detailed_address": {
            "ward": null,
            "street": "2J4F+5JC, Dhai Ali",
            "city": "Kath Para",
            "postal_code": "785640",
            "state": "Assam",
            "country_code": "IN"
        },
        "images": [
            {
                "about": "All",
                "link": "https://lh5.googleusercontent.com/p/AF1QipMfL9qYAePKDUYuC1UKHg_b59GvttmKY0ON3tuW=w397-h298-k-no"
            },
            {
                "about": "Dome",
                "link": "https://lh5.googleusercontent.com/p/AF1QipNHvwKckGOGlOpHb_6_GgdU4SWqFTgBGE5v3IXN=w492-h298-k-no"
            },
            {
                "about": "Videos",
                "link": "https://lh5.googleusercontent.com/p/AF1QipP5rl_q9R4T9tWcVQ_47_XYnmEjpMQp_Qo8Fr_j=w541-h298-k-no"
            }
        ],
        "link": "https://www.google.com/maps/place/Jengonikatia+2no+Jumma+Masjid/data=!4m7!3m6!1s0x3747338a799caa99:0xad9a8b24539cef86!8m2!3d27.0054454!4d94.6240003!16s%2Fg%2F11h1r060pd!19sChIJmaqceYozRzcRhu-cUySLmq0?authuser=0&hl=en&rclk=1",
        "coordinates": {
            "latitude": 27.0054454,
            "longitude": 94.62400029999999
        }
    },
    {
        "name": "Hatikhuk Bor Masjid",
        "main_category": "Mosque",
        "address": "XJHC+GFF Hatikhuk Bor Masjid, Hatikukh, Assam 785697",
        "detailed_address": {
            "ward": null,
            "street": "XJHC+GFF",
            "city": "Hatikukh",
            "postal_code": null,
            "state": "Assam",
            "country_code": "IN"
        },
        "images": [
            {
                "about": "All",
                "link": "https://lh5.googleusercontent.com/p/AF1QipNckW1-rMRJjsfD8qlAxsGxsCjUJ8PF6XwprSVF=w397-h298-k-no"
            }
        ],
        "link": "https://www.google.com/maps/place/Hatikhuk+Bor+Masjid/data=!4m7!3m6!1s0x3747310339a6c66b:0xb39bfe3fbd682799!8m2!3d26.9788088!4d94.6211608!16s%2Fg%2F11g0t6xv92!19sChIJa8amOQMxRzcRmSdovT_-m7M?authuser=0&hl=en&rclk=1",
        "coordinates": {
            "latitude": 26.9788088,
            "longitude": 94.6211608
        }
    },
    {
        "name": "Singhaduwar Masjid",
        "main_category": "Mosque",
        "address": "bogidol, Singhaduwar Masjid, Singha Duwar Grant, Bura Gohain, Assam 785697",
        "detailed_address": {
            "ward": null,
            "street": "bogidol",
            "city": "Singha Duwar Grant, Bura Gohain",
            "postal_code": null,
            "state": "Assam",
            "country_code": "IN"
        },
        "images": [
            {
                "about": "All",
                "link": "https://lh5.googleusercontent.com/p/AF1QipP52RgWUuEUhQeWQKLTSe-uKUf7tuC0Gvhes3RS=w397-h298-k-no"
            },
            {
                "about": "Videos",
                "link": "https://lh5.googleusercontent.com/p/AF1QipOtCkp1oM8wf-WcE_64j7ArZBQcmHVot1e_b3kG=w298-h298-k-no"
            }
        ],
        "link": "https://www.google.com/maps/place/Singhaduwar+Masjid/data=!4m7!3m6!1s0x3747379ab75e686d:0x59a2e66c5f12d6c7!8m2!3d26.9517132!4d94.6729228!16s%2Fg%2F11fhtzncnl!19sChIJbWhet5o3RzcRx9YSX2zmolk?authuser=0&hl=en&rclk=1",
        "coordinates": {
            "latitude": 26.9517132,
            "longitude": 94.6729228
        }
    },
    {
        "name": "Baro Ghoria Mosque msjd",
        "main_category": "Mosque",
        "address": "Baro Ghoria Mosque msjd, Sivasagar, Assam 785640",
        "detailed_address": {
            "ward": null,
            "street": null,
            "city": "Sivasagar",
            "postal_code": "785640",
            "state": "Assam",
            "country_code": "IN"
        },
        "images": [
            {
                "about": "All",
                "link": "https://lh5.googleusercontent.com/p/AF1QipNvxyUhng4NDcQ_rkSiiaXvXFPG-aF2lG3AQn_g=w435-h298-k-no"
            },
            {
                "about": "Dome",
                "link": "https://lh5.googleusercontent.com/p/AF1QipNvxyUhng4NDcQ_rkSiiaXvXFPG-aF2lG3AQn_g=w435-h298-k-no"
            },
            {
                "about": "Videos",
                "link": "https://lh5.googleusercontent.com/p/AF1QipPDdavYLA9hOie6az7NvraNhLPvMaZbF2gAQSwU=w224-h398-k-no"
            }
        ],
        "link": "https://www.google.com/maps/place/Baro+Ghoria+Mosque+%D9%85%D8%B3%D8%AC%D8%AF%E2%80%AD/data=!4m7!3m6!1s0x37473140e69fcb3d:0x843ef2d0fa72ae87!8m2!3d26.9826159!4d94.6279297!16s%2Fg%2F11g6rkzl7s!19sChIJPcuf5kAxRzcRh65y-tDyPoQ?authuser=0&hl=en&rclk=1",
        "coordinates": {
            "latitude": 26.9826159,
            "longitude": 94.6279297
        }
    },
    {
        "name": "Kordoiguri Purana Jamm e Masjid",
        "main_category": "Mosque",
        "address": "2MW4+MHC Kordoiguri Purana Jamm e Masjid, Kordoiguri konwamora, Sivasagar, Akhoi Phutia, Assam 785663",
        "detailed_address": {
            "ward": null,
            "street": "2MW4+MHC Kordoiguri konwamora",
            "city": "Sivasagar, Akhoi Phutia",
            "postal_code": null,
            "state": "Assam",
            "country_code": "IN"
        },
        "images": [],
        "link": "https://www.google.com/maps/place/Kordoiguri+Purana+Jamm+e+Masjid/data=!4m7!3m6!1s0x3747346320bcea25:0xde9d420a4938ba6f!8m2!3d27.0466945!4d94.6564034!16s%2Fg%2F11fz0yt4h0!19sChIJJeq8IGM0RzcRb7o4SQpCnd4?authuser=0&hl=en&rclk=1",
        "coordinates": {
            "latitude": 27.046694499999997,
            "longitude": 94.6564034
        }
    },
    {
        "name": "BepariPatty Markaz Maszid",
        "main_category": "Mosque",
        "address": "XJMH+4J6 BepariPatty Markaz Maszid, Sivasagar, Assam 785640",
        "detailed_address": {
            "ward": null,
            "street": "XJMH+4J6",
            "city": "Sivasagar",
            "postal_code": null,
            "state": "Assam",
            "country_code": "IN"
        },
        "images": [
            {
                "about": "All",
                "link": "https://lh5.googleusercontent.com/p/AF1QipMs3VcqsuRJWzRQP2hgXCAphrU19YsdcUhohZxN=w629-h298-k-no"
            }
        ],
        "link": "https://www.google.com/maps/place/BepariPatty+Markaz+Maszid/data=!4m7!3m6!1s0x37473140d71c5e6f:0xb99b1f2d278bdfbf!8m2!3d26.9827982!4d94.629008!16s%2Fg%2F11hbgtgw2r!19sChIJb14c10AxRzcRv9-LJy0fm7k?authuser=0&hl=en&rclk=1",
        "coordinates": {
            "latitude": 26.982798199999998,
            "longitude": 94.629008
        }
    },
    {
        "name": "Na Masjid",
        "main_category": "Mosque",
        "address": "XJMJ+653 Na Masjid, Sivasagar, Assam 785640",
        "detailed_address": {
            "ward": null,
            "street": "XJMJ+653",
            "city": "Sivasagar",
            "postal_code": "785640",
            "state": "Assam",
            "country_code": "IN"
        },
        "images": [
            {
                "about": "All",
                "link": "https://lh5.googleusercontent.com/p/AF1QipN-hxYA3cmDRmT4USphLIoDC7NviOw2-jgsPN3f=w529-h298-k-no"
            }
        ],
        "link": "https://www.google.com/maps/place/Na+Masjid/data=!4m7!3m6!1s0x37473146d8a1ac6b:0x9bcf8d91460e7b19!8m2!3d26.9830163!4d94.6304356!16s%2Fg%2F11dxlb8jrf!19sChIJa6yh2EYxRzcRGXsORpGNz5s?authuser=0&hl=en&rclk=1",
        "coordinates": {
            "latitude": 26.9830163,
            "longitude": 94.6304356
        }
    },
    {
        "name": "Khata Pathar Masjid",
        "main_category": "Mosque",
        "address": "XJWW+VM9 Khata Pathar Masjid, Nowjan, Sivasagar, Assam 785640",
        "detailed_address": {
            "ward": null,
            "street": "XJWW+VM9",
            "city": "Nowjan, Sivasagar",
            "postal_code": null,
            "state": "Assam",
            "country_code": "IN"
        },
        "images": [
            {
                "about": "All",
                "link": "https://lh5.googleusercontent.com/p/AF1QipOzNeoqKRlGQdQUCYHLqzmX9m4Z6sWy3FshVmfX=w278-h298-k-no"
            },
            {
                "about": "Dome",
                "link": "https://lh5.googleusercontent.com/p/AF1QipP6x8SC0fRCpuO5vvyU6OelgPtKBAF8FzHiEZ4_=w397-h298-k-no"
            },
            {
                "about": "Street View & 360deg",
                "link": "https://streetviewpixels-pa.googleapis.com/v1/thumbnail?panoid=CzKknKdik5Rd-sYySSOV-A&cb_client=maps_sv.tactile.gps&w=224&h=298&yaw=124.7775&pitch=0&thumbfov=100"
            }
        ],
        "link": "https://www.google.com/maps/place/Khata+Pathar+Masjid/data=!4m7!3m6!1s0x37473731e63cfd63:0x3dc4147f09d946c1!8m2!3d26.997173!4d94.6467253!16s%2Fg%2F11j4y4y9fr!19sChIJY_085jE3RzcRwUbZCX8UxD0?authuser=0&hl=en&rclk=1",
        "coordinates": {
            "latitude": 26.997173,
            "longitude": 94.6467253
        }
    },
    {
        "name": "Hatikhuk Masjid",
        "main_category": "Mosque",
        "address": "Hatikhuk Masjid, Unnamed Road, Arjun Guri, Assam 785697",
        "detailed_address": {
            "ward": null,
            "street": "Unnamed Road",
            "city": "Arjun Guri, Hatikukh",
            "postal_code": "785697",
            "state": "Assam",
            "country_code": "IN"
        },
        "images": [
            {
                "about": "All",
                "link": "https://lh5.googleusercontent.com/p/AF1QipPt1ayW2tTaov7oZl_HkIn28jAdhZABgz6FT4rn=w529-h298-k-no"
            }
        ],
        "link": "https://www.google.com/maps/place/Hatikhuk+Masjid/data=!4m7!3m6!1s0x374731287fdaa9c3:0xfb76636f5c99ecee!8m2!3d26.973798!4d94.620382!16s%2Fg%2F11hdt52b3d!19sChIJw6nafygxRzcR7uyZXG9jdvs?authuser=0&hl=en&rclk=1",
        "coordinates": {
            "latitude": 26.973798,
            "longitude": 94.62038199999999
        }
    },
    {
        "name": "Amguri Gaon Bor Masjid",
        "main_category": "Mosque",
        "address": "XJ9M+4HC Amguri Gaon Bor Masjid, Duboroni Ali Rd, Dicial Dhulia Gaon, Assam 785697",
        "detailed_address": {
            "ward": null,
            "street": "XJ9M+4HC, Duboroni Ali Rd",
            "city": "Dicial Dhulia Gaon",
            "postal_code": "785697",
            "state": "Assam",
            "country_code": "IN"
        },
        "images": [],
        "link": "https://www.google.com/maps/place/Amguri+Gaon+Bor+Masjid/data=!4m7!3m6!1s0x3747316bdd013fb3:0xb0db798e1197c6fe!8m2!3d26.9678095!4d94.6338775!16s%2Fg%2F11frdrnh4w!19sChIJsz8B3WsxRzcR_saXEY5527A?authuser=0&hl=en&rclk=1",
        "coordinates": {
            "latitude": 26.967809499999998,
            "longitude": 94.6338775
        }
    },
    {
        "name": "Joisagar Jame Masjid",
        "main_category": "Mosque",
        "address": "Joisagar Jame Masjid, Jayanagar bylaen, No. 1, Assam Trunk Rd, Jayanagar, Joysagar, Dicial Dhulia Gaon, Assam 785697",
        "detailed_address": {
            "ward": "Jayanagar, Joysagar",
            "street": "Jayanagar bylaen, No. 1, Assam Trunk Rd",
            "city": "Dicial Dhulia Gaon, Rupahi Pathar",
            "postal_code": "785697",
            "state": "Assam",
            "country_code": "IN"
        },
        "images": [],
        "link": "https://www.google.com/maps/place/Joisagar+Jame+Masjid/data=!4m7!3m6!1s0x374731612e2c7103:0xd761d76a64f62910!8m2!3d26.958249!4d94.6179153!16s%2Fg%2F11j2278vy0!19sChIJA3EsLmExRzcRECn2ZGrXYdc?authuser=0&hl=en&rclk=1",
        "coordinates": {
            "latitude": 26.958249,
            "longitude": 94.61791529999999
        }
    },
    {
        "name": "Colony Masjid",
        "main_category": "Mosque",
        "address": "XMJ3+HVR Colony Masjid, C Type St, ONGC Colony, Sivasagar, Assam 785640",
        "detailed_address": {
            "ward": "ONGC Colony",
            "street": "XMJ3+HVR, C Type St",
            "city": "Sivasagar",
            "postal_code": "785640",
            "state": "Assam",
            "country_code": "IN"
        },
        "images": [],
        "link": "https://www.google.com/maps/place/Colony+Masjid/data=!4m7!3m6!1s0x37473772bed141c7:0x1e7f2384d3fe0b4e!8m2!3d26.9814856!4d94.6546556!16s%2Fg%2F11k9d7zlgg!19sChIJx0HRvnI3RzcRTgv-04Qjfx4?authuser=0&hl=en&rclk=1",
        "coordinates": {
            "latitude": 26.9814856,
            "longitude": 94.6546556
        }
    },
    {
        "name": "Baputty Bora Road Baparipati Markaz Mosque",
        "main_category": "Mosque",
        "address": "XJMR+2XW Baputty Bora Road Baparipati Markaz Mosque, Sivasagar, Assam 785640",
        "detailed_address": {
            "ward": null,
            "street": "XJMR+2XW",
            "city": "Sivasagar",
            "postal_code": null,
            "state": "Assam",
            "country_code": "IN"
        },
        "images": [],
        "link": "https://www.google.com/maps/place/Baputty+Bora+Road+Baparipati+Markaz+Mosque/data=!4m7!3m6!1s0x374731c255375a49:0x58a9fd8e966f85b5!8m2!3d26.9826075!4d94.6424515!16s%2Fg%2F11q7_2q52s!19sChIJSVo3VcIxRzcRtYVvlo79qVg?authuser=0&hl=en&rclk=1",
        "coordinates": {
            "latitude": 26.9826075,
            "longitude": 94.64245149999999
        }
    },
    {
        "name": "Masjid",
        "main_category": "Mosque",
        "address": "XMJ7+GR4 Masjid, NH702C, Hatimuria, Cherekapar, Assam 785697",
        "detailed_address": {
            "ward": null,
            "street": "XMJ7+GR4, NH702C",
            "city": "Hatimuria, Cherekapar",
            "postal_code": "785697",
            "state": "Assam",
            "country_code": "IN"
        },
        "images": [
            {
                "about": "All",
                "link": "https://streetviewpixels-pa.googleapis.com/v1/thumbnail?panoid=lJvPVcpp8OCJG__zNhIr2Q&cb_client=maps_sv.tactile.gps&w=224&h=298&yaw=41.061195&pitch=0&thumbfov=100"
            },
            {
                "about": "Street View & 360deg",
                "link": "https://streetviewpixels-pa.googleapis.com/v1/thumbnail?panoid=lJvPVcpp8OCJG__zNhIr2Q&cb_client=maps_sv.tactile.gps&w=224&h=298&yaw=41.061195&pitch=0&thumbfov=100"
            }
        ],
        "link": "https://www.google.com/maps/place/Masjid/data=!4m7!3m6!1s0x374737bdece023dd:0xcd9780cb96eb644a!8m2!3d26.9812587!4d94.664573!16s%2Fg%2F11r27w76kw!19sChIJ3SPg7L03RzcRSmTrlsuAl80?authuser=0&hl=en&rclk=1",
        "coordinates": {
            "latitude": 26.981258699999998,
            "longitude": 94.66457299999999
        }
    }
]