[
    {
        "name": "Masjid E Khatijatul Kubra",
        "main_category": "Mosque",
        "address": "876V+X28 Masjid E Khatijatul Kubra, Hunsur, Karnataka 571105",
        "detailed_address": {
            "ward": null,
            "street": "876V+X28",
            "city": "Hunsur",
            "postal_code": "571105",
            "state": "Karnataka",
            "country_code": "IN"
        },
        "images": [],
        "link": "https://www.google.com/maps/place/Masjid+E+Khatijatul+Kubra/data=!4m7!3m6!1s0x3ba585218a6a2b7b:0x6c961991d46116ee!8m2!3d12.3124091!4d76.2925846!16s%2Fg%2F11g7z1mb5n!19sChIJeytqiiGFpTsR7hZh1JEZlmw?authuser=0&hl=en&rclk=1",
        "coordinates": {
            "latitude": 12.3124091,
            "longitude": 76.2925846
        }
    },
    {
        "name": "Jamiya Masjid Muslim Block",
        "main_category": "Mosque",
        "address": "Jamiya Masjid Muslim Block, 1493, Bazar Rd, Muthumariyamman Kovil, Hunsur, Karnataka 571105",
        "detailed_address": {
            "ward": "Muthumariyamman Kovil",
            "street": "1493, Bazar Rd",
            "city": "Hunsur",
            "postal_code": "571105",
            "state": "Karnataka",
            "country_code": "IN"
        },
        "images": [
            {
                "about": "All",
                "link": "https://lh5.googleusercontent.com/p/AF1QipNwm8uxexluGw0QFVpn-7HrboUb3J1BAFgZulkx=w224-h398-k-no"
            },
            {
                "about": "Dome",
                "link": "https://lh5.googleusercontent.com/p/AF1QipOcPy_GAij7jaJvo3oSkguwLeQ0RQ8B_NXTH-01=w224-h298-k-no"
            },
            {
                "about": "Street View & 360deg",
                "link": "https://streetviewpixels-pa.googleapis.com/v1/thumbnail?panoid=fKATqDQnl6oC7wu-T7mYfg&cb_client=maps_sv.tactile.gps&w=224&h=298&yaw=241.95096&pitch=0&thumbfov=100"
            }
        ],
        "link": "https://www.google.com/maps/place/Jamiya+Masjid+Muslim+Block/data=!4m7!3m6!1s0x3ba5853d5b6185f9:0x583069a86acf405b!8m2!3d12.3057904!4d76.293572!16s%2Fg%2F1hc0rjsg9!19sChIJ-YVhWz2FpTsRW0DPaqhpMFg?authuser=0&hl=en&rclk=1",
        "coordinates": {
            "latitude": 12.3057904,
            "longitude": 76.293572
        }
    },
    {
        "name": "Masjid",
        "main_category": "Mosque",
        "address": "8865+3VQ Masjid, Hunsur, Karnataka 571105",
        "detailed_address": {
            "ward": null,
            "street": "8865+3VQ",
            "city": "Hunsur",
            "postal_code": "571105",
            "state": "Karnataka",
            "country_code": "IN"
        },
        "images": [
            {
                "about": "All",
                "link": "https://lh5.googleusercontent.com/p/AF1QipM5c8P8sC9mQqJI1YROuaku1ZMft0ck4_d3o5Bs=w224-h398-k-no"
            },
            {
                "about": "Street View & 360deg",
                "link": "https://streetviewpixels-pa.googleapis.com/v1/thumbnail?panoid=Che_TOI33kAGqBWyp3Rs9g&cb_client=maps_sv.tactile.gps&w=224&h=298&yaw=308.43195&pitch=0&thumbfov=100"
            },
            {
                "about": "Videos",
                "link": "https://lh5.googleusercontent.com/p/AF1QipPnrRSlhUXR_NEHDpMUefUgi99-Qn2vjQZUvT_w=w224-h398-k-no"
            }
        ],
        "link": "https://www.google.com/maps/place/Masjid/data=!4m7!3m6!1s0x3ba58505b3989d51:0x6de29edefc1ff79a!8m2!3d12.310208!4d76.3097236!16s%2Fg%2F1hc4hbd8b!19sChIJUZ2YswWFpTsRmvcf_N6e4m0?authuser=0&hl=en&rclk=1",
        "coordinates": {
            "latitude": 12.310208,
            "longitude": 76.3097236
        }
    },
    {
        "name": "MASJID E AHLE HADEES MARKAZ( SALFI ) For both Men and Women. Muslim Block",
        "main_category": "Mosque",
        "address": "874V+62W MASJID E AHLE HADEES MARKAZ( SALFI ) For both Men and Women. Muslim Block, Muslim Block Rd, Muthumariyamman Kovil, Hunsur, Karnataka 571105",
        "detailed_address": {
            "ward": "Muthumariyamman Kovil",
            "street": "874V+62W, Muslim Block Rd",
            "city": "Hunsur",
            "postal_code": "571105",
            "state": "Karnataka",
            "country_code": "IN"
        },
        "images": [
            {
                "about": "All",
                "link": "https://lh5.googleusercontent.com/p/AF1QipPG4wPJ-RXDhZ3wHKO_Uk_4WWgBrZ9a15oESLhJ=w224-h497-k-no"
            },
            {
                "about": "Street View & 360deg",
                "link": "https://streetviewpixels-pa.googleapis.com/v1/thumbnail?panoid=XRtytKbVbWU_Qn5OPNQwOQ&cb_client=maps_sv.tactile.gps&w=224&h=298&yaw=66.689445&pitch=0&thumbfov=100"
            }
        ],
        "link": "https://www.google.com/maps/place/MASJID+E+AHLE+HADEES+MARKAZ%28+SALFI+%29+For+both+Men+and+Women.+Muslim+Block/data=!4m7!3m6!1s0x3ba5850239f7dea5:0x6ee7d481ea843bc2!8m2!3d12.3056014!4d76.2925658!16s%2Fg%2F11k9pqn3fk!19sChIJpd73OQKFpTsRwjuE6oHU524?authuser=0&hl=en&rclk=1",
        "coordinates": {
            "latitude": 12.305601399999999,
            "longitude": 76.29256579999999
        }
    },
    {
        "name": "MASJID E MOHAMMADIA ( AHLE HADEES ) For both Men and Women. Shabbir Nagar, Hunsur, Mysore",
        "main_category": "Mosque",
        "address": "877X+67P MASJID E MOHAMMADIA ( AHLE HADEES ) For both Men and Women. Shabbir Nagar, Hunsur, Mysore, Kirijaji Rd, Hunsur, Karnataka 571105",
        "detailed_address": {
            "ward": null,
            "street": "877X+67P, Kirijaji Rd",
            "city": "Hunsur",
            "postal_code": "571105",
            "state": "Karnataka",
            "country_code": "IN"
        },
        "images": [
            {
                "about": "All",
                "link": "https://lh5.googleusercontent.com/p/AF1QipOEs5j8VXj_FTy-GlEUGZ9Zw4jFqNEpEH7VtbPi=w325-h298-k-no"
            }
        ],
        "link": "https://www.google.com/maps/place/MASJID+E+MOHAMMADIA+%28+AHLE+HADEES+%29+For+both+Men+and+Women.+Shabbir+Nagar,+Hunsur,+Mysore/data=!4m7!3m6!1s0x3ba585685f1d9117:0x6dabf305a4bfe409!8m2!3d12.3130775!4d76.2981931!16s%2Fg%2F11tx5y3z_q!19sChIJF5EdX2iFpTsRCeS_pAXzq20?authuser=0&hl=en&rclk=1",
        "coordinates": {
            "latitude": 12.313077499999999,
            "longitude": 76.29819309999999
        }
    },
    {
        "name": "Masjid",
        "main_category": "Mosque",
        "address": "876V+4WJ Masjid, Hunsur, Karnataka 571105",
        "detailed_address": {
            "ward": null,
            "street": "876V+4WJ",
            "city": "Hunsur",
            "postal_code": "571105",
            "state": "Karnataka",
            "country_code": "IN"
        },
        "images": [
            {
                "about": "All",
                "link": "https://lh5.googleusercontent.com/p/AF1QipPoLtb8LbrVTw6Lwk2crni5NLkId70KSBO8xqZq=w397-h298-k-no"
            },
            {
                "about": "Street View & 360deg",
                "link": "https://streetviewpixels-pa.googleapis.com/v1/thumbnail?panoid=5iVQH6lmqXgaVAlhnQw8Gg&cb_client=maps_sv.tactile.gps&w=224&h=298&yaw=222.40213&pitch=0&thumbfov=100"
            }
        ],
        "link": "https://www.google.com/maps/place/Masjid/data=!4m7!3m6!1s0x3ba5853eb3ee9fe5:0xfaa44cadbdf9c0bf!8m2!3d12.3103301!4d76.2947548!16s%2Fg%2F11jdh0btvq!19sChIJ5Z_usz6FpTsRv8D5va1MpPo?authuser=0&hl=en&rclk=1",
        "coordinates": {
            "latitude": 12.3103301,
            "longitude": 76.29475479999999
        }
    },
    {
        "name": "Masjid",
        "main_category": "Mosque",
        "address": "Masjid, Bazar Rd, Muthumariyamman Kovil, Hunsur, Karnataka 571105",
        "detailed_address": {
            "ward": "Muthumariyamman Kovil",
            "street": "Bazar Rd",
            "city": "Hunsur",
            "postal_code": "571105",
            "state": "Karnataka",
            "country_code": "IN"
        },
        "images": [
            {
                "about": "All",
                "link": "https://lh5.googleusercontent.com/p/AF1QipOiQPncouxieIS-ZsDPtDKZNwt3oWZVFvovAs3O=w397-h298-k-no"
            },
            {
                "about": "Street View & 360deg",
                "link": "https://streetviewpixels-pa.googleapis.com/v1/thumbnail?panoid=Mx04P4YTkG_NtGR3lI_bRw&cb_client=maps_sv.tactile.gps&w=224&h=298&yaw=192.3731&pitch=0&thumbfov=100"
            }
        ],
        "link": "https://www.google.com/maps/place/Masjid/data=!4m7!3m6!1s0x3ba58522ba03aec3:0xc648b3b05cb640cd!8m2!3d12.3076062!4d76.2929567!16s%2Fg%2F11d_bkfyhd!19sChIJw64DuiKFpTsRzUC2XLCzSMY?authuser=0&hl=en&rclk=1",
        "coordinates": {
            "latitude": 12.307606199999999,
            "longitude": 76.29295669999999
        }
    },
    {
        "name": "Masjid",
        "main_category": "Mosque",
        "address": "875R+R9W Masjid, Hunsur, Karnataka 571105",
        "detailed_address": {
            "ward": null,
            "street": "875R+R9W",
            "city": "Hunsur",
            "postal_code": "571105",
            "state": "Karnataka",
            "country_code": "IN"
        },
        "images": [],
        "link": "https://www.google.com/maps/place/Masjid/data=!4m7!3m6!1s0x3ba585edd3218f91:0x1b86c4ad4b56111c!8m2!3d12.3096223!4d76.2909464!16s%2Fg%2F11jv9myznx!19sChIJkY8h0-2FpTsRHBFWS63Ehhs?authuser=0&hl=en&rclk=1",
        "coordinates": {
            "latitude": 12.3096223,
            "longitude": 76.2909464
        }
    },
    {
        "name": "Jamia Masjid, BM Road, Old Bridge, Hunsur",
        "main_category": "Mosque",
        "address": "875M+PMG Jamia Masjid, BM Road, Old Bridge, Hunsur, BM Rd, Old Bridge, Hunsur, Karnataka 571105",
        "detailed_address": {
            "ward": "Old Bridge",
            "street": "875M+PMG, BM Rd",
            "city": "Hunsur",
            "postal_code": "571105",
            "state": "Karnataka",
            "country_code": "IN"
        },
        "images": [
            {
                "about": "All",
                "link": "https://lh5.googleusercontent.com/p/AF1QipPvjuap4LQjOcWtcvspMbuCYsCiWFaf4xMYGhra=w224-h298-k-no"
            },
            {
                "about": "Dome",
                "link": "https://lh5.googleusercontent.com/p/AF1QipME0CaAoihgJuJfjm_2Cv7bI8cbmVvy31rXKCBu=w224-h298-k-no"
            },
            {
                "about": "Videos",
                "link": "https://lh5.googleusercontent.com/p/AF1QipOSycdR12GO484dtcCgo2y1hwP294JV-FxqbnM7=w224-h398-k-no"
            },
            {
                "about": "Street View & 360deg",
                "link": "https://streetviewpixels-pa.googleapis.com/v1/thumbnail?panoid=CWKLIzbjEiGozXL1W_Upqw&cb_client=maps_sv.tactile.gps&w=224&h=298&yaw=352.2379&pitch=0&thumbfov=100"
            }
        ],
        "link": "https://www.google.com/maps/place/J%C4%81mia+Masjid,+BM+Road,+Old+Bridge,+Hunsur/data=!4m7!3m6!1s0x3ba58568f6fcc81b:0xb95864ce30869615!8m2!3d12.3093217!4d76.2841937!16s%2Fg%2F11spr3t8dn!19sChIJG8j89miFpTsRFZaGMM5kWLk?authuser=0&hl=en&rclk=1",
        "coordinates": {
            "latitude": 12.3093217,
            "longitude": 76.2841937
        }
    },
    {
        "name": "Mahboobia masjid o mahboobia maktab",
        "main_category": "Mosque",
        "address": "875V+67H Mahboobia masjid o mahboobia maktab, Khazi Mohalla Rd, Muthumariyamman Kovil, Hunsur, Karnataka 571105",
        "detailed_address": {
            "ward": "Muthumariyamman Kovil",
            "street": "875V+67H, Khazi Mohalla Rd",
            "city": "Hunsur",
            "postal_code": "571105",
            "state": "Karnataka",
            "country_code": "IN"
        },
        "images": [
            {
                "about": "All",
                "link": "https://lh5.googleusercontent.com/p/AF1QipOzHSmc_ZhIEjB_2ZfOekczr43JSX1qswDgQyke=w529-h298-k-no"
            }
        ],
        "link": "https://www.google.com/maps/place/Mahboobia+masjid+o+mahboobia+maktab/data=!4m7!3m6!1s0x3ba585aa0bd1ab93:0xe59e3ee98de03250!8m2!3d12.3080723!4d76.2932243!16s%2Fg%2F11j3r5b4nz!19sChIJk6vRC6qFpTsRUDLgjek-nuU?authuser=0&hl=en&rclk=1",
        "coordinates": {
            "latitude": 12.3080723,
            "longitude": 76.29322429999999
        }
    },
    {
        "name": "SHAHI MASJID",
        "main_category": "Mosque",
        "address": "875M+J8P SHAHI MASJID, Razak Nagar, Hunsur, Karnataka 571105",
        "detailed_address": {
            "ward": "Razak Nagar",
            "street": "875M+J8P",
            "city": "Hunsur",
            "postal_code": null,
            "state": "Karnataka",
            "country_code": "IN"
        },
        "images": [
            {
                "about": "All",
                "link": "https://lh5.googleusercontent.com/p/AF1QipMVL1Paf8oc6KI900ZZBtt75jAjJToB81056acL=w224-h398-k-no"
            },
            {
                "about": "Dome",
                "link": "https://lh5.googleusercontent.com/p/AF1QipMVL1Paf8oc6KI900ZZBtt75jAjJToB81056acL=w224-h398-k-no"
            },
            {
                "about": "Street View & 360deg",
                "link": "https://streetviewpixels-pa.googleapis.com/v1/thumbnail?panoid=xQhjeUFHqp0GmbTAuPwNpw&cb_client=maps_sv.tactile.gps&w=224&h=298&yaw=298.27383&pitch=0&thumbfov=100"
            }
        ],
        "link": "https://www.google.com/maps/place/SHAHI+MASJID/data=!4m7!3m6!1s0x3ba5852a158703b1:0x31145ecfea2c1e87!8m2!3d12.3090948!4d76.2833332!16s%2Fg%2F11j5g2pzsd!19sChIJsQOHFSqFpTsRhx4s6s9eFDE?authuser=0&hl=en&rclk=1",
        "coordinates": {
            "latitude": 12.309094799999999,
            "longitude": 76.2833332
        }
    },
    {
        "name": "Gowsiya masjid",
        "main_category": "Mosque",
        "address": "874J+Q4X Gowsiya masjid, Hunsur, Karnataka 571105",
        "detailed_address": {
            "ward": null,
            "street": "874J+Q4X",
            "city": "Hunsur",
            "postal_code": null,
            "state": "Karnataka",
            "country_code": "IN"
        },
        "images": [
            {
                "about": "All",
                "link": "https://streetviewpixels-pa.googleapis.com/v1/thumbnail?panoid=hErrUAecFfViwrkvTlxopg&cb_client=maps_sv.tactile.gps&w=224&h=298&yaw=286.86505&pitch=0&thumbfov=100"
            },
            {
                "about": "Street View & 360deg",
                "link": "https://streetviewpixels-pa.googleapis.com/v1/thumbnail?panoid=hErrUAecFfViwrkvTlxopg&cb_client=maps_sv.tactile.gps&w=224&h=298&yaw=286.86505&pitch=0&thumbfov=100"
            }
        ],
        "link": "https://www.google.com/maps/place/Gowsiya+masjid/data=!4m7!3m6!1s0x3ba585970d0a8e2d:0x8132d48f99151447!8m2!3d12.3069893!4d76.2803634!16s%2Fg%2F11tdy13lx7!19sChIJLY4KDZeFpTsRRxQVmY_UMoE?authuser=0&hl=en&rclk=1",
        "coordinates": {
            "latitude": 12.3069893,
            "longitude": 76.2803634
        }
    },
    {
        "name": "Masjid E Raabiya",
        "main_category": "Mosque",
        "address": "8872+R7C Masjid E Raabiya, Hunsur, Karnataka 571105",
        "detailed_address": {
            "ward": null,
            "street": "8872+R7C",
            "city": "Hunsur",
            "postal_code": "571105",
            "state": "Karnataka",
            "country_code": "IN"
        },
        "images": [
            {
                "about": "All",
                "link": "https://lh5.googleusercontent.com/p/AF1QipPEiBHpmP_eZNBzA27N4QprijZjw2Y0HaPzcm_1=w474-h298-k-no"
            }
        ],
        "link": "https://www.google.com/maps/place/Masjid+E+Raabiya/data=!4m7!3m6!1s0x3ba585d5c7c9d861:0x12241daed2cfd687!8m2!3d12.3145507!4d76.300651!16s%2Fg%2F11j8zfkfmq!19sChIJYdjJx9WFpTsRh9bP0q4dJBI?authuser=0&hl=en&rclk=1",
        "coordinates": {
            "latitude": 12.3145507,
            "longitude": 76.300651
        }
    },
    {
        "name": "Suffah masjid hunsur",
        "main_category": "Mosque",
        "address": "877X+WM8 Suffah masjid hunsur, Mysuru, Karnataka 571105",
        "detailed_address": {
            "ward": null,
            "street": "877X+WM8",
            "city": "Mysuru",
            "postal_code": null,
            "state": "Karnataka",
            "country_code": "IN"
        },
        "images": [],
        "link": "https://www.google.com/maps/place/Suffah+masjid+hunsur/data=!4m7!3m6!1s0x3ba585e0a64ec669:0xe7c223a4c81ebc79!8m2!3d12.3147998!4d76.299217!16s%2Fg%2F11my8rw3xk!19sChIJacZOpuCFpTsRebweyKQjwuc?authuser=0&hl=en&rclk=1",
        "coordinates": {
            "latitude": 12.3147998,
            "longitude": 76.299217
        }
    },
    {
        "name": "Masjid Nalband Mohalla",
        "main_category": "Mosque",
        "address": "873R+CJ4 Masjid Nalband Mohalla, Muthumariyamman Kovil, Hunsur, Karnataka 571105",
        "detailed_address": {
            "ward": "Muthumariyamman Kovil",
            "street": "873R+CJ4",
            "city": "Hunsur",
            "postal_code": "571105",
            "state": "Karnataka",
            "country_code": "IN"
        },
        "images": [
            {
                "about": "All",
                "link": "https://streetviewpixels-pa.googleapis.com/v1/thumbnail?panoid=8ZOZwS6qBWMZoIbBKUDGow&cb_client=maps_sv.tactile.gps&w=224&h=298&yaw=122.00929&pitch=0&thumbfov=100"
            },
            {
                "about": "Street View & 360deg",
                "link": "https://streetviewpixels-pa.googleapis.com/v1/thumbnail?panoid=8ZOZwS6qBWMZoIbBKUDGow&cb_client=maps_sv.tactile.gps&w=224&h=298&yaw=122.00929&pitch=0&thumbfov=100"
            }
        ],
        "link": "https://www.google.com/maps/place/Masjid+Nalband+Mohalla/data=!4m7!3m6!1s0x3ba5853dac700001:0x8d1c4758bf9dda37!8m2!3d12.3035041!4d76.2915812!16s%2Fg%2F11txmzmcdj!19sChIJAQBwrD2FpTsRN9qdv1hHHI0?authuser=0&hl=en&rclk=1",
        "coordinates": {
            "latitude": 12.3035041,
            "longitude": 76.2915812
        }
    },
    {
        "name": "Jamia masjid",
        "main_category": "Mosque",
        "address": "88PM+968 Jamia masjid, Hunsur, Karnataka 571105",
        "detailed_address": {
            "ward": null,
            "street": "88PM+968",
            "city": "Hunsur",
            "postal_code": null,
            "state": "Karnataka",
            "country_code": "IN"
        },
        "images": [
            {
                "about": "All",
                "link": "https://lh5.googleusercontent.com/p/AF1QipMdToDVk2p24dwWhR5jnJZPPh5DgwQUIy_6Urio=w224-h398-k-no"
            }
        ],
        "link": "https://www.google.com/maps/place/Jamia+masjid/data=!4m7!3m6!1s0x3ba585d314546d7f:0xdb44e06a0635169c!8m2!3d12.3359051!4d76.3330655!16s%2Fg%2F11k4jbfvv7!19sChIJf21UFNOFpTsRnBY1BmrgRNs?authuser=0&hl=en&rclk=1",
        "coordinates": {
            "latitude": 12.3359051,
            "longitude": 76.3330655
        }
    }
]