[
    {
        "name": "Anjuman Darus Salam Jama Masjid",
        "main_category": "Mosque",
        "address": "Q366+6H4 Anjuman Darus Salam Jama Masjid, Bawana Rd, Barwala, New Delhi, Delhi, 110039",
        "detailed_address": {
            "ward": "Barwala",
            "street": "Q366+6H4, Bawana Rd",
            "city": "New Delhi, Delhi",
            "postal_code": "110039",
            "state": "Delhi",
            "country_code": "IN"
        },
        "images": [
            {
                "about": "All",
                "link": "https://lh5.googleusercontent.com/p/AF1QipOHQ_m2mGGbhClNzuvyx5cKYGM7VM5NT-WZLwOx=w397-h298-k-no"
            },
            {
                "about": "Dome",
                "link": "https://lh5.googleusercontent.com/p/AF1QipNB1WrI377pKX4CEBfAO7px1XNcbLs0lDFGkc51=w224-h298-k-no"
            },
            {
                "about": "Videos",
                "link": "https://lh5.googleusercontent.com/p/AF1QipPVNAPzggoG3thJmn8BJhB3AYi0mPM7AM52V2Ni=w238-h298-k-no"
            },
            {
                "about": "Street View & 360deg",
                "link": "https://streetviewpixels-pa.googleapis.com/v1/thumbnail?panoid=cmcGQ_VoQXTPa9due1AT_g&cb_client=maps_sv.tactile.gps&w=224&h=298&yaw=309.7251&pitch=0&thumbfov=100"
            }
        ],
        "link": "https://www.google.com/maps/place/Anjuman+Darus+Salam+Jama+Masjid/data=!4m7!3m6!1s0x390d06fdf0072a31:0x52e2be4e0dfc1a11!8m2!3d28.7605105!4d77.0614458!16s%2Fg%2F11g6ww3v5v!19sChIJMSoH8P0GDTkRERr8DU6-4lI?authuser=0&hl=en&rclk=1",
        "coordinates": {
            "latitude": 28.7605105,
            "longitude": 77.0614458
        }
    },
    {
        "name": "JAMA MASJID BARWALA msjd",
        "main_category": "Mosque",
        "address": "9WC8+PCC JAMA MASJID BARWALA msjd, Barwala, Barwala Rural, Haryana 125121",
        "detailed_address": {
            "ward": null,
            "street": "9WC8+PCC",
            "city": "Barwala, Barwala Rural",
            "postal_code": "125121",
            "state": "Haryana",
            "country_code": "IN"
        },
        "images": [
            {
                "about": "All",
                "link": "https://lh5.googleusercontent.com/p/AF1QipNLVFG97keWDn50ok6-L0ZHqcEBKq25M4vhCTm6=w529-h298-k-no"
            },
            {
                "about": "Street View & 360deg",
                "link": "https://streetviewpixels-pa.googleapis.com/v1/thumbnail?panoid=Rt8JO6PKW_2-pi45ovLryw&cb_client=maps_sv.tactile.gps&w=224&h=298&yaw=28.375217&pitch=0&thumbfov=100"
            },
            {
                "about": "Videos",
                "link": "https://lh5.googleusercontent.com/p/AF1QipOEHMr9OZBMytGgt7UyuHkdB16MSD4rWDBMOpyU=w529-h298-k-no"
            }
        ],
        "link": "https://www.google.com/maps/place/JAMA+MASJID+BARWALA+%D9%85%D8%B3%D8%AC%D8%AF%E2%80%AD/data=!4m7!3m6!1s0x391227c5ed0958b9:0x7bf2b78c0e5fb389!8m2!3d29.3718036!4d75.9160014!16s%2Fg%2F11cs3jmz83!19sChIJuVgJ7cUnEjkRibNfDoy38ns?authuser=0&hl=en&rclk=1",
        "coordinates": {
            "latitude": 29.3718036,
            "longitude": 75.9160014
        }
    },
    {
        "name": "Burhani Masjid Barwala",
        "main_category": "Mosque",
        "address": "5V2R+8QW Burhani Masjid Barwala, Uchadi, Barwala, Gujarat 382450",
        "detailed_address": {
            "ward": "Uchadi",
            "street": "5V2R+8QW",
            "city": "Barwala",
            "postal_code": "382450",
            "state": "Gujarat",
            "country_code": "IN"
        },
        "images": [],
        "link": "https://www.google.com/maps/place/Burhani+Masjid+Barwala/data=!4m7!3m6!1s0x3958cd8f52d420a5:0x98d83836fa9737f4!8m2!3d22.1508528!4d71.891958!16s%2Fg%2F11cm_h_70n!19sChIJpSDUUo_NWDkR9DeX-jY42Jg?authuser=0&hl=en&rclk=1",
        "coordinates": {
            "latitude": 22.1508528,
            "longitude": 71.891958
        }
    },
    {
        "name": "Sunni jumma MASJID",
        "main_category": "Mosque",
        "address": "5V2R+2F7 Sunni jumma MASJID, Barvala Ghelasha, Uchadi, Barwala, Gujarat 382450",
        "detailed_address": {
            "ward": "Uchadi",
            "street": "5V2R+2F7, Barvala Ghelasha",
            "city": "Barwala",
            "postal_code": "382450",
            "state": "Gujarat",
            "country_code": "IN"
        },
        "images": [
            {
                "about": "All",
                "link": "https://lh5.googleusercontent.com/p/AF1QipN5NbWoc2qudOGcsGS6K2l1d0kxtE6HQmmuZ4yM=w529-h298-k-no"
            }
        ],
        "link": "https://www.google.com/maps/place/Sunni+jumma+MASJID/data=!4m7!3m6!1s0x3958cd3e4a12a00f:0xc8bfc98e87da96b0!8m2!3d22.150033!4d71.8911577!16s%2Fg%2F11fjy30zfr!19sChIJD6ASSj7NWDkRsJbah47Jv8g?authuser=0&hl=en&rclk=1",
        "coordinates": {
            "latitude": 22.150033,
            "longitude": 71.8911577
        }
    }
]