[
    {
        "name": "Chanda masjid",
        "main_category": "Mosque",
        "address": "7Q4R+WXR Chanda masjid, Nichlaul Range, Uttar Pradesh 273304",
        "detailed_address": {
            "ward": null,
            "street": "7Q4R+WXR",
            "city": "Nichlaul Range",
            "postal_code": "273304",
            "state": "Uttar Pradesh",
            "country_code": "IN"
        },
        "images": [
            {
                "about": "All",
                "link": "https://lh5.googleusercontent.com/p/AF1QipNpNveSCStIqS5H2pbnEoQoOXvWeugb0F-R-XKT=w224-h496-k-no"
            },
            {
                "about": "Dome",
                "link": "https://lh5.googleusercontent.com/p/AF1QipNpNveSCStIqS5H2pbnEoQoOXvWeugb0F-R-XKT=w224-h496-k-no"
            }
        ],
        "link": "https://www.google.com/maps/place/Chanda+masjid/data=!4m7!3m6!1s0x399411c065ece3ad:0xac3b7ebc515dc006!8m2!3d27.2573893!4d83.7926235!16s%2Fg%2F11v19sf57d!19sChIJrePsZcARlDkRBsBdUbx-O6w?authuser=0&hl=en&rclk=1",
        "coordinates": {
            "latitude": 27.2573893,
            "longitude": 83.79262349999999
        }
    },
    {
        "name": "RAZA JAMA MASJID",
        "main_category": "Mosque",
        "address": "8P7G+MR4 RAZA JAMA MASJID, Miya Mohalla, Nichlaul, Uttar Pradesh 273304",
        "detailed_address": {
            "ward": "Miya Mohalla",
            "street": "8P7G+MR4",
            "city": "Nichlaul",
            "postal_code": "273304",
            "state": "Uttar Pradesh",
            "country_code": "IN"
        },
        "images": [
            {
                "about": "All",
                "link": "https://lh5.googleusercontent.com/p/AF1QipP0L6hxbZic92Q1Lj07MPaFTYIDxpEUvV5lkDR4=w295-h298-k-no"
            },
            {
                "about": "Dome",
                "link": "https://lh5.googleusercontent.com/p/AF1QipOv-wA69V7RSS1_gt95E1Iw8ag7fSJ4y1r8ADM0=w224-h298-k-no"
            },
            {
                "about": "Videos",
                "link": "https://lh5.googleusercontent.com/p/AF1QipPO44eNoZz7nsA2qlkB_utkcB8Mi7PgQ7qJ22HV=w224-h395-k-no"
            }
        ],
        "link": "https://www.google.com/maps/place/RAZA+JAMA+MASJID/data=!4m7!3m6!1s0x39941b1bb1c2300d:0x61166d99de6bd57a!8m2!3d27.3141392!4d83.7270659!16s%2Fg%2F11q96567sq!19sChIJDTDCsRsblDkRetVr3pltFmE?authuser=0&hl=en&rclk=1",
        "coordinates": {
            "latitude": 27.3141392,
            "longitude": 83.7270659
        }
    },
    {
        "name": "Gausiya Masjid (Doma Kanti)",
        "main_category": "Mosque",
        "address": "8Q4R+X2J Gausiya Masjid (Doma Kanti), Nichlaul, Uttar Pradesh 273304",
        "detailed_address": {
            "ward": null,
            "street": "8Q4R+X2J",
            "city": "Nichlaul",
            "postal_code": "273304",
            "state": "Uttar Pradesh",
            "country_code": "IN"
        },
        "images": [
            {
                "about": "All",
                "link": "https://lh5.googleusercontent.com/p/AF1QipMk2VCN6lxhrGr03sYysH1Cpfr68BPejsB3EKft=w528-h298-k-no"
            },
            {
                "about": "Videos",
                "link": "https://lh5.googleusercontent.com/p/AF1QipMwyTE3sbF8S0ZX9dQm3Ffe9o55kCfh6jMv8OGj=w224-h398-k-no"
            }
        ],
        "link": "https://www.google.com/maps/place/Gausiya+Masjid+%28Doma+Kanti%29/data=!4m7!3m6!1s0x399411fafe71e4e7:0x634498db19578a83!8m2!3d27.307453!4d83.7900139!16s%2Fg%2F11k58j2xp1!19sChIJ5-Rx_voRlDkRg4pXGduYRGM?authuser=0&hl=en&rclk=1",
        "coordinates": {
            "latitude": 27.307453,
            "longitude": 83.79001389999999
        }
    },
    {
        "name": "EID GAAH NICHLAUL",
        "main_category": "Mosque",
        "address": "8P6G+3VH EID GAAH NICHLAUL, Nichlaul, Uttar Pradesh 273304",
        "detailed_address": {
            "ward": null,
            "street": "8P6G+3VH",
            "city": "Nichlaul",
            "postal_code": "273304",
            "state": "Uttar Pradesh",
            "country_code": "IN"
        },
        "images": [],
        "link": "https://www.google.com/maps/place/EID+GAAH+NICHLAUL/data=!4m7!3m6!1s0x39941b0db40e2433:0x17a4559542f67aea!8m2!3d27.310198!4d83.7272368!16s%2Fg%2F11t5dt1tvn!19sChIJMyQOtA0blDkR6nr2QpVVpBc?authuser=0&hl=en&rclk=1",
        "coordinates": {
            "latitude": 27.310198,
            "longitude": 83.7272368
        }
    },
    {
        "name": "Raza Masjid TTS",
        "main_category": "School",
        "address": "8P5G+M39 Raza Masjid TTS, Azad Nagar, bjha urf ahirauli, Nichlaul, Uttar Pradesh",
        "detailed_address": {
            "ward": "Lohiya Nagar",
            "street": "8P5G+M39, Azad Nagar, bjha urf ahirauli",
            "city": "Nichlaul",
            "postal_code": null,
            "state": "Uttar Pradesh",
            "country_code": "IN"
        },
        "images": [],
        "link": "https://www.google.com/maps/place/Raza+Masjid+TTS/data=!4m7!3m6!1s0x39941be68c2f98a3:0xb8cebd0926704721!8m2!3d27.3091732!4d83.7252266!16s%2Fg%2F11hykxghg6!19sChIJo5gvjOYblDkRIUdwJgm9zrg?authuser=0&hl=en&rclk=1",
        "coordinates": {
            "latitude": 27.3091732,
            "longitude": 83.7252266
        }
    }
]