[
    {
        "name": "Zama Maszid Nawa",
        "main_category": "Mosque",
        "address": "2293+JGX Zama Maszid Nawa, Nawa, Rajasthan 341509",
        "detailed_address": {
            "ward": null,
            "street": "2293+JGX",
            "city": "Nawa",
            "postal_code": "341509",
            "state": "Rajasthan",
            "country_code": "IN"
        },
        "images": [
            {
                "about": "All",
                "link": "https://lh5.googleusercontent.com/p/AF1QipP9TuvB-3Qg2tePoVnx3V2rcGj0JFLd-adYD_EL=w224-h298-k-no"
            },
            {
                "about": "Street View & 360deg",
                "link": "https://streetviewpixels-pa.googleapis.com/v1/thumbnail?panoid=FpZrv4O-jdCzv8gs-tmT3A&cb_client=maps_sv.tactile.gps&w=224&h=298&yaw=74.02564&pitch=0&thumbfov=100"
            }
        ],
        "link": "https://www.google.com/maps/place/Zama+Maszid+Nawa/data=!4m7!3m6!1s0x396c78d2b14e9345:0x5bb0206a73f8d55f!8m2!3d27.019115!4d75.0038641!16s%2Fg%2F11bxjnsnrk!19sChIJRZNOsdJ4bDkRX9X4c2ogsFs?authuser=0&hl=en&rclk=1",
        "coordinates": {
            "latitude": 27.019115,
            "longitude": 75.0038641
        }
    },
    {
        "name": "Nawa Masjid",
        "main_category": "Place of worship",
        "address": "PR9M+5X3 Nawa Masjid, Shopian, Jammu and Kashmir 192303",
        "detailed_address": {
            "ward": null,
            "street": "PR9M+5X3",
            "city": "Shopian",
            "postal_code": "192303",
            "state": "Jammu and Kashmir",
            "country_code": "IN"
        },
        "images": [
            {
                "about": "All",
                "link": "https://lh5.googleusercontent.com/p/AF1QipOpio8c2Ivjxy0zL4iQ8xok7CMb4nRRmcEBtj8T=w397-h298-k-no"
            },
            {
                "about": "Videos",
                "link": "https://lh5.googleusercontent.com/p/AF1QipPpTJQcUynNffy3CKEAlWpU9ysvkJwkZWejVtMr=w224-h398-k-no"
            }
        ],
        "link": "https://www.google.com/maps/place/Nawa+Masjid/data=!4m7!3m6!1s0x38e1fbb8eb96fbd3:0xe5ab276e93f83e28!8m2!3d33.7178949!4d74.8349162!16s%2Fg%2F11gtg8srkv!19sChIJ0_uW67j74TgRKD74k24nq-U?authuser=0&hl=en&rclk=1",
        "coordinates": {
            "latitude": 33.7178949,
            "longitude": 74.8349162
        }
    },
    {
        "name": "Masjid Nawabaan",
        "main_category": "Mosque",
        "address": "JJPQ+WC9 Masjid Nawabaan, Sirsi, Uttar Pradesh 244301",
        "detailed_address": {
            "ward": null,
            "street": "JJPQ+WC9",
            "city": "Sirsi",
            "postal_code": "244301",
            "state": "Uttar Pradesh",
            "country_code": "IN"
        },
        "images": [
            {
                "about": "All",
                "link": "https://lh5.googleusercontent.com/p/AF1QipMVgc6SjTG_niAcn4SVLf4ZdOlcp5OoxO3yLqBN=w530-h298-k-no"
            },
            {
                "about": "Dome",
                "link": "https://lh5.googleusercontent.com/p/AF1QipOueBOVJFHhSdCy-6RmTrIhEeUvU3RK15bb3-Ff=w397-h298-k-no"
            },
            {
                "about": "Videos",
                "link": "https://lh5.googleusercontent.com/p/AF1QipPlAF-BYFMCSeY7zmjyxpaEt9hb4oIBjXDms-wR=w224-h395-k-no"
            }
        ],
        "link": "https://www.google.com/maps/place/Masjid+Nawabaan/data=!4m7!3m6!1s0x390b1f7cd429192d:0x9f08c21b875e3411!8m2!3d28.6372875!4d78.6386235!16s%2Fg%2F11gmf0vb01!19sChIJLRkp1HwfCzkRETRehxvCCJ8?authuser=0&hl=en&rclk=1",
        "coordinates": {
            "latitude": 28.6372875,
            "longitude": 78.6386235
        }
    },
    {
        "name": "Madina Mosque Nawa City",
        "main_category": "Mosque",
        "address": "22C4+3J2 Madina Mosque Nawa City, Nawa, Rajasthan 341509",
        "detailed_address": {
            "ward": null,
            "street": "22C4+3J2",
            "city": "Nawa",
            "postal_code": "341509",
            "state": "Rajasthan",
            "country_code": "IN"
        },
        "images": [
            {
                "about": "All",
                "link": "https://streetviewpixels-pa.googleapis.com/v1/thumbnail?panoid=mEQNf02rcKSdMxXPIWj60g&cb_client=maps_sv.tactile.gps&w=224&h=298&yaw=56.93798&pitch=0&thumbfov=100"
            },
            {
                "about": "Street View & 360deg",
                "link": "https://streetviewpixels-pa.googleapis.com/v1/thumbnail?panoid=mEQNf02rcKSdMxXPIWj60g&cb_client=maps_sv.tactile.gps&w=224&h=298&yaw=56.93798&pitch=0&thumbfov=100"
            }
        ],
        "link": "https://www.google.com/maps/place/Madina+Mosque+Nawa+City/data=!4m7!3m6!1s0x396c7f53c23a25ff:0xbbec43c6ddd5aa44!8m2!3d27.0201345!4d75.006521!16s%2Fg%2F11j0b34w1y!19sChIJ_yU6wlN_bDkRRKrV3cZD7Ls?authuser=0&hl=en&rclk=1",
        "coordinates": {
            "latitude": 27.020134499999998,
            "longitude": 75.00652099999999
        }
    }
]