[
    {
        "name": "Masjid sharif (wani mohalla) Qasba haihama",
        "main_category": "Mosque",
        "address": "Masjid sharif (wani mohalla) Qasba haihama, Qasba haihama Haihama, Jammu and Kashmir 193222",
        "detailed_address": {
            "ward": null,
            "street": "Qasba haihama Haihama",
            "city": "Forest Block",
            "postal_code": "193222",
            "state": "Jammu and Kashmir",
            "country_code": "IN"
        },
        "images": [
            {
                "about": "All",
                "link": "https://lh5.googleusercontent.com/p/AF1QipNbEIdYOGExOrk2ZgQOTx1CnITSDVEnQvbskvcf=w397-h298-k-no"
            },
            {
                "about": "By owner",
                "link": "https://lh5.googleusercontent.com/p/AF1QipPtAU0ocoZuNDSwY2a59_vUdxHCSxbKS8iovWI7=w397-h298-k-no"
            }
        ],
        "link": "https://www.google.com/maps/place/Masjid+sharif+%28wani+mohalla%29+Qasba+haihama/data=!4m7!3m6!1s0x38e1217b8e3c9989:0xfcf752c5b761e16a!8m2!3d34.5665372!4d74.2588089!16s%2Fg%2F11qyvwd2_z!19sChIJiZk8jnsh4TgRauFht8VS9_w?authuser=0&hl=en&rclk=1",
        "coordinates": {
            "latitude": 34.5665372,
            "longitude": 74.25880889999999
        }
    },
    {
        "name": "Masjid Dai-Wali",
        "main_category": "Mosque",
        "address": "Shop No, Masjid Dai-Wali, 3136, Delhi Gate Bazar, Kucha Alam, Khabas Pura, Daryaganj, New Delhi, Delhi, 110002",
        "detailed_address": {
            "ward": "Kucha Alam, Khabas Pura, Daryaganj",
            "street": "Shop No, 3136, Delhi Gate Bazar",
            "city": "New Delhi, Delhi",
            "postal_code": "110002",
            "state": "Delhi",
            "country_code": "IN"
        },
        "images": [
            {
                "about": "All",
                "link": "https://lh5.googleusercontent.com/p/AF1QipOaisNnDX5FEuFLM4JAFB2uQ91YPdMumSVyXN8W=w224-h298-k-no"
            },
            {
                "about": "Dome",
                "link": "https://lh5.googleusercontent.com/p/AF1QipMq5VrFPYNWletBhy94Uixs4BeNdw2lr_OzpRm1=w397-h298-k-no"
            }
        ],
        "link": "https://www.google.com/maps/place/Masjid+Dai-Wali/data=!4m7!3m6!1s0x390cfd20da360d31:0x7e303aff50cc4c2b!8m2!3d28.6435772!4d77.2380546!16s%2Fg%2F1jky_pbsw!19sChIJMQ022iD9DDkRK0zMUP86MH4?authuser=0&hl=en&rclk=1",
        "coordinates": {
            "latitude": 28.6435772,
            "longitude": 77.2380546
        }
    },
    {
        "name": "Masjid Jamun Wali",
        "main_category": "Mosque",
        "address": "Masjid Jamun Wali, Jamun Street, Kalan Mahal Rd, Kalan Mahal, Daryaganj, Delhi, 110002",
        "detailed_address": {
            "ward": "Kalan Mahal, Daryaganj",
            "street": "Jamun Street, Kalan Mahal Rd",
            "city": "Delhi",
            "postal_code": "110002",
            "state": "Delhi",
            "country_code": "IN"
        },
        "images": [
            {
                "about": "All",
                "link": "https://lh5.googleusercontent.com/p/AF1QipOdS4JiyltnkOSnaMbSw40T0Z9Rr78DELjnCJJE=w397-h298-k-no"
            }
        ],
        "link": "https://www.google.com/maps/place/Masjid+Jamun+Wali/data=!4m7!3m6!1s0x390cfd21e86c6d67:0xebc83db6fbea62a8!8m2!3d28.6473277!4d77.2360868!16s%2Fg%2F11g6qh_snj!19sChIJZ21s6CH9DDkRqGLq-7Y9yOs?authuser=0&hl=en&rclk=1",
        "coordinates": {
            "latitude": 28.647327699999998,
            "longitude": 77.2360868
        }
    },
    {
        "name": "mrkhzy jm` msjd shryf bryntty",
        "main_category": "Mosque",
        "address": "mrkhzy jm` msjd shryf bryntty, Brinty Batpora, Achabal - Dialgam Rd, Badangan Mohalla, Brinty, Anantnag, Jammu and Kashmir 192210",
        "detailed_address": {
            "ward": "Badangan Mohalla, Brinty",
            "street": "Brinty Batpora, Achabal - Dialgam Rd",
            "city": "Anantnag",
            "postal_code": "192210",
            "state": "Jammu and Kashmir",
            "country_code": "IN"
        },
        "images": [
            {
                "about": "All",
                "link": "https://lh5.googleusercontent.com/p/AF1QipMlUB_4vx9JYHvk1XpWc7GyitJernyH2smDOgEp=w529-h298-k-no"
            },
            {
                "about": "By owner",
                "link": "https://lh5.googleusercontent.com/p/AF1QipMlUB_4vx9JYHvk1XpWc7GyitJernyH2smDOgEp=w529-h298-k-no"
            },
            {
                "about": "Videos",
                "link": "https://lh5.googleusercontent.com/p/AF1QipPuHRMkFCM-Ny6ht8zziDlOcfonHCQQPfPiv08g=w529-h298-k-no"
            },
            {
                "about": "Street View & 360deg",
                "link": "https://lh5.googleusercontent.com/p/AF1QipMDSsc6zi9vSq9qG5-JKDwrQM8YeIfs-qCzv-1e=w224-h298-k-no-pi-31.512783-ya67-ro-0-fo100"
            }
        ],
        "link": "https://www.google.com/maps/place/%D9%85%D8%B1%DA%A9%D8%B2%DB%8C+%D8%AC%D8%A7%D9%85%D8%B9+%D9%85%D8%B3%D8%AC%D8%AF+%D8%B4%D8%B1%DB%8C%D9%81+%D8%A8%D8%B1%DB%8C%D9%86%D9%B9%DB%8C%E2%80%AD/data=!4m7!3m6!1s0x38e208c2eff88091:0x27580db7105bd9f7!8m2!3d33.6775716!4d75.1874169!16s%2Fg%2F11ggvt7j01!19sChIJkYD478II4jgR99lbELcNWCc?authuser=0&hl=en&rclk=1",
        "coordinates": {
            "latitude": 33.6775716,
            "longitude": 75.1874169
        }
    },
    {
        "name": "Masjid Shareif Lethipora",
        "main_category": "Mosque",
        "address": "XX77+FC3 Masjid Shareif Lethipora, Lethipora, Jammu and Kashmir 192122",
        "detailed_address": {
            "ward": null,
            "street": "XX77+FC3",
            "city": "Lethipora",
            "postal_code": "192122",
            "state": "Jammu and Kashmir",
            "country_code": "IN"
        },
        "images": [
            {
                "about": "All",
                "link": "https://lh5.googleusercontent.com/p/AF1QipN3rCSF-1YPZ2t24KHeC0xqeM6MWBSU6TSWfFmz=w298-h298-k-no"
            },
            {
                "about": "Videos",
                "link": "https://lh5.googleusercontent.com/p/AF1QipNQBXkO_b1MguBPG0DVrZs9BH9Eg6AA8tHCykKy=w529-h298-k-no"
            }
        ],
        "link": "https://www.google.com/maps/place/Masjid+Shareif+Lethipora/data=!4m7!3m6!1s0x38e18a9cc14cf113:0x255f332630e95414!8m2!3d33.9636485!4d74.9635577!16s%2Fg%2F1hm6fd9s4!19sChIJE_FMwZyK4TgRFFTpMCYzXyU?authuser=0&hl=en&rclk=1",
        "coordinates": {
            "latitude": 33.9636485,
            "longitude": 74.9635577
        }
    },
    {
        "name": "Jamia Masjid Ahlul Hadith Dowlatpora",
        "main_category": "Mosque",
        "address": "WRX7+989 Jamia Masjid Ahlul Hadith Dowlatpora, Dowlat Pora, Chadoora, 191113",
        "detailed_address": {
            "ward": "Dowlatpora",
            "street": "WRX7+989, Dowlat Pora",
            "city": "Chadoora, Wani Pora",
            "postal_code": "191113",
            "state": null,
            "country_code": "IN"
        },
        "images": [],
        "link": "https://www.google.com/maps/place/Jamia+Masjid+Ahlul+Hadith+Dowlatpora/data=!4m7!3m6!1s0x38e18d0e5edd7e7f:0x9c4fca97affc8924!8m2!3d33.9484083!4d74.8133507!16s%2Fg%2F11b6g8qlmm!19sChIJf37dXg6N4TgRJIn8r5fKT5w?authuser=0&hl=en&rclk=1",
        "coordinates": {
            "latitude": 33.9484083,
            "longitude": 74.8133507
        }
    },
    {
        "name": "Garahaiya Wali Masjid msjd ghrrhy wly",
        "main_category": "Mosque",
        "address": "M645+P9X Garahaiya Wali Masjid msjd ghrrhy wly, Qureshnagar, Sadar Bazaar, Delhi, 110006",
        "detailed_address": {
            "ward": "Sarai Khalil, Sadar Bazaar",
            "street": "M645+P9X, Qureshnagar, Sadar Bazaar",
            "city": "Delhi",
            "postal_code": "110006",
            "state": "Delhi",
            "country_code": "IN"
        },
        "images": [
            {
                "about": "All",
                "link": "https://lh5.googleusercontent.com/p/AF1QipOhfNiunLypzdmYdGfka4otztHI3xo1tm7-rUH1=w224-h298-k-no"
            }
        ],
        "link": "https://www.google.com/maps/place/Garahaiya+Wali+Masjid+%D9%85%D8%B3%D8%AC%D8%AF+%DA%AF%DA%BE%DA%91%DA%BE%DB%8C%D8%A7+%D9%88%D8%A7%D9%84%DB%8C%E2%80%AD/data=!4m7!3m6!1s0x390cfd6fd6004367:0xfebc1f26322235da!8m2!3d28.6568604!4d77.2084973!16s%2Fg%2F11c3w0w7y_!19sChIJZ0MA1m_9DDkR2jUiMiYfvP4?authuser=0&hl=en&rclk=1",
        "coordinates": {
            "latitude": 28.6568604,
            "longitude": 77.20849729999999
        }
    },
    {
        "name": "Ek Burj Wali Masjid",
        "main_category": "Mosque",
        "address": "Ek Burj Wali Masjid, 1285, pahari imli New, Sita Ram Bazar, Chandni Chowk, New Delhi, Delhi 110006",
        "detailed_address": {
            "ward": "Sita Ram Bazar, Chandni Chowk",
            "street": "1285, pahari imli New",
            "city": "New Delhi, Delhi",
            "postal_code": "110006",
            "state": "Delhi",
            "country_code": "IN"
        },
        "images": [
            {
                "about": "All",
                "link": "https://lh5.googleusercontent.com/p/AF1QipM0VecLWD7V2eDELV2LQD6iWz56JhAVpNDyIfo=w224-h299-k-no"
            },
            {
                "about": "Dome",
                "link": "https://lh5.googleusercontent.com/p/AF1QipMaGB6Ooc9aGJwA_xdKffwmu6E_3FW9PwNqx5s=w224-h299-k-no"
            },
            {
                "about": "Street View & 360deg",
                "link": "https://lh5.googleusercontent.com/p/AF1QipNu4LZuYQkxiko9utMrsusfCbumLF_cy623QXFn=w224-h298-k-no-pi-0-ya103.000015-ro-0-fo100"
            }
        ],
        "link": "https://www.google.com/maps/place/Ek+Burj+Wali+Masjid/data=!4m7!3m6!1s0x390cfd22798933e9:0x952ef97cdf0d7140!8m2!3d28.6473909!4d77.2324918!16s%2Fg%2F11ddx07xmx!19sChIJ6TOJeSL9DDkRQHEN33z5LpU?authuser=0&hl=en&rclk=1",
        "coordinates": {
            "latitude": 28.647390899999998,
            "longitude": 77.23249179999999
        }
    },
    {
        "name": "Masjid Sharief",
        "main_category": "Mosque",
        "address": "P543+9QC Masjid Sharief, MominAbad, Ashajipora, Anantnag, Jammu and Kashmir 192210",
        "detailed_address": {
            "ward": "MominAbad, Ashajipora",
            "street": "P543+9QC",
            "city": "Anantnag",
            "postal_code": "192210",
            "state": "Jammu and Kashmir",
            "country_code": "IN"
        },
        "images": [
            {
                "about": "All",
                "link": "https://lh5.googleusercontent.com/p/AF1QipM-ufIgDTahQoVxx8TVp5a3kQJ8XQmgKbALyzr2=w397-h298-k-no"
            },
            {
                "about": "Dome",
                "link": "https://lh5.googleusercontent.com/p/AF1QipMqZu5gzj5srSH-S3v3h2jqhYpyg0P0G4LGvT_G=w224-h428-k-no"
            }
        ],
        "link": "https://www.google.com/maps/place/Masjid+Sharief/data=!4m7!3m6!1s0x38e205f7dfc62643:0x2b21981b63ba5929!8m2!3d33.7059377!4d75.1544023!16s%2Fg%2F1260ctklz!19sChIJQybG3_cF4jgRKVm6YxuYISs?authuser=0&hl=en&rclk=1",
        "coordinates": {
            "latitude": 33.7059377,
            "longitude": 75.1544023
        }
    },
    {
        "name": "Masjid Wani Mohalla Herpora",
        "main_category": "Mosque",
        "address": "G5WC+96W Masjid Wani Mohalla Herpora, Laderwan Rd, Lashdat, Jammu and Kashmir 193224",
        "detailed_address": {
            "ward": null,
            "street": "G5WC+96W, Laderwan Rd",
            "city": "Lashdat",
            "postal_code": "193224",
            "state": "Jammu and Kashmir",
            "country_code": "IN"
        },
        "images": [
            {
                "about": "All",
                "link": "https://lh5.googleusercontent.com/p/AF1QipO8CC2bHmnN4-G66UKbpDZqAx51sWfJcnyAUILz=w529-h298-k-no"
            }
        ],
        "link": "https://www.google.com/maps/place/Masjid+Wani+Mohalla+Herpora/data=!4m7!3m6!1s0x38e0de3556799d87:0xb3b976dce0022389!8m2!3d34.5459968!4d74.1705841!16s%2Fg%2F11b7ckp7g_!19sChIJh515VjXe4DgRiSMC4Nx2ubM?authuser=0&hl=en&rclk=1",
        "coordinates": {
            "latitude": 34.5459968,
            "longitude": 74.1705841
        }
    },
    {
        "name": "Hanfia Masjid",
        "main_category": "Mosque",
        "address": "XX97+4M2 Hanfia Masjid, Khalpora, Khalpara, Siliguri, West Bengal",
        "detailed_address": {
            "ward": "Khalpara",
            "street": "XX97+4M2, Khalpora",
            "city": "Siliguri, Lethipora",
            "postal_code": null,
            "state": "West Bengal",
            "country_code": "IN"
        },
        "images": [
            {
                "about": "All",
                "link": "https://lh5.googleusercontent.com/p/AF1QipOH90fY1TDKVfx_QGFjBOVhoToli4iJnpqFDuXG=w224-h298-k-no"
            }
        ],
        "link": "https://www.google.com/maps/place/Hanfia+Masjid/data=!4m7!3m6!1s0x38e18a83a8dece71:0x6a4e7ef87af2825f!8m2!3d33.9677514!4d74.9641518!16s%2Fg%2F11dxl3150v!19sChIJcc7eqIOK4TgRX4Lyevh-Tmo?authuser=0&hl=en&rclk=1",
        "coordinates": {
            "latitude": 33.9677514,
            "longitude": 74.9641518
        }
    },
    {
        "name": "Sofi Mohalla Mosque,Onagam",
        "main_category": "Mosque",
        "address": "CJJ6+WP3 Sofi Mohalla Mosque,Onagam, Onagam, Jammu and Kashmir 193502",
        "detailed_address": {
            "ward": null,
            "street": "CJJ6+WP3",
            "city": "Onagam",
            "postal_code": "193502",
            "state": "Jammu and Kashmir",
            "country_code": "IN"
        },
        "images": [],
        "link": "https://www.google.com/maps/place/Sofi+Mohalla+Mosque,Onagam/data=!4m7!3m6!1s0x38e16d3f3938bebb:0xbf97243e9ed0ea43!8m2!3d34.4322706!4d74.6117967!16s%2Fg%2F1pp2ty3qp!19sChIJu744OT9t4TgRQ-rQnj4kl78?authuser=0&hl=en&rclk=1",
        "coordinates": {
            "latitude": 34.432270599999995,
            "longitude": 74.6117967
        }
    },
    {
        "name": "Jamia Masjid",
        "main_category": "Mosque",
        "address": "Jamia Masjid, Pethkundal Ganderbal Jammu and Kashmir, 191131",
        "detailed_address": {
            "ward": null,
            "street": "Pethkundal Ganderbal Jammu and Kashmir",
            "city": "Chundina Deh Nowabad",
            "postal_code": "191131",
            "state": null,
            "country_code": "IN"
        },
        "images": [
            {
                "about": "All",
                "link": "https://lh5.googleusercontent.com/p/AF1QipP3-Pm9OWN7QLZlkSYXCRkU9-zUL4XHu67gV-I0=w313-h298-k-no"
            }
        ],
        "link": "https://www.google.com/maps/place/Jamia+Masjid/data=!4m7!3m6!1s0x38e19c65414a0f27:0x5d134049830a3485!8m2!3d34.1748162!4d74.7231891!16s%2Fg%2F1hc2rtnq8!19sChIJJw9KQWWc4TgRhTQKg0lAE10?authuser=0&hl=en&rclk=1",
        "coordinates": {
            "latitude": 34.174816199999995,
            "longitude": 74.7231891
        }
    },
    {
        "name": "Masjid Momin Wali",
        "main_category": "Mosque",
        "address": "J6WQ+54F Masjid Momin Wali, Kucha Chelan, Chandni Mahal, Old Delhi, New Delhi, Delhi, 110002",
        "detailed_address": {
            "ward": "Kucha Chelan, Chandni Mahal, Old Delhi",
            "street": "J6WQ+54F",
            "city": "New Delhi, Delhi",
            "postal_code": "110002",
            "state": "Delhi",
            "country_code": "IN"
        },
        "images": [],
        "link": "https://www.google.com/maps/place/Masjid+Momin+Wali/data=!4m7!3m6!1s0x390cfd205576c6d5:0x1a5f50da83261dc2!8m2!3d28.6454437!4d77.2378027!16s%2Fg%2F11ddzhxrq6!19sChIJ1cZ2VSD9DDkRwh0mg9pQXxo?authuser=0&hl=en&rclk=1",
        "coordinates": {
            "latitude": 28.645443699999998,
            "longitude": 77.2378027
        }
    },
    {
        "name": "Jahtari Wali Masjid",
        "main_category": "Mosque",
        "address": "Jahtari Wali Masjid, 5077, Main Bazar Rd, Bharat Nagar, Main Bazar, Aram Bagh, Paharganj, New Delhi, Delhi 110055",
        "detailed_address": {
            "ward": "Bharat Nagar, Main Bazar, Aram Bagh, Paharganj",
            "street": "5077, Main Bazar Rd",
            "city": "New Delhi",
            "postal_code": "110055",
            "state": "Delhi",
            "country_code": "IN"
        },
        "images": [
            {
                "about": "All",
                "link": "https://lh5.googleusercontent.com/p/AF1QipP0cPpKWi9HXvUvBF7SNRfES3Ly8pD0S5uEGqm5=w398-h298-k-no"
            },
            {
                "about": "Latest",
                "link": "https://streetviewpixels-pa.googleapis.com/v1/thumbnail?panoid=Z2MlVgibB9ss1o2s8NtFvg&cb_client=maps_sv.tactile.gps&w=224&h=298&yaw=190.70903&pitch=0&thumbfov=100"
            },
            {
                "about": "Street View & 360deg",
                "link": "https://streetviewpixels-pa.googleapis.com/v1/thumbnail?panoid=Z2MlVgibB9ss1o2s8NtFvg&cb_client=maps_sv.tactile.gps&w=224&h=298&yaw=190.70903&pitch=0&thumbfov=100"
            }
        ],
        "link": "https://www.google.com/maps/place/Jahtari+Wali+Masjid/data=!4m7!3m6!1s0x390cfd815a030b8b:0xe18350aa13859d7a!8m2!3d28.6406795!4d77.2115511!16s%2Fg%2F11gjxtbc0j!19sChIJiwsDWoH9DDkRep2FE6pQg-E?authuser=0&hl=en&rclk=1",
        "coordinates": {
            "latitude": 28.640679499999997,
            "longitude": 77.2115511
        }
    },
    {
        "name": "Haqqani Mohalla",
        "main_category": "Mosque",
        "address": "WHX4+QJX Haqqani Mohalla, Lassipora, Kandoora, Jammu and Kashmir",
        "detailed_address": {
            "ward": "Hakkani Mohalla",
            "street": "WHX4+QJX, Lassipora",
            "city": "Kandoora",
            "postal_code": null,
            "state": "Jammu and Kashmir",
            "country_code": "IN"
        },
        "images": [
            {
                "about": "All",
                "link": "https://lh5.googleusercontent.com/p/AF1QipPL1eGb_-_5qE89YMeF69e9-tiZynYVkM3Ve8Xp=w529-h298-k-no"
            }
        ],
        "link": "https://www.google.com/maps/place/Haqqani+Mohalla/data=!4m7!3m6!1s0x38e1be663870d3f7:0x4a772ff6b1646493!8m2!3d33.9494966!4d74.5566049!16s%2Fg%2F1hc12jyyz!19sChIJ99NwOGa-4TgRk2RksfYvd0o?authuser=0&hl=en&rclk=1",
        "coordinates": {
            "latitude": 33.949496599999996,
            "longitude": 74.5566049
        }
    },
    {
        "name": "RAZA MASJID",
        "main_category": "Mosque",
        "address": "PRF2+QXV RAZA MASJID, Ranjit Pur, Jammu, Jammu and Kashmir 180002",
        "detailed_address": {
            "ward": null,
            "street": "PRF2+QXV",
            "city": "Ranjit Pur, Jammu",
            "postal_code": null,
            "state": "Jammu and Kashmir",
            "country_code": "IN"
        },
        "images": [
            {
                "about": "All",
                "link": "https://lh5.googleusercontent.com/p/AF1QipMpuA55LJtARPmyiyj0VMh8HpZIXNSWb3jytDHH=w224-h398-k-no"
            },
            {
                "about": "Videos",
                "link": "https://lh5.googleusercontent.com/p/AF1QipMpuA55LJtARPmyiyj0VMh8HpZIXNSWb3jytDHH=w224-h398-k-no"
            }
        ],
        "link": "https://www.google.com/maps/place/RAZA+MASJID/data=!4m7!3m6!1s0x391e85ca679d6c17:0x25a03c141067b00b!8m2!3d32.7244909!4d74.8024267!16s%2Fg%2F11kjg1q3nj!19sChIJF2ydZ8qFHjkRC7BnEBQ8oCU?authuser=0&hl=en&rclk=1",
        "coordinates": {
            "latitude": 32.7244909,
            "longitude": 74.8024267
        }
    },
    {
        "name": "Masjid Sanauji",
        "main_category": "Mosque",
        "address": "Masjid Sanauji, Shop No. 1630, Lal Kuan, Lalkuan Bazar Rd, Baradari, Chandni Chowk, New Delhi, Delhi 110006",
        "detailed_address": {
            "ward": "Bazar Sirkiwalan, Baradari, Chandni Chowk",
            "street": "Shop No. 1630, Lal Kuan, Lalkuan Bazar Rd",
            "city": "New Delhi, Delhi",
            "postal_code": "110006",
            "state": "Delhi",
            "country_code": "IN"
        },
        "images": [
            {
                "about": "All",
                "link": "https://lh5.googleusercontent.com/p/AF1QipOgHpJ-5Fj2fJqfxuo0o-ACUwG8mpQuIjAJkqA=w224-h343-k-no"
            },
            {
                "about": "By owner",
                "link": "https://lh5.googleusercontent.com/p/AF1QipOMbkVhSOIUMNe6_YNWS11Nk5TH8gCrPaEX0cs=w224-h378-k-no"
            },
            {
                "about": "Street View & 360deg",
                "link": "https://streetviewpixels-pa.googleapis.com/v1/thumbnail?panoid=DyR3PllY1iQq1cn0nXaGVA&cb_client=maps_sv.tactile.gps&w=224&h=298&yaw=53.981697&pitch=0&thumbfov=100"
            }
        ],
        "link": "https://www.google.com/maps/place/Masjid+Sanauji/data=!4m7!3m6!1s0x390cfd13fe3ea72d:0x27ea23bc5f650202!8m2!3d28.6529317!4d77.2232485!16s%2Fg%2F12hplq4pp!19sChIJLac-_hP9DDkRAgJlX7wj6ic?authuser=0&hl=en&rclk=1",
        "coordinates": {
            "latitude": 28.6529317,
            "longitude": 77.2232485
        }
    },
    {
        "name": "Jamia Masjid Shareif Hanfia wa Gousia",
        "main_category": "Mosque",
        "address": "Jamia Masjid Shareif Hanfia wa Gousia, Wanikhal Road, Wanikhal, Nangir Pora Mughama, Jammu and Kashmir 193121",
        "detailed_address": {
            "ward": "Wanikhal",
            "street": "Wanikhal Road",
            "city": "Nangir Pora Mughama",
            "postal_code": "193121",
            "state": "Jammu and Kashmir",
            "country_code": "IN"
        },
        "images": [
            {
                "about": "All",
                "link": "https://lh5.googleusercontent.com/p/AF1QipPLjjQT5tcQjsouVftTdPmFBOhIfn07fCtGMtrN=w265-h298-k-no"
            },
            {
                "about": "By owner",
                "link": "https://lh5.googleusercontent.com/p/AF1QipNPWqnoNfy4fQL76-1mz2Y_Y5ZlJb25GJfRtouY=w397-h298-k-no"
            }
        ],
        "link": "https://www.google.com/maps/place/Jamia+Masjid+Shareif+Hanfia+wa+Gousia/data=!4m7!3m6!1s0x38e1a252ce246e77:0x78449dff7c063f6d!8m2!3d34.1058084!4d74.5468122!16s%2Fg%2F1pt_6_n0c!19sChIJd24kzlKi4TgRbT8GfP-dRHg?authuser=0&hl=en&rclk=1",
        "coordinates": {
            "latitude": 34.1058084,
            "longitude": 74.54681219999999
        }
    },
    {
        "name": "Anarwali Masjid msjd nr wly",
        "main_category": "Mosque",
        "address": "Anarwali Masjid msjd nr wly, hno.230/ mandavali, 3, Mandawali Main Road, Fazalpur, Railway Colony, Mandawali, Delhi, 110092",
        "detailed_address": {
            "ward": "Railway Colony, Mandawali",
            "street": "hno.230/ mandavali, 3, Mandawali Main Road, Fazalpur, Railway Colony, Mandawali",
            "city": "Delhi",
            "postal_code": "110092",
            "state": "Delhi",
            "country_code": "IN"
        },
        "images": [],
        "link": "https://www.google.com/maps/place/Anarwali+Masjid+%D9%85%D8%B3%D8%AC%D8%AF+%D8%A7%D9%86%D8%A7%D8%B1+%D9%88%D8%A7%D9%84%DB%8C%E2%80%AD/data=!4m7!3m6!1s0x390ce4aceaaaaaab:0xf35cfc3b5a9a894a!8m2!3d28.6291881!4d77.2936695!16s%2Fg%2F11cmfdyfyg!19sChIJq6qq6qzkDDkRSomaWjv8XPM?authuser=0&hl=en&rclk=1",
        "coordinates": {
            "latitude": 28.6291881,
            "longitude": 77.2936695
        }
    },
    {
        "name": "Gani Wali Masjid",
        "main_category": "Mosque",
        "address": "Gani Wali Masjid, Shop No. 886/8, Main Bazar Rd, Gandhi Colony, Mehrauli, New Delhi, Delhi 110030",
        "detailed_address": {
            "ward": "Aam Bagh, Gandhi Colony, Mehrauli",
            "street": "Shop No. 886/8, Main Bazar Rd",
            "city": "New Delhi",
            "postal_code": "110030",
            "state": "Delhi",
            "country_code": "IN"
        },
        "images": [
            {
                "about": "All",
                "link": "https://lh5.googleusercontent.com/p/AF1QipOLXOmIgHScTF0KJPNnc8GDzyXNgUSzIH0OUnNn=w224-h398-k-no"
            },
            {
                "about": "Street View & 360deg",
                "link": "https://streetviewpixels-pa.googleapis.com/v1/thumbnail?panoid=AxgoPqckyu6c7R2TZ90w2g&cb_client=maps_sv.tactile.gps&w=224&h=298&yaw=315.96848&pitch=0&thumbfov=100"
            }
        ],
        "link": "https://www.google.com/maps/place/Gani+Wali+Masjid/data=!4m7!3m6!1s0x390d1e11e669e7ff:0xc6b278a28ba2cdaa!8m2!3d28.5158558!4d77.1784357!16s%2Fg%2F1pv0f971b!19sChIJ_-dp5hEeDTkRqs2ii6J4ssY?authuser=0&hl=en&rclk=1",
        "coordinates": {
            "latitude": 28.515855799999997,
            "longitude": 77.1784357
        }
    },
    {
        "name": "Sazgaripora Wani Masjid",
        "main_category": "Place of worship",
        "address": "Sazgaripora Wani Masjid, Hawal- Sazgari Pora Link Rd, Hawal, Srinagar, Jammu and Kashmir 190002",
        "detailed_address": {
            "ward": "Hawal",
            "street": "Hawal- Sazgari Pora Link Rd",
            "city": "Srinagar",
            "postal_code": "190002",
            "state": "Jammu and Kashmir",
            "country_code": "IN"
        },
        "images": [
            {
                "about": "All",
                "link": "https://lh5.googleusercontent.com/p/AF1QipPK_Fxd0S_d552yyfax0VRlklskVrAJEjCWq3n6=w397-h298-k-no"
            }
        ],
        "link": "https://www.google.com/maps/place/Sazgaripora+Wani+Masjid/data=!4m7!3m6!1s0x38e18514c4929f51:0x91b39cdcb6c61665!8m2!3d34.1067013!4d74.8064527!16s%2Fg%2F11btrr1yjg!19sChIJUZ-SxBSF4TgRZRbGttycs5E?authuser=0&hl=en&rclk=1",
        "coordinates": {
            "latitude": 34.1067013,
            "longitude": 74.8064527
        }
    },
    {
        "name": "Poshwani Masjid Shareef",
        "main_category": "Mosque",
        "address": "Poshwani Masjid Shareef, Poshwani Road, National Highway 1A, Pattan, Jammu and Kashmir 193121",
        "detailed_address": {
            "ward": null,
            "street": "Poshwani Road, National Highway 1A",
            "city": "Pattan",
            "postal_code": "193121",
            "state": "Jammu and Kashmir",
            "country_code": "IN"
        },
        "images": [],
        "link": "https://www.google.com/maps/place/Poshwani+Masjid+Shareef/data=!4m7!3m6!1s0x38e1a1a068d2f721:0x18eaa566c347b2f7!8m2!3d34.1640991!4d74.5474371!16s%2Fg%2F11bx8k4q54!19sChIJIffSaKCh4TgR97JHw2al6hg?authuser=0&hl=en&rclk=1",
        "coordinates": {
            "latitude": 34.1640991,
            "longitude": 74.5474371
        }
    },
    {
        "name": "Masjid Umar (R.A) Mohalla Qadeem Eid Gah Baramulla",
        "main_category": "Mosque",
        "address": "Masjid Umar (R.A) Mohalla Qadeem Eid Gah Baramulla, FAQIR WANI, QADEEM EID GAH, Baramulla, Jammu and Kashmir 193101",
        "detailed_address": {
            "ward": null,
            "street": "FAQIR WANI, QADEEM EID GAH",
            "city": "Baramulla",
            "postal_code": "193101",
            "state": "Jammu and Kashmir",
            "country_code": "IN"
        },
        "images": [
            {
                "about": "All",
                "link": "https://lh5.googleusercontent.com/p/AF1QipNiHaNyoIh4Ly1v1WqwvVlYw2YepIgzsUfReKAF=w417-h298-k-no"
            },
            {
                "about": "Dome",
                "link": "https://lh5.googleusercontent.com/p/AF1QipPEupvmK6WINn2I4YXKqgJFxdQzpEsxwvl1ket1=w433-h298-k-no"
            },
            {
                "about": "Videos",
                "link": "https://lh5.googleusercontent.com/p/AF1QipOhPfSf-IaZpKLg3VRfp-u5fWVilkHQqAA5iyJC=w224-h398-k-no"
            },
            {
                "about": "By owner",
                "link": "https://lh5.googleusercontent.com/p/AF1QipOhPfSf-IaZpKLg3VRfp-u5fWVilkHQqAA5iyJC=w224-h398-k-no"
            }
        ],
        "link": "https://www.google.com/maps/place/Masjid+Umar+%28R.A%29+Mohalla+Qadeem+Eid+Gah+Baramulla/data=!4m7!3m6!1s0x38e1073c18fce91d:0xfe922b078202eff2!8m2!3d34.21412!4d74.3365994!16s%2Fg%2F11s3bz9y_n!19sChIJHen8GDwH4TgR8u8Cggcrkv4?authuser=0&hl=en&rclk=1",
        "coordinates": {
            "latitude": 34.21412,
            "longitude": 74.3365994
        }
    },
    {
        "name": "Jamia masjid Harkarpora jm` msjd hrkhr pwrh",
        "main_category": "Mosque",
        "address": "Q5MJ+G92 Jamia masjid Harkarpora jm` msjd hrkhr pwrh, Momin Hall, 192124",
        "detailed_address": {
            "ward": null,
            "street": "Q5MJ+G92",
            "city": "Momin Hall",
            "postal_code": "192124",
            "state": null,
            "country_code": "IN"
        },
        "images": [
            {
                "about": "All",
                "link": "https://lh5.googleusercontent.com/p/AF1QipNfZU9cc-9ew5TYKwsVYMCbgpuGZs6yEhIA3r__=w224-h398-k-no"
            }
        ],
        "link": "https://www.google.com/maps/place/Jamia+masjid+Harkarpora+%D8%AC%D8%A7%D9%85%D8%B9+%D9%85%D8%B3%D8%AC%D8%AF+%DB%81%D8%B1%DA%A9%D8%B1+%D9%BE%D9%88%D8%B1%DB%81%E2%80%AD/data=!4m7!3m6!1s0x38e20fccfac8a4cb:0x2eb2f6fd20618024!8m2!3d33.7837746!4d75.1808944!16s%2Fg%2F11pwsz_7wz!19sChIJy6TI-swP4jgRJIBhIP32si4?authuser=0&hl=en&rclk=1",
        "coordinates": {
            "latitude": 33.7837746,
            "longitude": 75.1808944
        }
    },
    {
        "name": "Jamea Masjid Wanni Wala",
        "main_category": "Mosque",
        "address": "P2H8+HWX Jamea Masjid Wanni Wala, Alodaywali-Headbakayni Rd, Wanni Wala, Muzaffargarh, Punjab, Pakistan",
        "detailed_address": {
            "ward": null,
            "street": "P2H8+HWX, Alodaywali-Headbakayni Rd",
            "city": "Wanni Wala",
            "postal_code": null,
            "state": "Muzaffargarh, Punjab",
            "country_code": "PK"
        },
        "images": [
            {
                "about": "All",
                "link": "https://lh5.googleusercontent.com/p/AF1QipPTtzBKjEKPmpMPKtypQeOxw6lqwBnhTezWjRvt=w397-h298-k-no"
            },
            {
                "about": "Dome",
                "link": "https://lh5.googleusercontent.com/p/AF1QipP7sXRGUpmAr-_C98YHG5XpVcU4TIBMmPuHIGK1=w397-h298-k-no"
            }
        ],
        "link": "https://www.google.com/maps/place/Jamea+Masjid+Wanni+Wala/data=!4m7!3m6!1s0x393ae59dab75beb3:0xde4add2c656f39f6!8m2!3d29.7289976!4d71.0173469!16s%2Fg%2F11b6dpcdk9!19sChIJs751q53lOjkR9jlvZSzdSt4?authuser=0&hl=en&rclk=1",
        "coordinates": {
            "latitude": 29.7289976,
            "longitude": 71.01734689999999
        }
    },
    {
        "name": "Jamia Masjid (Hanafi)",
        "main_category": "Mosque",
        "address": "VRPW+MRV Jamia Masjid (Hanafi), Chiva Kilan, 191113",
        "detailed_address": {
            "ward": null,
            "street": "VRPW+MRV",
            "city": "Chiva Kilan",
            "postal_code": "191113",
            "state": null,
            "country_code": "IN"
        },
        "images": [
            {
                "about": "All",
                "link": "https://lh5.googleusercontent.com/p/AF1QipMOyDB3ujKlWdRNcR67rgnxbFKOqovVd4W910m5=w291-h298-k-no"
            },
            {
                "about": "Videos",
                "link": "https://lh5.googleusercontent.com/p/AF1QipOowgrSZuHvu3OaWOxWqd7VjVNYen440xHPlGoO=w224-h459-k-no"
            }
        ],
        "link": "https://www.google.com/maps/place/Jamia+Masjid+%28Hanafi%29/data=!4m7!3m6!1s0x38e1f3270d486e89:0xad293f8fc6a36b6f!8m2!3d33.886729!4d74.8470328!16s%2Fg%2F11n0rp1hbv!19sChIJiW5IDSfz4TgRb2ujxo8_Ka0?authuser=0&hl=en&rclk=1",
        "coordinates": {
            "latitude": 33.886728999999995,
            "longitude": 74.8470328
        }
    },
    {
        "name": "Masjid Beri Wali",
        "main_category": "Mosque",
        "address": "5051, Masjid Beri Wali, 5, Netaji Subhash Marg, Daryaganj, New Delhi, Delhi, 110002",
        "detailed_address": {
            "ward": "Daryaganj",
            "street": "5051, 5, Netaji Subhash Marg",
            "city": "New Delhi, Delhi",
            "postal_code": "110002",
            "state": "Delhi",
            "country_code": "IN"
        },
        "images": [
            {
                "about": "All",
                "link": "https://lh5.googleusercontent.com/p/AF1QipN4ZA35VG2cXhaMUjimVjTtaZo6F2x11qSyZ181=w224-h298-k-no"
            },
            {
                "about": "Latest",
                "link": "https://streetviewpixels-pa.googleapis.com/v1/thumbnail?panoid=jHkZzUTHftsHzHq6c7BqTQ&cb_client=maps_sv.tactile.gps&w=224&h=298&yaw=327.5337&pitch=0&thumbfov=100"
            },
            {
                "about": "Street View & 360deg",
                "link": "https://streetviewpixels-pa.googleapis.com/v1/thumbnail?panoid=jHkZzUTHftsHzHq6c7BqTQ&cb_client=maps_sv.tactile.gps&w=224&h=298&yaw=327.5337&pitch=0&thumbfov=100"
            }
        ],
        "link": "https://www.google.com/maps/place/Masjid+Beri+Wali/data=!4m7!3m6!1s0x390cfd816e5afc6d:0x2ccc293d40535a24!8m2!3d28.6464121!4d77.2405247!16s%2Fg%2F11h1htr55d!19sChIJbfxaboH9DDkRJFpTQD0pzCw?authuser=0&hl=en&rclk=1",
        "coordinates": {
            "latitude": 28.6464121,
            "longitude": 77.2405247
        }
    },
    {
        "name": "Masjid Abu Bakkar(R.Z) Wani Mohalla",
        "main_category": "Mosque",
        "address": "Masjid Abu Bakkar(R.Z) Wani Mohalla, 193224",
        "detailed_address": {
            "ward": null,
            "street": null,
            "city": null,
            "postal_code": "193224",
            "state": null,
            "country_code": "IN"
        },
        "images": [
            {
                "about": "All",
                "link": "https://lh5.googleusercontent.com/p/AF1QipPJf0HPgzN81GhcqS_yjK_FzO0PIpH6X33bAV9E=w397-h298-k-no"
            },
            {
                "about": "Dome",
                "link": "https://lh5.googleusercontent.com/p/AF1QipPJf0HPgzN81GhcqS_yjK_FzO0PIpH6X33bAV9E=w397-h298-k-no"
            },
            {
                "about": "Videos",
                "link": "https://lh5.googleusercontent.com/p/AF1QipO0g9KsoE6QRahbsaBIlBXJMDt8E3VUcxydSIKs=w224-h398-k-no"
            }
        ],
        "link": "https://www.google.com/maps/place/Masjid+Abu+Bakkar%28R.Z%29+Wani+Mohalla/data=!4m7!3m6!1s0x38e0df25d8e58129:0x7ad03bebbb5f2418!8m2!3d34.5493786!4d74.1645005!16s%2Fg%2F11m_l68nmh!19sChIJKYHl2CXf4DgRGCRfu-s70Ho?authuser=0&hl=en&rclk=1",
        "coordinates": {
            "latitude": 34.5493786,
            "longitude": 74.1645005
        }
    },
    {
        "name": "Masjid Kuan Wali",
        "main_category": "Mosque",
        "address": "J6WP+R3M Masjid Kuan Wali, Dakhni Rai St, Kalan Mehal, Old Delhi, New Delhi, Delhi, 110006",
        "detailed_address": {
            "ward": "Kalan Mehal, Old Delhi",
            "street": "J6WP+R3M, Dakhni Rai St",
            "city": "New Delhi, Delhi",
            "postal_code": "110006",
            "state": "Delhi",
            "country_code": "IN"
        },
        "images": [],
        "link": "https://www.google.com/maps/place/Masjid+Kuan+Wali/data=!4m7!3m6!1s0x390cfd21f12ffffb:0xa8c4b5fbf6d05e35!8m2!3d28.6470908!4d77.2351671!16s%2Fg%2F11g6_vvyf5!19sChIJ-_8v8SH9DDkRNV7Q9vu1xKg?authuser=0&hl=en&rclk=1",
        "coordinates": {
            "latitude": 28.647090799999997,
            "longitude": 77.2351671
        }
    },
    {
        "name": "Jamia Masjid Awana",
        "main_category": "Mosque",
        "address": "QQ2P+8VR Jamia Masjid Awana, Tahir Wana Rd, Wani, wana, Gujrat, Punjab, Pakistan",
        "detailed_address": {
            "ward": "Wani",
            "street": "QQ2P+8VR, Tahir Wana Rd",
            "city": "wana",
            "postal_code": null,
            "state": "Gujrat, Punjab",
            "country_code": "PK"
        },
        "images": [
            {
                "about": "All",
                "link": "https://lh5.googleusercontent.com/p/AF1QipM8Yhdl6Youql2xAE7rQz20fouNX87UZI_ikdn3=w224-h298-k-no"
            },
            {
                "about": "Dome",
                "link": "https://lh5.googleusercontent.com/p/AF1QipM8Yhdl6Youql2xAE7rQz20fouNX87UZI_ikdn3=w224-h298-k-no"
            }
        ],
        "link": "https://www.google.com/maps/place/Jamia+Masjid+Awana/data=!4m7!3m6!1s0x391f9e36474c94e1:0x8307a10aa2421d9e!8m2!3d32.7508674!4d73.7871311!16s%2Fg%2F1wyc2qkx!19sChIJ4ZRMRzaeHzkRnh1CogqhB4M?authuser=0&hl=en&rclk=1",
        "coordinates": {
            "latitude": 32.7508674,
            "longitude": 73.7871311
        }
    },
    {
        "name": "Masjid kaba",
        "main_category": "Mosque",
        "address": "Masjid kaba, Near,wani colney parrayporaHatmulla,NagrimalporaRoad, 193222",
        "detailed_address": {
            "ward": null,
            "street": "Near,wani colney parrayporaHatmulla,NagrimalporaRoad",
            "city": null,
            "postal_code": "193222",
            "state": null,
            "country_code": "IN"
        },
        "images": [
            {
                "about": "All",
                "link": "https://lh5.googleusercontent.com/p/AF1QipPJBkS8vEs6eNXCdFefHtd3RgxoCY90yje_AYl4=w268-h298-k-no"
            }
        ],
        "link": "https://www.google.com/maps/place/Masjid+kaba/data=!4m7!3m6!1s0x38e11f91cf19f7cd:0x4e9e108a941f8435!8m2!3d34.4987006!4d74.259699!16s%2Fg%2F11rn4j5h0p!19sChIJzfcZz5Ef4TgRNYQflIoQnk4?authuser=0&hl=en&rclk=1",
        "coordinates": {
            "latitude": 34.4987006,
            "longitude": 74.259699
        }
    },
    {
        "name": "Jamia Masjid Bilal (RA)",
        "main_category": "Mosque",
        "address": "Jamia Masjid Bilal (RA), Astan pora, Red Wana, Jammu and Kashmir 192232",
        "detailed_address": {
            "ward": "Astan pora",
            "street": null,
            "city": "Red Wana",
            "postal_code": "192232",
            "state": "Jammu and Kashmir",
            "country_code": "IN"
        },
        "images": [
            {
                "about": "All",
                "link": "https://lh5.googleusercontent.com/p/AF1QipP2_UgLpQ7HzcGacOezMBn-BQpmWwhcX0uxXe--=w224-h497-k-no"
            }
        ],
        "link": "https://www.google.com/maps/place/Jamia+Masjid+Bilal+%28RA%29/data=!4m7!3m6!1s0x38e2056dca7a8501:0x918523d08eb7bebc!8m2!3d33.7285625!4d75.0704375!16s%2Fg%2F11rq2jgpdk!19sChIJAYV6ym0F4jgRvL63jtAjhZE?authuser=0&hl=en&rclk=1",
        "coordinates": {
            "latitude": 33.728562499999995,
            "longitude": 75.0704375
        }
    },
    {
        "name": "Masjid Sharief Wangipora",
        "main_category": "Mosque",
        "address": "MXW6+G3M Masjid Sharief Wangipora, Wangipora, Chaki Cholend, Pader Pora, 192232",
        "detailed_address": {
            "ward": "Wangipora",
            "street": "MXW6+G3M",
            "city": "Chaki Cholend, Pader Pora",
            "postal_code": "192232",
            "state": null,
            "country_code": "IN"
        },
        "images": [],
        "link": "https://www.google.com/maps/place/Masjid+Sharief+Wangipora/data=!4m7!3m6!1s0x38e1f947237beb3b:0xa6f3bec5912acbf7!8m2!3d33.6963314!4d74.9601782!16s%2Fg%2F11n0bwl9wn!19sChIJO-t7I0f54TgR98sqkcW-86Y?authuser=0&hl=en&rclk=1",
        "coordinates": {
            "latitude": 33.6963314,
            "longitude": 74.9601782
        }
    },
    {
        "name": "Masjid Shrief Laribal",
        "main_category": "Mosque",
        "address": "Masjid Shrief Laribal, 193501",
        "detailed_address": {
            "ward": null,
            "street": null,
            "city": null,
            "postal_code": null,
            "state": null,
            "country_code": null
        },
        "images": [],
        "link": "https://www.google.com/maps/place/Masjid+Shrief+Laribal/data=!4m7!3m6!1s0x38e10abc868af23f:0xeec305a69abd3df1!8m2!3d34.2441646!4d74.5750773!16s%2Fg%2F1tfhdsyc!19sChIJP_KKhrwK4TgR8T29mqYFw-4?authuser=0&hl=en&rclk=1",
        "coordinates": {
            "latitude": 34.2441646,
            "longitude": 74.57507729999999
        }
    },
    {
        "name": "Jamia Masjid Baba Nasibuddin Gazi Pethi Mohalla Yadipora",
        "main_category": "Mosque",
        "address": "Jamia Masjid Baba Nasibuddin Gazi Pethi Mohalla Yadipora, 193121",
        "detailed_address": {
            "ward": null,
            "street": null,
            "city": null,
            "postal_code": "193121",
            "state": null,
            "country_code": "IN"
        },
        "images": [
            {
                "about": "All",
                "link": "https://lh5.googleusercontent.com/p/AF1QipOfFiUhGHf_q94PnVj-Xv2rS0BJgdF-xGF18u72=w529-h298-k-no"
            },
            {
                "about": "Videos",
                "link": "https://lh5.googleusercontent.com/p/AF1QipO8Cu7Efgc3oZHFRZV4QAT7Tg3jPE6CGkfrYuRN=w224-h398-k-no"
            }
        ],
        "link": "https://www.google.com/maps/place/Jamia+Masjid+Baba+Nasibuddin+Gazi+Pethi+Mohalla+Yadipora/data=!4m7!3m6!1s0x38e1a175c82fb973:0xedd5f0e61aaa9b12!8m2!3d34.1887317!4d74.532289!16s%2Fg%2F11pkcqwvd2!19sChIJc7kvyHWh4TgREpuqGubw1e0?authuser=0&hl=en&rclk=1",
        "coordinates": {
            "latitude": 34.1887317,
            "longitude": 74.53228899999999
        }
    },
    {
        "name": "Masjid",
        "main_category": "Mosque",
        "address": "Masjid, 242, Masjid Jheel Pio, Near ITO metro GateNo.3, Bahadur Shah Zafar Marg, Balmiki Basti, Vikram Nagar, Delhi, 110002",
        "detailed_address": {
            "ward": "Bahadur Shah Zafar Marg, Balmiki Basti, Vikram Nagar",
            "street": "242, Masjid Jheel Pio, Near ITO metro GateNo.3, Bahadur Shah Zafar Marg",
            "city": "Delhi",
            "postal_code": "110002",
            "state": "Delhi",
            "country_code": "IN"
        },
        "images": [
            {
                "about": "All",
                "link": "https://lh5.googleusercontent.com/p/AF1QipN5OIjFkkkgGTvUKU3X0RBq6O9cBwfBTptPMeSA=w529-h298-k-no"
            },
            {
                "about": "Latest",
                "link": "https://streetviewpixels-pa.googleapis.com/v1/thumbnail?panoid=TdjZf0mnRqsq_KV6xB3IhQ&cb_client=maps_sv.tactile.gps&w=224&h=298&yaw=67.971146&pitch=0&thumbfov=100"
            },
            {
                "about": "Street View & 360deg",
                "link": "https://streetviewpixels-pa.googleapis.com/v1/thumbnail?panoid=TdjZf0mnRqsq_KV6xB3IhQ&cb_client=maps_sv.tactile.gps&w=224&h=298&yaw=67.971146&pitch=0&thumbfov=100"
            }
        ],
        "link": "https://www.google.com/maps/place/Masjid/data=!4m7!3m6!1s0x390cfd441769149d:0xa1929f1b4f5921d6!8m2!3d28.6298914!4d77.2415098!16s%2Fg%2F11s2n38r9b!19sChIJnRRpF0T9DDkR1iFZTxufkqE?authuser=0&hl=en&rclk=1",
        "coordinates": {
            "latitude": 28.629891399999998,
            "longitude": 77.2415098
        }
    },
    {
        "name": "Masjid Shareef wani mohalla satkoji",
        "main_category": "Mosque",
        "address": "Masjid Shareef wani mohalla satkoji, Satkoji zachaldara, Wani Mohalla, Sat Kojan, Jammu and Kashmir 193221",
        "detailed_address": {
            "ward": "Satkoji zachaldara, Wani Mohalla",
            "street": null,
            "city": "Sat Kojan",
            "postal_code": "193221",
            "state": "Jammu and Kashmir",
            "country_code": "IN"
        },
        "images": [
            {
                "about": "All",
                "link": "https://lh5.googleusercontent.com/p/AF1QipOR-SmaKEZECgOW5uukHyzy42p-Uu7ZDuC-7jvd=w224-h398-k-no"
            },
            {
                "about": "Dome",
                "link": "https://lh5.googleusercontent.com/p/AF1QipN8qc1pu4IxXg1670qRjBv0_mg8synw9YCG4rxy=w224-h485-k-no"
            },
            {
                "about": "Videos",
                "link": "https://lh5.googleusercontent.com/p/AF1QipOR-SmaKEZECgOW5uukHyzy42p-Uu7ZDuC-7jvd=w224-h398-k-no"
            },
            {
                "about": "By owner",
                "link": "https://lh5.googleusercontent.com/p/AF1QipOmc9KlcccHg_Cy-PvRzDAtvyFtqit2jymvrjKq=w224-h398-k-no"
            }
        ],
        "link": "https://www.google.com/maps/place/Masjid+Shareef+wani+mohalla+satkoji/data=!4m7!3m6!1s0x38e0e5d886d4322b:0x5c2a0e8eccedb8c9!8m2!3d34.4124368!4d74.1227201!16s%2Fg%2F11sm7q19wn!19sChIJKzLUhtjl4DgRybjtzI4OKlw?authuser=0&hl=en&rclk=1",
        "coordinates": {
            "latitude": 34.4124368,
            "longitude": 74.1227201
        }
    },
    {
        "name": "Masjid Sharif Wani Mohalla Bongam Herman",
        "main_category": "Mosque",
        "address": "PW5P+5M2 Masjid Sharif Wani Mohalla Bongam Herman, Herman, 192303",
        "detailed_address": {
            "ward": null,
            "street": "PW5P+5M2",
            "city": "Herman",
            "postal_code": "192303",
            "state": null,
            "country_code": "IN"
        },
        "images": [
            {
                "about": "All",
                "link": "https://lh5.googleusercontent.com/p/AF1QipNqXrz6MlfkTdVPl8RriQLMEx75ehOjbw4zoK1M=w429-h298-k-no"
            }
        ],
        "link": "https://www.google.com/maps/place/Masjid+Sharif+Wani+Mohalla+Bongam+Herman/data=!4m7!3m6!1s0x38e1f9f489af529d:0x63626695d95f3187!8m2!3d33.7078865!4d74.9366367!16s%2Fg%2F11qn50tf0k!19sChIJnVKvifT54TgRhzFf2ZVmYmM?authuser=0&hl=en&rclk=1",
        "coordinates": {
            "latitude": 33.7078865,
            "longitude": 74.9366367
        }
    },
    {
        "name": "Masjid Hamzah",
        "main_category": "Mosque",
        "address": "5GCF+RRF Masjid Hamzah, Wani Gam Pain, 193121",
        "detailed_address": {
            "ward": null,
            "street": "5GCF+RRF",
            "city": "Wani Gam Pain",
            "postal_code": "193121",
            "state": null,
            "country_code": "IN"
        },
        "images": [],
        "link": "https://www.google.com/maps/place/Masjid+Hamzah/data=!4m7!3m6!1s0x38e1a111c73ce725:0x419cfaa4450a9e65!8m2!3d34.1720632!4d74.5245545!16s%2Fg%2F11rlks8htp!19sChIJJec8xxGh4TgRZZ4KRaT6nEE?authuser=0&hl=en&rclk=1",
        "coordinates": {
            "latitude": 34.1720632,
            "longitude": 74.5245545
        }
    },
    {
        "name": "Jamia Masjid Wani mohallah jm` msjd wny mHlh",
        "main_category": "Mosque",
        "address": "GC69+WHF Jamia Masjid Wani mohallah jm` msjd wny mHlh, Darpora, 193223",
        "detailed_address": {
            "ward": null,
            "street": "GC69+WHF",
            "city": "Darpora",
            "postal_code": "193223",
            "state": null,
            "country_code": "IN"
        },
        "images": [
            {
                "about": "All",
                "link": "https://lh5.googleusercontent.com/p/AF1QipNbQjCGKECsM0OwBbdktGX9PfZeSDeZYMFt9jb1=w529-h298-k-no"
            },
            {
                "about": "Videos",
                "link": "https://lh5.googleusercontent.com/p/AF1QipM-bCMhoybrMGSMzLdHx9WSnx5rVTfJtcb7n-iq=w224-h398-k-no"
            }
        ],
        "link": "https://www.google.com/maps/place/Jamia+Masjid+Wani+mohallah+%D8%AC%D8%A7%D9%85%D8%B9+%D9%85%D8%B3%D8%AC%D8%AF+%D9%88%D8%A7%D9%86%DB%8C+%D9%85%D8%AD%D9%84%DB%81%E2%80%AD/data=!4m7!3m6!1s0x38e117467da28719:0xefabce6b08d12ab7!8m2!3d34.5123048!4d74.418937!16s%2Fg%2F11js4j7wnj!19sChIJGYeifUYX4TgRtyrRCGvOq-8?authuser=0&hl=en&rclk=1",
        "coordinates": {
            "latitude": 34.512304799999995,
            "longitude": 74.418937
        }
    },
    {
        "name": "Markazi jamia masjid abhama",
        "main_category": "Mosque",
        "address": "QPXW+CXC Markazi jamia masjid abhama, Bag Sanger Wani, 191112",
        "detailed_address": {
            "ward": null,
            "street": "QPXW+CXC",
            "city": "Bag Sanger Wani",
            "postal_code": "191112",
            "state": null,
            "country_code": "IN"
        },
        "images": [
            {
                "about": "All",
                "link": "https://lh5.googleusercontent.com/p/AF1QipP-pBLKG4S-g_kD-HXWGKWZmvqRmvnhULN2IGxN=w224-h448-k-no"
            }
        ],
        "link": "https://www.google.com/maps/place/Markazi+jamia+masjid+abhama/data=!4m7!3m6!1s0x38e1ef85c15a090f:0xd05854b4cef056e9!8m2!3d33.7985514!4d74.7473935!16s%2Fg%2F11rkg3k5xl!19sChIJDwlawYXv4TgR6VbwzrRUWNA?authuser=0&hl=en&rclk=1",
        "coordinates": {
            "latitude": 33.7985514,
            "longitude": 74.7473935
        }
    },
    {
        "name": "JAMIA MASJID TUMBORIPORA(HASHIM)",
        "main_category": "Mosque",
        "address": "P66J+9FF JAMIA MASJID TUMBORIPORA(HASHIM), Tail Wani, 192201",
        "detailed_address": {
            "ward": null,
            "street": "P66J+9FF",
            "city": "Tail Wani",
            "postal_code": "192201",
            "state": null,
            "country_code": "IN"
        },
        "images": [
            {
                "about": "All",
                "link": "https://lh5.googleusercontent.com/p/AF1QipMXb6AGR5ZA_5PXE2mwE-IjZgZTqj-qF1MYNJfn=w397-h298-k-no"
            }
        ],
        "link": "https://www.google.com/maps/place/JAMIA+MASJID+TUMBORIPORA%28HASHIM%29/data=!4m7!3m6!1s0x38e20feb35152f81:0x673fa55b9140cd85!8m2!3d33.7109366!4d75.2311711!16s%2Fg%2F11nfnwh51w!19sChIJgS8VNesP4jgRhc1AkVulP2c?authuser=0&hl=en&rclk=1",
        "coordinates": {
            "latitude": 33.7109366,
            "longitude": 75.2311711
        }
    },
    {
        "name": "Masjid Habib ibn Mazahir r.a",
        "main_category": "Mosque",
        "address": "4R99+7XR Masjid Habib ibn Mazahir r.a, Wani mohalla, Baghwanpora, Srinagar, Jammu and Kashmir 190006",
        "detailed_address": {
            "ward": "Baghwanpora",
            "street": "4R99+7XR, Wani mohalla",
            "city": "Srinagar",
            "postal_code": "190006",
            "state": "Jammu and Kashmir",
            "country_code": "IN"
        },
        "images": [
            {
                "about": "All",
                "link": "https://lh5.googleusercontent.com/p/AF1QipOZu4-YZ3kmsAv9jcYblFsZw6tF0cCEeUPSha02=w224-h298-k-no"
            }
        ],
        "link": "https://www.google.com/maps/place/Masjid+Habib+ibn+Mazahir+r.a/data=!4m7!3m6!1s0x38e1856b7d05e805:0xa4fb7ec1278de1c0!8m2!3d34.1182461!4d74.8198922!16s%2Fg%2F11hy6j773k!19sChIJBegFfWuF4TgRwOGNJ8F--6Q?authuser=0&hl=en&rclk=1",
        "coordinates": {
            "latitude": 34.1182461,
            "longitude": 74.8198922
        }
    },
    {
        "name": "QADEEM JAMIA MASJID SHAREEF KREERI",
        "main_category": "Mosque",
        "address": "5F9F+HFG QADEEM JAMIA MASJID SHAREEF KREERI, Wani Mohalla, Kreeri, 193198",
        "detailed_address": {
            "ward": "Wani Mohalla",
            "street": "5F9F+HFG",
            "city": "Kreeri",
            "postal_code": "193198",
            "state": null,
            "country_code": "IN"
        },
        "images": [],
        "link": "https://www.google.com/maps/place/QADEEM+JAMIA+MASJID+SHAREEF+KREERI/data=!4m7!3m6!1s0x38e1a760137a80a1:0x317fb2be8864d560!8m2!3d34.1689391!4d74.4737086!16s%2Fg%2F11mql_j1v1!19sChIJoYB6E2Cn4TgRYNVkiL6yfzE?authuser=0&hl=en&rclk=1",
        "coordinates": {
            "latitude": 34.168939099999996,
            "longitude": 74.4737086
        }
    },
    {
        "name": "Masjid sharief",
        "main_category": "Mosque",
        "address": "RQ9Q+XRW Masjid sharief, Kanigam, 191112",
        "detailed_address": {
            "ward": null,
            "street": "RQ9Q+XRW",
            "city": "Kanigam",
            "postal_code": "191112",
            "state": null,
            "country_code": "IN"
        },
        "images": [
            {
                "about": "All",
                "link": "https://lh5.googleusercontent.com/p/AF1QipOaahIEPFcYgmkQecw57Qp1zO4uIqpc6cThuPS3=w397-h298-k-no"
            },
            {
                "about": "Dome",
                "link": "https://lh5.googleusercontent.com/p/AF1QipO9Z5b1Np3JBkYzofQELHO0u-LgP8EClokvt_A=w224-h298-k-no"
            }
        ],
        "link": "https://www.google.com/maps/place/Masjid+sharief/data=!4m7!3m6!1s0x38e1f1235cca9bf1:0x1a20293538065b6d!8m2!3d33.8199922!4d74.7895823!16s%2Fg%2F11mtd73jg3!19sChIJ8ZvKXCPx4TgRbVsGODUpIBo?authuser=0&hl=en&rclk=1",
        "coordinates": {
            "latitude": 33.8199922,
            "longitude": 74.78958229999999
        }
    },
    {
        "name": "Masjid e Riza (a.s)",
        "main_category": "Mosque",
        "address": "2R6W+M9Q Masjid e Riza (a.s), Unnamed Road, Chekpora, Kenihama, Srinagar, Jammu and Kashmir 190019",
        "detailed_address": {
            "ward": "Chekpora, Kenihama",
            "street": "2R6W+M9Q, Unnamed Road",
            "city": "Srinagar",
            "postal_code": "190019",
            "state": "Jammu and Kashmir",
            "country_code": "IN"
        },
        "images": [
            {
                "about": "All",
                "link": "https://lh5.googleusercontent.com/p/AF1QipOv7xSEabKtzQnOvIxSYhJ-fr1hj9fVfTTJgb1t=w397-h298-k-no"
            },
            {
                "about": "Videos",
                "link": "https://lh5.googleusercontent.com/p/AF1QipOEUq2Pq60TqAm68llHZoMo1QVDAJpECtedIvOd=w529-h298-k-no"
            }
        ],
        "link": "https://www.google.com/maps/place/Masjid+e+Riza+%28a.s%29/data=!4m7!3m6!1s0x38e18fcc5543e889:0xcc5fa620e6925dd2!8m2!3d34.0117094!4d74.8459881!16s%2Fg%2F11rwhhql0d!19sChIJiehDVcyP4TgR0l2S5iCmX8w?authuser=0&hl=en&rclk=1",
        "coordinates": {
            "latitude": 34.0117094,
            "longitude": 74.8459881
        }
    },
    {
        "name": "Masjid Saguwa Wali (Choti Masjid)",
        "main_category": "Mosque",
        "address": "Masjid Saguwa Wali (Choti Masjid), 1614, Old Dariya Ganj, Daryaganj, New Delhi, Delhi, 110002",
        "detailed_address": {
            "ward": "Old Dariya Ganj, Daryaganj",
            "street": "1614",
            "city": "New Delhi, Delhi",
            "postal_code": "110002",
            "state": "Delhi",
            "country_code": "IN"
        },
        "images": [
            {
                "about": "All",
                "link": "https://streetviewpixels-pa.googleapis.com/v1/thumbnail?panoid=9yowCK2Fet1TgecWrtD4MQ&cb_client=maps_sv.tactile.gps&w=224&h=298&yaw=164.85298&pitch=0&thumbfov=100"
            },
            {
                "about": "Street View & 360deg",
                "link": "https://streetviewpixels-pa.googleapis.com/v1/thumbnail?panoid=9yowCK2Fet1TgecWrtD4MQ&cb_client=maps_sv.tactile.gps&w=224&h=298&yaw=164.85298&pitch=0&thumbfov=100"
            }
        ],
        "link": "https://www.google.com/maps/place/Masjid+Saguwa+Wali+%28Choti+Masjid%29/data=!4m7!3m6!1s0x390cfde70c37cfe3:0xcd9ebd43305f88c8!8m2!3d28.6470267!4d77.2382029!16s%2Fg%2F11f7qykm_q!19sChIJ4883DOf9DDkRyIhfMEO9ns0?authuser=0&hl=en&rclk=1",
        "coordinates": {
            "latitude": 28.647026699999998,
            "longitude": 77.23820289999999
        }
    },
    {
        "name": "Munwara Masjid",
        "main_category": "Mosque",
        "address": "Munwara Masjid, E-130, Gali No.6, Third Pusta Main Rd, Jagjeet Nagar, Delhi, 110053",
        "detailed_address": {
            "ward": "Third Pushta, Nayagaon, Jagjeet Nagar, Shahdara",
            "street": "E-130, Gali No.6, Third Pusta Main Rd",
            "city": "Delhi",
            "postal_code": "110053",
            "state": "Delhi",
            "country_code": "IN"
        },
        "images": [],
        "link": "https://www.google.com/maps/place/Munwara+Masjid/data=!4m7!3m6!1s0x390cfc44ec3cee7b:0x6817d8194e44c0a7!8m2!3d28.6861966!4d77.2559837!16s%2Fg%2F12hq6qdwg!19sChIJe-487ET8DDkRp8BEThnYF2g?authuser=0&hl=en&rclk=1",
        "coordinates": {
            "latitude": 28.6861966,
            "longitude": 77.2559837
        }
    },
    {
        "name": "BagH WaLi MaSjiD",
        "main_category": "Mosque",
        "address": "QH9H+V5W BagH WaLi MaSjiD, Kalchhina, Uttar Pradesh 245304",
        "detailed_address": {
            "ward": null,
            "street": "QH9H+V5W",
            "city": "Kalchhina",
            "postal_code": "245304",
            "state": "Uttar Pradesh",
            "country_code": "IN"
        },
        "images": [
            {
                "about": "All",
                "link": "https://streetviewpixels-pa.googleapis.com/v1/thumbnail?panoid=QsUZhfQcW1P1SJNOl5iQYQ&cb_client=maps_sv.tactile.gps&w=224&h=298&yaw=156.59418&pitch=0&thumbfov=100"
            },
            {
                "about": "Street View & 360deg",
                "link": "https://streetviewpixels-pa.googleapis.com/v1/thumbnail?panoid=QsUZhfQcW1P1SJNOl5iQYQ&cb_client=maps_sv.tactile.gps&w=224&h=298&yaw=156.59418&pitch=0&thumbfov=100"
            }
        ],
        "link": "https://www.google.com/maps/place/BagH+WaLi+MaSjiD/data=!4m7!3m6!1s0x390c8be15068e897:0x679cbbe473c5ac3b!8m2!3d28.7697305!4d77.5779407!16s%2Fg%2F11h22jk0dw!19sChIJl-hoUOGLDDkRO6zFc-S7nGc?authuser=0&hl=en&rclk=1",
        "coordinates": {
            "latitude": 28.769730499999998,
            "longitude": 77.5779407
        }
    },
    {
        "name": "Masjid Khomeini Wani Mohalla Balhama",
        "main_category": "Mosque",
        "address": "2WJR+W56 Masjid Khomeini Wani Mohalla Balhama, Balhama, 191101",
        "detailed_address": {
            "ward": null,
            "street": "2WJR+W56",
            "city": "Balhama",
            "postal_code": "191101",
            "state": null,
            "country_code": "IN"
        },
        "images": [],
        "link": "https://www.google.com/maps/place/Masjid+Khomeini+Wani+Mohalla+Balhama/data=!4m7!3m6!1s0x38e189db890e04b1:0x3ea21fcf4585f056!8m2!3d34.0322943!4d74.9403844!16s%2Fg%2F11rc40skj9!19sChIJsQQOiduJ4TgRVvCFRc8foj4?authuser=0&hl=en&rclk=1",
        "coordinates": {
            "latitude": 34.0322943,
            "longitude": 74.9403844
        }
    },
    {
        "name": "Masjid shareef",
        "main_category": "Mosque",
        "address": "FC34+Q97 Masjid shareef, Wani Doursa , sogam lolab, 193223",
        "detailed_address": {
            "ward": null,
            "street": "FC34+Q97, Wani Doursa , sogam lolab",
            "city": "Kuhigam",
            "postal_code": "193223",
            "state": null,
            "country_code": "IN"
        },
        "images": [
            {
                "about": "All",
                "link": "https://lh5.googleusercontent.com/p/AF1QipP6sfo4c1EaA-e-yXjL5f2UnVZFwoILzeCDbsxx=w224-h398-k-no"
            },
            {
                "about": "Videos",
                "link": "https://lh5.googleusercontent.com/p/AF1QipOjKJlsR-LwlUrsV2Zj0Y1Ag3yG78xfJBy5qT7I=w224-h398-k-no"
            }
        ],
        "link": "https://www.google.com/maps/place/Masjid+shareef/data=!4m7!3m6!1s0x38e1115149e81a17:0x4e337e3eaad7d761!8m2!3d34.4544067!4d74.4059218!16s%2Fg%2F11nl5_rwm3!19sChIJFxroSVER4TgRYdfXqj5-M04?authuser=0&hl=en&rclk=1",
        "coordinates": {
            "latitude": 34.4544067,
            "longitude": 74.4059218
        }
    },
    {
        "name": "Hanfiah masjid shareef Galwanpora",
        "main_category": "Mosque",
        "address": "JVH5+438 Hanfiah masjid shareef Galwanpora, Mir Wani, Autoo, 192233",
        "detailed_address": {
            "ward": null,
            "street": "JVH5+438",
            "city": "Mir Wani, Autoo",
            "postal_code": "192233",
            "state": null,
            "country_code": "IN"
        },
        "images": [
            {
                "about": "All",
                "link": "https://lh5.googleusercontent.com/p/AF1QipMu50u2f898F0rp2keje9BAysnAVeQDzWfATkY0=w224-h298-k-no"
            }
        ],
        "link": "https://www.google.com/maps/place/Hanfiah+masjid+shareef+Galwanpora/data=!4m7!3m6!1s0x38e1fd6765c05d69:0xde9e311bd90cb66a!8m2!3d33.6277931!4d74.8576896!16s%2Fg%2F11p0bb3y4p!19sChIJaV3AZWf94TgRarYM2Rsxnt4?authuser=0&hl=en&rclk=1",
        "coordinates": {
            "latitude": 33.6277931,
            "longitude": 74.8576896
        }
    },
    {
        "name": "JAMIA MASJID SHARIEF FURKANABAD",
        "main_category": "Mosque",
        "address": "7X8X+42V JAMIA MASJID SHARIEF FURKANABAD, Budhan, 182144",
        "detailed_address": {
            "ward": null,
            "street": "7X8X+42V",
            "city": "Budhan",
            "postal_code": null,
            "state": null,
            "country_code": "IN"
        },
        "images": [
            {
                "about": "All",
                "link": "https://lh5.googleusercontent.com/p/AF1QipOEt2MW8Ripf9C32bcrkcaTpWFvUA_95CCpwn58=w660-h298-k-no"
            }
        ],
        "link": "https://www.google.com/maps/place/JAMIA+MASJID+SHARIEF+FURKANABAD/data=!4m7!3m6!1s0x391de10ec2211b41:0x5c39d05b79bb8efd!8m2!3d33.2653748!4d74.9975425!16s%2Fg%2F11rbygh1bk!19sChIJQRshwg7hHTkR_Y67eVvQOVw?authuser=0&hl=en&rclk=1",
        "coordinates": {
            "latitude": 33.2653748,
            "longitude": 74.9975425
        }
    },
    {
        "name": "SYED RAHBAB SAHAB JAMIA MASJID SHAREEF WANIHAMA BALA",
        "main_category": "Mosque",
        "address": "5RJX+9G5 SYED RAHBAB SAHAB JAMIA MASJID SHAREEF WANIHAMA BALA, Wani Hama Bala, Ganderbal, 191202",
        "detailed_address": {
            "ward": "Wani Hama Bala",
            "street": "5RJX+9G5",
            "city": "Ganderbal",
            "postal_code": null,
            "state": null,
            "country_code": "IN"
        },
        "images": [
            {
                "about": "All",
                "link": "https://lh5.googleusercontent.com/p/AF1QipMUwsxi8cMQs8FgR3K6KyACE8O8_8yF1O5jaghg=w397-h298-k-no"
            }
        ],
        "link": "https://www.google.com/maps/place/SYED+RAHBAB+SAHAB+JAMIA+MASJID+SHAREEF+WANIHAMA+BALA/data=!4m7!3m6!1s0x38e183cfcf55d4c3:0x3956af6bb79ec0db!8m2!3d34.1808827!4d74.8488713!16s%2Fg%2F11nwb8l0r7!19sChIJw9RVz8-D4TgR28Cet2uvVjk?authuser=0&hl=en&rclk=1",
        "coordinates": {
            "latitude": 34.1808827,
            "longitude": 74.8488713
        }
    },
    {
        "name": "Jamia Masjid Sharief Kutabal",
        "main_category": "Mosque",
        "address": "VMCM+75J Jamia Masjid Sharief Kutabal, Chadoora, 191113",
        "detailed_address": {
            "ward": null,
            "street": "VMCM+75J",
            "city": "Chadoora",
            "postal_code": "191113",
            "state": null,
            "country_code": "IN"
        },
        "images": [],
        "link": "https://www.google.com/maps/place/%F0%9D%91%B1%F0%9D%92%82%F0%9D%92%8E%F0%9D%92%8A%F0%9D%92%82+%F0%9D%91%B4%F0%9D%92%82%F0%9D%92%94%F0%9D%92%8B%F0%9D%92%8A%F0%9D%92%85+%F0%9D%91%BA%F0%9D%92%89%F0%9D%92%82%F0%9D%92%93%F0%9D%92%8A%F0%9D%92%86%F0%9D%92%87+%F0%9D%91%B2%F0%9D%92%96%F0%9D%92%95%F0%9D%92%82%F0%9D%92%83%F0%9D%92%82%F0%9D%92%8D/data=!4m7!3m6!1s0x38e1eb3992d294c5:0x54a10d4ffd690f2b!8m2!3d33.8707109!4d74.6828951!16s%2Fg%2F11pd1j9rjb!19sChIJxZTSkjnr4TgRKw9p_U8NoVQ?authuser=0&hl=en&rclk=1",
        "coordinates": {
            "latitude": 33.8707109,
            "longitude": 74.6828951
        }
    },
    {
        "name": "Masjid shareef",
        "main_category": "Mosque",
        "address": "VMQX+4GH Masjid shareef, Sursyar, 191113",
        "detailed_address": {
            "ward": null,
            "street": "VMQX+4GH",
            "city": "Sursyar",
            "postal_code": "191113",
            "state": null,
            "country_code": "IN"
        },
        "images": [],
        "link": "https://www.google.com/maps/place/Masjid+shareef/data=!4m7!3m6!1s0x38e1edd92d45b6eb:0x735a74aa91b267cd!8m2!3d33.887807!4d74.6988639!16s%2Fg%2F11np5sxdb9!19sChIJ67ZFLdnt4TgRzWeykap0WnM?authuser=0&hl=en&rclk=1",
        "coordinates": {
            "latitude": 33.887806999999995,
            "longitude": 74.69886389999999
        }
    },
    {
        "name": "Hanfia Jamia Masjid Ibrahim wangwass",
        "main_category": "Mosque",
        "address": "VM8W+FMG Hanfia Jamia Masjid Ibrahim wangwass, Road, Wangwas, Shereen Pora, 191112",
        "detailed_address": {
            "ward": null,
            "street": "VM8W+FMG, Road",
            "city": "Wangwas, Shereen Pora",
            "postal_code": "191112",
            "state": null,
            "country_code": "IN"
        },
        "images": [
            {
                "about": "All",
                "link": "https://lh5.googleusercontent.com/p/AF1QipPhT_To4bYEoq7y4DGaeaPD8iqC7WoatHJrPBid=w397-h298-k-no"
            }
        ],
        "link": "https://www.google.com/maps/place/Hanfia+Jamia+Masjid+Ibrahim+wangwass/data=!4m7!3m6!1s0x38e1eda7be498cbb:0xf663deaa2ad6cd84!8m2!3d33.866193!4d74.696693!16s%2Fg%2F11q7_5qf9g!19sChIJu4xJvqft4TgRhM3WKqreY_Y?authuser=0&hl=en&rclk=1",
        "coordinates": {
            "latitude": 33.866192999999996,
            "longitude": 74.696693
        }
    },
    {
        "name": "Markazi Jamia Masjid Sharief Awhatoo",
        "main_category": "Mosque",
        "address": "Markazi Jamia Masjid Sharief Awhatoo, Awhatoo, Audora, Jammu and Kashmir 192231",
        "detailed_address": {
            "ward": null,
            "street": null,
            "city": "Awhatoo, Audora",
            "postal_code": "192231",
            "state": "Jammu and Kashmir",
            "country_code": "IN"
        },
        "images": [
            {
                "about": "All",
                "link": "https://lh5.googleusercontent.com/p/AF1QipMnvnZDLwzgPF9FxuqY9ihJ7m9ofMsqVyGtrlDT=w224-h298-k-no"
            },
            {
                "about": "Dome",
                "link": "https://lh5.googleusercontent.com/p/AF1QipPIERf4lKVbI0jPkx5Il_MnxHtZTN0zzpWakeRG=w224-h448-k-no"
            },
            {
                "about": "Videos",
                "link": "https://lh5.googleusercontent.com/p/AF1QipNZoG-EJkm0nbe9SIfTVPIqhA2Mm3P-AVZNH_o7=w541-h298-k-no"
            }
        ],
        "link": "https://www.google.com/maps/place/Markazi+Jamia+Masjid+Sharief+Awhatoo/data=!4m7!3m6!1s0x38e1f97a8c56ff11:0xb043377113980f98!8m2!3d33.6777729!4d74.9507374!16s%2Fg%2F11ny1ml_4_!19sChIJEf9WjHr54TgRmA-YE3E3Q7A?authuser=0&hl=en&rclk=1",
        "coordinates": {
            "latitude": 33.6777729,
            "longitude": 74.9507374
        }
    },
    {
        "name": "Imam Zaman (A.s) Masjid Gojra",
        "main_category": "Mosque",
        "address": "XMMP+6PC Imam Zaman (A.s) Masjid Gojra, Gojra, 191111",
        "detailed_address": {
            "ward": null,
            "street": "XMMP+6PC",
            "city": "Gojra",
            "postal_code": "191111",
            "state": null,
            "country_code": "IN"
        },
        "images": [
            {
                "about": "All",
                "link": "https://lh5.googleusercontent.com/p/AF1QipMZJzA1P57yEOh8Fp-YdkvkZg3iW2Hxwb2J0xkC=w224-h298-k-no"
            }
        ],
        "link": "https://www.google.com/maps/place/Imam+Zam%C4%81n+%28A.s%29+Masjid+Gojra/data=!4m7!3m6!1s0x38e195833dc14b0f:0xc63ed22aadf7332b!8m2!3d33.9830704!4d74.6867554!16s%2Fg%2F11q1q1666m!19sChIJD0vBPYOV4TgRKzP3rSrSPsY?authuser=0&hl=en&rclk=1",
        "coordinates": {
            "latitude": 33.983070399999995,
            "longitude": 74.6867554
        }
    },
    {
        "name": "MASJID E MUHHAMADI GANIEPORA",
        "main_category": "Mosque",
        "address": "MASJID E MUHHAMADI GANIEPORA, 192125",
        "detailed_address": {
            "ward": null,
            "street": null,
            "city": null,
            "postal_code": "192125",
            "state": null,
            "country_code": "IN"
        },
        "images": [
            {
                "about": "All",
                "link": "https://lh5.googleusercontent.com/p/AF1QipPjQ2k2dVMzJcpILBaej-TlIGCEb-h25u2qkwdC=w224-h398-k-no"
            }
        ],
        "link": "https://www.google.com/maps/place/MASJID+E+MUHHAMADI+GANIEPORA/data=!4m7!3m6!1s0x38e2111bca90d2b9:0xc9e46b86be44f843!8m2!3d33.8252454!4d75.2454364!16s%2Fg%2F11s7dj_r1q!19sChIJudKQyhsR4jgRQ_hEvoZr5Mk?authuser=0&hl=en&rclk=1",
        "coordinates": {
            "latitude": 33.8252454,
            "longitude": 75.2454364
        }
    },
    {
        "name": "Masjid Shareef",
        "main_category": "Mosque",
        "address": "6R29+P24 Masjid Shareef, Khal Mulla, Ganderbal, 191201",
        "detailed_address": {
            "ward": "Khal Mulla",
            "street": "6R29+P24",
            "city": "Ganderbal",
            "postal_code": null,
            "state": null,
            "country_code": "IN"
        },
        "images": [
            {
                "about": "All",
                "link": "https://lh5.googleusercontent.com/p/AF1QipNXlReYrsj2KD3ncPhyazmhojvFHkzO4N2WGN5F=w397-h298-k-no"
            }
        ],
        "link": "https://www.google.com/maps/place/Masjid+Shareef/data=!4m7!3m6!1s0x38e183c1d6bed1a7:0x2fa1ef38c4e8b00b!8m2!3d34.2017597!4d74.8175775!16s%2Fg%2F11spmqk000!19sChIJp9G-1sGD4TgRC7DoxDjvoS8?authuser=0&hl=en&rclk=1",
        "coordinates": {
            "latitude": 34.2017597,
            "longitude": 74.8175775
        }
    },
    {
        "name": "jm` msjd mty pwrh",
        "main_category": "Mosque",
        "address": "8MPF+X8C jm` msjd mty pwrh, Ajas, 193502",
        "detailed_address": {
            "ward": null,
            "street": "8MPF+X8C",
            "city": "Ajas",
            "postal_code": "193502",
            "state": null,
            "country_code": "IN"
        },
        "images": [
            {
                "about": "All",
                "link": "https://lh5.googleusercontent.com/p/AF1QipPcYx7jllVZ5QQT0maiZOjqQs8sjA0wHP4Rfbyr=w224-h482-k-no"
            }
        ],
        "link": "https://www.google.com/maps/place/%D8%AC%D8%A7%D9%85%D8%B9+%D9%85%D8%B3%D8%AC%D8%AF+%D9%85%D8%AA%DB%8C+%D9%BE%D9%88%D8%B1%DB%81%E2%80%AD/data=!4m7!3m6!1s0x38e173d547c3b0c7:0xef6e1cad1ee06444!8m2!3d34.3374345!4d74.6732683!16s%2Fg%2F11sq51dc2l!19sChIJx7DDR9Vz4TgRRGTgHq0cbu8?authuser=0&hl=en&rclk=1",
        "coordinates": {
            "latitude": 34.3374345,
            "longitude": 74.6732683
        }
    },
    {
        "name": "JAMIA MASJID LISSER PORA",
        "main_category": "Mosque",
        "address": "JV79+332 JAMIA MASJID LISSER PORA, Halan, Jammu and Kashmir 192233",
        "detailed_address": {
            "ward": null,
            "street": "JV79+332",
            "city": "Halan",
            "postal_code": "192233",
            "state": "Jammu and Kashmir",
            "country_code": "IN"
        },
        "images": [],
        "link": "https://www.google.com/maps/place/JAMIA+MASJID+LISSER+PORA/data=!4m7!3m6!1s0x38e1fd51000850ad:0x754fcbf61851ee8f!8m2!3d33.6126488!4d74.8676265!16s%2Fg%2F11sd0tsctw!19sChIJrVAIAFH94TgRj-5RGPbLT3U?authuser=0&hl=en&rclk=1",
        "coordinates": {
            "latitude": 33.612648799999995,
            "longitude": 74.8676265
        }
    },
    {
        "name": "Hanfiya masjid shareef Hanjik",
        "main_category": "Mosque",
        "address": "3PJM+CCV Hanfiya masjid shareef Hanjik, Unnamed Road, Hanjik, 193401",
        "detailed_address": {
            "ward": null,
            "street": "3PJM+CCV, Unnamed Road",
            "city": "Hanjik",
            "postal_code": "193401",
            "state": null,
            "country_code": "IN"
        },
        "images": [],
        "link": "https://www.google.com/maps/place/Hanfiya+masjid+shareef+Hanjik/data=!4m7!3m6!1s0x38e19ba1341305d9:0x729654be339b57e1!8m2!3d34.0811056!4d74.7335516!16s%2Fg%2F11rs9m8t5f!19sChIJ2QUTNKGb4TgR4VebM75UlnI?authuser=0&hl=en&rclk=1",
        "coordinates": {
            "latitude": 34.0811056,
            "longitude": 74.7335516
        }
    },
    {
        "name": "Masjid Bagheechey Wali",
        "main_category": "Mosque",
        "address": "Masjid Bagheechey Wali, 5200, Kucha Rehman Gali, New Krishna Cloth Market, Katra Rathi, Chandni Chowk, New Delhi, Delhi, 110006",
        "detailed_address": {
            "ward": "New Krishna Cloth Market, Katra Rathi, Chandni Chowk",
            "street": "5200, Kucha Rehman Gali",
            "city": "New Delhi, Delhi",
            "postal_code": "110006",
            "state": "Delhi",
            "country_code": "IN"
        },
        "images": [],
        "link": "https://www.google.com/maps/place/Masjid+Bagheechey+Wali/data=!4m7!3m6!1s0x390cfd369091dc93:0x980e7cf6a2accc8a!8m2!3d28.6548146!4d77.2267999!16s%2Fg%2F11jgxc_zvm!19sChIJk9yRkDb9DDkRisysovZ8Dpg?authuser=0&hl=en&rclk=1",
        "coordinates": {
            "latitude": 28.654814599999998,
            "longitude": 77.2267999
        }
    },
    {
        "name": "Masjid achchan miyan- Burji waali",
        "main_category": "Mosque",
        "address": "M629+5FP Masjid achchan miyan- Burji waali, Ajmeri Gate, New Delhi, Delhi, 110006",
        "detailed_address": {
            "ward": "Ajmeri Gate",
            "street": "M629+5FP",
            "city": "New Delhi, Delhi",
            "postal_code": "110006",
            "state": "Delhi",
            "country_code": "IN"
        },
        "images": [
            {
                "about": "All",
                "link": "https://streetviewpixels-pa.googleapis.com/v1/thumbnail?panoid=_9U_snXG-eArOCtC8t3H0w&cb_client=maps_sv.tactile.gps&w=224&h=298&yaw=57.79102&pitch=0&thumbfov=100"
            },
            {
                "about": "Street View & 360deg",
                "link": "https://streetviewpixels-pa.googleapis.com/v1/thumbnail?panoid=_9U_snXG-eArOCtC8t3H0w&cb_client=maps_sv.tactile.gps&w=224&h=298&yaw=57.79102&pitch=0&thumbfov=100"
            }
        ],
        "link": "https://www.google.com/maps/place/Masjid+achchan+miyan-+Burji+waali/data=!4m7!3m6!1s0x390cfda2ebdc945d:0x79ad79e1a8d1b8fd!8m2!3d28.6504745!4d77.2186933!16s%2Fg%2F11qykky64l!19sChIJXZTc66L9DDkR_bjRqOF5rXk?authuser=0&hl=en&rclk=1",
        "coordinates": {
            "latitude": 28.650474499999998,
            "longitude": 77.2186933
        }
    },
    {
        "name": "Madina Masjid, PeerBiyaVani",
        "main_category": "Mosque",
        "address": "Madina Masjid, PeerBiyaVani, Bus Stop, Peerbiabani, Peerbiyabani, Uttar Pradesh 203205",
        "detailed_address": {
            "ward": null,
            "street": "Bus Stop, Peerbiabani",
            "city": "Peerbiyabani",
            "postal_code": "203205",
            "state": "Uttar Pradesh",
            "country_code": "IN"
        },
        "images": [
            {
                "about": "All",
                "link": "https://lh5.googleusercontent.com/p/AF1QipPzs3ych0BscIYFxU8L94A_IsgHRO5ocvNNSZ1i=w1176-h298-k-no"
            },
            {
                "about": "Street View & 360deg",
                "link": "https://streetviewpixels-pa.googleapis.com/v1/thumbnail?panoid=_h7tOqQsUVBhGWrWbpbL2A&cb_client=maps_sv.tactile.gps&w=224&h=298&yaw=301.50333&pitch=0&thumbfov=100"
            }
        ],
        "link": "https://www.google.com/maps/place/Madina+Masjid,+PeerBiyaVani/data=!4m7!3m6!1s0x390c97dae61611b1:0x40f6b2a9ffebb36!8m2!3d28.498164!4d77.7115639!16s%2Fg%2F11rcqhg9tz!19sChIJsREW5tqXDDkRNrv-nyprDwQ?authuser=0&hl=en&rclk=1",
        "coordinates": {
            "latitude": 28.498164,
            "longitude": 77.7115639
        }
    },
    {
        "name": "JAMIA MASJID WANI MOHALLA BULGAM",
        "main_category": "Place of worship",
        "address": "6FHM+MV4 JAMIA MASJID WANI MOHALLA BULGAM, Seer Jagir, 193202",
        "detailed_address": {
            "ward": null,
            "street": "6FHM+MV4",
            "city": "Seer Jagir",
            "postal_code": "193202",
            "state": null,
            "country_code": "IN"
        },
        "images": [
            {
                "about": "All",
                "link": "https://lh5.googleusercontent.com/p/AF1QipMDr6GCb4t3Yxzix2rHzUPjmpoJ0iUrw6kQAaU8=w529-h298-k-no"
            }
        ],
        "link": "https://www.google.com/maps/place/JAMIA+MASJID+WANI+MOHALLA+BULGAM/data=!4m7!3m6!1s0x38e1094a516ef043:0x379d931e73555b9f!8m2!3d34.2291422!4d74.4846902!16s%2Fg%2F11rmxfbg6t!19sChIJQ_BuUUoJ4TgRn1tVcx6TnTc?authuser=0&hl=en&rclk=1",
        "coordinates": {
            "latitude": 34.2291422,
            "longitude": 74.4846902
        }
    },
    {
        "name": "Jamia Masjid Wani, Tollinton Market, Lahore",
        "main_category": "Mosque",
        "address": "G8VC+83V Jamia Masjid Wani, Tollinton Market, Lahore, Shadman 1 Shadman, Lahore, Punjab 54000, Pakistan",
        "detailed_address": {
            "ward": "Shadman 1 Shadman",
            "street": "G8VC+83V",
            "city": "Lahore",
            "postal_code": "54000",
            "state": "Lahore, Punjab",
            "country_code": "PK"
        },
        "images": [],
        "link": "https://www.google.com/maps/place/Jamia+Masjid+Wani,+Tollinton+Market,+Lahore/data=!4m7!3m6!1s0x3919052956dae83f:0xc10940adbf15455d!8m2!3d31.5433644!4d74.3201752!16s%2Fg%2F11fn040cmz!19sChIJP-jaVikFGTkRXUUVv61ACcE?authuser=0&hl=en&rclk=1",
        "coordinates": {
            "latitude": 31.543364399999998,
            "longitude": 74.3201752
        }
    },
    {
        "name": "Masjid Pagipora",
        "main_category": "Mosque",
        "address": "5G8F+F59 Masjid Pagipora, Wani Gam Pain, 193121",
        "detailed_address": {
            "ward": null,
            "street": "5G8F+F59",
            "city": "Wani Gam Pain",
            "postal_code": "193121",
            "state": null,
            "country_code": "IN"
        },
        "images": [
            {
                "about": "All",
                "link": "https://lh5.googleusercontent.com/p/AF1QipMTt-9uCDxWDIgafuCdnyiVNuz2xVC9Ykum3wUK=w308-h298-k-no"
            },
            {
                "about": "Dome",
                "link": "https://lh5.googleusercontent.com/p/AF1QipN1g-AA0ilMQlhcimJoYjvbOzyPB7cVaspsW66l=w224-h298-k-no"
            }
        ],
        "link": "https://www.google.com/maps/place/Masjid+Pagipora/data=!4m7!3m6!1s0x38e1a1b7ab3ff5d3:0xe45401303562381!8m2!3d34.1661614!4d74.5229841!16s%2Fg%2F11q97jt6js!19sChIJ0_U_q7eh4TgRgSNWAxNARQ4?authuser=0&hl=en&rclk=1",
        "coordinates": {
            "latitude": 34.1661614,
            "longitude": 74.5229841
        }
    },
    {
        "name": "Hanafiya masjid Shareef Laway mohalla Galwanpora",
        "main_category": "Mosque",
        "address": "JVJ7+57W Hanafiya masjid Shareef Laway mohalla Galwanpora, Mir Wani, Jammu and Kashmir 192233",
        "detailed_address": {
            "ward": null,
            "street": "JVJ7+57W",
            "city": "Mir Wani",
            "postal_code": "192233",
            "state": "Jammu and Kashmir",
            "country_code": "IN"
        },
        "images": [
            {
                "about": "All",
                "link": "https://lh5.googleusercontent.com/p/AF1QipPaMy-yY3qcJkO3QPKpfjbJZvWNRumV72sm-6_S=w224-h398-k-no"
            }
        ],
        "link": "https://www.google.com/maps/place/Hanafiya+masjid+Shareef+Laway+mohalla+Galwanpora/data=!4m7!3m6!1s0x38e1fdec0b98cce7:0x56119fa37c63501b!8m2!3d33.630478!4d74.8631986!16s%2Fg%2F11txhqm0tl!19sChIJ58yYC-z94TgRG1BjfKOfEVY?authuser=0&hl=en&rclk=1",
        "coordinates": {
            "latitude": 33.630478,
            "longitude": 74.86319859999999
        }
    },
    {
        "name": "Wanihama Masjid Abu Bakar R.A.",
        "main_category": "Mosque",
        "address": "5VC3+8H3 Wanihama Masjid Abu Bakar R.A., Wanihama Batapora Rd, Wanihama, Rainawari, Srinagar, 191202",
        "detailed_address": {
            "ward": "Wanihama, Rainawari",
            "street": "5VC3+8H3, Wanihama Batapora Rd",
            "city": "Srinagar",
            "postal_code": null,
            "state": null,
            "country_code": "IN"
        },
        "images": [
            {
                "about": "All",
                "link": "https://lh5.googleusercontent.com/p/AF1QipMd_RcdtL6XVFjatUy4ZR-Vf5aAKDYY7RzHIqg_=w224-h398-k-no"
            }
        ],
        "link": "https://www.google.com/maps/place/Wanihama+Masjid+Abu+Bakar+R.A./data=!4m7!3m6!1s0x38e185e88f493781:0x6002d4a70fc664f6!8m2!3d34.1707627!4d74.8539143!16s%2Fg%2F11ryq4_225!19sChIJgTdJj-iF4TgR9mTGD6fUAmA?authuser=0&hl=en&rclk=1",
        "coordinates": {
            "latitude": 34.1707627,
            "longitude": 74.8539143
        }
    },
    {
        "name": "Jamia Masjid",
        "main_category": "Mosque",
        "address": "QQJ4+VMP Jamia Masjid, Wani Mohalla, Kellar, Jammu and Kashmir 191112",
        "detailed_address": {
            "ward": "Wani Mohalla",
            "street": "QQJ4+VMP",
            "city": "Kellar",
            "postal_code": null,
            "state": "Jammu and Kashmir",
            "country_code": "IN"
        },
        "images": [
            {
                "about": "All",
                "link": "https://lh5.googleusercontent.com/p/AF1QipMjtZC0-Rrqla0VcZxVNdKEfkajI-XZVIm09reS=w393-h298-k-no"
            },
            {
                "about": "Dome",
                "link": "https://lh5.googleusercontent.com/p/AF1QipMjtZC0-Rrqla0VcZxVNdKEfkajI-XZVIm09reS=w393-h298-k-no"
            }
        ],
        "link": "https://www.google.com/maps/place/Jamia+Masjid/data=!4m7!3m6!1s0x38e1efae4e2206f5:0x4821048c7a094692!8m2!3d33.7822114!4d74.7567085!16s%2Fg%2F11jrcq2zfk!19sChIJ9QYiTq7v4TgRkkYJeowEIUg?authuser=0&hl=en&rclk=1",
        "coordinates": {
            "latitude": 33.7822114,
            "longitude": 74.7567085
        }
    },
    {
        "name": "Masjid Sharif",
        "main_category": "Mosque",
        "address": "J656+CXV Masjid Sharif, Wai, 192211",
        "detailed_address": {
            "ward": null,
            "street": "J656+CXV",
            "city": "Wai",
            "postal_code": "192211",
            "state": null,
            "country_code": "IN"
        },
        "images": [],
        "link": "https://www.google.com/maps/place/Masjid+Sharif/data=!4m7!3m6!1s0x391df7f88d0196b3:0x4d33d7dbf34b6bfd!8m2!3d33.6086096!4d75.2124302!16s%2Fg%2F11rstnvdrq!19sChIJs5YBjfj3HTkR_WtL89vXM00?authuser=0&hl=en&rclk=1",
        "coordinates": {
            "latitude": 33.6086096,
            "longitude": 75.2124302
        }
    },
    {
        "name": "MASJID-E- UMAR RZ",
        "main_category": "Mosque",
        "address": "WVGQ+VPG MASJID-E- UMAR RZ, MALIK COLONY, Newa Pulwama",
        "detailed_address": {
            "ward": null,
            "street": "WVGQ+VPG, MALIK COLONY",
            "city": "Newa Pulwama",
            "postal_code": null,
            "state": null,
            "country_code": "IN"
        },
        "images": [
            {
                "about": "All",
                "link": "https://lh5.googleusercontent.com/p/AF1QipMOmVt10GXtAnMWXKb_xIf0PZZHA7VOiIAa7NoF=w397-h298-k-no"
            }
        ],
        "link": "https://www.google.com/maps/place/MASJID-E-+UMAR+RZ/data=!4m7!3m6!1s0x38e18b63acc3f497:0x72a798e80e83027d!8m2!3d33.9271886!4d74.8893169!16s%2Fg%2F11jsl7clzn!19sChIJl_TDrGOL4TgRfQKDDuiYp3I?authuser=0&hl=en&rclk=1",
        "coordinates": {
            "latitude": 33.9271886,
            "longitude": 74.8893169
        }
    },
    {
        "name": "Masjid Qadeem Newah msjd qdym nywh",
        "main_category": "Mosque",
        "address": "WV7M+MP4 Masjid Qadeem Newah msjd qdym nywh, Newa Pulwama, Giru, 191113",
        "detailed_address": {
            "ward": null,
            "street": "WV7M+MP4",
            "city": "Newa Pulwama, Giru",
            "postal_code": "191113",
            "state": null,
            "country_code": "IN"
        },
        "images": [
            {
                "about": "All",
                "link": "https://lh5.googleusercontent.com/p/AF1QipMIRKbxh1MqdSonEZmXb4bMkHw9OFxNjdGEbhNo=w596-h298-k-no"
            }
        ],
        "link": "https://www.google.com/maps/place/Masjid+Qadeem+Newah+%D9%85%D8%B3%D8%AC%D8%AF+%D9%82%D8%AF%DB%8C%D9%85+%D9%86%DB%8C%D9%88%DB%81%E2%80%AD/data=!4m7!3m6!1s0x38e1f591c9f5790f:0x1bac96f1df7974a4!8m2!3d33.9141448!4d74.8843165!16s%2Fg%2F11r1wdpzmr!19sChIJD3n1yZH14TgRpHR53_GWrBs?authuser=0&hl=en&rclk=1",
        "coordinates": {
            "latitude": 33.914144799999995,
            "longitude": 74.8843165
        }
    },
    {
        "name": "Masjid Shareef Wani Mohalla",
        "main_category": "Mosque",
        "address": "JCWQ+838 Masjid Shareef Wani Mohalla, Dudi, 193222",
        "detailed_address": {
            "ward": null,
            "street": "JCWQ+838",
            "city": "Dudi",
            "postal_code": "193222",
            "state": null,
            "country_code": "IN"
        },
        "images": [],
        "link": "https://www.google.com/maps/place/Masjid+Shareef+Wani+Mohalla/data=!4m7!3m6!1s0x38e13d7a56ba19d7:0xf55228e56cfad845!8m2!3d34.6457924!4d74.4377101!16s%2Fg%2F11s462hcrw!19sChIJ1xm6Vno94TgRRdj6bOUoUvU?authuser=0&hl=en&rclk=1",
        "coordinates": {
            "latitude": 34.6457924,
            "longitude": 74.43771009999999
        }
    },
    {
        "name": "Masjid Awana",
        "main_category": "Mosque",
        "address": "QQ2P+9V2 Masjid Awana, Awana, Gujrat, Punjab, Pakistan",
        "detailed_address": {
            "ward": null,
            "street": "QQ2P+9V2",
            "city": "Awana",
            "postal_code": null,
            "state": "Gujrat, Punjab",
            "country_code": "PK"
        },
        "images": [],
        "link": "https://www.google.com/maps/place/Masjid+Awana/data=!4m7!3m6!1s0x391f9e37c6e73197:0x3755f59a41256e92!8m2!3d32.7508801!4d73.7871435!16s%2Fg%2F1tfq311l!19sChIJlzHnxjeeHzkRkm4lQZr1VTc?authuser=0&hl=en&rclk=1",
        "coordinates": {
            "latitude": 32.750880099999996,
            "longitude": 73.7871435
        }
    },
    {
        "name": "JAMIA MASJID SHARIEF TUMLAHAL",
        "main_category": "Mosque",
        "address": "JAMIA MASJID SHARIEF TUMLAHAL, WANI MOHALLA ROAD, Tumlahal, 192301, 192301",
        "detailed_address": {
            "ward": null,
            "street": "WANI MOHALLA ROAD, Tumlahal, 192301",
            "city": "Tumlahal",
            "postal_code": "192301",
            "state": null,
            "country_code": "IN"
        },
        "images": [],
        "link": "https://www.google.com/maps/place/JAMIA+MASJID+SHARIEF+TUMLAHAL/data=!4m7!3m6!1s0x38e1f783ba686111:0x639d4b48af4434ad!8m2!3d33.822085!4d74.9379383!16s%2Fg%2F11qsbjzrzz!19sChIJEWFouoP34TgRrTREr0hLnWM?authuser=0&hl=en&rclk=1",
        "coordinates": {
            "latitude": 33.822085,
            "longitude": 74.9379383
        }
    },
    {
        "name": "Masjid Ahlihadees check kanganhall",
        "main_category": "Mosque",
        "address": "Masjid Ahlihadees check kanganhall, 192201",
        "detailed_address": {
            "ward": null,
            "street": null,
            "city": null,
            "postal_code": "192201",
            "state": null,
            "country_code": "IN"
        },
        "images": [],
        "link": "https://www.google.com/maps/place/Masjid+Ahlihadees+check+kanganhall/data=!4m7!3m6!1s0x38e20948657a2f4d:0x1882a6a9032de85d!8m2!3d33.7018836!4d75.2229163!16s%2Fg%2F11p6100vrq!19sChIJTS96ZUgJ4jgRXegtA6mmghg?authuser=0&hl=en&rclk=1",
        "coordinates": {
            "latitude": 33.701883599999995,
            "longitude": 75.2229163
        }
    },
    {
        "name": "Masjid sharif Premnager",
        "main_category": "Mosque",
        "address": "5M6P+42R Masjid sharif Premnager, Forest Block, 182201",
        "detailed_address": {
            "ward": null,
            "street": "5M6P+42R",
            "city": "Forest Block",
            "postal_code": "182201",
            "state": null,
            "country_code": "IN"
        },
        "images": [],
        "link": "https://www.google.com/maps/place/Masjid+sharif+Premnager/data=!4m7!3m6!1s0x391da7ba07c99c03:0x9f5f98c781b9321!8m2!3d33.1603629!4d75.6850277!16s%2Fg%2F11n32_sv3j!19sChIJA5zJB7qnHTkRIZMbeIz59Qk?authuser=0&hl=en&rclk=1",
        "coordinates": {
            "latitude": 33.160362899999996,
            "longitude": 75.68502769999999
        }
    },
    {
        "name": "Masjid Abu Bakr Siddiq msjd bwbkhr Sdyq",
        "main_category": "Mosque",
        "address": "J4Q8+2M4 Masjid Abu Bakr Siddiq msjd bwbkhr Sdyq, Jammu and Kashmir 192221",
        "detailed_address": {
            "ward": null,
            "street": "J4Q8+2M4",
            "city": null,
            "postal_code": null,
            "state": "Jammu and Kashmir",
            "country_code": "IN"
        },
        "images": [
            {
                "about": "All",
                "link": "https://lh5.googleusercontent.com/p/AF1QipMSfZJXTZsOHlVwOIoxo4WF787xhuQTR7FSJwSG=w224-h298-k-no"
            }
        ],
        "link": "https://www.google.com/maps/place/Masjid+Abu+Bakr+Siddiq+%D9%85%D8%B3%D8%AC%D8%AF+%D8%A7%D8%A8%D9%88%D8%A8%DA%A9%D8%B1+%D8%B5%D8%AF%DB%8C%D9%82%E2%80%AD/data=!4m7!3m6!1s0x38e2076527227127:0xf56c628e9b8d8e27!8m2!3d33.6375121!4d75.1167062!16s%2Fg%2F11st_bwqw8!19sChIJJ3EiJ2UH4jgRJ46Nm45ibPU?authuser=0&hl=en&rclk=1",
        "coordinates": {
            "latitude": 33.637512099999995,
            "longitude": 75.1167062
        }
    },
    {
        "name": "Masjid Ahlihadees palpora",
        "main_category": "Mosque",
        "address": "Masjid Ahlihadees palpora, Palpora, Gassi Pora, Jammu and Kashmir 192211",
        "detailed_address": {
            "ward": null,
            "street": "Palpora",
            "city": "Gassi Pora",
            "postal_code": "192211",
            "state": "Jammu and Kashmir",
            "country_code": "IN"
        },
        "images": [],
        "link": "https://www.google.com/maps/place/Masjid+Ahlihadees+palpora/data=!4m7!3m6!1s0x38e20962eb858e7b:0xbc3e2dd8cdc611fa!8m2!3d33.6631866!4d75.1856626!16s%2Fg%2F11t5b6_9nv!19sChIJe46F62IJ4jgR-hHGzdgtPrw?authuser=0&hl=en&rclk=1",
        "coordinates": {
            "latitude": 33.663186599999996,
            "longitude": 75.1856626
        }
    },
    {
        "name": "Masjid Bodsawala Wali",
        "main_category": "Mosque",
        "address": "Masjid Bodsawala Wali, 2370,Chatta Shahji,Chawri Bazar, Dharam Pura Rd, Nai Wala, Chandni Chowk, New Delhi, Delhi 110006",
        "detailed_address": {
            "ward": "Nai Wala, Chandni Chowk",
            "street": "2370,Chatta Shahji,Chawri Bazar, Dharam Pura Rd",
            "city": "New Delhi, Delhi",
            "postal_code": "110006",
            "state": "Delhi",
            "country_code": "IN"
        },
        "images": [
            {
                "about": "All",
                "link": "https://streetviewpixels-pa.googleapis.com/v1/thumbnail?panoid=V7ypaw0J0fkCCyMxiE8fyw&cb_client=maps_sv.tactile.gps&w=224&h=298&yaw=358.73636&pitch=0&thumbfov=100"
            },
            {
                "about": "Street View & 360deg",
                "link": "https://streetviewpixels-pa.googleapis.com/v1/thumbnail?panoid=V7ypaw0J0fkCCyMxiE8fyw&cb_client=maps_sv.tactile.gps&w=224&h=298&yaw=358.73636&pitch=0&thumbfov=100"
            }
        ],
        "link": "https://www.google.com/maps/place/Masjid+Bodsawala+Wali/data=!4m7!3m6!1s0x390cfd19b6b59b81:0x1d0c8dba8ab5b549!8m2!3d28.6509214!4d77.2308029!16s%2Fg%2F1ptx9cfbw!19sChIJgZu1thn9DDkRSbW1irqNDB0?authuser=0&hl=en&rclk=1",
        "coordinates": {
            "latitude": 28.650921399999998,
            "longitude": 77.2308029
        }
    },
    {
        "name": "Jamia Masjid Wani Pura Malwana",
        "main_category": "Mosque",
        "address": "6J8Q+HM7 Jamia Masjid Wani Pura Malwana, Malwana Jagir, Bhal Wana, 182202",
        "detailed_address": {
            "ward": null,
            "street": "6J8Q+HM7",
            "city": "Malwana Jagir, Bhal Wana",
            "postal_code": "182202",
            "state": null,
            "country_code": "IN"
        },
        "images": [],
        "link": "https://www.google.com/maps/place/Jamia+Masjid+Wani+Pura+Malwana/data=!4m7!3m6!1s0x391da73fcd9a23fd:0x36e9824f47f9ce63!8m2!3d33.216407!4d75.6391757!16s%2Fg%2F11p0h54ppd!19sChIJ_SOazT-nHTkRY875R0-C6TY?authuser=0&hl=en&rclk=1",
        "coordinates": {
            "latitude": 33.216407,
            "longitude": 75.6391757
        }
    },
    {
        "name": "Masjid Shareef wani mohalla",
        "main_category": "Mosque",
        "address": "FRVR+7P5 Masjid Shareef wani mohalla, Janak Pur, 182204",
        "detailed_address": {
            "ward": null,
            "street": "FRVR+7P5",
            "city": "Janak Pur",
            "postal_code": "182204",
            "state": null,
            "country_code": "IN"
        },
        "images": [],
        "link": "https://www.google.com/maps/place/Masjid+Shareef+wani+mohalla/data=!4m7!3m6!1s0x391d7134a1ffbbb9:0x83dcb4c0fb5f5813!8m2!3d33.4931297!4d75.8418617!16s%2Fg%2F11py_511j6!19sChIJubv_oTRxHTkRE1hf-8C03IM?authuser=0&hl=en&rclk=1",
        "coordinates": {
            "latitude": 33.4931297,
            "longitude": 75.8418617
        }
    },
    {
        "name": "HANFiA MASJID NABIR WANI MOHALLA",
        "main_category": "Mosque",
        "address": "5J4C+XX5 HANFiA MASJID NABIR WANI MOHALLA, Khanpeth, Singhpora, Jammu and Kashmir 193121",
        "detailed_address": {
            "ward": null,
            "street": "5J4C+XX5",
            "city": "Khanpeth, Singhpora",
            "postal_code": null,
            "state": "Jammu and Kashmir",
            "country_code": "IN"
        },
        "images": [],
        "link": "https://www.google.com/maps/place/HANFiA+MASJID+NABIR+WANI+MOHALLA/data=!4m7!3m6!1s0x38e19f21295a388f:0xf113676a2225a485!8m2!3d34.1573984!4d74.6224884!16s%2Fg%2F11krr95l18!19sChIJjzhaKSGf4TgRhaQlImpnE_E?authuser=0&hl=en&rclk=1",
        "coordinates": {
            "latitude": 34.1573984,
            "longitude": 74.6224884
        }
    },
    {
        "name": "Masjid Shareef Kulvini pora",
        "main_category": "Mosque",
        "address": "P64M+G9V Masjid Shareef Kulvini pora, Tail Wani, Jammu and Kashmir 192201",
        "detailed_address": {
            "ward": null,
            "street": "P64M+G9V",
            "city": "Tail Wani",
            "postal_code": null,
            "state": "Jammu and Kashmir",
            "country_code": "IN"
        },
        "images": [],
        "link": "https://www.google.com/maps/place/Masjid+Shareef+Kulvini+pora/data=!4m7!3m6!1s0x38e20f359f12af8d:0x6e9b398022c653ee!8m2!3d33.7063655!4d75.2334201!16s%2Fg%2F11ss2n20gg!19sChIJja8SnzUP4jgR7lPGIoA5m24?authuser=0&hl=en&rclk=1",
        "coordinates": {
            "latitude": 33.7063655,
            "longitude": 75.2334201
        }
    },
    {
        "name": "Ashraf Wani house",
        "main_category": "Mosque",
        "address": "Ashraf Wani house, Bassa Ganika, Doda, Sohanda, Jammu and Kashmir 182147",
        "detailed_address": {
            "ward": null,
            "street": "Bassa Ganika",
            "city": "Doda, Sohanda",
            "postal_code": "182147",
            "state": "Jammu and Kashmir",
            "country_code": "IN"
        },
        "images": [
            {
                "about": "All",
                "link": "https://lh5.googleusercontent.com/p/AF1QipOlXcFOhSP04YvaJ3jCIrjqkxk4N-LXONGHM6Ei=w224-h443-k-no"
            },
            {
                "about": "Videos",
                "link": "https://lh5.googleusercontent.com/p/AF1QipMAt9X0TdTFMmVLGwRGVuG_BX1AzFlc3R3FOIZw=w224-h440-k-no"
            }
        ],
        "link": "https://www.google.com/maps/place/Ashraf+Wani+house/data=!4m7!3m6!1s0x391dbbc49b667257:0x71fdc408a32ed9f9!8m2!3d33.1664382!4d75.4714211!16s%2Fg%2F11rvjq5vgy!19sChIJV3Jmm8S7HTkR-dkuowjE_XE?authuser=0&hl=en&rclk=1",
        "coordinates": {
            "latitude": 33.1664382,
            "longitude": 75.4714211
        }
    },
    {
        "name": "Masjid shareef chowtal",
        "main_category": "Mosque",
        "address": "QPX5+9VJ Masjid shareef chowtal, Bag Sanger Wani, Forest Block, 191112",
        "detailed_address": {
            "ward": null,
            "street": "QPX5+9VJ",
            "city": "Bag Sanger Wani, Forest Block",
            "postal_code": "191112",
            "state": null,
            "country_code": "IN"
        },
        "images": [],
        "link": "https://www.google.com/maps/place/Masjid+shareef+chowtal/data=!4m7!3m6!1s0x38e1efd5cb5a8e83:0xba3b9527ceda2b71!8m2!3d33.7984674!4d74.709648!16s%2Fg%2F11rm7s2l7z!19sChIJg45ay9Xv4TgRcSvazieVO7o?authuser=0&hl=en&rclk=1",
        "coordinates": {
            "latitude": 33.7984674,
            "longitude": 74.709648
        }
    },
    {
        "name": "Masjid Shareef Wapora",
        "main_category": "Mosque",
        "address": "WRX8+8F9 Masjid Shareef Wapora, Wani Pora, 191113",
        "detailed_address": {
            "ward": null,
            "street": "WRX8+8F9",
            "city": "Wani Pora",
            "postal_code": null,
            "state": null,
            "country_code": "IN"
        },
        "images": [],
        "link": "https://www.google.com/maps/place/Masjid+Shareef+Wapora/data=!4m7!3m6!1s0x38e18d11d47ecd4d:0x187caeae4e158348!8m2!3d33.9482919!4d74.8162331!16s%2Fg%2F11pb7hbj7w!19sChIJTc1-1BGN4TgRSIMVTq6ufBg?authuser=0&hl=en&rclk=1",
        "coordinates": {
            "latitude": 33.9482919,
            "longitude": 74.81623309999999
        }
    },
    {
        "name": "Masjid kanzul iman Wani Morh Mahore",
        "main_category": "Mosque",
        "address": "8V65+JQ5 Masjid kanzul iman Wani Morh Mahore, Mahore, Shajroo, 182313",
        "detailed_address": {
            "ward": "Mahore",
            "street": "8V65+JQ5",
            "city": "Shajroo",
            "postal_code": "182313",
            "state": null,
            "country_code": "IN"
        },
        "images": [],
        "link": "https://www.google.com/maps/place/Masjid+kanzul+iman+Wani+Morh+Mahore/data=!4m7!3m6!1s0x391e0fd6cfedd2b1:0x1f9a16eb5e46d425!8m2!3d33.3115015!4d74.8594867!16s%2Fg%2F11rd2rlxl0!19sChIJsdLtz9YPHjkRJdRGXusWmh8?authuser=0&hl=en&rclk=1",
        "coordinates": {
            "latitude": 33.3115015,
            "longitude": 74.85948669999999
        }
    },
    {
        "name": "Hanafiya Masjid shareef Galwanpora",
        "main_category": "Mosque",
        "address": "Hanafiya Masjid shareef Galwanpora, Hakeem hometown galwanpora, Mir Wani, Jammu and Kashmir 192233",
        "detailed_address": {
            "ward": null,
            "street": "Hakeem hometown galwanpora",
            "city": "Mir Wani",
            "postal_code": "192233",
            "state": "Jammu and Kashmir",
            "country_code": "IN"
        },
        "images": [
            {
                "about": "All",
                "link": "https://lh5.googleusercontent.com/p/AF1QipOUpQQAiiCkhhgK_PawLCPY4hEEh6HoLxYEmfUT=w224-h398-k-no"
            },
            {
                "about": "Dome",
                "link": "https://lh5.googleusercontent.com/p/AF1QipOUpQQAiiCkhhgK_PawLCPY4hEEh6HoLxYEmfUT=w224-h398-k-no"
            },
            {
                "about": "By owner",
                "link": "https://lh5.googleusercontent.com/p/AF1QipOUpQQAiiCkhhgK_PawLCPY4hEEh6HoLxYEmfUT=w224-h398-k-no"
            }
        ],
        "link": "https://www.google.com/maps/place/Hanafiya+Masjid+shareef+Galwanpora/data=!4m7!3m6!1s0x38e1fdb7ed0d2e75:0x88c4833dd0505cd5!8m2!3d33.6292731!4d74.8719135!16s%2Fg%2F11k3yyxbpg!19sChIJdS4N7bf94TgR1VxQ0D2DxIg?authuser=0&hl=en&rclk=1",
        "coordinates": {
            "latitude": 33.6292731,
            "longitude": 74.87191349999999
        }
    },
    {
        "name": "Jamia Masjid Wooder Pora Abhama",
        "main_category": "Mosque",
        "address": "QPXV+3F9 Jamia Masjid Wooder Pora Abhama, Bag Sanger Wani, 191112",
        "detailed_address": {
            "ward": null,
            "street": "QPXV+3F9",
            "city": "Bag Sanger Wani",
            "postal_code": "191112",
            "state": null,
            "country_code": "IN"
        },
        "images": [],
        "link": "https://www.google.com/maps/place/Jamia+Masjid+Wooder+Pora+Abhama/data=!4m7!3m6!1s0x38e1efa47c5157ef:0xe777df606eb06cfa!8m2!3d33.7976679!4d74.7437429!16s%2Fg%2F11sh05fvg2!19sChIJ71dRfKTv4TgR-mywbmDfd-c?authuser=0&hl=en&rclk=1",
        "coordinates": {
            "latitude": 33.7976679,
            "longitude": 74.7437429
        }
    },
    {
        "name": "Jamia masjid tangwani",
        "main_category": "Mosque",
        "address": "Jamia masjid tangwani, Tangwani javid lone shop, Guri Draman, Rain Ather, Jammu and Kashmir 192202",
        "detailed_address": {
            "ward": null,
            "street": "Tangwani javid lone shop",
            "city": "Guri Draman, Rain Ather",
            "postal_code": "192202",
            "state": "Jammu and Kashmir",
            "country_code": "IN"
        },
        "images": [
            {
                "about": "All",
                "link": "https://lh5.googleusercontent.com/p/AF1QipMLvo_Idi-3MVldEivXzxQr1zf0VGofmOwLM540=w224-h485-k-no"
            },
            {
                "about": "Latest",
                "link": "https://lh5.googleusercontent.com/p/AF1QipOkj1nARKEK-V71d_bsR6Nowd0RFEvRLmTnkPVf=w224-h398-k-no"
            },
            {
                "about": "Videos",
                "link": "https://lh5.googleusercontent.com/p/AF1QipOkj1nARKEK-V71d_bsR6Nowd0RFEvRLmTnkPVf=w224-h398-k-no"
            },
            {
                "about": "By owner",
                "link": "https://lh5.googleusercontent.com/p/AF1QipMXRMfooHZgulclvJJ9BGUCMdWkdrL59tiZ6uv2=w224-h398-k-no"
            }
        ],
        "link": "https://www.google.com/maps/place/Jamia+masjid+tangwani/data=!4m7!3m6!1s0x38e2756d2636bde7:0x2a7d6247e73188b5!8m2!3d33.6483125!4d75.3823125!16s%2Fg%2F11lsc4c21r!19sChIJ5702Jm114jgRtYgx50difSo?authuser=0&hl=en&rclk=1",
        "coordinates": {
            "latitude": 33.648312499999996,
            "longitude": 75.3823125
        }
    },
    {
        "name": "Masjid char yaar",
        "main_category": "Mosque",
        "address": "RP29+827 Masjid char yaar, Bag Sanger Wani, Forest Block, 191112",
        "detailed_address": {
            "ward": null,
            "street": "RP29+827",
            "city": "Bag Sanger Wani, Forest Block",
            "postal_code": "191112",
            "state": null,
            "country_code": "IN"
        },
        "images": [],
        "link": "https://www.google.com/maps/place/Masjid+char+yaar/data=!4m7!3m6!1s0x38e1ef2c48c1351b:0xb40b1398c1930a0!8m2!3d33.8007939!4d74.7175328!16s%2Fg%2F11rkg8d4r_!19sChIJGzXBSCzv4TgRoDAZjDmxQAs?authuser=0&hl=en&rclk=1",
        "coordinates": {
            "latitude": 33.800793899999995,
            "longitude": 74.7175328
        }
    },
    {
        "name": "Masjid Satrimaidan Haji Mohallah",
        "main_category": "Mosque",
        "address": "P6GC+VJ3 Masjid Satrimaidan Haji Mohallah, Khirman Tali Wani, 192125",
        "detailed_address": {
            "ward": null,
            "street": "P6GC+VJ3",
            "city": "Khirman Tali Wani",
            "postal_code": "192125",
            "state": null,
            "country_code": "IN"
        },
        "images": [],
        "link": "https://www.google.com/maps/place/Masjid+Satrimaidan+Haji+Mohallah/data=!4m7!3m6!1s0x38e20fd62186b819:0x1ff7f92dfe92fa23!8m2!3d33.7271438!4d75.2215561!16s%2Fg%2F11q8s35n32!19sChIJGbiGIdYP4jgRI_qS_i359x8?authuser=0&hl=en&rclk=1",
        "coordinates": {
            "latitude": 33.7271438,
            "longitude": 75.2215561
        }
    },
    {
        "name": "Masjid Abu Bakr(R.A)",
        "main_category": "Mosque",
        "address": "JVHH+9RQ Masjid Abu Bakr(R.A), Chogalpora, Jammu and Kashmir 192233",
        "detailed_address": {
            "ward": null,
            "street": "JVHH+9RQ",
            "city": "Chogalpora",
            "postal_code": "192233",
            "state": "Jammu and Kashmir",
            "country_code": "IN"
        },
        "images": [],
        "link": "https://www.google.com/maps/place/Masjid+Abu+Bakr%28R.A%29/data=!4m7!3m6!1s0x38e1ffb9ad803bfb:0xf42c07356bad2df2!8m2!3d33.6284692!4d74.879613!16s%2Fg%2F11khd_qgth!19sChIJ-zuArbn_4TgR8i2tazUHLPQ?authuser=0&hl=en&rclk=1",
        "coordinates": {
            "latitude": 33.6284692,
            "longitude": 74.87961299999999
        }
    },
    {
        "name": "Masjid shareef wani mohalla jurniyal",
        "main_category": "Mosque",
        "address": "Masjid shareef wani mohalla jurniyal, Wani mohalla, Jurniyal, Forest Block, Jammu and Kashmir 193503",
        "detailed_address": {
            "ward": null,
            "street": "Wani mohalla",
            "city": "Jurniyal, Forest Block",
            "postal_code": "193503",
            "state": "Jammu and Kashmir",
            "country_code": "IN"
        },
        "images": [],
        "link": "https://www.google.com/maps/place/Masjid+shareef+wani+mohalla+jurniyal/data=!4m7!3m6!1s0x38e3df4ca8e5c693:0xe8ffee978fd74f16!8m2!3d34.5761324!4d75.0116243!16s%2Fg%2F11k53wpql8!19sChIJk8blqEzf4zgRFk_Xj5fu_-g?authuser=0&hl=en&rclk=1",
        "coordinates": {
            "latitude": 34.5761324,
            "longitude": 75.0116243
        }
    },
    {
        "name": "Masjid Shareef Chogalpora",
        "main_category": "Mosque",
        "address": "JVGH+V54 Masjid Shareef Chogalpora, Chogalpora, 192233",
        "detailed_address": {
            "ward": null,
            "street": "JVGH+V54",
            "city": "Chogalpora",
            "postal_code": "192233",
            "state": null,
            "country_code": "IN"
        },
        "images": [],
        "link": "https://www.google.com/maps/place/Masjid+Shareef+Chogalpora/data=!4m7!3m6!1s0x38e1ffd50fa6f4f1:0x278fcb25c2ecf620!8m2!3d33.6271901!4d74.8781227!16s%2Fg%2F11s7vmx8gp!19sChIJ8fSmD9X_4TgRIPbswiXLjyc?authuser=0&hl=en&rclk=1",
        "coordinates": {
            "latitude": 33.6271901,
            "longitude": 74.87812269999999
        }
    },
    {
        "name": "Jamia Masjid Sharief",
        "main_category": "Mosque",
        "address": "Jamia Masjid Sharief, Wani Mohalla, Udder Khud Lassipora, Shekhawari Pora, Jammu and Kashmir 191111",
        "detailed_address": {
            "ward": "Wani Mohalla",
            "street": null,
            "city": "Udder Khud Lassipora, Shekhawari Pora",
            "postal_code": "191111",
            "state": "Jammu and Kashmir",
            "country_code": "IN"
        },
        "images": [],
        "link": "https://www.google.com/maps/place/Jamia+Masjid+Sharief/data=!4m7!3m6!1s0x38e195ac4e4a8a11:0x5783f4de24cf50ad!8m2!3d33.9569622!4d74.6489256!16s%2Fg%2F11rsbq7wks!19sChIJEYpKTqyV4TgRrVDPJN70g1c?authuser=0&hl=en&rclk=1",
        "coordinates": {
            "latitude": 33.9569622,
            "longitude": 74.6489256
        }
    },
    {
        "name": "Herpora masjid",
        "main_category": "Mosque",
        "address": "JVHH+6CC Herpora masjid, Chogalpora, 192233",
        "detailed_address": {
            "ward": null,
            "street": "JVHH+6CC",
            "city": "Chogalpora",
            "postal_code": null,
            "state": null,
            "country_code": "IN"
        },
        "images": [],
        "link": "https://www.google.com/maps/place/Herpora+masjid/data=!4m7!3m6!1s0x38e1ff47fafb735f:0xb74d9207efe2032!8m2!3d33.6280543!4d74.87853!16s%2Fg%2F11rp5yc993!19sChIJX3P7-kf_4TgRMiD-fiDZdAs?authuser=0&hl=en&rclk=1",
        "coordinates": {
            "latitude": 33.628054299999995,
            "longitude": 74.87853
        }
    },
    {
        "name": "Masjid Abu Bakkar Wani Mohalla Darpora Lolab",
        "main_category": "Mosque",
        "address": "GC69+XCR Masjid Abu Bakkar Wani Mohalla Darpora Lolab, Darpora, Jammu and Kashmir 193223",
        "detailed_address": {
            "ward": null,
            "street": "GC69+XCR",
            "city": "Darpora",
            "postal_code": "193223",
            "state": "Jammu and Kashmir",
            "country_code": "IN"
        },
        "images": [],
        "link": "https://www.google.com/maps/place/Masjid+Abu+Bakkar+Wani+Mohalla+Darpora+Lolab/data=!4m7!3m6!1s0x38e1177008417527:0xc6d7257d201866!8m2!3d34.512389!4d74.418753!16s%2Fg%2F11tt43wgbf!19sChIJJ3VBCHAX4TgRZhggfSXXxgA?authuser=0&hl=en&rclk=1",
        "coordinates": {
            "latitude": 34.512389,
            "longitude": 74.418753
        }
    },
    {
        "name": "Masjid Shareef Otingru",
        "main_category": "Mosque",
        "address": "87J2+47R Masjid Shareef Otingru, Otingru, Jammu and Kashmir 193303",
        "detailed_address": {
            "ward": null,
            "street": "87J2+47R",
            "city": "Otingru",
            "postal_code": "193303",
            "state": "Jammu and Kashmir",
            "country_code": "IN"
        },
        "images": [],
        "link": "https://www.google.com/maps/place/Masjid+Shareef+Otingru/data=!4m7!3m6!1s0x38e10348d61cff8f:0x195d254270415774!8m2!3d34.3303532!4d74.2506297!16s%2Fg%2F11v72yyq08!19sChIJj_8c1kgD4TgRdFdBcEIlXRk?authuser=0&hl=en&rclk=1",
        "coordinates": {
            "latitude": 34.3303532,
            "longitude": 74.25062969999999
        }
    },
    {
        "name": "jamia masjid bheli",
        "main_category": "Mosque",
        "address": "5HFH+52M jamia masjid bheli, bheli, Arnora, Agrika, 182201",
        "detailed_address": {
            "ward": "bheli",
            "street": "5HFH+52M",
            "city": "Arnora, Agrika",
            "postal_code": null,
            "state": null,
            "country_code": "IN"
        },
        "images": [],
        "link": "https://www.google.com/maps/place/jamia+masjid+bheli/data=!4m7!3m6!1s0x391da5d108044e11:0x31b1b83142e3ab97!8m2!3d33.1729731!4d75.577546!16s%2Fg%2F11rc8ndhv9!19sChIJEU4ECNGlHTkRl6vjQjG4sTE?authuser=0&hl=en&rclk=1",
        "coordinates": {
            "latitude": 33.1729731,
            "longitude": 75.577546
        }
    },
    {
        "name": "Umer Masjid new Colony",
        "main_category": "Mosque",
        "address": "W46G+4C5 Umer Masjid new Colony, Pinglish, Cheribugh, 192124",
        "detailed_address": {
            "ward": null,
            "street": "W46G+4C5",
            "city": "Pinglish, Cheribugh",
            "postal_code": "192124",
            "state": null,
            "country_code": "IN"
        },
        "images": [],
        "link": "https://www.google.com/maps/place/Umer+Masjid+new+Colony/data=!4m7!3m6!1s0x38e219eb5a14cffd:0xef11e2fd885a806!8m2!3d33.9102636!4d75.1261113!16s%2Fg%2F11s3y6v2tl!19sChIJ_c8UWusZ4jgRBqiF2C8e8Q4?authuser=0&hl=en&rclk=1",
        "coordinates": {
            "latitude": 33.9102636,
            "longitude": 75.12611129999999
        }
    },
    {
        "name": "Masjid jamal kralgund",
        "main_category": "Mosque",
        "address": "Masjid jamal kralgund, Masjid Jamaal,(Deobandi, St25, Brah kralagund Wani Mohallah Brah, Srinagar, 192201",
        "detailed_address": {
            "ward": null,
            "street": "Masjid Jamaal,(Deobandi, St25, Brah kralagund Wani Mohallah Brah",
            "city": "Srinagar",
            "postal_code": "192201",
            "state": null,
            "country_code": "IN"
        },
        "images": [
            {
                "about": "All",
                "link": "https://lh5.googleusercontent.com/p/AF1QipO755NxRDKmMfl1z1XzrsEacYuv4jDdbBFH8-l6=w397-h298-k-no"
            },
            {
                "about": "Dome",
                "link": "https://lh5.googleusercontent.com/p/AF1QipO755NxRDKmMfl1z1XzrsEacYuv4jDdbBFH8-l6=w397-h298-k-no"
            }
        ],
        "link": "https://www.google.com/maps/place/Masjid+jamal+kralgund/data=!4m7!3m6!1s0x38e20dc6efb32caf:0x99692f0b8330c255!8m2!3d33.7360273!4d75.2895735!16s%2Fg%2F11sj1xlpkp!19sChIJryyz78YN4jgRVcIwgwsvaZk?authuser=0&hl=en&rclk=1",
        "coordinates": {
            "latitude": 33.736027299999996,
            "longitude": 75.2895735
        }
    },
    {
        "name": "Jama Masjid Ardbal Taiwani",
        "main_category": "Mosque",
        "address": "Jama Masjid Ardbal Taiwani, Jama Masjid, Ardbal Taiwani, Anantnag, 192201",
        "detailed_address": {
            "ward": "Ardbal Taiwani",
            "street": "Jama Masjid",
            "city": "Anantnag",
            "postal_code": null,
            "state": null,
            "country_code": "IN"
        },
        "images": [],
        "link": "https://www.google.com/maps/place/Jama+Masjid+Ardbal+Taiwani/data=!4m7!3m6!1s0x38e20f1c79c477ef:0x52e61655952caa69!8m2!3d33.7067198!4d75.2339532!16s%2Fg%2F11mphb07_3!19sChIJ73fEeRwP4jgRaaoslVUW5lI?authuser=0&hl=en&rclk=1",
        "coordinates": {
            "latitude": 33.7067198,
            "longitude": 75.2339532
        }
    },
    {
        "name": "JAMIA MASJID ABI BAKKAR, MADRASA DAR-UL-ULOOM TALEEM-UL-QURAN",
        "main_category": "Mosque",
        "address": "JRCR+845 JAMIA MASJID ABI BAKKAR, MADRASA DAR-UL-ULOOM TALEEM-UL-QURAN, Opposite dad house, wani road, wani gujran, racial, rawalpindi, Pakistan",
        "detailed_address": {
            "ward": null,
            "street": "JRCR+845, Opposite dad house, wani road, wani gujran, racial",
            "city": "rawalpindi",
            "postal_code": null,
            "state": "Rawalpindi, Punjab",
            "country_code": "PK"
        },
        "images": [
            {
                "about": "All",
                "link": "https://lh5.googleusercontent.com/p/AF1QipOO_RtzKBHVGCknLDT_rq2H9vIWn6k6soqCfdYh=w397-h298-k-no"
            },
            {
                "about": "Latest",
                "link": "https://lh5.googleusercontent.com/p/AF1QipNX_hZGMUGRDUUU8tsydZQ1o0RTQw1O3m9SZnOZ=w397-h298-k-no"
            }
        ],
        "link": "https://www.google.com/maps/place/JAMIA+MASJID+ABI+BAKKAR,+MADRASA+DAR-UL-ULOOM+TALEEM-UL-QURAN/data=!4m7!3m6!1s0x38df997329bdc173:0x4782b9f4233719d2!8m2!3d33.6207734!4d72.8403549!16s%2Fg%2F11vj97qpcx!19sChIJc8G9KXOZ3zgR0hk3I_S5gkc?authuser=0&hl=en&rclk=1",
        "coordinates": {
            "latitude": 33.6207734,
            "longitude": 72.8403549
        }
    },
    {
        "name": "SHEIKH KIRYANA",
        "main_category": "Juice shop",
        "address": "SHEIKH KIRYANA, near Jamia Masjid, Chogal Pora, Chogalpora, Jammu and Kashmir 192233",
        "detailed_address": {
            "ward": "Chogal Pora",
            "street": "near Jamia Masjid",
            "city": "Chogalpora",
            "postal_code": "192233",
            "state": "Jammu and Kashmir",
            "country_code": "IN"
        },
        "images": [
            {
                "about": "All",
                "link": "https://lh5.googleusercontent.com/p/AF1QipPguPtVNV9GyPBGxcxKEpKZ9i4yu7suBFaY_s6f=w298-h298-k-no"
            }
        ],
        "link": "https://www.google.com/maps/place/SHEIKH+KIRYANA/data=!4m7!3m6!1s0x38e1ffe599fd8397:0xad0abb03cd1d1697!8m2!3d33.6270018!4d74.8784601!16s%2Fg%2F11rhzn5790!19sChIJl4P9meX_4TgRlxYdzQO7Cq0?authuser=0&hl=en&rclk=1",
        "coordinates": {
            "latitude": 33.627001799999995,
            "longitude": 74.8784601
        }
    },
    {
        "name": "Masjid Shuda e Kashmir msjd shhd khshmyr",
        "main_category": "Mosque",
        "address": "Masjid Shuda e Kashmir msjd shhd khshmyr, Graveyard, Eidgah Rd, near myters, Rathapura, Srinagar, Jammu and Kashmir 190002",
        "detailed_address": {
            "ward": "Rathapura",
            "street": "Graveyard, Eidgah Rd, near myters",
            "city": "Srinagar",
            "postal_code": "190002",
            "state": "Jammu and Kashmir",
            "country_code": "IN"
        },
        "images": [
            {
                "about": "All",
                "link": "https://lh5.googleusercontent.com/p/AF1QipPgsEOPofvws6Wy7nqKCxslg6W6iaxevAkfswTz=w529-h298-k-no"
            }
        ],
        "link": "https://www.google.com/maps/place/Masjid+Shuda+e+Kashmir+%D9%85%D8%B3%D8%AC%D8%AF+%D8%B4%DA%BE%D8%AF%D8%A7%D8%A1+%DA%A9%D8%B4%D9%85%DB%8C%D8%B1%E2%80%AD/data=!4m7!3m6!1s0x38e185ef91d0ca53:0x554195e7102e7edc!8m2!3d34.0990308!4d74.7905388!16s%2Fg%2F11ht2572y4!19sChIJU8rQke-F4TgR3H4uEOeVQVU?authuser=0&hl=en&rclk=1",
        "coordinates": {
            "latitude": 34.0990308,
            "longitude": 74.7905388
        }
    }
]