[
    {
        "name": "masjid bhatta colony",
        "main_category": "Mosque",
        "address": "P2RG+8JF masjid bhatta colony, bhatta colony, Hindaun, Rajasthan 322230",
        "detailed_address": {
            "ward": "Amrit Puri",
            "street": "P2RG+8JF, bhatta colony",
            "city": "Hindaun",
            "postal_code": "322230",
            "state": "Rajasthan",
            "country_code": "IN"
        },
        "images": [
            {
                "about": "All",
                "link": "https://lh5.googleusercontent.com/p/AF1QipNTwZxNFJysaqU9FrpAY1bpXYuAqMSqH_TH6bAg=w529-h298-k-no"
            },
            {
                "about": "Latest",
                "link": "https://lh5.googleusercontent.com/p/AF1QipOY7CU07TeBqpOqiGtMUTuri9PBQryCI6LnSGYX=w596-h298-k-no"
            },
            {
                "about": "Videos",
                "link": "https://lh5.googleusercontent.com/p/AF1QipNlX-UdivDsN-GrTYRsUnBY438iyAmR0v8q9CbH=w224-h398-k-no"
            }
        ],
        "link": "https://www.google.com/maps/place/masjid+bhatta+colony/data=!4m7!3m6!1s0x39722fec8ea7df3f:0xcd975f1438855822!8m2!3d26.7408211!4d77.0265505!16s%2Fg%2F11c453_t7y!19sChIJP9-njuwvcjkRIliFOBRfl80?authuser=0&hl=en&rclk=1",
        "coordinates": {
            "latitude": 26.740821099999998,
            "longitude": 77.0265505
        }
    },
    {
        "name": "Masjid",
        "main_category": "Mosque",
        "address": "P2XF+WF8 Masjid, Khanna Colony, Dwarkapura, Hindaun, Rajasthan 322230",
        "detailed_address": {
            "ward": "Khanna Colony, Dwarkapura",
            "street": "P2XF+WF8",
            "city": "Hindaun",
            "postal_code": "322230",
            "state": "Rajasthan",
            "country_code": "IN"
        },
        "images": [
            {
                "about": "All",
                "link": "https://lh5.googleusercontent.com/p/AF1QipMwP5430_wXnFwiD3OZZJ26LZpC6fBH7dycvXOQ=w224-h398-k-no"
            },
            {
                "about": "Street View & 360deg",
                "link": "https://streetviewpixels-pa.googleapis.com/v1/thumbnail?panoid=fPTai6PH27W6xQ4NR_YIkA&cb_client=maps_sv.tactile.gps&w=224&h=298&yaw=257.08545&pitch=0&thumbfov=100"
            },
            {
                "about": "Videos",
                "link": "https://lh5.googleusercontent.com/p/AF1QipMwSm0_EMVtXUZOD_sLQz3ufa_qvQ7bIyUfPtbK=w224-h398-k-no"
            }
        ],
        "link": "https://www.google.com/maps/place/Masjid/data=!4m7!3m6!1s0x39722fe563cd0109:0x56c4e275781f56b3!8m2!3d26.7497906!4d77.0237138!16s%2Fg%2F11f30p0l3r!19sChIJCQHNY-UvcjkRs1YfeHXixFY?authuser=0&hl=en&rclk=1",
        "coordinates": {
            "latitude": 26.749790599999997,
            "longitude": 77.0237138
        }
    },
    {
        "name": "Masjid E Usmaniya Chove Para Hinduan City",
        "main_category": "Mosque",
        "address": "P2JQ+M7Q Masjid E Usmaniya Chove Para Hinduan City, Baddi Chopar, Hindaun, Rajasthan 322230",
        "detailed_address": {
            "ward": "Baddi Chopar",
            "street": "P2JQ+M7Q",
            "city": "Hindaun",
            "postal_code": "322230",
            "state": "Rajasthan",
            "country_code": "IN"
        },
        "images": [
            {
                "about": "All",
                "link": "https://lh5.googleusercontent.com/p/AF1QipPPJNEngnNWtTVGXzmXEM6H4DZ8CW72emmZSD4c=w224-h298-k-no"
            }
        ],
        "link": "https://www.google.com/maps/place/Masjid+E+Usmaniya+Chove+Para+Hinduan+City/data=!4m7!3m6!1s0x39722fbc6e875e37:0xe7d7a04e51f817e8!8m2!3d26.7317!4d77.0382332!16s%2Fg%2F11dxqgkw1k!19sChIJN16HbrwvcjkR6Bf4UU6g1-c?authuser=0&hl=en&rclk=1",
        "coordinates": {
            "latitude": 26.7317,
            "longitude": 77.0382332
        }
    },
    {
        "name": "Jama masjid",
        "main_category": "Mosque",
        "address": "P2HQ+97C Jama masjid, Shahganj, Hindaun, Rajasthan 322230",
        "detailed_address": {
            "ward": "Shahganj",
            "street": "P2HQ+97C",
            "city": "Hindaun",
            "postal_code": "322230",
            "state": "Rajasthan",
            "country_code": "IN"
        },
        "images": [
            {
                "about": "All",
                "link": "https://lh5.googleusercontent.com/p/AF1QipPxsojySxGiak1JygbleyOP-6SseEwE7hjJQ_UX=w224-h398-k-no"
            }
        ],
        "link": "https://www.google.com/maps/place/Jama+masjid/data=!4m7!3m6!1s0x39722fbcb0a74da1:0x43977a226ee4b00!8m2!3d26.7284463!4d77.0381553!16s%2Fg%2F11g719fr22!19sChIJoU2nsLwvcjkRAEvuJqJ3OQQ?authuser=0&hl=en&rclk=1",
        "coordinates": {
            "latitude": 26.728446299999998,
            "longitude": 77.0381553
        }
    },
    {
        "name": "NAGINA MASJID ngiinaa msjid",
        "main_category": "Mosque",
        "address": "P2JM+2R2 NAGINA MASJID ngiinaa msjid, byaaniyaa paaddaa, Hindaun, Rajasthan 322230",
        "detailed_address": {
            "ward": "Baddi Chopar",
            "street": "P2JM+2R2, byaaniyaa paaddaa",
            "city": "Hindaun",
            "postal_code": "322230",
            "state": "Rajasthan",
            "country_code": "IN"
        },
        "images": [
            {
                "about": "All",
                "link": "https://lh5.googleusercontent.com/p/AF1QipMqKASbP-fbwoCc4k0oKWZwYKd5jeS4FYAsKlPM=w529-h298-k-no"
            },
            {
                "about": "Latest",
                "link": "https://lh5.googleusercontent.com/p/AF1QipO0YVpcpHpeqycf5t-DKzOPeV80WRaDvgWtoT0N=w224-h398-k-no"
            }
        ],
        "link": "https://www.google.com/maps/place/NAGINA+MASJID+%E0%A4%A8%E0%A4%97%E0%A5%80%E0%A4%A8%E0%A4%BE+%E0%A4%AE%E0%A4%B8%E0%A5%8D%E0%A4%9C%E0%A4%BF%E0%A4%A6/data=!4m7!3m6!1s0x39722fbd740f3ae5:0x1b76a878cb1db9ee!8m2!3d26.7300094!4d77.0345137!16s%2Fg%2F11f0wnlgmm!19sChIJ5ToPdL0vcjkR7rkdy3iodhs?authuser=0&hl=en&rclk=1",
        "coordinates": {
            "latitude": 26.7300094,
            "longitude": 77.03451369999999
        }
    },
    {
        "name": "MASJID GUD BALI",
        "main_category": "Mosque",
        "address": "P2RJ+WG6 MASJID GUD BALI, Mohan Nagar, Hindaun, Rajasthan 322230",
        "detailed_address": {
            "ward": "Mohan Nagar",
            "street": "P2RJ+WG6",
            "city": "Hindaun",
            "postal_code": "322230",
            "state": "Rajasthan",
            "country_code": "IN"
        },
        "images": [
            {
                "about": "All",
                "link": "https://streetviewpixels-pa.googleapis.com/v1/thumbnail?panoid=D9byUTSvPDPbldHCGB67pg&cb_client=maps_sv.tactile.gps&w=224&h=298&yaw=317.90927&pitch=0&thumbfov=100"
            },
            {
                "about": "Street View & 360deg",
                "link": "https://streetviewpixels-pa.googleapis.com/v1/thumbnail?panoid=D9byUTSvPDPbldHCGB67pg&cb_client=maps_sv.tactile.gps&w=224&h=298&yaw=317.90927&pitch=0&thumbfov=100"
            }
        ],
        "link": "https://www.google.com/maps/place/MASJID+GUD+BALI/data=!4m7!3m6!1s0x39722fea50098aa7:0xf3d4ad12301b3f41!8m2!3d26.7422863!4d77.0312529!16s%2Fg%2F11f15bfpsz!19sChIJp4oJUOovcjkRQT8bMBKt1PM?authuser=0&hl=en&rclk=1",
        "coordinates": {
            "latitude": 26.7422863,
            "longitude": 77.0312529
        }
    },
    {
        "name": "dini tableegi markaz",
        "main_category": "Mosque",
        "address": "P2HP+V77 dini tableegi markaz, Mohalla Qureshi, Hindaun, Rajasthan 322230",
        "detailed_address": {
            "ward": "Mohalla Qureshi",
            "street": "P2HP+V77",
            "city": "Hindaun",
            "postal_code": null,
            "state": "Rajasthan",
            "country_code": "IN"
        },
        "images": [
            {
                "about": "All",
                "link": "https://lh5.googleusercontent.com/p/AF1QipPc1WQve0CqhoSg5_76k0Zxk4ggpmQYV7PDYoCE=w224-h298-k-no"
            }
        ],
        "link": "https://www.google.com/maps/place/dini+tableegi+markaz/data=!4m7!3m6!1s0x39722fbd1abff30d:0xc812b1a28c29be04!8m2!3d26.7296692!4d77.0356677!16s%2Fg%2F11clwnlln5!19sChIJDfO_Gr0vcjkRBL4pjKKxEsg?authuser=0&hl=en&rclk=1",
        "coordinates": {
            "latitude": 26.7296692,
            "longitude": 77.03566769999999
        }
    },
    {
        "name": "MADINA MASJID",
        "main_category": "Mosque",
        "address": "P2JP+44M MADINA MASJID, Madina market Choori Bazaar, Hindaun, Rajasthan 322230",
        "detailed_address": {
            "ward": "Baddi Chopar",
            "street": "P2JP+44M, Madina market Choori Bazaar",
            "city": "Hindaun",
            "postal_code": "322230",
            "state": "Rajasthan",
            "country_code": "IN"
        },
        "images": [
            {
                "about": "All",
                "link": "https://lh5.googleusercontent.com/p/AF1QipPdBJAc-uq_OI-Rsc9QyUBF9CP1RzakRFd_QtbW=w529-h298-k-no"
            }
        ],
        "link": "https://www.google.com/maps/place/MADINA+MASJID/data=!4m7!3m6!1s0x39722fbda75199d9:0xaa7581e0471817ab!8m2!3d26.730347!4d77.0352894!16s%2Fg%2F11gc8jm78s!19sChIJ2ZlRp70vcjkRqxcYR-CBdao?authuser=0&hl=en&rclk=1",
        "coordinates": {
            "latitude": 26.730347,
            "longitude": 77.0352894
        }
    },
    {
        "name": "mosque aayisha",
        "main_category": "Mosque",
        "address": "P2PQ+J6H mosque aayisha, jaat ki saraay, Hindaun, Rajasthan",
        "detailed_address": {
            "ward": "Jatav Basti, Mohan Nagar",
            "street": "P2PQ+J6H, jaat ki saraay",
            "city": "Hindaun",
            "postal_code": null,
            "state": "Rajasthan",
            "country_code": "IN"
        },
        "images": [
            {
                "about": "All",
                "link": "https://lh5.googleusercontent.com/p/AF1QipMbyzx61fDYj_OvmgO7E2jj5X66dDj2HMJyQ9aw=w397-h298-k-no"
            },
            {
                "about": "Street View & 360deg",
                "link": "https://streetviewpixels-pa.googleapis.com/v1/thumbnail?panoid=gEHPnWco6mjVBTCrOKpSMQ&cb_client=maps_sv.tactile.gps&w=224&h=298&yaw=146.759&pitch=0&thumbfov=100"
            }
        ],
        "link": "https://www.google.com/maps/place/mosque+aayisha/data=!4m7!3m6!1s0x39722fbf20cae9d3:0x2fd1eeca521cfe7d!8m2!3d26.7365728!4d77.0380941!16s%2Fg%2F11bwn93r3b!19sChIJ0-nKIL8vcjkRff4cUsru0S8?authuser=0&hl=en&rclk=1",
        "coordinates": {
            "latitude": 26.736572799999998,
            "longitude": 77.0380941
        }
    },
    {
        "name": "Shahi Masjid Luharo Bali",
        "main_category": "Mosque",
        "address": "P2HQ+RV5 Shahi Masjid Luharo Bali, Chhota Bazaar Shahganj, Hindaun, Rajasthan 322230",
        "detailed_address": {
            "ward": "Baddi Chopar",
            "street": "P2HQ+RV5, Chhota Bazaar Shahganj",
            "city": "Hindaun",
            "postal_code": "322230",
            "state": "Rajasthan",
            "country_code": "IN"
        },
        "images": [],
        "link": "https://www.google.com/maps/place/Shahi+Masjid+Luharo+Bali/data=!4m7!3m6!1s0x39722fbb67bd3201:0x5a73f3270d73bc50!8m2!3d26.7295052!4d77.0397261!16s%2Fg%2F11g8vcrnvq!19sChIJATK9Z7svcjkRULxzDSfzc1o?authuser=0&hl=en&rclk=1",
        "coordinates": {
            "latitude": 26.7295052,
            "longitude": 77.0397261
        }
    },
    {
        "name": "Masjid Shekh Pada",
        "main_category": "Mosque",
        "address": "P2JR+9MJ Masjid Shekh Pada, puraanii kchrii bdd'ii baakhr, Shekh PadaHindaun, Hindaun, Rajasthan 322230",
        "detailed_address": {
            "ward": "Shekh PadaHindaun",
            "street": "P2JR+9MJ puraanii kchrii bdd'ii baakhr",
            "city": "Hindaun",
            "postal_code": "322230",
            "state": "Rajasthan",
            "country_code": "IN"
        },
        "images": [
            {
                "about": "All",
                "link": "https://lh5.googleusercontent.com/p/AF1QipMN5dmlS9vB6O66D6e0t7lS6T7UyqkgTvAox3zo=w529-h298-k-no"
            },
            {
                "about": "Videos",
                "link": "https://lh5.googleusercontent.com/p/AF1QipOS_YDVfjQc85k-fqroI_0bDdN7iVqsnrmzADEd=w224-h398-k-no"
            }
        ],
        "link": "https://www.google.com/maps/place/Masjid+Shekh+Pada/data=!4m7!3m6!1s0x39722f4a656f6905:0xc623af79b3d6bc24!8m2!3d26.7309655!4d77.0416363!16s%2Fg%2F11ry0ly2kz!19sChIJBWlvZUovcjkRJLzWs3mvI8Y?authuser=0&hl=en&rclk=1",
        "coordinates": {
            "latitude": 26.7309655,
            "longitude": 77.0416363
        }
    },
    {
        "name": "DERA BALI MASJID",
        "main_category": "Mosque",
        "address": "P2HP+7HM DERA BALI MASJID, DERA OLD POLISH CHOKI, Hindaun, Rajasthan 322230",
        "detailed_address": {
            "ward": "Baddi Chopar",
            "street": "P2HP+7HM, DERA OLD POLISH CHOKI",
            "city": "Hindaun",
            "postal_code": "322230",
            "state": "Rajasthan",
            "country_code": "IN"
        },
        "images": [
            {
                "about": "All",
                "link": "https://streetviewpixels-pa.googleapis.com/v1/thumbnail?panoid=9E_p-CkNYZRJjyKGezryNg&cb_client=maps_sv.tactile.gps&w=224&h=298&yaw=250.9252&pitch=0&thumbfov=100"
            },
            {
                "about": "Street View & 360deg",
                "link": "https://streetviewpixels-pa.googleapis.com/v1/thumbnail?panoid=9E_p-CkNYZRJjyKGezryNg&cb_client=maps_sv.tactile.gps&w=224&h=298&yaw=250.9252&pitch=0&thumbfov=100"
            },
            {
                "about": "Videos",
                "link": "https://lh5.googleusercontent.com/p/AF1QipN4fE2A9HEGmJ9QeZDWTmBOjxe96YUdZk_cFujK=w224-h398-k-no"
            }
        ],
        "link": "https://www.google.com/maps/place/DERA+BALI+MASJID/data=!4m7!3m6!1s0x39722fbcd7ac227b:0x72a8426ff730e747!8m2!3d26.7282154!4d77.036423!16s%2Fg%2F11d_d1k4f5!19sChIJeyKs17wvcjkRR-cw929CqHI?authuser=0&hl=en&rclk=1",
        "coordinates": {
            "latitude": 26.7282154,
            "longitude": 77.036423
        }
    },
    {
        "name": "FARUKHIYA MASJID SARAI BALI",
        "main_category": "Mosque",
        "address": "P2HQ+9J8 FARUKHIYA MASJID SARAI BALI, Chhota Bazar Shahganj, Hindaun, Rajasthan 322230",
        "detailed_address": {
            "ward": "Baddi Chopar",
            "street": "P2HQ+9J8, Chhota Bazar Shahganj",
            "city": "Hindaun",
            "postal_code": "322230",
            "state": "Rajasthan",
            "country_code": "IN"
        },
        "images": [
            {
                "about": "All",
                "link": "https://lh5.googleusercontent.com/p/AF1QipNfQF5gA82we1HI7C0ZkCUALQdoobhCe7Ujs47N=w397-h298-k-no"
            },
            {
                "about": "Street View & 360deg",
                "link": "https://streetviewpixels-pa.googleapis.com/v1/thumbnail?panoid=bbiOoBpW4qcKdldNhEO5Fg&cb_client=maps_sv.tactile.gps&w=224&h=298&yaw=258.70013&pitch=0&thumbfov=100"
            }
        ],
        "link": "https://www.google.com/maps/place/FARUKHIYA+MASJID+SARAI+BALI/data=!4m7!3m6!1s0x39722fbca9b575a5:0x63950efa36b754b5!8m2!3d26.7284152!4d77.0390704!16s%2Fg%2F11gb3y8648!19sChIJpXW1qbwvcjkRtVS3NvoOlWM?authuser=0&hl=en&rclk=1",
        "coordinates": {
            "latitude": 26.728415199999997,
            "longitude": 77.0390704
        }
    },
    {
        "name": "Pilu Wali Masjid Kachhwaya Pada",
        "main_category": "Mosque",
        "address": "P2JP+57W Pilu Wali Masjid Kachhwaya Pada, Baddi Chopar, Hindaun, Rajasthan 322230",
        "detailed_address": {
            "ward": "Baddi Chopar",
            "street": "P2JP+57W",
            "city": "Hindaun",
            "postal_code": "322230",
            "state": "Rajasthan",
            "country_code": "IN"
        },
        "images": [],
        "link": "https://www.google.com/maps/place/Pilu+Wali+Masjid+Kachhwaya+Pada/data=!4m7!3m6!1s0x39722f432e004f15:0xcc9fe571a292ebdb!8m2!3d26.7304909!4d77.0357184!16s%2Fg%2F11fj7_767x!19sChIJFU8ALkMvcjkR2-uSonHln8w?authuser=0&hl=en&rclk=1",
        "coordinates": {
            "latitude": 26.7304909,
            "longitude": 77.0357184
        }
    },
    {
        "name": "Umar Masjid (Tamoli Wali)",
        "main_category": "Mosque",
        "address": "P2HP+F8H Umar Masjid (Tamoli Wali), Jalsen ke paas Hammal Para, Hindaun, Rajasthan 322230",
        "detailed_address": {
            "ward": "Baddi Chopar",
            "street": "P2HP+F8H, Jalsen ke paas Hammal Para",
            "city": "Hindaun",
            "postal_code": "322230",
            "state": "Rajasthan",
            "country_code": "IN"
        },
        "images": [
            {
                "about": "All",
                "link": "https://streetviewpixels-pa.googleapis.com/v1/thumbnail?panoid=w1PpM8ONykYzMkjJNNfUfg&cb_client=maps_sv.tactile.gps&w=224&h=298&yaw=303.58072&pitch=0&thumbfov=100"
            },
            {
                "about": "Street View & 360deg",
                "link": "https://streetviewpixels-pa.googleapis.com/v1/thumbnail?panoid=w1PpM8ONykYzMkjJNNfUfg&cb_client=maps_sv.tactile.gps&w=224&h=298&yaw=303.58072&pitch=0&thumbfov=100"
            }
        ],
        "link": "https://www.google.com/maps/place/Umar+Masjid+%28Tamoli+Wali%29/data=!4m7!3m6!1s0x39722fbd23f3f663:0x280313658d568c72!8m2!3d26.7286951!4d77.0358653!16s%2Fg%2F11fx7vf_r6!19sChIJY_bzI70vcjkRcoxWjWUTAyg?authuser=0&hl=en&rclk=1",
        "coordinates": {
            "latitude": 26.7286951,
            "longitude": 77.0358653
        }
    },
    {
        "name": "MIRZA MASJID",
        "main_category": "Mosque",
        "address": "P2HQ+MG9 MIRZA MASJID, Mirza Para Kumhar mohlla Shahganj, Hindaun, Rajasthan 322230",
        "detailed_address": {
            "ward": "Baddi Chopar",
            "street": "P2HQ+MG9, Mirza Para Kumhar mohlla Shahganj",
            "city": "Hindaun",
            "postal_code": "322230",
            "state": "Rajasthan",
            "country_code": "IN"
        },
        "images": [],
        "link": "https://www.google.com/maps/place/MIRZA+MASJID/data=!4m7!3m6!1s0x39722fbca1bad7f9:0x4b2511144350530c!8m2!3d26.729173!4d77.0388712!16s%2Fg%2F11fx7r8d4h!19sChIJ-de6obwvcjkRDFNQQxQRJUs?authuser=0&hl=en&rclk=1",
        "coordinates": {
            "latitude": 26.729173,
            "longitude": 77.0388712
        }
    },
    {
        "name": "Firdos Masjid",
        "main_category": "Mosque",
        "address": "P28J+PXV Firdos Masjid, Unnamed Road, Hindaun, Rajasthan 322230",
        "detailed_address": {
            "ward": null,
            "street": "P28J+PXV, Unnamed Road",
            "city": "Hindaun",
            "postal_code": "322230",
            "state": "Rajasthan",
            "country_code": "IN"
        },
        "images": [
            {
                "about": "All",
                "link": "https://lh5.googleusercontent.com/p/AF1QipNtaTG7qA5i6OCr4hOi4MfxOkzfPCT6Nxfgyr7M=w224-h398-k-no"
            },
            {
                "about": "Street View & 360deg",
                "link": "https://streetviewpixels-pa.googleapis.com/v1/thumbnail?panoid=igGWoC8MaY1vUdca70CpmA&cb_client=maps_sv.tactile.gps&w=224&h=298&yaw=324.23593&pitch=0&thumbfov=100"
            }
        ],
        "link": "https://www.google.com/maps/place/Firdos+Masjid/data=!4m7!3m6!1s0x39722f219e5cebc1:0x8c1335603ae72cdb!8m2!3d26.7168532!4d77.032432!16s%2Fg%2F11py7681fx!19sChIJwetcniEvcjkR2yznOmA1E4w?authuser=0&hl=en&rclk=1",
        "coordinates": {
            "latitude": 26.7168532,
            "longitude": 77.032432
        }
    },
    {
        "name": "CHAMAN MASJID cmn msjid",
        "main_category": "Mosque",
        "address": "P2HQ+254 CHAMAN MASJID cmn msjid, Chopra Kua Shahganj, Hindaun, Rajasthan 322230",
        "detailed_address": {
            "ward": "Baddi Chopar",
            "street": "P2HQ+254, Chopra Kua Shahganj",
            "city": "Hindaun",
            "postal_code": "322230",
            "state": "Rajasthan",
            "country_code": "IN"
        },
        "images": [
            {
                "about": "All",
                "link": "https://streetviewpixels-pa.googleapis.com/v1/thumbnail?panoid=tOTt6gI-3dzJrsUEAE86Kw&cb_client=maps_sv.tactile.gps&w=224&h=298&yaw=225.0443&pitch=0&thumbfov=100"
            },
            {
                "about": "Street View & 360deg",
                "link": "https://streetviewpixels-pa.googleapis.com/v1/thumbnail?panoid=tOTt6gI-3dzJrsUEAE86Kw&cb_client=maps_sv.tactile.gps&w=224&h=298&yaw=225.0443&pitch=0&thumbfov=100"
            }
        ],
        "link": "https://www.google.com/maps/place/CHAMAN+MASJID+%E0%A4%9A%E0%A4%AE%E0%A4%A8+%E0%A4%AE%E0%A4%B8%E0%A5%8D%E0%A4%9C%E0%A4%BF%E0%A4%A6/data=!4m7!3m6!1s0x39722fa34be62e99:0xd2b2da3674d595b1!8m2!3d26.7275133!4d77.0379396!16s%2Fg%2F11f0wn93cg!19sChIJmS7mS6MvcjkRsZXVdDbastI?authuser=0&hl=en&rclk=1",
        "coordinates": {
            "latitude": 26.7275133,
            "longitude": 77.0379396
        }
    },
    {
        "name": "MAKKA MASJID",
        "main_category": "Mosque",
        "address": "P2JJ+3M6 MAKKA MASJID, Keshav Pura, Hindaun, Rajasthan 322230",
        "detailed_address": {
            "ward": "Keshav Pura",
            "street": "P2JJ+3M6",
            "city": "Hindaun",
            "postal_code": "322230",
            "state": "Rajasthan",
            "country_code": "IN"
        },
        "images": [],
        "link": "https://www.google.com/maps/place/MAKKA+MASJID/data=!4m7!3m6!1s0x39722f964b5dd3ad:0x218c9b9215aad0ed!8m2!3d26.7301702!4d77.0316431!16s%2Fg%2F11f159_7n7!19sChIJrdNdS5YvcjkR7dCqFZKbjCE?authuser=0&hl=en&rclk=1",
        "coordinates": {
            "latitude": 26.7301702,
            "longitude": 77.0316431
        }
    },
    {
        "name": "Ek minar masjid",
        "main_category": "Mosque",
        "address": "P2GC+9Q Ek minar masjid, Gau Shala, Hindaun, Rajasthan 322230",
        "detailed_address": {
            "ward": "Gau Shala",
            "street": "P2GC+9Q",
            "city": "Hindaun",
            "postal_code": null,
            "state": "Rajasthan",
            "country_code": "IN"
        },
        "images": [
            {
                "about": "All",
                "link": "https://streetviewpixels-pa.googleapis.com/v1/thumbnail?panoid=l5PpT-wHLm3B03pJT5ujfw&cb_client=maps_sv.tactile.gps&w=224&h=298&yaw=97.552895&pitch=0&thumbfov=100"
            },
            {
                "about": "Street View & 360deg",
                "link": "https://streetviewpixels-pa.googleapis.com/v1/thumbnail?panoid=l5PpT-wHLm3B03pJT5ujfw&cb_client=maps_sv.tactile.gps&w=224&h=298&yaw=97.552895&pitch=0&thumbfov=100"
            }
        ],
        "link": "https://www.google.com/maps/place/Ek+minar+masjid/data=!4m7!3m6!1s0x39722ff97e075457:0xd290305bdd252196!8m2!3d26.725992!4d77.021936!16s%2Fg%2F11p768gnry!19sChIJV1QHfvkvcjkRliEl3VswkNI?authuser=0&hl=en&rclk=1",
        "coordinates": {
            "latitude": 26.725991999999998,
            "longitude": 77.021936
        }
    },
    {
        "name": "Masjid aksa",
        "main_category": "Mosque",
        "address": "P2CF+JCJ Masjid aksa, Muslim shah calony, Hindaun, Rajasthan 322230",
        "detailed_address": {
            "ward": null,
            "street": "P2CF+JCJ Muslim shah calony",
            "city": "Hindaun",
            "postal_code": null,
            "state": "Rajasthan",
            "country_code": "IN"
        },
        "images": [
            {
                "about": "All",
                "link": "https://streetviewpixels-pa.googleapis.com/v1/thumbnail?panoid=skA0yV-YXqGoM73MGPrmzA&cb_client=maps_sv.tactile.gps&w=224&h=298&yaw=78.14826&pitch=0&thumbfov=100"
            },
            {
                "about": "Street View & 360deg",
                "link": "https://streetviewpixels-pa.googleapis.com/v1/thumbnail?panoid=skA0yV-YXqGoM73MGPrmzA&cb_client=maps_sv.tactile.gps&w=224&h=298&yaw=78.14826&pitch=0&thumbfov=100"
            }
        ],
        "link": "https://www.google.com/maps/place/Masjid+aksa/data=!4m7!3m6!1s0x39722ffcd21ac3ad:0xc98b5baeeb62567d!8m2!3d26.7215763!4d77.0235224!16s%2Fg%2F11rb3p13tk!19sChIJrcMa0vwvcjkRfVZi665bi8k?authuser=0&hl=en&rclk=1",
        "coordinates": {
            "latitude": 26.7215763,
            "longitude": 77.02352239999999
        }
    },
    {
        "name": "Masjied",
        "main_category": "Mosque",
        "address": "P28J+FWW Masjied, raj, Hindaun, Rajasthan",
        "detailed_address": {
            "ward": null,
            "street": "P28J+FWW, raj",
            "city": "Hindaun",
            "postal_code": null,
            "state": "Rajasthan",
            "country_code": "IN"
        },
        "images": [
            {
                "about": "All",
                "link": "https://streetviewpixels-pa.googleapis.com/v1/thumbnail?panoid=gncu6Eaa6RMVB-tZYQ9g0w&cb_client=maps_sv.tactile.gps&w=224&h=298&yaw=164.82901&pitch=0&thumbfov=100"
            },
            {
                "about": "Street View & 360deg",
                "link": "https://streetviewpixels-pa.googleapis.com/v1/thumbnail?panoid=gncu6Eaa6RMVB-tZYQ9g0w&cb_client=maps_sv.tactile.gps&w=224&h=298&yaw=164.82901&pitch=0&thumbfov=100"
            }
        ],
        "link": "https://www.google.com/maps/place/Masjied/data=!4m7!3m6!1s0x39722fee4696e4bb:0xa00920c1d98fe60!8m2!3d26.7162394!4d77.0323424!16s%2Fg%2F11rbsfm9dg!19sChIJu-SWRu4vcjkRYP6YHQySAAo?authuser=0&hl=en&rclk=1",
        "coordinates": {
            "latitude": 26.7162394,
            "longitude": 77.03234239999999
        }
    },
    {
        "name": "Darji Bali Masjid Maniharan",
        "main_category": "Mosque",
        "address": "Darji Bali Masjid Maniharan, Darji, Bali Masjid Maniharan, Baddi Chopar, Hindaun, Rajasthan 322230",
        "detailed_address": {
            "ward": "Baddi Chopar",
            "street": "Darji, Bali Masjid Maniharan",
            "city": "Hindaun",
            "postal_code": "322230",
            "state": "Rajasthan",
            "country_code": "IN"
        },
        "images": [],
        "link": "https://www.google.com/maps/place/Darji+Bali+Masjid+Maniharan/data=!4m7!3m6!1s0x39722fbce7440757:0xace682920d6cd8aa!8m2!3d26.7291793!4d77.0367239!16s%2Fg%2F11dfj0_5_n!19sChIJVwdE57wvcjkRqthsDZKC5qw?authuser=0&hl=en&rclk=1",
        "coordinates": {
            "latitude": 26.7291793,
            "longitude": 77.0367239
        }
    },
    {
        "name": "Ek minar masjid Gulshan colony",
        "main_category": "Indian Muslim restaurant",
        "address": "P2GC+CQ7 Ek minar masjid Gulshan colony, Gau Shala, Hingonia, Hindaun, Rajasthan 322230",
        "detailed_address": {
            "ward": "Gau Shala",
            "street": "P2GC+CQ7",
            "city": "Hingonia, Hindaun",
            "postal_code": null,
            "state": "Rajasthan",
            "country_code": "IN"
        },
        "images": [
            {
                "about": "All",
                "link": "https://streetviewpixels-pa.googleapis.com/v1/thumbnail?panoid=GS6CU50LOFWyFAXAW_NXwA&cb_client=maps_sv.tactile.gps&w=224&h=298&yaw=126.88227&pitch=0&thumbfov=100"
            },
            {
                "about": "Street View & 360deg",
                "link": "https://streetviewpixels-pa.googleapis.com/v1/thumbnail?panoid=GS6CU50LOFWyFAXAW_NXwA&cb_client=maps_sv.tactile.gps&w=224&h=298&yaw=126.88227&pitch=0&thumbfov=100"
            }
        ],
        "link": "https://www.google.com/maps/place/Ek+minar+masjid+Gulshan+colony/data=!4m7!3m6!1s0x39722f7b9edbda81:0xc9e63a8d3811373d!8m2!3d26.7260302!4d77.0219272!16s%2Fg%2F11t7bvq2g2!19sChIJgdrbnnsvcjkRPTcROI065sk?authuser=0&hl=en&rclk=1",
        "coordinates": {
            "latitude": 26.7260302,
            "longitude": 77.0219272
        }
    },
    {
        "name": "MASJID KHIZRA",
        "main_category": "Mosque",
        "address": "P2HQ+WXF MASJID KHIZRA, Mohalla Shahganj Chhota Bazar, Hindaun, Rajasthan 322230",
        "detailed_address": {
            "ward": "Baddi Chopar",
            "street": "P2HQ+WXF, Mohalla Shahganj Chhota Bazar",
            "city": "Hindaun",
            "postal_code": "322230",
            "state": "Rajasthan",
            "country_code": "IN"
        },
        "images": [],
        "link": "https://www.google.com/maps/place/MASJID+KHIZRA/data=!4m7!3m6!1s0x39722fbb6f4e0571:0x1c81bc448340e204!8m2!3d26.7298041!4d77.039927!16s%2Fg%2F11g9q97b_q!19sChIJcQVOb7svcjkRBOJAg0S8gRw?authuser=0&hl=en&rclk=1",
        "coordinates": {
            "latitude": 26.7298041,
            "longitude": 77.03992699999999
        }
    },
    {
        "name": "Masjid Maniharaan msjd mnyhrn",
        "main_category": "Mosque",
        "address": "P2MH+JVV Masjid Maniharaan msjd mnyhrn, Maniharon ka rasta, Coori Baazar, Keshav Pura, Hindaun, Rajasthan 322230",
        "detailed_address": {
            "ward": "Coori Baazar, Keshav Pura",
            "street": "P2MH+JVV, Maniharon ka rasta",
            "city": "Hindaun",
            "postal_code": "322230",
            "state": "Rajasthan",
            "country_code": "IN"
        },
        "images": [
            {
                "about": "All",
                "link": "https://streetviewpixels-pa.googleapis.com/v1/thumbnail?panoid=9QXB2bVQ_GOnzm2rnWMdHw&cb_client=maps_sv.tactile.gps&w=224&h=298&yaw=270.4472&pitch=0&thumbfov=100"
            },
            {
                "about": "Street View & 360deg",
                "link": "https://streetviewpixels-pa.googleapis.com/v1/thumbnail?panoid=9QXB2bVQ_GOnzm2rnWMdHw&cb_client=maps_sv.tactile.gps&w=224&h=298&yaw=270.4472&pitch=0&thumbfov=100"
            }
        ],
        "link": "https://www.google.com/maps/place/Masjid+Maniharaan+%D9%85%D8%B3%D8%AC%D8%AF+%D9%85%D9%86%D9%8A%D9%87%D8%A7%D8%B1%D8%A7%D9%86%E2%80%AD/data=!4m7!3m6!1s0x39722fdaa0289931:0xf990ab00ef5243cd!8m2!3d26.7341201!4d77.0296837!16s%2Fg%2F11tndfy3n6!19sChIJMZkooNovcjkRzUNS7wCrkPk?authuser=0&hl=en&rclk=1",
        "coordinates": {
            "latitude": 26.7341201,
            "longitude": 77.02968369999999
        }
    },
    {
        "name": "BADI MASZID",
        "main_category": "Mosque",
        "address": "BADI MASZID, Kazi pada, Baddi Chopar, Hindaun, Rajasthan 322230",
        "detailed_address": {
            "ward": "Baddi Chopar",
            "street": "Kazi pada",
            "city": "Hindaun",
            "postal_code": "322230",
            "state": "Rajasthan",
            "country_code": "IN"
        },
        "images": [
            {
                "about": "All",
                "link": "https://lh5.googleusercontent.com/p/AF1QipOsjCKf7SF-D10o5XPeXW9axg3_OiK5scLKat3_=w529-h298-k-no"
            },
            {
                "about": "By owner",
                "link": "https://lh5.googleusercontent.com/p/AF1QipOsjCKf7SF-D10o5XPeXW9axg3_OiK5scLKat3_=w529-h298-k-no"
            }
        ],
        "link": "https://www.google.com/maps/place/BADI+MASZID/data=!4m7!3m6!1s0x39722fef1a8b7cdf:0x6add3551ff035ecd!8m2!3d26.7303331!4d77.039042!16s%2Fg%2F11sxydm1jh!19sChIJ33yLGu8vcjkRzV4D_1E13Wo?authuser=0&hl=en&rclk=1",
        "coordinates": {
            "latitude": 26.7303331,
            "longitude": 77.039042
        }
    },
    {
        "name": "Imran khan Singam wale",
        "main_category": "Mosque",
        "address": "P2GC+9Q Imran khan Singam wale, Gulshan coloni ek minar masjid ke pas, Imran khan Singam wale, Hindaun, Rajasthan",
        "detailed_address": {
            "ward": "Gau Shala",
            "street": "P2GC+9Q Gulshan coloni ek minar masjid ke pas, Imran khan Singam wale",
            "city": "Hindaun",
            "postal_code": null,
            "state": "Rajasthan",
            "country_code": "IN"
        },
        "images": [
            {
                "about": "All",
                "link": "https://streetviewpixels-pa.googleapis.com/v1/thumbnail?panoid=l5PpT-wHLm3B03pJT5ujfw&cb_client=maps_sv.tactile.gps&w=224&h=298&yaw=97.552895&pitch=0&thumbfov=100"
            },
            {
                "about": "Street View & 360deg",
                "link": "https://streetviewpixels-pa.googleapis.com/v1/thumbnail?panoid=l5PpT-wHLm3B03pJT5ujfw&cb_client=maps_sv.tactile.gps&w=224&h=298&yaw=97.552895&pitch=0&thumbfov=100"
            }
        ],
        "link": "https://www.google.com/maps/place/Imran+khan+Singam+wale/data=!4m7!3m6!1s0x39722f2420b7720d:0x789e7a232f2dbdbb!8m2!3d26.725992!4d77.021936!16s%2Fg%2F11tjh984z5!19sChIJDXK3ICQvcjkRu70tLyN6nng?authuser=0&hl=en&rclk=1",
        "coordinates": {
            "latitude": 26.725991999999998,
            "longitude": 77.021936
        }
    },
    {
        "name": "Teacher Sharafat ali",
        "main_category": "Housing society",
        "address": "Teacher Sharafat ali, Chaman masjid, Baddi Chopar, Hindaun, Rajasthan 322230",
        "detailed_address": {
            "ward": "Baddi Chopar",
            "street": "Chaman masjid",
            "city": "Hindaun",
            "postal_code": null,
            "state": "Rajasthan",
            "country_code": "IN"
        },
        "images": [
            {
                "about": "All",
                "link": "https://streetviewpixels-pa.googleapis.com/v1/thumbnail?panoid=F3eGUtcMt7zqDa7t3Llpyg&cb_client=maps_sv.tactile.gps&w=224&h=298&yaw=359.6756&pitch=0&thumbfov=100"
            },
            {
                "about": "Street View & 360deg",
                "link": "https://streetviewpixels-pa.googleapis.com/v1/thumbnail?panoid=F3eGUtcMt7zqDa7t3Llpyg&cb_client=maps_sv.tactile.gps&w=224&h=298&yaw=359.6756&pitch=0&thumbfov=100"
            }
        ],
        "link": "https://www.google.com/maps/place/Teacher+Sharafat+ali/data=!4m7!3m6!1s0x39722f7a1e6c67c1:0x21a6f0e44b0845dd!8m2!3d26.7279365!4d77.038083!16s%2Fg%2F11tn00t9fh!19sChIJwWdsHnovcjkR3UUIS-TwpiE?authuser=0&hl=en&rclk=1",
        "coordinates": {
            "latitude": 26.7279365,
            "longitude": 77.038083
        }
    }
]