[
    {
        "name": "Hazrath Mehaboob Subani Darga Masjid",
        "main_category": "Mosque",
        "address": "QCP3+W34 Hazrath Mehaboob Subani Darga Masjid, Shivalinganagar, Haveri, Karnataka 581110",
        "detailed_address": {
            "ward": "Shivalinganagar",
            "street": "QCP3+W34",
            "city": "Haveri",
            "postal_code": "581110",
            "state": "Karnataka",
            "country_code": "IN"
        },
        "images": [
            {
                "about": "All",
                "link": "https://lh5.googleusercontent.com/p/AF1QipNVqHaC71iBsJBl9REM_SlzB_7_KhghgKdMYYj3=w397-h298-k-no"
            },
            {
                "about": "Dome",
                "link": "https://lh5.googleusercontent.com/p/AF1QipNyUOoYiPc-ccRlCsiP3p4WbMuxpQ3eZrvH4Lev=w397-h298-k-no"
            },
            {
                "about": "Videos",
                "link": "https://lh5.googleusercontent.com/p/AF1QipMUQgBrMBlaX1ktJVo48fy0LsQRmeDd6rVOn7O0=w224-h398-k-no"
            }
        ],
        "link": "https://www.google.com/maps/place/Hazrath+Mehaboob+Subani+Darga+Masjid/data=!4m7!3m6!1s0x3bb968e45388defd:0xf229a9c5783b3bb1!8m2!3d14.7872622!4d75.4026913!16s%2Fg%2F11c52tktt_!19sChIJ_d6IU-RouTsRsTs7eMWpKfI?authuser=0&hl=en&rclk=1",
        "coordinates": {
            "latitude": 14.787262199999999,
            "longitude": 75.4026913
        }
    },
    {
        "name": "Noorani Masjid.Haveri.",
        "main_category": "Mosque",
        "address": "Q9XV+JH5 Noorani Masjid.Haveri., National Highway 4, Vidya Nagar, Haveri, Karnataka 581110",
        "detailed_address": {
            "ward": "Vidya Nagar",
            "street": "Q9XV+JH5, National Highway 4",
            "city": "Haveri",
            "postal_code": "581110",
            "state": "Karnataka",
            "country_code": "IN"
        },
        "images": [
            {
                "about": "All",
                "link": "https://lh5.googleusercontent.com/p/AF1QipPC_kx79HtfvUX_M0D-z3Rk_Wky4OC13eCai5LQ=w397-h298-k-no"
            },
            {
                "about": "Dome",
                "link": "https://lh5.googleusercontent.com/p/AF1QipPfOG6dSmJrUnp3g5vWq1L4C-vrpHDMDGkyCOyQ=w224-h298-k-no"
            },
            {
                "about": "Street View & 360deg",
                "link": "https://streetviewpixels-pa.googleapis.com/v1/thumbnail?panoid=mqKhLoEYIc6_W-da_32jXQ&cb_client=maps_sv.tactile.gps&w=224&h=298&yaw=24.316906&pitch=0&thumbfov=100"
            }
        ],
        "link": "https://www.google.com/maps/place/Noorani+Masjid.Haveri./data=!4m7!3m6!1s0x3bb96903de61a69b:0x9d642dbf67497cfe!8m2!3d14.7990009!4d75.3939691!16s%2Fg%2F12631djb4!19sChIJm6Zh3gNpuTsR_nxJZ78tZJ0?authuser=0&hl=en&rclk=1",
        "coordinates": {
            "latitude": 14.7990009,
            "longitude": 75.39396909999999
        }
    },
    {
        "name": "Ahmed Raza Masjid",
        "main_category": "Mosque",
        "address": "Q9RQ+CXG Ahmed Raza Masjid, Kankanwad, Ashwini Nagar, Haveri, Karnataka 581110",
        "detailed_address": {
            "ward": "Kankanwad, Ashwini Nagar",
            "street": "Q9RQ+CXG",
            "city": "Haveri",
            "postal_code": "581110",
            "state": "Karnataka",
            "country_code": "IN"
        },
        "images": [
            {
                "about": "All",
                "link": "https://lh5.googleusercontent.com/p/AF1QipNCR7n2MLmudUqYidOEI-8guD4jeWPZ5HKp--_0=w397-h298-k-no"
            }
        ],
        "link": "https://www.google.com/maps/place/Ahmed+Raza+Masjid/data=!4m7!3m6!1s0x3bb968fe3fffffb7:0x6b15585baeae9862!8m2!3d14.7910652!4d75.3899539!16s%2Fg%2F11c611ll1g!19sChIJt___P_5ouTsRYpiurltYFWs?authuser=0&hl=en&rclk=1",
        "coordinates": {
            "latitude": 14.791065199999998,
            "longitude": 75.3899539
        }
    },
    {
        "name": "Muzaffaria Mitti Masjid",
        "main_category": "Mosque",
        "address": "QCR3+6CW Muzaffaria Mitti Masjid, Vidya Nagar, Haveri, Karnataka 581110",
        "detailed_address": {
            "ward": "Vidya Nagar",
            "street": "QCR3+6CW",
            "city": "Haveri",
            "postal_code": "581110",
            "state": "Karnataka",
            "country_code": "IN"
        },
        "images": [],
        "link": "https://www.google.com/maps/place/Muzaffaria+Mitti+Masjid/data=!4m7!3m6!1s0x3bb968e392116897:0xd0fb288de8f11b3e!8m2!3d14.7906035!4d75.4035808!16s%2Fg%2F11ddytg3xn!19sChIJl2gRkuNouTsRPhvx6I0o-9A?authuser=0&hl=en&rclk=1",
        "coordinates": {
            "latitude": 14.7906035,
            "longitude": 75.4035808
        }
    },
    {
        "name": "JAMIA SOOLMATTI MASJID",
        "main_category": "Mosque",
        "address": "QCV3+JR6 JAMIA SOOLMATTI MASJID, Haveri Railway Station Rd, Vidya Nagar, Haveri, Karnataka 581110",
        "detailed_address": {
            "ward": "Vidya Nagar",
            "street": "QCV3+JR6, Haveri Railway Station Rd",
            "city": "Haveri",
            "postal_code": "581110",
            "state": "Karnataka",
            "country_code": "IN"
        },
        "images": [
            {
                "about": "All",
                "link": "https://lh5.googleusercontent.com/p/AF1QipOnPigOm1hAfwM9ON-6ga7E9s9OpRIcQARXPR5_=w224-h398-k-no"
            },
            {
                "about": "Videos",
                "link": "https://lh5.googleusercontent.com/p/AF1QipNxZlTlu8zcNiTLD3VNr6OKcD1Ut-jLr55vEK5K=w224-h407-k-no"
            }
        ],
        "link": "https://www.google.com/maps/place/JAMIA+SOOLMATTI+MASJID/data=!4m7!3m6!1s0x3bb968e23d142d91:0x53fcca9f506ec512!8m2!3d14.7940495!4d75.4045049!16s%2Fg%2F11dd_p9g1g!19sChIJkS0UPeJouTsREsVuUJ_K_FM?authuser=0&hl=en&rclk=1",
        "coordinates": {
            "latitude": 14.7940495,
            "longitude": 75.40450489999999
        }
    },
    {
        "name": "Madina Masjid",
        "main_category": "Mosque",
        "address": "R94Q+WWW Madina Masjid, PB Rd, Manjunath Nagar, Haveri, Karnataka 581110",
        "detailed_address": {
            "ward": "Manjunath Nagar",
            "street": "R94Q+WWW, PB Rd",
            "city": "Haveri",
            "postal_code": "581110",
            "state": "Karnataka",
            "country_code": "IN"
        },
        "images": [
            {
                "about": "All",
                "link": "https://streetviewpixels-pa.googleapis.com/v1/thumbnail?panoid=A1gHlJrflTuomr0UVYC39w&cb_client=maps_sv.tactile.gps&w=224&h=298&yaw=315.40298&pitch=0&thumbfov=100"
            },
            {
                "about": "Street View & 360deg",
                "link": "https://streetviewpixels-pa.googleapis.com/v1/thumbnail?panoid=A1gHlJrflTuomr0UVYC39w&cb_client=maps_sv.tactile.gps&w=224&h=298&yaw=315.40298&pitch=0&thumbfov=100"
            }
        ],
        "link": "https://www.google.com/maps/place/Madina+Masjid/data=!4m7!3m6!1s0x3bb9690869b57289:0xbbc3cc8f15eb3ad3!8m2!3d14.8073564!4d75.3898335!16s%2Fg%2F11gd6s1mx8!19sChIJiXK1aQhpuTsR0zrrFY_Mw7s?authuser=0&hl=en&rclk=1",
        "coordinates": {
            "latitude": 14.8073564,
            "longitude": 75.3898335
        }
    },
    {
        "name": "Jamia Patthar Masjid",
        "main_category": "Mosque",
        "address": "QCR3+GWR Jamia Patthar Masjid, melin pet, Haveri, Karnataka 581110",
        "detailed_address": {
            "ward": "Vidya Nagar",
            "street": "QCR3+GWR, melin pet",
            "city": "Haveri",
            "postal_code": "581110",
            "state": "Karnataka",
            "country_code": "IN"
        },
        "images": [
            {
                "about": "All",
                "link": "https://lh5.googleusercontent.com/p/AF1QipP_IaJ9wNZF6bmv9RPfOH5c90_yyKIGIaAyATW3=w224-h398-k-no"
            },
            {
                "about": "Dome",
                "link": "https://lh5.googleusercontent.com/p/AF1QipP_IaJ9wNZF6bmv9RPfOH5c90_yyKIGIaAyATW3=w224-h398-k-no"
            }
        ],
        "link": "https://www.google.com/maps/place/Jamia+Patthar+Masjid/data=!4m7!3m6!1s0x3bb968e3dd7ba6f3:0xbce2d3518e5eda3a!8m2!3d14.7913598!4d75.4047573!16s%2Fg%2F11g6rlypdn!19sChIJ86Z73eNouTsROtpejlHT4rw?authuser=0&hl=en&rclk=1",
        "coordinates": {
            "latitude": 14.791359799999999,
            "longitude": 75.4047573
        }
    },
    {
        "name": "Jamiya Masjid",
        "main_category": "Mosque",
        "address": "Q9XV+JJ9 Jamiya Masjid, Uday Nagar, Ashwini Nagar, Haveri, Karnataka 581110",
        "detailed_address": {
            "ward": "Uday Nagar, Ashwini Nagar",
            "street": "Q9XV+JJ9",
            "city": "Haveri",
            "postal_code": "581110",
            "state": "Karnataka",
            "country_code": "IN"
        },
        "images": [
            {
                "about": "All",
                "link": "https://lh5.googleusercontent.com/p/AF1QipOUzkdFrViJ0bwllax90jK0ru2WGEgIjYvnr2YT=w224-h298-k-no"
            },
            {
                "about": "Dome",
                "link": "https://lh5.googleusercontent.com/p/AF1QipNwOb6hq0yFhff3wqod6ihyWfjR84rWOR7BeEaC=w224-h298-k-no"
            },
            {
                "about": "Street View & 360deg",
                "link": "https://streetviewpixels-pa.googleapis.com/v1/thumbnail?panoid=MJrAAqeQM0fc3-aTvgkdBQ&cb_client=maps_sv.tactile.gps&w=224&h=298&yaw=22.14038&pitch=0&thumbfov=100"
            }
        ],
        "link": "https://www.google.com/maps/place/Jamiya+Masjid/data=!4m7!3m6!1s0x3bb969017cad9851:0x9a9f6bc607ab47ab!8m2!3d14.7990337!4d75.394118!16s%2Fg%2F11dfjzbd__!19sChIJUZitfAFpuTsRq0erB8Zrn5o?authuser=0&hl=en&rclk=1",
        "coordinates": {
            "latitude": 14.799033699999999,
            "longitude": 75.39411799999999
        }
    },
    {
        "name": "Sunni Qadriya Masjid",
        "main_category": "Mosque",
        "address": "QCP3+V3F Sunni Qadriya Masjid, Shivalinganagar, Haveri, Karnataka 581110",
        "detailed_address": {
            "ward": "Shivalinganagar",
            "street": "QCP3+V3F",
            "city": "Haveri",
            "postal_code": "581110",
            "state": "Karnataka",
            "country_code": "IN"
        },
        "images": [
            {
                "about": "All",
                "link": "https://lh5.googleusercontent.com/p/AF1QipO0ecgHqq_GUUHZvWqjWnT9gLtzOo9CJy074h4=w224-h497-k-no"
            },
            {
                "about": "Dome",
                "link": "https://lh5.googleusercontent.com/p/AF1QipP8SWdEKA2XR_w8hZ_qGWdJevttuWze0rLAdF7v=w529-h298-k-no"
            }
        ],
        "link": "https://www.google.com/maps/place/Sunni+Qadriya+Masjid/data=!4m7!3m6!1s0x3bb968e45448c4cb:0xcee18c4ae5c81c03!8m2!3d14.7871829!4d75.4026814!16s%2Fg%2F11dftdx8dt!19sChIJy8RIVORouTsRAxzI5UqM4c4?authuser=0&hl=en&rclk=1",
        "coordinates": {
            "latitude": 14.7871829,
            "longitude": 75.40268139999999
        }
    },
    {
        "name": "Hazrat sayed sikandarshawali dargah",
        "main_category": "Mosque",
        "address": "QCR6+J3Q Hazrat sayed sikandarshawali dargah, SH 2, Shivabasavanagar, Shivalinganagar, Haveri, Karnataka 581110",
        "detailed_address": {
            "ward": "Shivabasavanagar, Shivalinganagar",
            "street": "QCR6+J3Q, SH 2",
            "city": "Haveri",
            "postal_code": "581110",
            "state": "Karnataka",
            "country_code": "IN"
        },
        "images": [
            {
                "about": "All",
                "link": "https://lh5.googleusercontent.com/p/AF1QipO7RaGieG7DPQrlEUJHELlwbC2bHBTVKlwuD-oH=w530-h298-k-no"
            },
            {
                "about": "Videos",
                "link": "https://lh5.googleusercontent.com/p/AF1QipNG7v_7-Jo-JQSy3ShwegRIbVRQAgFYRMNyJx0B=w224-h398-k-no"
            }
        ],
        "link": "https://www.google.com/maps/place/Hazrat+sayed+sikandarshawali+dargah/data=!4m7!3m6!1s0x3bb969e51e209a13:0xd88fca42ef82bdd!8m2!3d14.7915768!4d75.4102486!16s%2Fg%2F11h38ytdbl!19sChIJE5ogHuVpuTsR3Sv4LqT8iA0?authuser=0&hl=en&rclk=1",
        "coordinates": {
            "latitude": 14.7915768,
            "longitude": 75.4102486
        }
    },
    {
        "name": "Masjid gausul azam",
        "main_category": "Mosque",
        "address": "Q9WX+2JG Masjid gausul azam, Netaji Nagar, Vidya Nagar, Haveri, Karnataka 581110",
        "detailed_address": {
            "ward": "Netaji Nagar, Vidya Nagar",
            "street": "Q9WX+2JG",
            "city": "Haveri",
            "postal_code": "581110",
            "state": "Karnataka",
            "country_code": "IN"
        },
        "images": [],
        "link": "https://www.google.com/maps/place/Masjid+gausul+azam/data=!4m7!3m6!1s0x3bb96919972e0abd:0xcbc41eded6c16487!8m2!3d14.7950698!4d75.3990674!16s%2Fg%2F11l6xjrj4x!19sChIJvQoulxlpuTsRh2TB1t4exMs?authuser=0&hl=en&rclk=1",
        "coordinates": {
            "latitude": 14.795069799999998,
            "longitude": 75.39906739999999
        }
    },
    {
        "name": "Barely masjid nagendrantmatti",
        "main_category": "Mosque",
        "address": "RC33+MMW Barely masjid nagendrantmatti, Nagendranamatti, Haveri, Karnataka 581110",
        "detailed_address": {
            "ward": "Nagendranamatti",
            "street": "RC33+MMW",
            "city": "Haveri",
            "postal_code": "581110",
            "state": "Karnataka",
            "country_code": "IN"
        },
        "images": [],
        "link": "https://www.google.com/maps/place/Barely+masjid+nagendrantmatti/data=!4m7!3m6!1s0x3bb969306ee85a13:0x4bd609fdc31142f0!8m2!3d14.8042295!4d75.4042152!16s%2Fg%2F11kpjlj15f!19sChIJE1robjBpuTsR8EIRw_0J1ks?authuser=0&hl=en&rclk=1",
        "coordinates": {
            "latitude": 14.8042295,
            "longitude": 75.4042152
        }
    },
    {
        "name": "Jamia masjid gandhipur haveri Karnataka",
        "main_category": "Mosque",
        "address": "RC8R+4VR Jamia masjid gandhipur haveri Karnataka, Gandhipur, Karnataka 581128",
        "detailed_address": {
            "ward": null,
            "street": "RC8R+4VR",
            "city": "Gandhipur",
            "postal_code": "581128",
            "state": "Karnataka",
            "country_code": "IN"
        },
        "images": [
            {
                "about": "All",
                "link": "https://streetviewpixels-pa.googleapis.com/v1/thumbnail?panoid=hSxA-rNVhtC2uZ2MvdIIvQ&cb_client=maps_sv.tactile.gps&w=224&h=298&yaw=161.81847&pitch=0&thumbfov=100"
            },
            {
                "about": "Street View & 360deg",
                "link": "https://streetviewpixels-pa.googleapis.com/v1/thumbnail?panoid=hSxA-rNVhtC2uZ2MvdIIvQ&cb_client=maps_sv.tactile.gps&w=224&h=298&yaw=161.81847&pitch=0&thumbfov=100"
            }
        ],
        "link": "https://www.google.com/maps/place/Jamia+masjid+gandhipur+haveri+Karnataka/data=!4m7!3m6!1s0x3bb96f5206650d19:0x863a7e61044993a9!8m2!3d14.815368!4d75.4421336!16s%2Fg%2F11v5dn0d82!19sChIJGQ1lBlJvuTsRqZNJBGF-OoY?authuser=0&hl=en&rclk=1",
        "coordinates": {
            "latitude": 14.815368,
            "longitude": 75.44213359999999
        }
    }
]