[
    {
        "name": "Jumma Masjid adur",
        "main_category": "Mosque",
        "address": "Q7G2+8F2 Jumma Masjid adur, SH 2, Haveri, Adur, Karnataka 581110",
        "detailed_address": {
            "ward": null,
            "street": "Q7G2+8F2, SH 2",
            "city": "Haveri, Adur",
            "postal_code": "581110",
            "state": "Karnataka",
            "country_code": "IN"
        },
        "images": [
            {
                "about": "All",
                "link": "https://lh5.googleusercontent.com/p/AF1QipN3GcJppcqC4_cGN0O7WGbWuUWWNTVxt66f_CiG=w224-h486-k-no"
            }
        ],
        "link": "https://www.google.com/maps/place/Jumma+Masjid+adur/data=!4m7!3m6!1s0x3bb9437cde6e77ff:0xb66cb14103458f86!8m2!3d14.7757565!4d75.2511495!16s%2Fg%2F11xh4231c!19sChIJ_3du3nxDuTsRho9FA0GxbLY?authuser=0&hl=en&rclk=1",
        "coordinates": {
            "latitude": 14.7757565,
            "longitude": 75.2511495
        }
    },
    {
        "name": "Al Aksa Jaamiya Masjid",
        "main_category": "Mosque",
        "address": "8HH7+G5G Al Aksa Jaamiya Masjid, Pallivasal St, Maniya Adur, Tamil Nadu 608303",
        "detailed_address": {
            "ward": null,
            "street": "8HH7+G5G, Pallivasal St",
            "city": "Maniya Adur",
            "postal_code": "608303",
            "state": "Tamil Nadu",
            "country_code": "IN"
        },
        "images": [
            {
                "about": "All",
                "link": "https://lh5.googleusercontent.com/p/AF1QipOb-qWYjGNVu8cY9LfQQoUFvQlW5aLjNBc9ISY8=w224-h398-k-no"
            },
            {
                "about": "Dome",
                "link": "https://lh5.googleusercontent.com/p/AF1QipOb-qWYjGNVu8cY9LfQQoUFvQlW5aLjNBc9ISY8=w224-h398-k-no"
            }
        ],
        "link": "https://www.google.com/maps/place/Al+Aksa+Jaamiya+Masjid/data=!4m7!3m6!1s0x3a54db582631a1b1:0xbdfb1f9534565cc7!8m2!3d11.3288082!4d79.5629494!16s%2Fg%2F11gyykfbsk!19sChIJsaExJljbVDoRx1xWNJUf-70?authuser=0&hl=en&rclk=1",
        "coordinates": {
            "latitude": 11.3288082,
            "longitude": 79.5629494
        }
    },
    {
        "name": "TNTJ Maniyam Adoor",
        "main_category": "Mosque",
        "address": "TNTJ Maniyam Adoor, Al Hudha Masjid, Maniya Adur, Tamil Nadu 608303",
        "detailed_address": {
            "ward": null,
            "street": "Al Hudha Masjid",
            "city": "Maniya Adur",
            "postal_code": "608303",
            "state": "Tamil Nadu",
            "country_code": "IN"
        },
        "images": [],
        "link": "https://www.google.com/maps/place/TNTJ+Maniyam+Adoor/data=!4m7!3m6!1s0x3a54dba61be6f81d:0xdd1355a9aa9af86!8m2!3d11.3284177!4d79.5616311!16s%2Fg%2F11h1m572cm!19sChIJHfjmG6bbVDoRhq-pmlo10Q0?authuser=0&hl=en&rclk=1",
        "coordinates": {
            "latitude": 11.3284177,
            "longitude": 79.5616311
        }
    },
    {
        "name": "Makkah Masjid",
        "main_category": "Mosque",
        "address": "8HF7+R27 Makkah Masjid, Maniya Adur, Tamil Nadu 608303",
        "detailed_address": {
            "ward": null,
            "street": "8HF7+R27",
            "city": "Maniya Adur",
            "postal_code": "608303",
            "state": "Tamil Nadu",
            "country_code": "IN"
        },
        "images": [
            {
                "about": "All",
                "link": "https://lh5.googleusercontent.com/p/AF1QipNUY8uYYyVuGfyQc-v-p4crPsymfP4dlqGFWl9z=w224-h398-k-no"
            },
            {
                "about": "Videos",
                "link": "https://lh5.googleusercontent.com/p/AF1QipN29QIpaOYySk_ZIraXFhZk2yT5AFydiBs5HwKo=w541-h298-k-no"
            }
        ],
        "link": "https://www.google.com/maps/place/Makkah+Masjid/data=!4m7!3m6!1s0x3a54daa705402353:0x4ac18ce8496264ad!8m2!3d11.3245457!4d79.562533!16s%2Fg%2F11g_wvw33!19sChIJUyNABafaVDoRrWRiSeiMwUo?authuser=0&hl=en&rclk=1",
        "coordinates": {
            "latitude": 11.3245457,
            "longitude": 79.562533
        }
    },
    {
        "name": "Noorani masjid",
        "main_category": "Mosque",
        "address": "Q6HW+HGX Noorani masjid, Adur, Karnataka 581101",
        "detailed_address": {
            "ward": null,
            "street": "Q6HW+HGX",
            "city": "Adur",
            "postal_code": null,
            "state": "Karnataka",
            "country_code": "IN"
        },
        "images": [],
        "link": "https://www.google.com/maps/place/Noorani+masjid/data=!4m7!3m6!1s0x3bb9455e641f3377:0xb62e686c57f2b34e!8m2!3d14.7789932!4d75.2463548!16s%2Fg%2F11txh853_d!19sChIJdzMfZF5FuTsRTrPyV2xoLrY?authuser=0&hl=en&rclk=1",
        "coordinates": {
            "latitude": 14.778993199999999,
            "longitude": 75.24635479999999
        }
    },
    {
        "name": "Gousiya masjid ( gausiyaa msjid )",
        "main_category": "Mosque",
        "address": "Q7J2+53H Gousiya masjid ( gausiyaa msjid ), Adur, Karnataka 581101",
        "detailed_address": {
            "ward": null,
            "street": "Q7J2+53H",
            "city": "Adur",
            "postal_code": null,
            "state": "Karnataka",
            "country_code": "IN"
        },
        "images": [],
        "link": "https://www.google.com/maps/place/Gousiya+masjid+%28+%E0%B2%97%E0%B3%8C%E0%B2%B8%E0%B2%BF%E0%B2%AF%E0%B2%BE+%E0%B2%AE%E0%B2%B8%E0%B3%8D%E0%B2%9C%E0%B2%BF%E0%B2%A6%E0%B3%8D+%29/data=!4m7!3m6!1s0x3bb943495bdab9d9:0x6b129c792dd062d0!8m2!3d14.7804424!4d75.2502254!16s%2Fg%2F11txh86h8q!19sChIJ2bnaW0lDuTsR0GLQLXmcEms?authuser=0&hl=en&rclk=1",
        "coordinates": {
            "latitude": 14.7804424,
            "longitude": 75.25022539999999
        }
    },
    {
        "name": "Al Hudha Masjid",
        "main_category": "Mosque",
        "address": "8HH6+9M6 Al Hudha Masjid, Maniya Adur, Tamil Nadu 608303",
        "detailed_address": {
            "ward": null,
            "street": "8HH6+9M6",
            "city": "Maniya Adur",
            "postal_code": "608303",
            "state": "Tamil Nadu",
            "country_code": "IN"
        },
        "images": [],
        "link": "https://www.google.com/maps/place/Al+Hudha+Masjid/data=!4m7!3m6!1s0x3a54daa80d0fffff:0x68a31ca8c04a9d61!8m2!3d11.3284308!4d79.5616171!16s%2Fg%2F11sscs83gr!19sChIJ__8PDajaVDoRYZ1KwKgco2g?authuser=0&hl=en&rclk=1",
        "coordinates": {
            "latitude": 11.3284308,
            "longitude": 79.56161709999999
        }
    }
]