[
    {
        "name": "Masjid Kalu Sarai",
        "main_category": "Mosque",
        "address": "T4, Masjid Kalu Sarai, masjid, Near, Kalu Sarai, Vijay Mandal Enclave, Kalu Sarai, New Delhi, Delhi 110016",
        "detailed_address": {
            "ward": "Vijay Mandal Enclave, Kalu Sarai",
            "street": "T4, masjid, Near, Kalu Sarai",
            "city": "New Delhi",
            "postal_code": "110016",
            "state": "Delhi",
            "country_code": "IN"
        },
        "images": [
            {
                "about": "All",
                "link": "https://lh5.googleusercontent.com/p/AF1QipOheheF_NmOfQosAo5OSd0WLT-2EE8_C8S4auPi=w529-h298-k-no"
            },
            {
                "about": "Videos",
                "link": "https://lh5.googleusercontent.com/p/AF1QipOheheF_NmOfQosAo5OSd0WLT-2EE8_C8S4auPi=w529-h298-k-no"
            }
        ],
        "link": "https://www.google.com/maps/place/Masjid+Kalu+Sarai/data=!4m7!3m6!1s0x390ce20f812357ed:0x204ef9602766eca4!8m2!3d28.542013!4d77.203442!16s%2Fg%2F11h198sys!19sChIJ7VcjgQ_iDDkRpOxmJ2D5TiA?authuser=0&hl=en&rclk=1",
        "coordinates": {
            "latitude": 28.542012999999997,
            "longitude": 77.203442
        }
    },
    {
        "name": "Masjid Majeedia Motilal nehru marg- msjdi mjdyh",
        "main_category": "Mosque",
        "address": "Masjid Majeedia Motilal nehru marg- msjdi mjdyh, Unnamed Road, Dr APJ Abdul Kalam Rd, South Block, Aurangzeb Road, New Delhi, Delhi 110001",
        "detailed_address": {
            "ward": "South Block, Aurangzeb Road",
            "street": "Unnamed Road, Dr APJ Abdul Kalam Rd",
            "city": "New Delhi",
            "postal_code": "110001",
            "state": "Delhi",
            "country_code": "IN"
        },
        "images": [
            {
                "about": "All",
                "link": "https://lh5.googleusercontent.com/p/AF1QipNQ6xlad9ucMSMMg4RevqjoZU-7lASYL4XLNMl6=w398-h298-k-no"
            }
        ],
        "link": "https://www.google.com/maps/place/Masjid+Majeedia+Motilal+nehru+marg-+%D9%85%D8%B3%D8%AC%D8%AF%D9%90+%D9%85%D8%AC%D8%AF%DB%8C%DB%81%E2%80%AD/data=!4m7!3m6!1s0x390ce2c111445fc5:0x1156210e810cd168!8m2!3d28.6046984!4d77.2215032!16s%2Fg%2F11f1lpdw85!19sChIJxV9EEcHiDDkRaNEMgQ4hVhE?authuser=0&hl=en&rclk=1",
        "coordinates": {
            "latitude": 28.6046984,
            "longitude": 77.2215032
        }
    },
    {
        "name": "Masjid Takiya Mandal Shah",
        "main_category": "Mosque",
        "address": "M67G+92V Masjid Takiya Mandal Shah, Ganda Nala Bazar, Mori Gate, New Delhi, Delhi, 110006",
        "detailed_address": {
            "ward": "Ganda Nala Bazar, Mori Gate",
            "street": "M67G+92V",
            "city": "New Delhi, Delhi",
            "postal_code": "110006",
            "state": "Delhi",
            "country_code": "IN"
        },
        "images": [],
        "link": "https://www.google.com/maps/place/Masjid+Takiya+Mandal+Shah/data=!4m7!3m6!1s0x390cfd1bda0aca8d:0xbeac265651a56e0f!8m2!3d28.6634877!4d77.2250615!16s%2Fg%2F11fd4g34bx!19sChIJjcoK2hv9DDkRD26lUVYmrL4?authuser=0&hl=en&rclk=1",
        "coordinates": {
            "latitude": 28.663487699999997,
            "longitude": 77.2250615
        }
    },
    {
        "name": "Masjid-e-mandela",
        "main_category": "Mosque",
        "address": "Masjid-e-mandela, SHARDA UNIVERSITY, APJ Abdul Kalam Rd, Knowledge Park III, Greater Noida, Uttar Pradesh 201310",
        "detailed_address": {
            "ward": "Knowledge Park III",
            "street": "SHARDA UNIVERSITY, APJ Abdul Kalam Rd",
            "city": "Greater Noida",
            "postal_code": "201310",
            "state": "Uttar Pradesh",
            "country_code": "IN"
        },
        "images": [],
        "link": "https://www.google.com/maps/place/Masjid-e-mandela/data=!4m7!3m6!1s0x390ceb01ba698471:0x13535ae70e94ae3!8m2!3d28.4718431!4d77.4816139!16s%2Fg%2F11vfb1m8wb!19sChIJcYRpugHrDDkR40rpcK41NQE?authuser=0&hl=en&rclk=1",
        "coordinates": {
            "latitude": 28.471843099999997,
            "longitude": 77.4816139
        }
    }
]