[
    {
        "name": "Mukhtaar masjid",
        "main_category": "Mosque",
        "address": "Mukhtaar masjid, Maktabatul Madeena, 421 - Urdu Market Matia Mahal Road Jama Masjid, Rawatsar, Rajasthan 335524",
        "detailed_address": {
            "ward": null,
            "street": "Maktabatul Madeena, 421 - Urdu Market Matia Mahal Road Jama Masjid",
            "city": "Rawatsar, Khedasari",
            "postal_code": "335524",
            "state": "Rajasthan",
            "country_code": "IN"
        },
        "images": [
            {
                "about": "All",
                "link": "https://lh5.googleusercontent.com/p/AF1QipMnNLw0f5AGfyomnVwYfnj8yixe35uuBHiH8Tqf=w662-h298-k-no"
            },
            {
                "about": "Dome",
                "link": "https://lh5.googleusercontent.com/p/AF1QipP6M_NvK274g1Xy7d7Cf2agqHEFq4kZu8LJxvLg=w662-h298-k-no"
            },
            {
                "about": "By owner",
                "link": "https://lh5.googleusercontent.com/p/AF1QipNzQIATQ_Sk2E1JexbB5HzcZv-mumpq74nxn3JI=w224-h298-k-no"
            }
        ],
        "link": "https://www.google.com/maps/place/Mukhtaar+masjid/data=!4m7!3m6!1s0x391681fa41d099f3:0x28f9e7e5332db9d6!8m2!3d29.2620616!4d74.2409527!16s%2Fg%2F11s_xqv8z_!19sChIJ85nQQfqBFjkR1rktM-Xn-Sg?authuser=0&hl=en&rclk=1",
        "coordinates": {
            "latitude": 29.2620616,
            "longitude": 74.2409527
        }
    },
    {
        "name": "Jama masjid (rawatsar)",
        "main_category": "Mosque",
        "address": "CMQ9+9F4 Jama masjid (rawatsar), Rawatsar, Rajasthan 342023",
        "detailed_address": {
            "ward": null,
            "street": "CMQ9+9F4",
            "city": "Rawatsar",
            "postal_code": "342023",
            "state": "Rajasthan",
            "country_code": "IN"
        },
        "images": [
            {
                "about": "All",
                "link": "https://lh5.googleusercontent.com/p/AF1QipPMcmDeJAixTI-ijakC7KcDi1pCO9F7lYLc_Vx9=w224-h407-k-no"
            },
            {
                "about": "Videos",
                "link": "https://lh5.googleusercontent.com/p/AF1QipPmxddjiK-ISJGMJGkrgnQCXIGfEl1p3Sk54Mji=w224-h407-k-no"
            }
        ],
        "link": "https://www.google.com/maps/place/Jama+masjid+%28rawatsar%29/data=!4m7!3m6!1s0x3941750c654d1601:0xafbc490fb4e70205!8m2!3d26.4383985!4d72.668717!16s%2Fg%2F11fd_sq8sh!19sChIJARZNZQx1QTkRBQLntA9JvK8?authuser=0&hl=en&rclk=1",
        "coordinates": {
            "latitude": 26.438398499999998,
            "longitude": 72.668717
        }
    },
    {
        "name": "Masjid",
        "main_category": "Mosque",
        "address": "Masjid, 9, Jodha Bass Rd, Rawatsar, Rajasthan 335524",
        "detailed_address": {
            "ward": null,
            "street": "9, Jodha Bass Rd",
            "city": "Rawatsar",
            "postal_code": "335524",
            "state": "Rajasthan",
            "country_code": "IN"
        },
        "images": [
            {
                "about": "All",
                "link": "https://streetviewpixels-pa.googleapis.com/v1/thumbnail?panoid=LjvHYj7V5CSTLpTv2SAMwQ&cb_client=maps_sv.tactile.gps&w=224&h=298&yaw=179.45387&pitch=0&thumbfov=100"
            },
            {
                "about": "Street View & 360deg",
                "link": "https://streetviewpixels-pa.googleapis.com/v1/thumbnail?panoid=LjvHYj7V5CSTLpTv2SAMwQ&cb_client=maps_sv.tactile.gps&w=224&h=298&yaw=179.45387&pitch=0&thumbfov=100"
            }
        ],
        "link": "https://www.google.com/maps/place/Masjid/data=!4m7!3m6!1s0x391682cc32d98449:0xdd8865b73c08a3b0!8m2!3d29.2647421!4d74.4006928!16s%2Fg%2F11fx95q4hh!19sChIJSYTZMsyCFjkRsKMIPLdliN0?authuser=0&hl=en&rclk=1",
        "coordinates": {
            "latitude": 29.2647421,
            "longitude": 74.4006928
        }
    },
    {
        "name": "Eidgah (Kabirsthan)",
        "main_category": "Mosque",
        "address": "Eidgah (Kabirsthan), right side jodha bass, to, SDM ROAD, Rawatsar, Rajasthan 335524",
        "detailed_address": {
            "ward": null,
            "street": "right side jodha bass, to, SDM ROAD",
            "city": "Rawatsar",
            "postal_code": "335524",
            "state": "Rajasthan",
            "country_code": "IN"
        },
        "images": [],
        "link": "https://www.google.com/maps/place/Eidgah+%28Kabirsthan%29/data=!4m7!3m6!1s0x391682cda6555555:0x24e3d69a7f888fd7!8m2!3d29.2677862!4d74.3972284!16s%2Fg%2F11g03lyh6c!19sChIJVVVVps2CFjkR14-If5rW4yQ?authuser=0&hl=en&rclk=1",
        "coordinates": {
            "latitude": 29.2677862,
            "longitude": 74.3972284
        }
    },
    {
        "name": "Masjid-a-aksa , Poharka",
        "main_category": "Mosque",
        "address": "592F+7Q9 Masjid-a-aksa , Poharka, Unnamed Road, Rawatsar, Poharka, Rajasthan 335524",
        "detailed_address": {
            "ward": null,
            "street": "592F+7Q9, Unnamed Road",
            "city": "Rawatsar, Poharka",
            "postal_code": "335524",
            "state": "Rajasthan",
            "country_code": "IN"
        },
        "images": [],
        "link": "https://www.google.com/maps/place/Masjid-a-aksa+,+Poharka/data=!4m7!3m6!1s0x391429df79cb7631:0xf59209f548eeefd1!8m2!3d29.1506538!4d74.3744944!16s%2Fg%2F11hyq8ctqh!19sChIJMXbLed8pFDkR0e_uSPUJkvU?authuser=0&hl=en&rclk=1",
        "coordinates": {
            "latitude": 29.150653799999997,
            "longitude": 74.3744944
        }
    },
    {
        "name": "Ahle hadees masjid",
        "main_category": "Mosque",
        "address": "797V+JHF Ahle hadees masjid, Rawatsar, Rajasthan 335524",
        "detailed_address": {
            "ward": null,
            "street": "797V+JHF",
            "city": "Rawatsar",
            "postal_code": "335524",
            "state": "Rajasthan",
            "country_code": "IN"
        },
        "images": [
            {
                "about": "All",
                "link": "https://streetviewpixels-pa.googleapis.com/v1/thumbnail?panoid=zHsOk64I04IRyoPo8w2Rpw&cb_client=maps_sv.tactile.gps&w=224&h=298&yaw=356.53397&pitch=0&thumbfov=100"
            },
            {
                "about": "Street View & 360deg",
                "link": "https://streetviewpixels-pa.googleapis.com/v1/thumbnail?panoid=zHsOk64I04IRyoPo8w2Rpw&cb_client=maps_sv.tactile.gps&w=224&h=298&yaw=356.53397&pitch=0&thumbfov=100"
            }
        ],
        "link": "https://www.google.com/maps/place/Ahle+hadees+masjid/data=!4m7!3m6!1s0x391683240b885ac9:0xd8f062c2e574cf87!8m2!3d29.264058!4d74.3939189!16s%2Fg%2F11rw9hmr7j!19sChIJyVqICySDFjkRh8905cJi8Ng?authuser=0&hl=en&rclk=1",
        "coordinates": {
            "latitude": 29.264058,
            "longitude": 74.3939189
        }
    },
    {
        "name": "Eid gah Masjid",
        "main_category": "Mosque",
        "address": "799W+PFR Eid gah Masjid, Rawatsar, Rajasthan 335524",
        "detailed_address": {
            "ward": null,
            "street": "799W+PFR",
            "city": "Rawatsar",
            "postal_code": "335524",
            "state": "Rajasthan",
            "country_code": "IN"
        },
        "images": [
            {
                "about": "All",
                "link": "https://lh5.googleusercontent.com/p/AF1QipO9f8IAgee2z2F6kraUM4rfPJycatyQjcZaNXi8=w408-h298-k-no"
            },
            {
                "about": "Dome",
                "link": "https://lh5.googleusercontent.com/p/AF1QipO9f8IAgee2z2F6kraUM4rfPJycatyQjcZaNXi8=w408-h298-k-no"
            },
            {
                "about": "Street View & 360deg",
                "link": "https://streetviewpixels-pa.googleapis.com/v1/thumbnail?panoid=GAg9Qz144pPn8KefSzPanw&cb_client=maps_sv.tactile.gps&w=224&h=298&yaw=16.326262&pitch=0&thumbfov=100"
            }
        ],
        "link": "https://www.google.com/maps/place/Eid+gah+Masjid/data=!4m7!3m6!1s0x3916839969e9cdc1:0xbab0905b21648cec!8m2!3d29.2693685!4d74.3961552!16s%2Fg%2F11ghnxn28p!19sChIJwc3paZmDFjkR7IxkIVuQsLo?authuser=0&hl=en&rclk=1",
        "coordinates": {
            "latitude": 29.2693685,
            "longitude": 74.3961552
        }
    }
]