[
    {
        "name": "Rajowali Masjid",
        "main_category": "Mosque",
        "address": "F825+JVV Rajowali Masjid, near Khatriyan mohlla, Kaka Nagar, Shamli, Uttar Pradesh 247776",
        "detailed_address": {
            "ward": "Kaka Nagar",
            "street": "F825+JVV, near Khatriyan mohlla",
            "city": "Shamli",
            "postal_code": "247776",
            "state": "Uttar Pradesh",
            "country_code": "IN"
        },
        "images": [
            {
                "about": "All",
                "link": "https://lh5.googleusercontent.com/p/AF1QipOqb8pqmUq6TCrcmLc1KlLazSpItmOu1oIbnd6A=w224-h298-k-no"
            },
            {
                "about": "Street View & 360deg",
                "link": "https://streetviewpixels-pa.googleapis.com/v1/thumbnail?panoid=AG7V_XBp0XVgmmRyl3Z3eQ&cb_client=maps_sv.tactile.gps&w=224&h=298&yaw=275.62167&pitch=0&thumbfov=100"
            }
        ],
        "link": "https://www.google.com/maps/place/Rajowali+Masjid/data=!4m7!3m6!1s0x390c2eca0b22c3d5:0x318ab5cc20e4a653!8m2!3d29.4516125!4d77.3096583!16s%2Fg%2F11c6cgp3gz!19sChIJ1cMiC8ouDDkRU6bkIMy1ijE?authuser=0&hl=en&rclk=1",
        "coordinates": {
            "latitude": 29.4516125,
            "longitude": 77.3096583
        }
    },
    {
        "name": "Ayesha Masjid",
        "main_category": "Mosque",
        "address": "C8X6+547 Ayesha Masjid, Shamli, Uttar Pradesh 247776",
        "detailed_address": {
            "ward": null,
            "street": "C8X6+547",
            "city": "Shamli",
            "postal_code": "247776",
            "state": "Uttar Pradesh",
            "country_code": "IN"
        },
        "images": [],
        "link": "https://www.google.com/maps/place/Ayesha+Masjid/data=!4m7!3m6!1s0x390c2ec8276beed3:0x3d08ca23ec8c7a85!8m2!3d29.4479027!4d77.310285!16s%2Fg%2F11c6f4ls6h!19sChIJ0-5rJ8guDDkRhXqM7CPKCD0?authuser=0&hl=en&rclk=1",
        "coordinates": {
            "latitude": 29.4479027,
            "longitude": 77.310285
        }
    },
    {
        "name": "Muhammadi Masjid",
        "main_category": "Mosque",
        "address": "C7RX+CH3 Muhammadi Masjid, Shamli, Uttar Pradesh 247776",
        "detailed_address": {
            "ward": null,
            "street": "C7RX+CH3",
            "city": "Shamli",
            "postal_code": "247776",
            "state": "Uttar Pradesh",
            "country_code": "IN"
        },
        "images": [
            {
                "about": "All",
                "link": "https://lh5.googleusercontent.com/p/AF1QipPPpBXiRlVmRSQ6_hOuUnOyYSaeTny_M_A3YeKh=w529-h298-k-no"
            },
            {
                "about": "Street View & 360deg",
                "link": "https://streetviewpixels-pa.googleapis.com/v1/thumbnail?panoid=H2guaFaQoCRIKtouL3b9Tg&cb_client=maps_sv.tactile.gps&w=224&h=298&yaw=237.60939&pitch=0&thumbfov=100"
            },
            {
                "about": "Videos",
                "link": "https://lh5.googleusercontent.com/p/AF1QipOdlmPwz_T8IujrFl2USuFBHBxyai-zOPhPmD5y=w224-h398-k-no"
            }
        ],
        "link": "https://www.google.com/maps/place/Muhammadi+Masjid/data=!4m7!3m6!1s0x390c2ebad95995cd:0x33054e3203d0f453!8m2!3d29.4410043!4d77.2989345!16s%2Fg%2F11g6y_14nf!19sChIJzZVZ2bouDDkRU_TQAzJOBTM?authuser=0&hl=en&rclk=1",
        "coordinates": {
            "latitude": 29.4410043,
            "longitude": 77.2989345
        }
    },
    {
        "name": "Fatehpuri Masjid",
        "main_category": "Mosque",
        "address": "F836+677 Fatehpuri Masjid, Pansariyan, Shamli, Uttar Pradesh 247776",
        "detailed_address": {
            "ward": "Pansariyan",
            "street": "F836+677",
            "city": "Shamli",
            "postal_code": "247776",
            "state": "Uttar Pradesh",
            "country_code": "IN"
        },
        "images": [
            {
                "about": "All",
                "link": "https://lh5.googleusercontent.com/p/AF1QipNk3crZdn7s2US0ChJ2ecfee3SplUtYGhVKoIf1=w224-h336-k-no"
            },
            {
                "about": "Street View & 360deg",
                "link": "https://streetviewpixels-pa.googleapis.com/v1/thumbnail?panoid=C5rKOsS8YVj7jz1tKs0UVw&cb_client=maps_sv.tactile.gps&w=224&h=298&yaw=317.57355&pitch=0&thumbfov=100"
            }
        ],
        "link": "https://www.google.com/maps/place/Fatehpuri+Masjid/data=!4m7!3m6!1s0x390c2eca61a5c403:0xbbc1f1a2231911f3!8m2!3d29.4530346!4d77.310666!16s%2Fg%2F11c6mfcgg5!19sChIJA8SlYcouDDkR8xEZI6Lxwbs?authuser=0&hl=en&rclk=1",
        "coordinates": {
            "latitude": 29.4530346,
            "longitude": 77.310666
        }
    },
    {
        "name": "Jama Masjid Shamli",
        "main_category": "Mosque",
        "address": "C7WX+6WR Jama Masjid Shamli, Gagan Vihar, Shamli, Uttar Pradesh 247776",
        "detailed_address": {
            "ward": "Gagan Vihar",
            "street": "C7WX+6WR",
            "city": "Shamli",
            "postal_code": "247776",
            "state": "Uttar Pradesh",
            "country_code": "IN"
        },
        "images": [
            {
                "about": "All",
                "link": "https://streetviewpixels-pa.googleapis.com/v1/thumbnail?panoid=WEwUUGzqvrJEcC-EA3SY_Q&cb_client=maps_sv.tactile.gps&w=224&h=298&yaw=358.64056&pitch=0&thumbfov=100"
            },
            {
                "about": "Street View & 360deg",
                "link": "https://streetviewpixels-pa.googleapis.com/v1/thumbnail?panoid=WEwUUGzqvrJEcC-EA3SY_Q&cb_client=maps_sv.tactile.gps&w=224&h=298&yaw=358.64056&pitch=0&thumbfov=100"
            }
        ],
        "link": "https://www.google.com/maps/place/Jama+Masjid+Shamli/data=!4m7!3m6!1s0x390c2eb638279f6b:0x1ce5366535093b4a!8m2!3d29.4456136!4d77.2997727!16s%2Fg%2F11c562299z!19sChIJa58nOLYuDDkRSjsJNWU25Rw?authuser=0&hl=en&rclk=1",
        "coordinates": {
            "latitude": 29.445613599999998,
            "longitude": 77.29977269999999
        }
    },
    {
        "name": "Makka Masjid",
        "main_category": "Mosque",
        "address": "Makka Masjid, Off, Barkhandi Rd, Kaka Nagar, Shamli, Uttar Pradesh 247776",
        "detailed_address": {
            "ward": "Kaka Nagar",
            "street": "Off, Barkhandi Rd",
            "city": "Shamli",
            "postal_code": "247776",
            "state": "Uttar Pradesh",
            "country_code": "IN"
        },
        "images": [
            {
                "about": "All",
                "link": "https://lh5.googleusercontent.com/p/AF1QipO9X-H1cA3jAPE3T776y2Erw2_ABoM802hcLQRC=w529-h298-k-no"
            }
        ],
        "link": "https://www.google.com/maps/place/Makka+Masjid/data=!4m7!3m6!1s0x390c2eb457daf9f9:0x4bc1b8148db662cd!8m2!3d29.4527067!4d77.3060187!16s%2Fg%2F11g6bqpfc6!19sChIJ-fnaV7QuDDkRzWK2jRS4wUs?authuser=0&hl=en&rclk=1",
        "coordinates": {
            "latitude": 29.4527067,
            "longitude": 77.3060187
        }
    },
    {
        "name": "Shahi Masjid",
        "main_category": "Mosque",
        "address": "C8X5+9FR Shahi Masjid, Shamli, Uttar Pradesh 247776",
        "detailed_address": {
            "ward": null,
            "street": "C8X5+9FR",
            "city": "Shamli",
            "postal_code": "247776",
            "state": "Uttar Pradesh",
            "country_code": "IN"
        },
        "images": [
            {
                "about": "All",
                "link": "https://lh5.googleusercontent.com/p/AF1QipNaqR992trFRe61teBMZWS0ju3bIO5twKfiSa2I=w529-h298-k-no"
            },
            {
                "about": "Dome",
                "link": "https://lh5.googleusercontent.com/p/AF1QipPPdR3CpIicTVVdEK6Nbjj5O2RP8424lSfxWrpv=w986-h298-k-no"
            },
            {
                "about": "Videos",
                "link": "https://lh5.googleusercontent.com/p/AF1QipO7l-oBneyywBy9KAI8VInxnZZLGKib1czAVrZi=w224-h398-k-no"
            }
        ],
        "link": "https://www.google.com/maps/place/Shahi+Masjid/data=!4m7!3m6!1s0x390c2eb63ce392e9:0x2f3b2ee2541edcdc!8m2!3d29.4484789!4d77.3086312!16s%2Fg%2F11c1s1txnk!19sChIJ6ZLjPLYuDDkR3NweVOIuOy8?authuser=0&hl=en&rclk=1",
        "coordinates": {
            "latitude": 29.448478899999998,
            "longitude": 77.3086312
        }
    },
    {
        "name": "masjid Eidgah wali",
        "main_category": "Mosque",
        "address": "C8W2+8PW masjid Eidgah wali, Shamli, Uttar Pradesh 247776",
        "detailed_address": {
            "ward": null,
            "street": "C8W2+8PW",
            "city": "Shamli",
            "postal_code": "247776",
            "state": "Uttar Pradesh",
            "country_code": "IN"
        },
        "images": [
            {
                "about": "All",
                "link": "https://lh5.googleusercontent.com/p/AF1QipPxB4MV9EOZT13qx0F7_IEJ995_BNvpgI8iL05n=w224-h298-k-no"
            },
            {
                "about": "Street View & 360deg",
                "link": "https://streetviewpixels-pa.googleapis.com/v1/thumbnail?panoid=21H4InQRJ-OF_XgrjaxGuA&cb_client=maps_sv.tactile.gps&w=224&h=298&yaw=121.92433&pitch=0&thumbfov=100"
            },
            {
                "about": "Videos",
                "link": "https://lh5.googleusercontent.com/p/AF1QipPQ0QE6cwAOojfbQB5MeeiJQKCzG6ZZQXR64Qio=w224-h398-k-no"
            }
        ],
        "link": "https://www.google.com/maps/place/masjid+Eidgah+wali/data=!4m7!3m6!1s0x390c2eb0ef850c0b:0xb3205c8fc082a37c!8m2!3d29.4458514!4d77.3018251!16s%2Fg%2F11c30xklpd!19sChIJCwyF77AuDDkRfKOCwI9cILM?authuser=0&hl=en&rclk=1",
        "coordinates": {
            "latitude": 29.4458514,
            "longitude": 77.3018251
        }
    },
    {
        "name": "Hindi wali masjid",
        "main_category": "Mosque",
        "address": "C8X6+542 Hindi wali masjid, Naya Bazar Rd, Shamli, Uttar Pradesh 247776",
        "detailed_address": {
            "ward": null,
            "street": "C8X6+542, Naya Bazar Rd",
            "city": "Shamli",
            "postal_code": "247776",
            "state": "Uttar Pradesh",
            "country_code": "IN"
        },
        "images": [],
        "link": "https://www.google.com/maps/place/Hindi+wali+masjid/data=!4m7!3m6!1s0x390c2ec9ce485049:0xe8ec5a9895304cd0!8m2!3d29.4478998!4d77.3102695!16s%2Fg%2F11gf9qrxnl!19sChIJSVBIzskuDDkR0EwwlZha7Og?authuser=0&hl=en&rclk=1",
        "coordinates": {
            "latitude": 29.4478998,
            "longitude": 77.31026949999999
        }
    },
    {
        "name": "Masjid Madrse wali",
        "main_category": "Mosque",
        "address": "C8V3+QC7 Masjid Madrse wali, Unnamed Road, Shamli Rural, Shamli, Uttar Pradesh 247776",
        "detailed_address": {
            "ward": null,
            "street": "C8V3+QC7, Unnamed Road",
            "city": "Shamli Rural, Shamli",
            "postal_code": "247776",
            "state": "Uttar Pradesh",
            "country_code": "IN"
        },
        "images": [
            {
                "about": "All",
                "link": "https://lh5.googleusercontent.com/p/AF1QipMCbWW-VervMT2nLl3ge997gc63pgUCYbNCG0-h=w224-h298-k-no"
            },
            {
                "about": "Dome",
                "link": "https://lh5.googleusercontent.com/p/AF1QipMCbWW-VervMT2nLl3ge997gc63pgUCYbNCG0-h=w224-h298-k-no"
            },
            {
                "about": "Street View & 360deg",
                "link": "https://streetviewpixels-pa.googleapis.com/v1/thumbnail?panoid=Z0VRSrZrPa3BoMuMXuMDvQ&cb_client=maps_sv.tactile.gps&w=224&h=298&yaw=171.60771&pitch=0&thumbfov=100"
            }
        ],
        "link": "https://www.google.com/maps/place/Masjid+Madrse+wali/data=!4m7!3m6!1s0x390c2eb0acf78fc5:0xf5f1c9c135a28fe7!8m2!3d29.4444155!4d77.3035514!16s%2Fg%2F11gdyxy9nj!19sChIJxY_3rLAuDDkR54-iNcHJ8fU?authuser=0&hl=en&rclk=1",
        "coordinates": {
            "latitude": 29.444415499999998,
            "longitude": 77.3035514
        }
    },
    {
        "name": "Masjid Rashidiyan",
        "main_category": "Mosque",
        "address": "F823+9FF Masjid Rashidiyan, mominpura no kuaan Road, Uttar Pradesh 247776",
        "detailed_address": {
            "ward": "Kaka Nagar",
            "street": "F823+9FF, mominpura no kuaan Road",
            "city": "Shamli, Shamli Rural",
            "postal_code": "247776",
            "state": "Uttar Pradesh",
            "country_code": "IN"
        },
        "images": [],
        "link": "https://www.google.com/maps/place/Masjid+Rashidiyan/data=!4m7!3m6!1s0x390c2eb3f56f8865:0xda89599e790cc77!8m2!3d29.4509485!4d77.3036719!16s%2Fg%2F11gf9qklgv!19sChIJZYhv9bMuDDkRd8yQ55mVqA0?authuser=0&hl=en&rclk=1",
        "coordinates": {
            "latitude": 29.4509485,
            "longitude": 77.3036719
        }
    },
    {
        "name": "Masjid & Madarsa",
        "main_category": "Mosque",
        "address": "C8W4+V84 Masjid & Madarsa, Shamli, Uttar Pradesh 247776",
        "detailed_address": {
            "ward": null,
            "street": "C8W4+V84",
            "city": "Shamli",
            "postal_code": "247776",
            "state": "Uttar Pradesh",
            "country_code": "IN"
        },
        "images": [
            {
                "about": "All",
                "link": "https://lh5.googleusercontent.com/p/AF1QipPx9XY837-s_GtKxWudOD6-BxVeTnMs83aaMun0=w224-h298-k-no"
            },
            {
                "about": "Videos",
                "link": "https://lh5.googleusercontent.com/p/AF1QipNJyBrQsa-c6-ljvwlMN4eeShlGzuRkOtzOMeBO=w224-h398-k-no"
            }
        ],
        "link": "https://www.google.com/maps/place/Masjid+%26+Madarsa/data=!4m7!3m6!1s0x390c2eb6e2cd3b69:0xd244cc7f201870b1!8m2!3d29.4471328!4d77.3058424!16s%2Fg%2F11g6bnqn_y!19sChIJaTvN4rYuDDkRsXAYIH_MRNI?authuser=0&hl=en&rclk=1",
        "coordinates": {
            "latitude": 29.4471328,
            "longitude": 77.3058424
        }
    },
    {
        "name": "Aqsa Masjid",
        "main_category": "Mosque",
        "address": "F835+JMJ Aqsa Masjid, Mandi Rd, Pansariyan Colony, Kaka Nagar, Shamli, Uttar Pradesh 247776",
        "detailed_address": {
            "ward": "Pansariyan Colony, Kaka Nagar",
            "street": "F835+JMJ, Mandi Rd",
            "city": "Shamli",
            "postal_code": "247776",
            "state": "Uttar Pradesh",
            "country_code": "IN"
        },
        "images": [
            {
                "about": "All",
                "link": "https://streetviewpixels-pa.googleapis.com/v1/thumbnail?panoid=46oE9xgRpJPRJh90zzINqA&cb_client=maps_sv.tactile.gps&w=224&h=298&yaw=107.11117&pitch=0&thumbfov=100"
            },
            {
                "about": "Street View & 360deg",
                "link": "https://streetviewpixels-pa.googleapis.com/v1/thumbnail?panoid=46oE9xgRpJPRJh90zzINqA&cb_client=maps_sv.tactile.gps&w=224&h=298&yaw=107.11117&pitch=0&thumbfov=100"
            }
        ],
        "link": "https://www.google.com/maps/place/Aqsa+Masjid/data=!4m7!3m6!1s0x390c2eb572c234df:0xe1ea6c772feb3534!8m2!3d29.4540755!4d77.3091287!16s%2Fg%2F11gd0mf2hv!19sChIJ3zTCcrUuDDkRNDXrL3ds6uE?authuser=0&hl=en&rclk=1",
        "coordinates": {
            "latitude": 29.4540755,
            "longitude": 77.3091287
        }
    },
    {
        "name": "Masjid Thathiraan",
        "main_category": "Mosque",
        "address": "F824+4MH Masjid Thathiraan, Teachers Colony, Thatheran, Shamli, Uttar Pradesh 247776",
        "detailed_address": {
            "ward": "Teachers Colony, Thatheran",
            "street": "F824+4MH",
            "city": "Shamli",
            "postal_code": "247776",
            "state": "Uttar Pradesh",
            "country_code": "IN"
        },
        "images": [
            {
                "about": "All",
                "link": "https://lh5.googleusercontent.com/p/AF1QipO9XiedcN31NjJg7cCmDzvB79PBlFW9sxMdBL8V=w529-h298-k-no"
            }
        ],
        "link": "https://www.google.com/maps/place/Masjid+Thathiraan/data=!4m7!3m6!1s0x390c2eb5d3377479:0xaf0b50946663f9af!8m2!3d29.4503221!4d77.3067455!16s%2Fg%2F11c6f61wkq!19sChIJeXQ307UuDDkRr_ljZpRQC68?authuser=0&hl=en&rclk=1",
        "coordinates": {
            "latitude": 29.450322099999998,
            "longitude": 77.30674549999999
        }
    },
    {
        "name": "Noorani maszid",
        "main_category": "Mosque",
        "address": "C8X5+MH2 Noorani maszid, Shamli, Uttar Pradesh 247776",
        "detailed_address": {
            "ward": null,
            "street": "C8X5+MH2",
            "city": "Shamli",
            "postal_code": "247776",
            "state": "Uttar Pradesh",
            "country_code": "IN"
        },
        "images": [
            {
                "about": "All",
                "link": "https://lh5.googleusercontent.com/p/AF1QipOF_90-ykfhXeWj0I7N9eZ_JEV9ei3p3m6-53SA=w529-h298-k-no"
            },
            {
                "about": "Videos",
                "link": "https://lh5.googleusercontent.com/p/AF1QipOF_90-ykfhXeWj0I7N9eZ_JEV9ei3p3m6-53SA=w529-h298-k-no"
            }
        ],
        "link": "https://www.google.com/maps/place/Noorani+maszid/data=!4m7!3m6!1s0x390c2eb61a30e51b:0x99b1eca267746253!8m2!3d29.4491377!4d77.308893!16s%2Fg%2F11cmyt9_yy!19sChIJG-UwGrYuDDkRU2J0Z6LssZk?authuser=0&hl=en&rclk=1",
        "coordinates": {
            "latitude": 29.449137699999998,
            "longitude": 77.308893
        }
    },
    {
        "name": "Marketwali Masjid",
        "main_category": "Mosque",
        "address": "C8X4+6C3 Marketwali Masjid, Shamli, Uttar Pradesh 247776",
        "detailed_address": {
            "ward": null,
            "street": "C8X4+6C3",
            "city": "Shamli",
            "postal_code": "247776",
            "state": "Uttar Pradesh",
            "country_code": "IN"
        },
        "images": [
            {
                "about": "All",
                "link": "https://lh5.googleusercontent.com/p/AF1QipM05vd51DMLTZPTMRxoGL8P71KOC-Yy2Gxl-soa=w224-h298-k-no"
            },
            {
                "about": "Street View & 360deg",
                "link": "https://streetviewpixels-pa.googleapis.com/v1/thumbnail?panoid=Lc_qH20yBsw1vyVkLwNWbw&cb_client=maps_sv.tactile.gps&w=224&h=298&yaw=3.6762583&pitch=0&thumbfov=100"
            }
        ],
        "link": "https://www.google.com/maps/place/Marketwali+Masjid/data=!4m7!3m6!1s0x390c2eb6f19c264d:0xd6f0579743146986!8m2!3d29.4480244!4d77.3060422!16s%2Fg%2F11c1rw42xn!19sChIJTSac8bYuDDkRhmkUQ5dX8NY?authuser=0&hl=en&rclk=1",
        "coordinates": {
            "latitude": 29.448024399999998,
            "longitude": 77.3060422
        }
    },
    {
        "name": "Masjid-e-fatima",
        "main_category": "Mosque",
        "address": "C8V2+2QV Masjid-e-fatima, Shamli, Uttar Pradesh 247776",
        "detailed_address": {
            "ward": null,
            "street": "C8V2+2QV",
            "city": "Shamli",
            "postal_code": "247776",
            "state": "Uttar Pradesh",
            "country_code": "IN"
        },
        "images": [
            {
                "about": "All",
                "link": "https://lh5.googleusercontent.com/p/AF1QipNejony6SxfEcFKV1MqLwjfrx0R1Wc7dO0eGucb=w298-h298-k-no"
            },
            {
                "about": "Videos",
                "link": "https://lh5.googleusercontent.com/p/AF1QipNnREo3iJmbwP20L3NpfL9XC0yNRzQVQ55N37ZG=w298-h298-k-no"
            }
        ],
        "link": "https://www.google.com/maps/place/Masjid-e-fatima/data=!4m7!3m6!1s0x390c2eba69647109:0x3eccf6146474bf60!8m2!3d29.4426018!4d77.3019303!16s%2Fg%2F11gfj5nhgw!19sChIJCXFkabouDDkRYL90ZBT2zD4?authuser=0&hl=en&rclk=1",
        "coordinates": {
            "latitude": 29.4426018,
            "longitude": 77.3019303
        }
    },
    {
        "name": "Sarvar Peer",
        "main_category": "Mosque",
        "address": "F823+WCP Sarvar Peer, Kaka Nagar, Shamli, Uttar Pradesh 247776",
        "detailed_address": {
            "ward": "Kaka Nagar",
            "street": "F823+WCP",
            "city": "Shamli",
            "postal_code": "247776",
            "state": "Uttar Pradesh",
            "country_code": "IN"
        },
        "images": [
            {
                "about": "All",
                "link": "https://lh5.googleusercontent.com/p/AF1QipNQ2voDys1HAq4FoWIOKCU1-bzVauwk_ZdmmDpR=w224-h398-k-no"
            },
            {
                "about": "Street View & 360deg",
                "link": "https://streetviewpixels-pa.googleapis.com/v1/thumbnail?panoid=lxAX6NJSlRGvngBVgYcDXQ&cb_client=maps_sv.tactile.gps&w=224&h=298&yaw=152.51917&pitch=0&thumbfov=100"
            }
        ],
        "link": "https://www.google.com/maps/place/Sarvar+Peer/data=!4m7!3m6!1s0x390c2f82f3053cf9:0xdbf40cd9bade6998!8m2!3d29.4523355!4d77.3035669!16s%2Fg%2F11f9y8k8r6!19sChIJ-TwF84IvDDkRmGneutkM9Ns?authuser=0&hl=en&rclk=1",
        "coordinates": {
            "latitude": 29.4523355,
            "longitude": 77.30356689999999
        }
    },
    {
        "name": "Maniharan wali masjid",
        "main_category": "Mosque",
        "address": "F826+C93 Maniharan wali masjid, Kaka Nagar, Shamli, Uttar Pradesh 247776",
        "detailed_address": {
            "ward": "Kaka Nagar",
            "street": "F826+C93",
            "city": "Shamli",
            "postal_code": "247776",
            "state": "Uttar Pradesh",
            "country_code": "IN"
        },
        "images": [
            {
                "about": "All",
                "link": "https://streetviewpixels-pa.googleapis.com/v1/thumbnail?panoid=dNC8JbNjIIwqWBqh-6--aA&cb_client=maps_sv.tactile.gps&w=224&h=298&yaw=158.89682&pitch=0&thumbfov=100"
            },
            {
                "about": "Street View & 360deg",
                "link": "https://streetviewpixels-pa.googleapis.com/v1/thumbnail?panoid=dNC8JbNjIIwqWBqh-6--aA&cb_client=maps_sv.tactile.gps&w=224&h=298&yaw=158.89682&pitch=0&thumbfov=100"
            }
        ],
        "link": "https://www.google.com/maps/place/Maniharan+wali+masjid/data=!4m7!3m6!1s0x390c2facd495e865:0xcbf31e5892b56c07!8m2!3d29.4510172!4d77.3109301!16s%2Fg%2F11k6v5p2qf!19sChIJZeiV1KwvDDkRB2y1klge88s?authuser=0&hl=en&rclk=1",
        "coordinates": {
            "latitude": 29.4510172,
            "longitude": 77.3109301
        }
    },
    {
        "name": "Chand Masjid",
        "main_category": "Mosque",
        "address": "Chand Masjid, Ansari, Kaka Nagar, Shamli, Uttar Pradesh 247776",
        "detailed_address": {
            "ward": "Kaka Nagar",
            "street": "Ansari",
            "city": "Shamli",
            "postal_code": "247776",
            "state": "Uttar Pradesh",
            "country_code": "IN"
        },
        "images": [
            {
                "about": "All",
                "link": "https://lh5.googleusercontent.com/p/AF1QipOyjTObzEC8eIAgqffsLEIwwjKAehjcB8ujGe-K=w224-h398-k-no"
            },
            {
                "about": "Videos",
                "link": "https://lh5.googleusercontent.com/p/AF1QipPYErvFIE--i9HHG07SsRrJp6yvUt9NXKVkngGP=w224-h398-k-no"
            }
        ],
        "link": "https://www.google.com/maps/place/Chand+Masjid/data=!4m7!3m6!1s0x390c2964ee330a39:0x5729a1bdf2d7c745!8m2!3d29.4563694!4d77.3061597!16s%2Fg%2F11gppjj97w!19sChIJOQoz7mQpDDkRRcfX8r2hKVc?authuser=0&hl=en&rclk=1",
        "coordinates": {
            "latitude": 29.4563694,
            "longitude": 77.3061597
        }
    },
    {
        "name": "Masjid Bu'alishah Qalandar",
        "main_category": "Mosque",
        "address": "F835+783 Masjid Bu'alishah Qalandar, Mandi Rd, Pansariyan Colony, Kaka Nagar, Shamli, Uttar Pradesh 247776",
        "detailed_address": {
            "ward": "Pansariyan Colony, Kaka Nagar",
            "street": "F835+783, Mandi Rd",
            "city": "Shamli",
            "postal_code": "247776",
            "state": "Uttar Pradesh",
            "country_code": "IN"
        },
        "images": [
            {
                "about": "All",
                "link": "https://lh5.googleusercontent.com/p/AF1QipOytp8vsL1COljWhgKXum2Y5Wfi9E2OnDt7XMUE=w529-h298-k-no"
            },
            {
                "about": "Street View & 360deg",
                "link": "https://streetviewpixels-pa.googleapis.com/v1/thumbnail?panoid=kNODVzkD8hzWW0GkQ4qFXA&cb_client=maps_sv.tactile.gps&w=224&h=298&yaw=200.85646&pitch=0&thumbfov=100"
            },
            {
                "about": "Videos",
                "link": "https://lh5.googleusercontent.com/p/AF1QipNYUdb9kpNE096A9c408hgGPRIUnuhWz7a_q57X=w224-h398-k-no"
            }
        ],
        "link": "https://www.google.com/maps/place/Masjid+Bu%27alishah+Qalandar/data=!4m7!3m6!1s0x390c2f5443528391:0x128ef50b305b89ae!8m2!3d29.4531486!4d77.3083056!16s%2Fg%2F11g_x9lp5x!19sChIJkYNSQ1QvDDkRrolbMAv1jhI?authuser=0&hl=en&rclk=1",
        "coordinates": {
            "latitude": 29.4531486,
            "longitude": 77.3083056
        }
    },
    {
        "name": "Noor Maszid",
        "main_category": "Mosque",
        "address": "C8V3+MW6 Noor Maszid, Nanu Pura, Shamli, Uttar Pradesh 247776",
        "detailed_address": {
            "ward": "Nanu Pura",
            "street": "C8V3+MW6",
            "city": "Shamli",
            "postal_code": "247776",
            "state": "Uttar Pradesh",
            "country_code": "IN"
        },
        "images": [],
        "link": "https://www.google.com/maps/place/Noor+Maszid/data=!4m7!3m6!1s0x390c2eb758c9249f:0x93f60b9bd25ba3e!8m2!3d29.4441524!4d77.3047688!16s%2Fg%2F11f3r3_8cr!19sChIJnyTJWLcuDDkRProlvblgPwk?authuser=0&hl=en&rclk=1",
        "coordinates": {
            "latitude": 29.4441524,
            "longitude": 77.30476879999999
        }
    },
    {
        "name": "Jama Masjid",
        "main_category": "Mosque",
        "address": "Jama Masjid, 856/6, Teachers Colony, Kaka Nagar, Shamli, Uttar Pradesh 247776",
        "detailed_address": {
            "ward": "Teachers Colony, Kaka Nagar",
            "street": "856/6",
            "city": "Shamli",
            "postal_code": "247776",
            "state": "Uttar Pradesh",
            "country_code": "IN"
        },
        "images": [
            {
                "about": "All",
                "link": "https://lh5.googleusercontent.com/p/AF1QipMLrULHpAQSiL8qo0iqIKdH6By7O11rvt6i8gXP=w224-h497-k-no"
            }
        ],
        "link": "https://www.google.com/maps/place/Jama+Masjid/data=!4m7!3m6!1s0x390c2fb354fedb5f:0xed0f2fe7ec2fcf76!8m2!3d29.448006!4d77.3083261!16s%2Fg%2F11s781hk82!19sChIJX9v-VLMvDDkRds8v7OcvD-0?authuser=0&hl=en&rclk=1",
        "coordinates": {
            "latitude": 29.448006,
            "longitude": 77.3083261
        }
    },
    {
        "name": "Naurani Masjid",
        "main_category": "Mosque",
        "address": "Naurani Masjid, Mandi Rd, Pansariyan Colony, Kaka Nagar, Shamli, Uttar Pradesh 247776",
        "detailed_address": {
            "ward": "Pansariyan Colony, Kaka Nagar",
            "street": "Naurani Masjid, Mandi Rd",
            "city": "Shamli",
            "postal_code": "247776",
            "state": "Uttar Pradesh",
            "country_code": "IN"
        },
        "images": [],
        "link": "https://www.google.com/maps/place/Naurani+Masjid/data=!4m7!3m6!1s0x390c2ffb8d40906d:0xffae4ad5cf426ddc!8m2!3d29.454632!4d77.3059919!16s%2Fg%2F11s55vmqtb!19sChIJbZBAjfsvDDkR3G1Cz9VKrv8?authuser=0&hl=en&rclk=1",
        "coordinates": {
            "latitude": 29.454632,
            "longitude": 77.3059919
        }
    },
    {
        "name": "Eidgah masjid Shamli",
        "main_category": "Mosque",
        "address": "C8R3+Q4J Eidgah masjid Shamli, Gulshan Nagar, Shamli, Uttar Pradesh 247776",
        "detailed_address": {
            "ward": "Gulshan Nagar",
            "street": "C8R3+Q4J",
            "city": "Shamli",
            "postal_code": null,
            "state": "Uttar Pradesh",
            "country_code": "IN"
        },
        "images": [
            {
                "about": "All",
                "link": "https://lh5.googleusercontent.com/p/AF1QipOxCN-WmWfZOVqMwta4qAUkKv2p2kyeYjnLbLnO=w224-h459-k-no"
            },
            {
                "about": "Street View & 360deg",
                "link": "https://streetviewpixels-pa.googleapis.com/v1/thumbnail?panoid=8Obj4h1HZ3rZ5P93TzfNzA&cb_client=maps_sv.tactile.gps&w=224&h=298&yaw=312.36234&pitch=0&thumbfov=100"
            },
            {
                "about": "Videos",
                "link": "https://lh5.googleusercontent.com/p/AF1QipMSIYD4B0XbpxntGnFHbCmZ6r4B1W_1Y_VehgBv=w224-h398-k-no"
            }
        ],
        "link": "https://www.google.com/maps/place/Eidgah+masjid+Shamli/data=!4m7!3m6!1s0x390c2f4e68c45c9d:0xa0b73cf142b1a76e!8m2!3d29.441964!4d77.3027553!16s%2Fg%2F11t5f90440!19sChIJnVzEaE4vDDkRbqexQvE8t6A?authuser=0&hl=en&rclk=1",
        "coordinates": {
            "latitude": 29.441964,
            "longitude": 77.3027553
        }
    },
    {
        "name": "Madina masjid",
        "main_category": "Mosque",
        "address": "C8R3+RR3 Madina masjid, Shamli, Uttar Pradesh 247776",
        "detailed_address": {
            "ward": null,
            "street": "C8R3+RR3",
            "city": "Shamli",
            "postal_code": "247776",
            "state": "Uttar Pradesh",
            "country_code": "IN"
        },
        "images": [],
        "link": "https://www.google.com/maps/place/Madina+masjid/data=!4m7!3m6!1s0x390c2f640fb92953:0xb1654e06cfeda35b!8m2!3d29.4420125!4d77.3045381!16s%2Fg%2F11q252bgzg!19sChIJUym5D2QvDDkRW6PtzwZOZbE?authuser=0&hl=en&rclk=1",
        "coordinates": {
            "latitude": 29.442012499999997,
            "longitude": 77.3045381
        }
    },
    {
        "name": "Chand masjid Pansariyan Colony",
        "main_category": "Mosque",
        "address": "F835+MWM Chand masjid Pansariyan Colony, Pansariyan Colony, Kaka Nagar, Shamli Rural, Shamli, Uttar Pradesh 247776",
        "detailed_address": {
            "ward": "Pansariyan Colony, Kaka Nagar",
            "street": "F835+MWM",
            "city": "Shamli Rural, Shamli",
            "postal_code": "247776",
            "state": "Uttar Pradesh",
            "country_code": "IN"
        },
        "images": [
            {
                "about": "All",
                "link": "https://lh5.googleusercontent.com/p/AF1QipMXqpKyAfVKuKeT30VP4DDzHpcI3dpWV6TOjL55=w224-h398-k-no"
            }
        ],
        "link": "https://www.google.com/maps/place/Chand+masjid+Pansariyan+Colony/data=!4m7!3m6!1s0x390c2f38cdf7a111:0xdc85edc99a0ad9!8m2!3d29.4542218!4d77.3098074!16s%2Fg%2F11ff0hw8mn!19sChIJEaH3zTgvDDkR2Qqaye2F3AA?authuser=0&hl=en&rclk=1",
        "coordinates": {
            "latitude": 29.4542218,
            "longitude": 77.3098074
        }
    },
    {
        "name": "Hamza masjid",
        "main_category": "Mosque",
        "address": "Hamza masjid, Kaka Nagar, Shamli Rural, Shamli, Uttar Pradesh 247776",
        "detailed_address": {
            "ward": "Kaka Nagar",
            "street": null,
            "city": "Shamli Rural, Shamli",
            "postal_code": "247776",
            "state": "Uttar Pradesh",
            "country_code": "IN"
        },
        "images": [
            {
                "about": "All",
                "link": "https://lh5.googleusercontent.com/p/AF1QipPVfMTeZp9zS5nIRumHSg4LZFHr6jjagwNuIiCp=w224-h298-k-no"
            }
        ],
        "link": "https://www.google.com/maps/place/Hamza+masjid/data=!4m7!3m6!1s0x390c2f65ed196557:0x9986d6e358c917b2!8m2!3d29.4542501!4d77.3050696!16s%2Fg%2F11st90w2n1!19sChIJV2UZ7WUvDDkRshfJWOPWhpk?authuser=0&hl=en&rclk=1",
        "coordinates": {
            "latitude": 29.4542501,
            "longitude": 77.3050696
        }
    },
    {
        "name": "Markaz Masjid",
        "main_category": "Mosque",
        "address": "C8V3+HCF Markaz Masjid, Saharanpur - Delhi Rd, Shamli, Uttar Pradesh 247776",
        "detailed_address": {
            "ward": null,
            "street": "C8V3+HCF, Saharanpur - Delhi Rd",
            "city": "Shamli",
            "postal_code": "247776",
            "state": "Uttar Pradesh",
            "country_code": "IN"
        },
        "images": [
            {
                "about": "All",
                "link": "https://streetviewpixels-pa.googleapis.com/v1/thumbnail?panoid=NiIk1RfETs-KCvxyrPGlCA&cb_client=maps_sv.tactile.gps&w=224&h=298&yaw=266.27332&pitch=0&thumbfov=100"
            },
            {
                "about": "Dome",
                "link": "https://lh5.googleusercontent.com/p/AF1QipNQ13FAoDSKfVIlo5Flaxq4qnHicWNUgZ8fPDrz=w224-h398-k-no"
            },
            {
                "about": "Street View & 360deg",
                "link": "https://streetviewpixels-pa.googleapis.com/v1/thumbnail?panoid=NiIk1RfETs-KCvxyrPGlCA&cb_client=maps_sv.tactile.gps&w=224&h=298&yaw=266.27332&pitch=0&thumbfov=100"
            }
        ],
        "link": "https://www.google.com/maps/place/Markaz+Masjid/data=!4m7!3m6!1s0x390c2f507a93e509:0x697f1abba92158c!8m2!3d29.4439364!4d77.3035595!16s%2Fg%2F11s91ptrq1!19sChIJCeWTelAvDDkRjBWSuqvxlwY?authuser=0&hl=en&rclk=1",
        "coordinates": {
            "latitude": 29.4439364,
            "longitude": 77.30355949999999
        }
    },
    {
        "name": "Banjaron Wali Masjid",
        "main_category": "Mosque",
        "address": "C7RV+6WF Banjaron Wali Masjid, Shamli - Kairana Rd, Shamli, Uttar Pradesh 247776",
        "detailed_address": {
            "ward": null,
            "street": "C7RV+6WF, Shamli - Kairana Rd",
            "city": "Shamli",
            "postal_code": "247776",
            "state": "Uttar Pradesh",
            "country_code": "IN"
        },
        "images": [
            {
                "about": "All",
                "link": "https://streetviewpixels-pa.googleapis.com/v1/thumbnail?panoid=k6Hrw12atRkYmEFZdLWIgg&cb_client=maps_sv.tactile.gps&w=224&h=298&yaw=233.49916&pitch=0&thumbfov=100"
            },
            {
                "about": "Street View & 360deg",
                "link": "https://streetviewpixels-pa.googleapis.com/v1/thumbnail?panoid=k6Hrw12atRkYmEFZdLWIgg&cb_client=maps_sv.tactile.gps&w=224&h=298&yaw=233.49916&pitch=0&thumbfov=100"
            }
        ],
        "link": "https://www.google.com/maps/place/Banjaron+Wali+Masjid/data=!4m7!3m6!1s0x390c2ea5abfce563:0x1296d8ca78083b46!8m2!3d29.4405717!4d77.2947836!16s%2Fg%2F11gfm46xdp!19sChIJY-X8q6UuDDkRRjsIeMrYlhI?authuser=0&hl=en&rclk=1",
        "coordinates": {
            "latitude": 29.4405717,
            "longitude": 77.2947836
        }
    },
    {
        "name": "Amna masjid",
        "main_category": "Parsi temple",
        "address": "F843+VV5 Amna masjid, Kaka Nagar, Shamli, Uttar Pradesh 247776",
        "detailed_address": {
            "ward": "Kaka Nagar",
            "street": "F843+VV5",
            "city": "Shamli",
            "postal_code": "247776",
            "state": "Uttar Pradesh",
            "country_code": "IN"
        },
        "images": [
            {
                "about": "All",
                "link": "https://lh5.googleusercontent.com/p/AF1QipN_9k4RCPesijPeBuehma4RoM5_W0u7GSMuZAmp=w224-h398-k-no"
            }
        ],
        "link": "https://www.google.com/maps/place/Amna+masjid/data=!4m7!3m6!1s0x390c291df2a35b4d:0x1bd912f6165ff375!8m2!3d29.4571346!4d77.3047218!16s%2Fg%2F11lrf40_0w!19sChIJTVuj8h0pDDkRdfNfFvYS2Rs?authuser=0&hl=en&rclk=1",
        "coordinates": {
            "latitude": 29.4571346,
            "longitude": 77.3047218
        }
    },
    {
        "name": "Masjid",
        "main_category": "School",
        "address": "C7MX+R5P Masjid, Shamli, Uttar Pradesh 247776",
        "detailed_address": {
            "ward": null,
            "street": "C7MX+R5P",
            "city": "Shamli",
            "postal_code": "247776",
            "state": "Uttar Pradesh",
            "country_code": "IN"
        },
        "images": [
            {
                "about": "All",
                "link": "https://lh5.googleusercontent.com/p/AF1QipPWMZetAenZaQL4qYnV73Iz6VjV1Q2VQZC6WqVP=w224-h398-k-no"
            }
        ],
        "link": "https://www.google.com/maps/place/Masjid/data=!4m7!3m6!1s0x390c2ea2d4ce6805:0x235e89e0185283a8!8m2!3d29.4345975!4d77.2979503!16s%2Fg%2F11f15f6mnt!19sChIJBWjO1KIuDDkRqINSGOCJXiM?authuser=0&hl=en&rclk=1",
        "coordinates": {
            "latitude": 29.4345975,
            "longitude": 77.2979503
        }
    },
    {
        "name": "Qaziyan maszid",
        "main_category": "Mosque",
        "address": "Qaziyan maszid, 872/6, Teachers Colony, Kaka Nagar, Shamli, Uttar Pradesh 247776",
        "detailed_address": {
            "ward": "Teachers Colony, Kaka Nagar",
            "street": "872/6",
            "city": "Shamli",
            "postal_code": "247776",
            "state": "Uttar Pradesh",
            "country_code": "IN"
        },
        "images": [
            {
                "about": "All",
                "link": "https://lh5.googleusercontent.com/p/AF1QipOdpK9IOAUpuTHa_LVc_s3J6-Lhp8PGvdplPiF6=w224-h298-k-no"
            }
        ],
        "link": "https://www.google.com/maps/place/Qaziyan+maszid/data=!4m7!3m6!1s0x390c2fb2676498c1:0xfb4fabf7307e16a5!8m2!3d29.4482065!4d77.3087639!16s%2Fg%2F11ng1nh62d!19sChIJwZhkZ7IvDDkRpRZ-MPerT_s?authuser=0&hl=en&rclk=1",
        "coordinates": {
            "latitude": 29.448206499999998,
            "longitude": 77.3087639
        }
    },
    {
        "name": "Madarsa Islamia Zia Ul Quran",
        "main_category": "Mosque",
        "address": "F833+37P Madarsa Islamia Zia Ul Quran, Barkhandi Rd, near Sarvar Peer, Kaka Nagar, Shamli, Uttar Pradesh 247776",
        "detailed_address": {
            "ward": "Kaka Nagar",
            "street": "F833+37P, Barkhandi Rd, near Sarvar Peer",
            "city": "Shamli",
            "postal_code": "247776",
            "state": "Uttar Pradesh",
            "country_code": "IN"
        },
        "images": [
            {
                "about": "All",
                "link": "https://streetviewpixels-pa.googleapis.com/v1/thumbnail?panoid=eSeKZTBe_4lI742xg6upEA&cb_client=maps_sv.tactile.gps&w=224&h=298&yaw=212.48041&pitch=0&thumbfov=100"
            },
            {
                "about": "Street View & 360deg",
                "link": "https://streetviewpixels-pa.googleapis.com/v1/thumbnail?panoid=eSeKZTBe_4lI742xg6upEA&cb_client=maps_sv.tactile.gps&w=224&h=298&yaw=212.48041&pitch=0&thumbfov=100"
            },
            {
                "about": "Videos",
                "link": "https://lh5.googleusercontent.com/p/AF1QipMqPxnQ5H0WUvJa4F1FTNm0LVg3z2RGDgOJm91M=w224-h398-k-no"
            }
        ],
        "link": "https://www.google.com/maps/place/Madarsa+Islamia+Zia+Ul+Quran/data=!4m7!3m6!1s0x390c2f78fee246cb:0xefdfb837cb93602d!8m2!3d29.452722!4d77.303196!16s%2Fg%2F11j32wg4wq!19sChIJy0bi_ngvDDkRLWCTyze43-8?authuser=0&hl=en&rclk=1",
        "coordinates": {
            "latitude": 29.452721999999998,
            "longitude": 77.303196
        }
    },
    {
        "name": "tkiye vaalii msjid",
        "main_category": "Mosque",
        "address": "C8X4+XJP tkiye vaalii msjid, Budha babu jain street, Uttar Pradesh 247776",
        "detailed_address": {
            "ward": "Teachers Colony",
            "street": "C8X4+XJP, Budha babu jain street",
            "city": "Shamli, Shamli Rural",
            "postal_code": "247776",
            "state": "Uttar Pradesh",
            "country_code": "IN"
        },
        "images": [
            {
                "about": "All",
                "link": "https://lh5.googleusercontent.com/p/AF1QipPPg9P8Yk9yMn-DEeh9SwZzuzWijkfrrxaH4Yih=w529-h298-k-no"
            }
        ],
        "link": "https://www.google.com/maps/place/%E0%A4%A4%E0%A4%95%E0%A4%BF%E0%A4%AF%E0%A5%87+%E0%A4%B5%E0%A4%BE%E0%A4%B2%E0%A5%80+%E0%A4%AE%E0%A4%B8%E0%A5%8D%E0%A4%9C%E0%A4%BF%E0%A4%A6/data=!4m7!3m6!1s0x390c2fc0ddcc09cd:0xe0f50c23680f14df!8m2!3d29.4499647!4d77.3065635!16s%2Fg%2F11gtqb40wj!19sChIJzQnM3cAvDDkR3xQPaCMM9eA?authuser=0&hl=en&rclk=1",
        "coordinates": {
            "latitude": 29.4499647,
            "longitude": 77.3065635
        }
    },
    {
        "name": "Quba Masjid",
        "main_category": "Mosque",
        "address": "Quba Masjid, Moh. Ramshalla, Kaka Nagar, Shamli, Uttar Pradesh 247776",
        "detailed_address": {
            "ward": "Kaka Nagar",
            "street": "Moh. Ramshalla",
            "city": "Shamli",
            "postal_code": "247776",
            "state": "Uttar Pradesh",
            "country_code": "IN"
        },
        "images": [],
        "link": "https://www.google.com/maps/place/Quba+Masjid/data=!4m7!3m6!1s0x390c2f799952d96f:0x182c0dcc3198cf28!8m2!3d29.4507894!4d77.3096942!16s%2Fg%2F11fsw6yry5!19sChIJb9lSmXkvDDkRKM-YMcwNLBg?authuser=0&hl=en&rclk=1",
        "coordinates": {
            "latitude": 29.450789399999998,
            "longitude": 77.3096942
        }
    },
    {
        "name": "saiyd baabaa shaah kmruuddiin",
        "main_category": "Mosque",
        "address": "C7JV+8JC saiyd baabaa shaah kmruuddiin, SH 57, Shamli, Uttar Pradesh 247776",
        "detailed_address": {
            "ward": null,
            "street": "C7JV+8JC, SH 57",
            "city": "Shamli",
            "postal_code": "247776",
            "state": "Uttar Pradesh",
            "country_code": "IN"
        },
        "images": [
            {
                "about": "All",
                "link": "https://streetviewpixels-pa.googleapis.com/v1/thumbnail?panoid=yWcJEhCTSSS8LR32wxNwZg&cb_client=maps_sv.tactile.gps&w=224&h=298&yaw=313.84012&pitch=0&thumbfov=100"
            },
            {
                "about": "Street View & 360deg",
                "link": "https://streetviewpixels-pa.googleapis.com/v1/thumbnail?panoid=yWcJEhCTSSS8LR32wxNwZg&cb_client=maps_sv.tactile.gps&w=224&h=298&yaw=313.84012&pitch=0&thumbfov=100"
            }
        ],
        "link": "https://www.google.com/maps/place/%E0%A4%B8%E0%A5%88%E0%A4%AF%E0%A4%A6+%E0%A4%AC%E0%A4%BE%E0%A4%AC%E0%A4%BE+%E0%A4%B6%E0%A4%BE%E0%A4%B9+%E0%A4%95%E0%A4%AE%E0%A4%B0%E0%A5%82%E0%A4%A6%E0%A5%8D%E0%A4%A6%E0%A5%80%E0%A4%A8/data=!4m7!3m6!1s0x390c2fd4b31da651:0x7d966cf804f07e15!8m2!3d29.4308091!4d77.2940195!16s%2Fg%2F11nyqpn1nd!19sChIJUaYds9QvDDkRFX7wBPhsln0?authuser=0&hl=en&rclk=1",
        "coordinates": {
            "latitude": 29.430809099999998,
            "longitude": 77.29401949999999
        }
    },
    {
        "name": "M.Mustaqeem S.",
        "main_category": "Mosque",
        "address": "F835+JJQ M.Mustaqeem S., Pansariyan Noorani masjid, Shamli",
        "detailed_address": {
            "ward": "Pansariyan Colony, Kaka Nagar",
            "street": "F835+JJQ, Pansariyan Noorani masjid",
            "city": "Shamli",
            "postal_code": null,
            "state": "Uttar Pradesh",
            "country_code": "IN"
        },
        "images": [
            {
                "about": "All",
                "link": "https://streetviewpixels-pa.googleapis.com/v1/thumbnail?panoid=BINZ1Eh7ZYpQTC6hcGHhrA&cb_client=maps_sv.tactile.gps&w=224&h=298&yaw=124.09289&pitch=0&thumbfov=100"
            },
            {
                "about": "Street View & 360deg",
                "link": "https://streetviewpixels-pa.googleapis.com/v1/thumbnail?panoid=BINZ1Eh7ZYpQTC6hcGHhrA&cb_client=maps_sv.tactile.gps&w=224&h=298&yaw=124.09289&pitch=0&thumbfov=100"
            }
        ],
        "link": "https://www.google.com/maps/place/M.Mustaqeem+S./data=!4m7!3m6!1s0x390c2f5be956adc9:0x2f351527f358a0f5!8m2!3d29.4540958!4d77.3090942!16s%2Fg%2F11ngmns5nr!19sChIJya1W6VsvDDkR9aBY8ycVNS8?authuser=0&hl=en&rclk=1",
        "coordinates": {
            "latitude": 29.454095799999997,
            "longitude": 77.30909419999999
        }
    },
    {
        "name": "Mosque",
        "main_category": "Mosque",
        "address": "Mosque, 88B, Teachers Colony, Kaka Nagar, Shamli, Uttar Pradesh 247776",
        "detailed_address": {
            "ward": "Teachers Colony, Kaka Nagar",
            "street": "88B",
            "city": "Shamli",
            "postal_code": "247776",
            "state": "Uttar Pradesh",
            "country_code": "IN"
        },
        "images": [],
        "link": "https://www.google.com/maps/place/Mosque/data=!4m7!3m6!1s0x390c2f27758c6e3f:0x210dd080d70debe4!8m2!3d29.4485597!4d77.3072278!16s%2Fg%2F11tcf3rj6y!19sChIJP26MdScvDDkR5OsN14DQDSE?authuser=0&hl=en&rclk=1",
        "coordinates": {
            "latitude": 29.448559699999997,
            "longitude": 77.30722779999999
        }
    },
    {
        "name": "Ansari Jan sewa Kendra takiya wali masjid",
        "main_category": "Non-profit organization",
        "address": "C8X4+XH8 Ansari Jan sewa Kendra takiya wali masjid, Kabari Bazar Rd, Teachers Colony, Shamli, Uttar Pradesh 247776",
        "detailed_address": {
            "ward": "Teachers Colony",
            "street": "C8X4+XH8, Kabari Bazar Rd",
            "city": "Shamli",
            "postal_code": "247776",
            "state": "Uttar Pradesh",
            "country_code": "IN"
        },
        "images": [],
        "link": "https://www.google.com/maps/place/Ansari+Jan+sewa+Kendra+takiya+wali+masjid/data=!4m7!3m6!1s0x390c2fbaa2053571:0x2dd12b9fe9257829!8m2!3d29.4499167!4d77.306495!16s%2Fg%2F11shk9t59z!19sChIJcTUForovDDkRKXgl6Z8r0S0?authuser=0&hl=en&rclk=1",
        "coordinates": {
            "latitude": 29.4499167,
            "longitude": 77.306495
        }
    }
]