[
    {
        "name": "Noori Masjid, Bhanpuri msjd",
        "main_category": "Mosque",
        "address": "7JVR+CJM Noori Masjid, Bhanpuri msjd, Bhanpuri, Raipur, Chhattisgarh 492003",
        "detailed_address": {
            "ward": "Bhanpuri",
            "street": "7JVR+CJM",
            "city": "Raipur",
            "postal_code": "492003",
            "state": "Chhattisgarh",
            "country_code": "IN"
        },
        "images": [
            {
                "about": "All",
                "link": "https://lh5.googleusercontent.com/p/AF1QipMaRsNpgn4RkZhx9kq0vDiVq8rU3NPQvJmal-5r=w224-h497-k-no"
            }
        ],
        "link": "https://www.google.com/maps/place/Noori+Masjid,+Bhanpuri+%D9%85%D8%B3%D8%AC%D8%AF%E2%80%AD/data=!4m7!3m6!1s0x3a28e7145796bf59:0xb57af7678985840b!8m2!3d21.2935966!4d81.6415531!16s%2Fg%2F11g4ctltzl!19sChIJWb-WVxTnKDoRC4SFiWf3erU?authuser=0&hl=en&rclk=1",
        "coordinates": {
            "latitude": 21.2935966,
            "longitude": 81.6415531
        }
    },
    {
        "name": "Masjid Noor-e-ilahi",
        "main_category": "Mosque",
        "address": "Masjid Noor-e-ilahi, 17/17, Durga Nagar, Bhanpuri, Raipur, Chhattisgarh 493221",
        "detailed_address": {
            "ward": "Durga Nagar, Bhanpuri",
            "street": "17/17",
            "city": "Raipur",
            "postal_code": "493221",
            "state": "Chhattisgarh",
            "country_code": "IN"
        },
        "images": [
            {
                "about": "All",
                "link": "https://lh5.googleusercontent.com/p/AF1QipO_QjCu_r7YiKxp_LuWojwLM6G4IMSh5ezMB1v-=w529-h298-k-no"
            }
        ],
        "link": "https://www.google.com/maps/place/Masjid+Noor-e-ilahi/data=!4m7!3m6!1s0x3a28e719e844062b:0xf9b50bc4cf591e2e!8m2!3d21.3013972!4d81.6331301!16s%2Fg%2F11mw778d_r!19sChIJKwZE6BnnKDoRLh5Zz8QLtfk?authuser=0&hl=en&rclk=1",
        "coordinates": {
            "latitude": 21.3013972,
            "longitude": 81.6331301
        }
    },
    {
        "name": "Jama Masjid Gaushul Azam",
        "main_category": "Mosque",
        "address": "Jama Masjid Gaushul Azam, 1018, Bhanpuri, Raipur, Chhattisgarh 493221",
        "detailed_address": {
            "ward": "Bhanpuri",
            "street": "1018",
            "city": "Raipur",
            "postal_code": "493221",
            "state": "Chhattisgarh",
            "country_code": "IN"
        },
        "images": [
            {
                "about": "All",
                "link": "https://lh5.googleusercontent.com/p/AF1QipNfU5djmnsBNKFI4EHzBUK3AwTQQjsumEgdPua4=w224-h396-k-no"
            },
            {
                "about": "Dome",
                "link": "https://lh5.googleusercontent.com/p/AF1QipNfU5djmnsBNKFI4EHzBUK3AwTQQjsumEgdPua4=w224-h396-k-no"
            },
            {
                "about": "Videos",
                "link": "https://lh5.googleusercontent.com/p/AF1QipPP2Mc7-ipEYSrmMuPgec21UGutjgZ5tcNO4Z5X=w224-h398-k-no"
            },
            {
                "about": "Street View & 360deg",
                "link": "https://streetviewpixels-pa.googleapis.com/v1/thumbnail?panoid=LuLh_jmOuqlsaVqt8uH07Q&cb_client=maps_sv.tactile.gps&w=224&h=298&yaw=317.5726&pitch=0&thumbfov=100"
            }
        ],
        "link": "https://www.google.com/maps/place/Jama+Masjid+Gaushul+Azam/data=!4m7!3m6!1s0x3a28e740afb59101:0xb6910753f8fdb462!8m2!3d21.304629!4d81.6334331!16s%2Fg%2F11trk81mcw!19sChIJAZG1r0DnKDoRYrT9-FMHkbY?authuser=0&hl=en&rclk=1",
        "coordinates": {
            "latitude": 21.304629,
            "longitude": 81.63343309999999
        }
    }
]