[
    {
        "name": "Bewa Jama Masjid",
        "main_category": "Mosque",
        "address": "Bewa Jama Masjid, Beoa, Jamtara, Jharkhand 815351",
        "detailed_address": {
            "ward": "Beoa",
            "street": null,
            "city": "Jamtara",
            "postal_code": "815351",
            "state": "Jharkhand",
            "country_code": "IN"
        },
        "images": [
            {
                "about": "All",
                "link": "https://lh5.googleusercontent.com/p/AF1QipMwFPP68wgrP94A5TChx5foWGDP6dGeYd_bqGJl=w529-h298-k-no"
            },
            {
                "about": "Videos",
                "link": "https://lh5.googleusercontent.com/p/AF1QipOfpf4JbNfWN68c0yompbd3QRXasHrLm3KV_O6z=w541-h298-k-no"
            }
        ],
        "link": "https://www.google.com/maps/place/Bewa+Jama+Masjid/data=!4m7!3m6!1s0x39f6d74a9257bf7f:0x5bebdcdd1533c441!8m2!3d23.9432463!4d86.8238635!16s%2Fg%2F11gdrdz4pb!19sChIJf79XkkrX9jkRQcQzFd3c61s?authuser=0&hl=en&rclk=1",
        "coordinates": {
            "latitude": 23.9432463,
            "longitude": 86.8238635
        }
    },
    {
        "name": "Jama Masjid Muhammadi",
        "main_category": "Mosque",
        "address": "Jama Masjid Muhammadi, Noor mahallah, Jamtara - 815351, Court Rd, near Mahila college, Jamtara, Jharkhand 815351",
        "detailed_address": {
            "ward": "Rajpalli Jamtara",
            "street": "Noor mahallah, Jamtara - 815351, Court Rd, near Mahila college",
            "city": "Jamtara",
            "postal_code": "815351",
            "state": "Jharkhand",
            "country_code": "IN"
        },
        "images": [
            {
                "about": "All",
                "link": "https://lh5.googleusercontent.com/p/AF1QipPCpblS_8GApLU2P3y0235QhByUbR7NXGe58Nuj=w224-h510-k-no"
            },
            {
                "about": "Street View & 360deg",
                "link": "https://streetviewpixels-pa.googleapis.com/v1/thumbnail?panoid=8-u4qaqv1okOZ0vxtodbsQ&cb_client=maps_sv.tactile.gps&w=224&h=298&yaw=60.16409&pitch=0&thumbfov=100"
            }
        ],
        "link": "https://www.google.com/maps/place/Jama+Masjid+Muhammadi/data=!4m7!3m6!1s0x39f6d0e30fea826b:0xdea96b3cb5738e05!8m2!3d23.9640876!4d86.793855!16s%2Fg%2F11byflkgrs!19sChIJa4LqD-PQ9jkRBY5ztTxrqd4?authuser=0&hl=en&rclk=1",
        "coordinates": {
            "latitude": 23.9640876,
            "longitude": 86.793855
        }
    },
    {
        "name": "Madeena Masjid Rajbari",
        "main_category": "Mosque",
        "address": "XR94+CQM Madeena Masjid Rajbari, rajbari, Jamtara, Jharkhand 815351",
        "detailed_address": {
            "ward": "Kayesthapara",
            "street": "XR94+CQM, rajbari",
            "city": "Jamtara",
            "postal_code": "815351",
            "state": "Jharkhand",
            "country_code": "IN"
        },
        "images": [
            {
                "about": "All",
                "link": "https://lh5.googleusercontent.com/p/AF1QipMtcNwsrGIBoj_f1SDo6HzWn8xOcyZnjcL1ZJMc=w224-h398-k-no"
            }
        ],
        "link": "https://www.google.com/maps/place/Madeena+Masjid+Rajbari/data=!4m7!3m6!1s0x39f6d120acbb1d55:0x14e93dce849c857a!8m2!3d23.9685907!4d86.8069207!16s%2Fg%2F11g6rkg6p0!19sChIJVR27rCDR9jkReoWchM496RQ?authuser=0&hl=en&rclk=1",
        "coordinates": {
            "latitude": 23.9685907,
            "longitude": 86.80692069999999
        }
    },
    {
        "name": "Jamtara Masjid",
        "main_category": "Mosque",
        "address": "2239+886 Jamtara Masjid, Jamtara, Jharkhand 825106",
        "detailed_address": {
            "ward": null,
            "street": "2239+886",
            "city": "Jamtara",
            "postal_code": "825106",
            "state": "Jharkhand",
            "country_code": "IN"
        },
        "images": [
            {
                "about": "All",
                "link": "https://lh5.googleusercontent.com/p/AF1QipORHz6SVjL6q31zJr2fBYTnDp9JlPIafTDEhEeF=w298-h298-k-no"
            },
            {
                "about": "Latest",
                "link": "https://lh5.googleusercontent.com/p/AF1QipN6bS55rz-sCZvieRHxuwQp7BtTKFOVGsdoijZh=w224-h298-k-no"
            },
            {
                "about": "Videos",
                "link": "https://lh5.googleusercontent.com/p/AF1QipP0ja45NOptXmUAwSq6xUEbe5QLSWGlULUfyg3Y=w224-h407-k-no"
            },
            {
                "about": "Dome",
                "link": "https://lh5.googleusercontent.com/p/AF1QipOU0L3M4rj7k80ArceE0fbPWTHSS4kKgaKarZXM=w224-h298-k-no"
            }
        ],
        "link": "https://www.google.com/maps/place/Jamtara+Masjid/data=!4m7!3m6!1s0x39f4095158bbc51b:0xd25659142228adfa!8m2!3d24.003294!4d86.0182588!16s%2Fg%2F11g81sqb6j!19sChIJG8W7WFEJ9DkR-q0oIhRZVtI?authuser=0&hl=en&rclk=1",
        "coordinates": {
            "latitude": 24.003294,
            "longitude": 86.0182588
        }
    },
    {
        "name": "Jamtara Nurani Masjid",
        "main_category": "Mosque",
        "address": "Jamtara Nurani Masjid, 713155, Jamtara Road, Jamtara, West Bengal 722137",
        "detailed_address": {
            "ward": null,
            "street": "713155, Jamtara Road",
            "city": "Jamtara",
            "postal_code": "722137",
            "state": "West Bengal",
            "country_code": "IN"
        },
        "images": [
            {
                "about": "All",
                "link": "https://lh5.googleusercontent.com/p/AF1QipM-x3vD1CLLobp4P5WK3KAFlU71CuvcKwXn4rR0=w224-h298-k-no"
            },
            {
                "about": "Street View & 360deg",
                "link": "https://streetviewpixels-pa.googleapis.com/v1/thumbnail?panoid=WfHzEzIwCw-hGN6aPYQ4tA&cb_client=maps_sv.tactile.gps&w=224&h=298&yaw=253.63588&pitch=0&thumbfov=100"
            }
        ],
        "link": "https://www.google.com/maps/place/Jamtara+Nurani+Masjid/data=!4m7!3m6!1s0x39f9d46a9cc98cdd:0x62cbb076e98117d1!8m2!3d23.433235!4d87.5990638!16s%2Fg%2F11fy4x1x37!19sChIJ3YzJnGrU-TkR0ReB6Xawy2I?authuser=0&hl=en&rclk=1",
        "coordinates": {
            "latitude": 23.433235,
            "longitude": 87.5990638
        }
    },
    {
        "name": "Jamtara Jama Masjid",
        "main_category": "Mosque",
        "address": "CHJX+4R5 Jamtara Jama Masjid, Jamtara, West Bengal 713171",
        "detailed_address": {
            "ward": null,
            "street": "CHJX+4R5",
            "city": "Jamtara",
            "postal_code": "713171",
            "state": "West Bengal",
            "country_code": "IN"
        },
        "images": [
            {
                "about": "All",
                "link": "https://lh5.googleusercontent.com/p/AF1QipMLoqE6w2TNyGS7MR7wda5RZbxlGY9N7mZC1Vj9=w224-h298-k-no"
            },
            {
                "about": "Videos",
                "link": "https://lh5.googleusercontent.com/p/AF1QipMWkhanaX39TqUv3yuB1cK-ldaZ53fSoCycjNoX=w224-h417-k-no"
            }
        ],
        "link": "https://www.google.com/maps/place/Jamtara+Jama+Masjid/data=!4m7!3m6!1s0x39f9d46a1077232d:0xc358275415f857e4!8m2!3d23.4302506!4d87.5996134!16s%2Fg%2F11dfjb4nnx!19sChIJLSN3EGrU-TkR5Ff4FVQnWMM?authuser=0&hl=en&rclk=1",
        "coordinates": {
            "latitude": 23.430250599999997,
            "longitude": 87.5996134
        }
    },
    {
        "name": "JAMTARA MARKAZ MASJID",
        "main_category": "Mosque",
        "address": "XQ7W+MG4 JAMTARA MARKAZ MASJID, Jamtara - Godda Rd, Dombad, Jamtara, Jharkhand 815351",
        "detailed_address": {
            "ward": "Dombad",
            "street": "XQ7W+MG4, Jamtara - Godda Rd",
            "city": "Jamtara",
            "postal_code": "815351",
            "state": "Jharkhand",
            "country_code": "IN"
        },
        "images": [
            {
                "about": "All",
                "link": "https://lh5.googleusercontent.com/p/AF1QipOBvBiZFrIYVKqmQtS-I8MWMI8Vnupd72NUtEHs=w469-h298-k-no"
            },
            {
                "about": "Street View & 360deg",
                "link": "https://streetviewpixels-pa.googleapis.com/v1/thumbnail?panoid=JQMCzMS9bQhh4MbjxgTs0w&cb_client=maps_sv.tactile.gps&w=224&h=298&yaw=217.9068&pitch=0&thumbfov=100"
            }
        ],
        "link": "https://www.google.com/maps/place/JAMTARA+MARKAZ+MASJID/data=!4m7!3m6!1s0x39f6d0e3c532dcc1:0x3760edb641309690!8m2!3d23.9641345!4d86.79634!16s%2Fg%2F11f_pk34yk!19sChIJwdwyxePQ9jkRkJYwQbbtYDc?authuser=0&hl=en&rclk=1",
        "coordinates": {
            "latitude": 23.9641345,
            "longitude": 86.79634
        }
    },
    {
        "name": "JAMA masjid pakdih",
        "main_category": "Mosque",
        "address": "XQCR+FJM JAMA masjid pakdih, Paikdi, Jamtara, Jharkhand 815352",
        "detailed_address": {
            "ward": "Paikdi",
            "street": "XQCR+FJM",
            "city": "Jamtara",
            "postal_code": "815352",
            "state": "Jharkhand",
            "country_code": "IN"
        },
        "images": [
            {
                "about": "All",
                "link": "https://lh5.googleusercontent.com/p/AF1QipPHpF87Tuf37f6V1Aw6RARrpQcM9uZZIUygelYP=w645-h298-k-no"
            },
            {
                "about": "Street View & 360deg",
                "link": "https://streetviewpixels-pa.googleapis.com/v1/thumbnail?panoid=lAl_dcN3nq3sgyZLiw4GEQ&cb_client=maps_sv.tactile.gps&w=224&h=298&yaw=288.24973&pitch=0&thumbfov=100"
            },
            {
                "about": "Videos",
                "link": "https://lh5.googleusercontent.com/p/AF1QipN6dKCEaYlEgyOl4Ne1aZrFbRyn9AeAv1GKRaLK=w529-h298-k-no"
            }
        ],
        "link": "https://www.google.com/maps/place/JAMA+masjid+pakdih/data=!4m7!3m6!1s0x39f6d17cdd9751e7:0x342e23b483ef72d1!8m2!3d23.9712131!4d86.7915471!16s%2Fg%2F11fjyx9tfm!19sChIJ51GX3XzR9jkR0XLvg7QjLjQ?authuser=0&hl=en&rclk=1",
        "coordinates": {
            "latitude": 23.9712131,
            "longitude": 86.7915471
        }
    },
    {
        "name": "Bewa Masjid",
        "main_category": "Mosque",
        "address": "WRVC+6JR Bewa Masjid, Chak Rakasabad, Jamtara, Jharkhand 815351",
        "detailed_address": {
            "ward": "Chak Rakasabad",
            "street": "WRVC+6JR",
            "city": "Jamtara",
            "postal_code": "815351",
            "state": "Jharkhand",
            "country_code": "IN"
        },
        "images": [
            {
                "about": "All",
                "link": "https://lh5.googleusercontent.com/p/AF1QipOt8dghBbngbYcE-juTDKNSXKi7lAp3Zdod00fI=w645-h298-k-no"
            },
            {
                "about": "Dome",
                "link": "https://lh5.googleusercontent.com/p/AF1QipOt8dghBbngbYcE-juTDKNSXKi7lAp3Zdod00fI=w645-h298-k-no"
            }
        ],
        "link": "https://www.google.com/maps/place/Bewa+Masjid/data=!4m7!3m6!1s0x39f6d0b537c0a91b:0xd1850a8f54751696!8m2!3d23.9431237!4d86.8215029!16s%2Fg%2F11c205_6ms!19sChIJG6nAN7XQ9jkRlhZ1VI8KhdE?authuser=0&hl=en&rclk=1",
        "coordinates": {
            "latitude": 23.943123699999997,
            "longitude": 86.8215029
        }
    },
    {
        "name": "JAMA MASJID MARYAM",
        "main_category": "Mosque",
        "address": "JAMA MASJID MARYAM, Noor mahallah, Court Rd, near Mahila college, Rajpalli Jamtara, Jamtara, Jharkhand 815351",
        "detailed_address": {
            "ward": "Rajpalli Jamtara",
            "street": "Noor mahallah, Court Rd, near Mahila college",
            "city": "Jamtara",
            "postal_code": "815351",
            "state": "Jharkhand",
            "country_code": "IN"
        },
        "images": [
            {
                "about": "All",
                "link": "https://lh5.googleusercontent.com/p/AF1QipOQFk5ssAaiGHeTc5WwIwgOxkjAzkLSsvWuDcLU=w224-h398-k-no"
            }
        ],
        "link": "https://www.google.com/maps/place/JAMA+MASJID+MARYAM/data=!4m7!3m6!1s0x39f6d16d0c3003b7:0x13febb882dd00386!8m2!3d23.9641717!4d86.7938538!16s%2Fg%2F11kg38q29g!19sChIJtwMwDG3R9jkRhgPQLYi7_hM?authuser=0&hl=en&rclk=1",
        "coordinates": {
            "latitude": 23.964171699999998,
            "longitude": 86.7938538
        }
    },
    {
        "name": "Bewa Dargah",
        "main_category": "Mosque",
        "address": "WRRF+XCV Bewa Dargah, Beoa, Jamtara, Jharkhand 815351",
        "detailed_address": {
            "ward": "Beoa",
            "street": "WRRF+XCV",
            "city": "Jamtara",
            "postal_code": "815351",
            "state": "Jharkhand",
            "country_code": "IN"
        },
        "images": [
            {
                "about": "All",
                "link": "https://lh5.googleusercontent.com/p/AF1QipO7SwqE9Ocyoi1jzw2NviMrbaL8y01Ni6WOEwz7=w224-h398-k-no"
            }
        ],
        "link": "https://www.google.com/maps/place/Bewa+Dargah/data=!4m7!3m6!1s0x39f6d7186e350677:0x39b93f60f2d60beb!8m2!3d23.9424513!4d86.8244536!16s%2Fg%2F11p11ds61s!19sChIJdwY1bhjX9jkR6wvW8mA_uTk?authuser=0&hl=en&rclk=1",
        "coordinates": {
            "latitude": 23.9424513,
            "longitude": 86.8244536
        }
    },
    {
        "name": "Masjid e Zakariya",
        "main_category": "Mosque",
        "address": "XM6X+RCG Masjid e Zakariya, Amtanr Manjhladih, Jamtara, Majhladih, Jharkhand 815351",
        "detailed_address": {
            "ward": null,
            "street": "XM6X+RCG, Amtanr Manjhladih",
            "city": "Jamtara, Majhladih",
            "postal_code": "815351",
            "state": "Jharkhand",
            "country_code": "IN"
        },
        "images": [
            {
                "about": "All",
                "link": "https://lh5.googleusercontent.com/p/AF1QipOoVujuzM6GXWr0KUVPkyrzK1U2mw6C3So7oQbS=w529-h298-k-no"
            }
        ],
        "link": "https://www.google.com/maps/place/Masjid+e+Zakariya/data=!4m7!3m6!1s0x39f6cf2026128669:0x1cdb3ccc2fc273cd!8m2!3d23.9620646!4d86.6985722!16s%2Fg%2F11tx5dnyyq!19sChIJaYYSJiDP9jkRzXPCL8w82xw?authuser=0&hl=en&rclk=1",
        "coordinates": {
            "latitude": 23.962064599999998,
            "longitude": 86.6985722
        }
    },
    {
        "name": "Jama masjid jmaa msjid",
        "main_category": "Mosque",
        "address": "3P9G+MM8 Jama masjid jmaa msjid, Jamtara, Sundarjori, Jharkhand 815352",
        "detailed_address": {
            "ward": null,
            "street": "3P9G+MM8",
            "city": "Jamtara, Sundarjori",
            "postal_code": "815352",
            "state": "Jharkhand",
            "country_code": "IN"
        },
        "images": [],
        "link": "https://www.google.com/maps/place/Jama+masjid+%E0%A4%9C%E0%A4%AE%E0%A4%BE+%E0%A4%AE%E0%A4%B8%E0%A5%8D%E0%A4%9C%E0%A4%BF%E0%A4%A6/data=!4m7!3m6!1s0x39f6cd4776362a55:0x54b5b1797a21d99d!8m2!3d24.0691587!4d86.7266907!16s%2Fg%2F11spg0_5m0!19sChIJVSo2dkfN9jkRndkhenmxtVQ?authuser=0&hl=en&rclk=1",
        "coordinates": {
            "latitude": 24.0691587,
            "longitude": 86.72669069999999
        }
    },
    {
        "name": "Masjid Jitudangal",
        "main_category": "Mosque",
        "address": "XRF8+2J4 Masjid Jitudangal, near Bukharia Jama Masjid, Jamtara, Jharkhand 815352",
        "detailed_address": {
            "ward": null,
            "street": "XRF8+2J4, near Bukharia Jama Masjid",
            "city": "Jamtara",
            "postal_code": "815352",
            "state": "Jharkhand",
            "country_code": "IN"
        },
        "images": [
            {
                "about": "All",
                "link": "https://streetviewpixels-pa.googleapis.com/v1/thumbnail?panoid=1Q7btB-wgkm5PHKPK_qDgQ&cb_client=maps_sv.tactile.gps&w=224&h=298&yaw=108.23665&pitch=0&thumbfov=100"
            },
            {
                "about": "Street View & 360deg",
                "link": "https://streetviewpixels-pa.googleapis.com/v1/thumbnail?panoid=1Q7btB-wgkm5PHKPK_qDgQ&cb_client=maps_sv.tactile.gps&w=224&h=298&yaw=108.23665&pitch=0&thumbfov=100"
            }
        ],
        "link": "https://www.google.com/maps/place/Masjid+Jitudangal/data=!4m7!3m6!1s0x39f6d129edbcbb91:0x616359e12b7dc06a!8m2!3d23.9725514!4d86.8165475!16s%2Fg%2F11vkwvw298!19sChIJkbu87SnR9jkRasB9K-FZY2E?authuser=0&hl=en&rclk=1",
        "coordinates": {
            "latitude": 23.9725514,
            "longitude": 86.8165475
        }
    }
]