[
    {
        "name": "Raisen Secondhand Mobile",
        "main_category": "Mosque",
        "address": "8QGM+X3V Raisen Secondhand Mobile, behind jama masjid, near Old SDOP Office, Raisen, Madhya Pradesh 464551",
        "detailed_address": {
            "ward": null,
            "street": "8QGM+X3V, behind jama masjid, near Old SDOP Office",
            "city": "Raisen",
            "postal_code": "464551",
            "state": "Madhya Pradesh",
            "country_code": "IN"
        },
        "images": [
            {
                "about": "All",
                "link": "https://lh5.googleusercontent.com/p/AF1QipMOTyBDUAQYNe514yBrF9D0zmwERsWaEs0CBP1e=w224-h397-k-no"
            },
            {
                "about": "Dome",
                "link": "https://lh5.googleusercontent.com/p/AF1QipObqfmjKS5Y6AGwNXmvYdqOY7uMpFyMCkmmcx83=w298-h298-k-no"
            },
            {
                "about": "By owner",
                "link": "https://lh5.googleusercontent.com/p/AF1QipO4OfsjbMkWetN5GsjJfqWHPtf6yPOAW7x6eUEV=w397-h298-k-no"
            }
        ],
        "link": "https://www.google.com/maps/place/Raisen+Secondhand+Mobile/data=!4m7!3m6!1s0x397c1853e601aa29:0x8abf0640806ffb17!8m2!3d23.3276526!4d77.7814718!16s%2Fg%2F11b90jlbw9!19sChIJKaoB5lMYfDkRF_tvgEAGv4o?authuser=0&hl=en&rclk=1",
        "coordinates": {
            "latitude": 23.3276526,
            "longitude": 77.78147179999999
        }
    },
    {
        "name": "markaz Masjid Raisen",
        "main_category": "Mosque",
        "address": "ward no.7, markaz Masjid Raisen, Raisen, Madhya Pradesh 464551",
        "detailed_address": {
            "ward": null,
            "street": "ward no.7",
            "city": "Raisen",
            "postal_code": null,
            "state": "Madhya Pradesh",
            "country_code": "IN"
        },
        "images": [
            {
                "about": "All",
                "link": "https://lh5.googleusercontent.com/p/AF1QipM5ByunhQy9KQWt89b6OVl3pGVR_ora_QzC2ihE=w529-h298-k-no"
            }
        ],
        "link": "https://www.google.com/maps/place/markaz+Masjid+Raisen/data=!4m7!3m6!1s0x397c19fcbebfb23d:0x3f7a0f021780c3c5!8m2!3d23.3307368!4d77.7816018!16s%2Fg%2F11q9knf_zl!19sChIJPbK_vvwZfDkRxcOAFwIPej8?authuser=0&hl=en&rclk=1",
        "coordinates": {
            "latitude": 23.3307368,
            "longitude": 77.78160179999999
        }
    },
    {
        "name": "Jama masjid",
        "main_category": "Mosque",
        "address": "8QHJ+2HP Jama masjid, Raisen, Madhya Pradesh 464551",
        "detailed_address": {
            "ward": null,
            "street": "8QHJ+2HP",
            "city": "Raisen",
            "postal_code": "464551",
            "state": "Madhya Pradesh",
            "country_code": "IN"
        },
        "images": [
            {
                "about": "All",
                "link": "https://lh5.googleusercontent.com/p/AF1QipOPAdL2PLj_98Z6QtF8zDFufEp2ttT04M5nH2jO=w224-h340-k-no"
            },
            {
                "about": "Dome",
                "link": "https://lh5.googleusercontent.com/p/AF1QipOPeoO6rtxShuMBe56Xt_gVq92z2z9pmoxYAhzY=w224-h497-k-no"
            },
            {
                "about": "Videos",
                "link": "https://lh5.googleusercontent.com/p/AF1QipPkKFzPw6X-3wmOYdxdeyGe9lV-I4dHkfV8zx65=w224-h298-k-no"
            }
        ],
        "link": "https://www.google.com/maps/place/Jama+masjid/data=!4m7!3m6!1s0x397c19b13a282869:0xc2ef7d01accf656e!8m2!3d23.3275781!4d77.781462!16s%2Fg%2F11rvb_5fhy!19sChIJaSgoOrEZfDkRbmXPrAF978I?authuser=0&hl=en&rclk=1",
        "coordinates": {
            "latitude": 23.3275781,
            "longitude": 77.78146199999999
        }
    },
    {
        "name": "Sayar Wali Masjid Market",
        "main_category": "Mosque",
        "address": "8QJJ+FC4 Sayar Wali Masjid Market, MP SH 19, Raisen, Madhya Pradesh 464551",
        "detailed_address": {
            "ward": null,
            "street": "8QJJ+FC4, MP SH 19",
            "city": "Raisen",
            "postal_code": "464551",
            "state": "Madhya Pradesh",
            "country_code": "IN"
        },
        "images": [
            {
                "about": "All",
                "link": "https://streetviewpixels-pa.googleapis.com/v1/thumbnail?panoid=_anLEiCw0-iapC-FYyk5iA&cb_client=maps_sv.tactile.gps&w=224&h=298&yaw=153.14743&pitch=0&thumbfov=100"
            },
            {
                "about": "Dome",
                "link": "https://lh5.googleusercontent.com/p/AF1QipO2p7cFoVbqkUalGm6BeY0vwnFk23cb9bfP9u2v=w224-h303-k-no"
            },
            {
                "about": "Street View & 360deg",
                "link": "https://streetviewpixels-pa.googleapis.com/v1/thumbnail?panoid=_anLEiCw0-iapC-FYyk5iA&cb_client=maps_sv.tactile.gps&w=224&h=298&yaw=153.14743&pitch=0&thumbfov=100"
            }
        ],
        "link": "https://www.google.com/maps/place/Sayar+Wali+Masjid+Market/data=!4m7!3m6!1s0x397c19ad14e63ab5:0x264cc2ea2fde128f!8m2!3d23.3311453!4d77.7810674!16s%2Fg%2F11ckw28t46!19sChIJtTrmFK0ZfDkRjxLeL-rCTCY?authuser=0&hl=en&rclk=1",
        "coordinates": {
            "latitude": 23.3311453,
            "longitude": 77.7810674
        }
    },
    {
        "name": "Masjid qalandari",
        "main_category": "Mosque",
        "address": "Masjid qalandari, Hator mohalla ward no.17, Raisen",
        "detailed_address": {
            "ward": null,
            "street": "Hator mohalla ward no.17",
            "city": "Raisen",
            "postal_code": null,
            "state": "Madhya Pradesh",
            "country_code": "IN"
        },
        "images": [
            {
                "about": "All",
                "link": "https://lh5.googleusercontent.com/p/AF1QipNZYzZtYcvZRaws7w_6NG1TR8dnYxHTSKE0hgQs=w224-h338-k-no"
            },
            {
                "about": "Dome",
                "link": "https://lh5.googleusercontent.com/p/AF1QipMX8l9pvQt6xoMPZsixkm7XR961OpfXTmCGzjCP=w224-h378-k-no"
            },
            {
                "about": "Videos",
                "link": "https://lh5.googleusercontent.com/p/AF1QipOW_wMV3CT9sil1RGjLnN_7SjMx-7og0sk84Ep8=w224-h407-k-no"
            }
        ],
        "link": "https://www.google.com/maps/place/Masjid+qalandari/data=!4m7!3m6!1s0x397c192003225869:0x250e0624042f106f!8m2!3d23.3220495!4d77.7793528!16s%2Fg%2F11rvb_6c52!19sChIJaVgiAyAZfDkRbxAvBCQGDiU?authuser=0&hl=en&rclk=1",
        "coordinates": {
            "latitude": 23.3220495,
            "longitude": 77.7793528
        }
    },
    {
        "name": "Kacchi Masjid",
        "main_category": "Mosque",
        "address": "ward no.2, Kacchi Masjid, Raisen, Madhya Pradesh 464551",
        "detailed_address": {
            "ward": null,
            "street": "ward no.2",
            "city": "Raisen",
            "postal_code": null,
            "state": "Madhya Pradesh",
            "country_code": "IN"
        },
        "images": [
            {
                "about": "All",
                "link": "https://streetviewpixels-pa.googleapis.com/v1/thumbnail?panoid=5DK9rhIFhmEkDu9RiU8JWw&cb_client=maps_sv.tactile.gps&w=224&h=298&yaw=356.4888&pitch=0&thumbfov=100"
            },
            {
                "about": "Street View & 360deg",
                "link": "https://streetviewpixels-pa.googleapis.com/v1/thumbnail?panoid=5DK9rhIFhmEkDu9RiU8JWw&cb_client=maps_sv.tactile.gps&w=224&h=298&yaw=356.4888&pitch=0&thumbfov=100"
            }
        ],
        "link": "https://www.google.com/maps/place/Kacchi+Masjid/data=!4m7!3m6!1s0x397c196bb46f37ff:0xa928bba5f7e7490c!8m2!3d23.3318414!4d77.776885!16s%2Fg%2F11rw0tpfxz!19sChIJ_zdvtGsZfDkRDEnn96W7KKk?authuser=0&hl=en&rclk=1",
        "coordinates": {
            "latitude": 23.3318414,
            "longitude": 77.776885
        }
    },
    {
        "name": "Masjid peer jahangeer",
        "main_category": "Mosque",
        "address": "Ward no 1, Masjid peer jahangeer, Raisen, Madhya Pradesh 464551",
        "detailed_address": {
            "ward": null,
            "street": "Ward no 1",
            "city": "Raisen",
            "postal_code": null,
            "state": "Madhya Pradesh",
            "country_code": "IN"
        },
        "images": [
            {
                "about": "All",
                "link": "https://lh5.googleusercontent.com/p/AF1QipOrP1B2rpG4WmuF8dE1tc-8H511zvIotmQ__xb2=w398-h298-k-no"
            },
            {
                "about": "Dome",
                "link": "https://lh5.googleusercontent.com/p/AF1QipMZOnHf0TPL0fMGZ-nzKksZCxnTI4M6aVysDF31=w398-h298-k-no"
            },
            {
                "about": "Street View & 360deg",
                "link": "https://streetviewpixels-pa.googleapis.com/v1/thumbnail?panoid=lo4Iri5RYNVJsecmiipUzA&cb_client=maps_sv.tactile.gps&w=224&h=298&yaw=113.92053&pitch=0&thumbfov=100"
            }
        ],
        "link": "https://www.google.com/maps/place/Masjid+peer+jahangeer/data=!4m7!3m6!1s0x397c1989bd9dde37:0x52ba42c85be6f9c7!8m2!3d23.3375228!4d77.7695876!16s%2Fg%2F11rvd9k4my!19sChIJN96dvYkZfDkRx_nmW8hCulI?authuser=0&hl=en&rclk=1",
        "coordinates": {
            "latitude": 23.3375228,
            "longitude": 77.7695876
        }
    },
    {
        "name": "Tehseel wali masjid",
        "main_category": "Mosque",
        "address": "Tehseel wali masjid, Ward no 16 tehseel mohalla, Raisen",
        "detailed_address": {
            "ward": null,
            "street": "Ward no 16 tehseel mohalla",
            "city": "Raisen",
            "postal_code": null,
            "state": "Madhya Pradesh",
            "country_code": "IN"
        },
        "images": [
            {
                "about": "All",
                "link": "https://lh5.googleusercontent.com/p/AF1QipMHmq7s_m_f1aWBh9ycZaNE8vjEuNojIuW2llkh=w581-h298-k-no"
            }
        ],
        "link": "https://www.google.com/maps/place/Tehseel+wali+masjid/data=!4m7!3m6!1s0x397c19d4e22497eb:0xef48e3dd211fbc8d!8m2!3d23.3263093!4d77.7818573!16s%2Fg%2F11rvb_9674!19sChIJ65ck4tQZfDkRjbwfId3jSO8?authuser=0&hl=en&rclk=1",
        "coordinates": {
            "latitude": 23.3263093,
            "longitude": 77.7818573
        }
    },
    {
        "name": "Masjid Ayesha",
        "main_category": "Mosque",
        "address": "8QMM+374 Masjid Ayesha, Talab Mohalla, Raisen, Madhya Pradesh 464551",
        "detailed_address": {
            "ward": "Talab Mohalla",
            "street": "8QMM+374",
            "city": "Raisen",
            "postal_code": "464551",
            "state": "Madhya Pradesh",
            "country_code": "IN"
        },
        "images": [],
        "link": "https://www.google.com/maps/place/Masjid+Ayesha/data=!4m7!3m6!1s0x397c19bca7ef248b:0xb9c03a60ffbe0937!8m2!3d23.3326252!4d77.7831974!16s%2Fg%2F11q58fntsx!19sChIJiyTvp7wZfDkRNwm-_2A6wLk?authuser=0&hl=en&rclk=1",
        "coordinates": {
            "latitude": 23.3326252,
            "longitude": 77.78319739999999
        }
    },
    {
        "name": "Masjid eid gah",
        "main_category": "Mosque",
        "address": "8QVF+8FJ Masjid eid gah, Sanchi Rd, Raisen, Madhya Pradesh 464551",
        "detailed_address": {
            "ward": null,
            "street": "8QVF+8FJ, Sanchi Rd",
            "city": "Raisen",
            "postal_code": "464551",
            "state": "Madhya Pradesh",
            "country_code": "IN"
        },
        "images": [],
        "link": "https://www.google.com/maps/place/Masjid+eid+gah/data=!4m7!3m6!1s0x397c1996af1456d5:0xdc29ea7faa47ec41!8m2!3d23.3433406!4d77.7736481!16s%2Fg%2F11rvd9yml9!19sChIJ1VYUr5YZfDkRQexHqn_qKdw?authuser=0&hl=en&rclk=1",
        "coordinates": {
            "latitude": 23.343340599999998,
            "longitude": 77.7736481
        }
    },
    {
        "name": "Pakki Masjid",
        "main_category": "Mosque",
        "address": "ward no.2, Pakki Masjid, Raisen, Madhya Pradesh 464551",
        "detailed_address": {
            "ward": null,
            "street": "ward no.2",
            "city": "Raisen",
            "postal_code": null,
            "state": "Madhya Pradesh",
            "country_code": "IN"
        },
        "images": [
            {
                "about": "All",
                "link": "https://streetviewpixels-pa.googleapis.com/v1/thumbnail?panoid=o0RoMh03jYtiVTtId9oonA&cb_client=maps_sv.tactile.gps&w=224&h=298&yaw=12.199473&pitch=0&thumbfov=100"
            },
            {
                "about": "Street View & 360deg",
                "link": "https://streetviewpixels-pa.googleapis.com/v1/thumbnail?panoid=o0RoMh03jYtiVTtId9oonA&cb_client=maps_sv.tactile.gps&w=224&h=298&yaw=12.199473&pitch=0&thumbfov=100"
            }
        ],
        "link": "https://www.google.com/maps/place/Pakki+Masjid/data=!4m7!3m6!1s0x397c198ab3aee163:0x29e77de456735af5!8m2!3d23.331772!4d77.7755774!16s%2Fg%2F11sxnxwj8l!19sChIJY-Gus4oZfDkR9VpzVuR95yk?authuser=0&hl=en&rclk=1",
        "coordinates": {
            "latitude": 23.331771999999997,
            "longitude": 77.7755774
        }
    },
    {
        "name": "Muhammadi masjid",
        "main_category": "Mosque",
        "address": "Ward no 7, Muhammadi masjid, qasai mohalla, Raisen, Madhya Pradesh 464551",
        "detailed_address": {
            "ward": "qasai mohalla",
            "street": "Ward no 7",
            "city": "Raisen",
            "postal_code": null,
            "state": "Madhya Pradesh",
            "country_code": "IN"
        },
        "images": [],
        "link": "https://www.google.com/maps/place/Muhammadi+masjid/data=!4m7!3m6!1s0x397c19bab99fd757:0x214af231a8070e97!8m2!3d23.3303717!4d77.7815711!16s%2Fg%2F11sx0k2zly!19sChIJV9efuboZfDkRlw4HqDHySiE?authuser=0&hl=en&rclk=1",
        "coordinates": {
            "latitude": 23.3303717,
            "longitude": 77.7815711
        }
    },
    {
        "name": "Fayyaz Kha'n Masjid",
        "main_category": "Mosque",
        "address": "ward no.6, Fayyaz Kha'n Masjid, Raisen, Madhya Pradesh 464551",
        "detailed_address": {
            "ward": null,
            "street": "ward no.6",
            "city": "Raisen",
            "postal_code": null,
            "state": "Madhya Pradesh",
            "country_code": "IN"
        },
        "images": [
            {
                "about": "All",
                "link": "https://lh5.googleusercontent.com/p/AF1QipMxCn0JANIQ1ZhQ5m_we1VhDMi1lQoNFta5XceZ=w224-h298-k-no"
            }
        ],
        "link": "https://www.google.com/maps/place/Fayyaz+Kha%27n+Masjid/data=!4m7!3m6!1s0x397c19f3a1bf3f7b:0x4f7836757736e088!8m2!3d23.3291944!4d77.7810699!16s%2Fg%2F11rw7z9j9c!19sChIJez-_ofMZfDkRiOA2d3U2eE8?authuser=0&hl=en&rclk=1",
        "coordinates": {
            "latitude": 23.3291944,
            "longitude": 77.78106989999999
        }
    },
    {
        "name": "Teen wali masjid",
        "main_category": "Mosque",
        "address": "Teen wali masjid, 3, Raisen, Madhya Pradesh 464551",
        "detailed_address": {
            "ward": null,
            "street": "3",
            "city": "Raisen",
            "postal_code": "464551",
            "state": "Madhya Pradesh",
            "country_code": "IN"
        },
        "images": [],
        "link": "https://www.google.com/maps/place/Teen+wali+masjid/data=!4m7!3m6!1s0x397c1989f4b4411b:0x4492b57c9b33a863!8m2!3d23.3298618!4d77.780535!16s%2Fg%2F11l22k78dd!19sChIJG0G09IkZfDkRY6gzm3y1kkQ?authuser=0&hl=en&rclk=1",
        "coordinates": {
            "latitude": 23.3298618,
            "longitude": 77.780535
        }
    },
    {
        "name": "Masjid Shareef Colony",
        "main_category": "Mosque",
        "address": "8QQJ+4V7 Masjid Shareef Colony, shareef colony, Raisen, Madhya Pradesh 464551",
        "detailed_address": {
            "ward": "shareef colony",
            "street": "8QQJ+4V7",
            "city": "Raisen",
            "postal_code": null,
            "state": "Madhya Pradesh",
            "country_code": "IN"
        },
        "images": [],
        "link": "https://www.google.com/maps/place/Masjid+Shareef+Colony/data=!4m7!3m6!1s0x397c195de939b875:0x716603127027ecbc!8m2!3d23.3377928!4d77.7821711!16s%2Fg%2F11rw9bl4_l!19sChIJdbg56V0ZfDkRvOwncBIDZnE?authuser=0&hl=en&rclk=1",
        "coordinates": {
            "latitude": 23.3377928,
            "longitude": 77.7821711
        }
    },
    {
        "name": "Raja wali masjid",
        "main_category": "Mosque",
        "address": "8QJJ+346 Raja wali masjid, Raisen, Madhya Pradesh 464551",
        "detailed_address": {
            "ward": null,
            "street": "8QJJ+346",
            "city": "Raisen",
            "postal_code": "464551",
            "state": "Madhya Pradesh",
            "country_code": "IN"
        },
        "images": [],
        "link": "https://www.google.com/maps/place/Raja+wali+masjid/data=!4m7!3m6!1s0x397c19c74bba5efb:0xec0e6dd4020f1c51!8m2!3d23.3301623!4d77.7801765!16s%2Fg%2F11v9_q0l83!19sChIJ-166S8cZfDkRURwPAtRtDuw?authuser=0&hl=en&rclk=1",
        "coordinates": {
            "latitude": 23.330162299999998,
            "longitude": 77.7801765
        }
    },
    {
        "name": "Noorani Masjid",
        "main_category": "Mosque",
        "address": "ward no.18, Noorani Masjid, road, Bhopal, Raisen, Madhya Pradesh 464551",
        "detailed_address": {
            "ward": null,
            "street": "ward no.18, road",
            "city": "Bhopal, Raisen",
            "postal_code": null,
            "state": "Madhya Pradesh",
            "country_code": "IN"
        },
        "images": [
            {
                "about": "All",
                "link": "https://streetviewpixels-pa.googleapis.com/v1/thumbnail?panoid=MXVtdd5OHSDB_kKxf2sEMQ&cb_client=maps_sv.tactile.gps&w=224&h=298&yaw=280.7745&pitch=0&thumbfov=100"
            },
            {
                "about": "Street View & 360deg",
                "link": "https://streetviewpixels-pa.googleapis.com/v1/thumbnail?panoid=MXVtdd5OHSDB_kKxf2sEMQ&cb_client=maps_sv.tactile.gps&w=224&h=298&yaw=280.7745&pitch=0&thumbfov=100"
            }
        ],
        "link": "https://www.google.com/maps/place/Noorani+Masjid/data=!4m7!3m6!1s0x397c1964185af729:0x9f102fee2c9c95dc!8m2!3d23.3201259!4d77.7757801!16s%2Fg%2F11rw7z3r47!19sChIJKfdaGGQZfDkR3JWcLO4vEJ8?authuser=0&hl=en&rclk=1",
        "coordinates": {
            "latitude": 23.320125899999997,
            "longitude": 77.77578009999999
        }
    },
    {
        "name": "Masjid kile wali",
        "main_category": "Mosque",
        "address": "Masjid kile wali, Raisen Fort, Raisen, Madhya Pradesh 464551",
        "detailed_address": {
            "ward": null,
            "street": "Raisen Fort",
            "city": "Raisen",
            "postal_code": "464551",
            "state": "Madhya Pradesh",
            "country_code": "IN"
        },
        "images": [],
        "link": "https://www.google.com/maps/place/Masjid+kile+wali/data=!4m7!3m6!1s0x397c19465048a619:0x608eaacf301690f8!8m2!3d23.3261184!4d77.7775246!16s%2Fg%2F11q58ggvts!19sChIJGaZIUEYZfDkR-JAWMM-qjmA?authuser=0&hl=en&rclk=1",
        "coordinates": {
            "latitude": 23.3261184,
            "longitude": 77.77752459999999
        }
    },
    {
        "name": "Masjid Siraj Colony",
        "main_category": "Mosque",
        "address": "ward no.18, Masjid Siraj Colony, siraj colony, Raisen, Madhya Pradesh 464551",
        "detailed_address": {
            "ward": null,
            "street": "ward no.18, siraj colony",
            "city": "Raisen",
            "postal_code": null,
            "state": "Madhya Pradesh",
            "country_code": "IN"
        },
        "images": [
            {
                "about": "All",
                "link": "https://streetviewpixels-pa.googleapis.com/v1/thumbnail?panoid=hAwSvOAaj9qW6A417SiEjQ&cb_client=maps_sv.tactile.gps&w=224&h=298&yaw=304.62048&pitch=0&thumbfov=100"
            },
            {
                "about": "Street View & 360deg",
                "link": "https://streetviewpixels-pa.googleapis.com/v1/thumbnail?panoid=hAwSvOAaj9qW6A417SiEjQ&cb_client=maps_sv.tactile.gps&w=224&h=298&yaw=304.62048&pitch=0&thumbfov=100"
            }
        ],
        "link": "https://www.google.com/maps/place/Masjid+Siraj+Colony/data=!4m7!3m6!1s0x397c19c3bad17279:0xd937ab8bdd937354!8m2!3d23.317255!4d77.7708211!16s%2Fg%2F11sxx6ws4m!19sChIJeXLRusMZfDkRVHOT3YurN9k?authuser=0&hl=en&rclk=1",
        "coordinates": {
            "latitude": 23.317255,
            "longitude": 77.77082109999999
        }
    },
    {
        "name": "Umar Masjid",
        "main_category": "Mosque",
        "address": "ward no.18, Umar Masjid, Sanjay nagar, Raisen, Madhya Pradesh 464551",
        "detailed_address": {
            "ward": "Sanjay nagar",
            "street": "ward no.18",
            "city": "Raisen",
            "postal_code": null,
            "state": "Madhya Pradesh",
            "country_code": "IN"
        },
        "images": [],
        "link": "https://www.google.com/maps/place/Umar+Masjid/data=!4m7!3m6!1s0x397c19f106c8dd5b:0xfe511075e9789828!8m2!3d23.3190055!4d77.7743052!16s%2Fg%2F11rw7yf0lf!19sChIJW93IBvEZfDkRKJh46XUQUf4?authuser=0&hl=en&rclk=1",
        "coordinates": {
            "latitude": 23.3190055,
            "longitude": 77.7743052
        }
    }
]