[
    {
        "name": "Peer Baba Mosque",
        "main_category": "Mosque",
        "address": "CQ4P+7HV Peer Baba Mosque, Ambala Chandigarh Expy, Ambala, Haryana 134007",
        "detailed_address": {
            "ward": null,
            "street": "CQ4P+7HV, Ambala Chandigarh Expy",
            "city": "Ambala",
            "postal_code": "134007",
            "state": "Haryana",
            "country_code": "IN"
        },
        "images": [
            {
                "about": "All",
                "link": "https://streetviewpixels-pa.googleapis.com/v1/thumbnail?panoid=GZHLNxfbnLsN29aIe10fmA&cb_client=maps_sv.tactile.gps&w=224&h=298&yaw=60.978397&pitch=0&thumbfov=100"
            },
            {
                "about": "Street View & 360deg",
                "link": "https://streetviewpixels-pa.googleapis.com/v1/thumbnail?panoid=GZHLNxfbnLsN29aIe10fmA&cb_client=maps_sv.tactile.gps&w=224&h=298&yaw=60.978397&pitch=0&thumbfov=100"
            }
        ],
        "link": "https://www.google.com/maps/place/Peer+Baba+Mosque/data=!4m7!3m6!1s0x390fc7d668cee529:0x1f6d56fb9cc8b80a!8m2!3d30.4057384!4d76.7864143!16s%2Fg%2F1pyqrf738!19sChIJKeXOaNbHDzkRCrjInPtWbR8?authuser=0&hl=en&rclk=1",
        "coordinates": {
            "latitude": 30.405738399999997,
            "longitude": 76.78641429999999
        }
    },
    {
        "name": "Pir Baba Mosque",
        "main_category": "Mosque",
        "address": "9Q3X+PWQ Pir Baba Mosque, Shakti Colony, Jandali Village, Ambala, Haryana 134005",
        "detailed_address": {
            "ward": "Shakti Colony, Jandali Village",
            "street": "9Q3X+PWQ",
            "city": "Ambala",
            "postal_code": "134005",
            "state": "Haryana",
            "country_code": "IN"
        },
        "images": [
            {
                "about": "All",
                "link": "https://lh5.googleusercontent.com/p/AF1QipP9fvWZRIxuGiMrODMjBgNE7CEh-vofnzSs_A7g=w224-h298-k-no"
            },
            {
                "about": "Street View & 360deg",
                "link": "https://streetviewpixels-pa.googleapis.com/v1/thumbnail?panoid=LCm8qbSsj9Dwo-xn4oFoVw&cb_client=maps_sv.tactile.gps&w=224&h=298&yaw=4.549003&pitch=0&thumbfov=100"
            }
        ],
        "link": "https://www.google.com/maps/place/Pir+Baba+Mosque/data=!4m7!3m6!1s0x390fc9b680379119:0x4ce95de5df87789f!8m2!3d30.354331!4d76.79987!16s%2Fg%2F1pyqvpc_m!19sChIJGZE3gLbJDzkRn3iH3-Vd6Uw?authuser=0&hl=en&rclk=1",
        "coordinates": {
            "latitude": 30.354331,
            "longitude": 76.79987
        }
    },
    {
        "name": "Madina Masjid Shahpur AmbalaCantt",
        "main_category": "Mosque",
        "address": "Madina Masjid Shahpur AmbalaCantt, 125, Grand Trunk Rd, near Flyover, Shahpur, Ambala Cantt, Ambala, Haryana 133004",
        "detailed_address": {
            "ward": "Shahpur",
            "street": "125, Grand Trunk Rd, near Flyover",
            "city": "Ambala Cantt, Ambala",
            "postal_code": "133004",
            "state": "Haryana",
            "country_code": "IN"
        },
        "images": [
            {
                "about": "All",
                "link": "https://lh5.googleusercontent.com/p/AF1QipMTEGu8OpgMpk6Z0bnYdDRN2asJzPEpPYcBzqvY=w530-h298-k-no"
            },
            {
                "about": "By owner",
                "link": "https://lh5.googleusercontent.com/p/AF1QipPbcMTL_PaM-1T9nSJC25YcC6_wLHsm3Ud0yNBW=w224-h497-k-no"
            },
            {
                "about": "Street View & 360deg",
                "link": "https://streetviewpixels-pa.googleapis.com/v1/thumbnail?panoid=yC8RL6Y_CwxWcFW-CKcALQ&cb_client=maps_sv.tactile.gps&w=224&h=298&yaw=246.9133&pitch=0&thumbfov=100"
            }
        ],
        "link": "https://www.google.com/maps/place/Madina+Masjid+Shahpur+AmbalaCantt/data=!4m7!3m6!1s0x390fb5eed939c33f:0x8bcf82c313234ad9!8m2!3d30.3046565!4d76.842221!16s%2Fg%2F11hbk2yxl6!19sChIJP8M52e61DzkR2UojE8OCz4s?authuser=0&hl=en&rclk=1",
        "coordinates": {
            "latitude": 30.3046565,
            "longitude": 76.842221
        }
    },
    {
        "name": "PIR BABA",
        "main_category": "Mosque",
        "address": "8RCP+F8C PIR BABA, Ambala Cantt, Haryana 134003",
        "detailed_address": {
            "ward": null,
            "street": "8RCP+F8C",
            "city": "Ambala Cantt",
            "postal_code": "134003",
            "state": "Haryana",
            "country_code": "IN"
        },
        "images": [
            {
                "about": "All",
                "link": "https://lh5.googleusercontent.com/p/AF1QipO0IR4ZEOiX8dOM39PM1Bhlrjt1ueVIzCwLwcu2=w224-h398-k-no"
            }
        ],
        "link": "https://www.google.com/maps/place/PIR+BABA/data=!4m7!3m6!1s0x390fb607b4be3517:0xaf6a86fcc55cc0ec!8m2!3d30.3211927!4d76.8357758!16s%2Fg%2F1hm4h513x!19sChIJFzW-tAe2DzkR7MBcxfyGaq8?authuser=0&hl=en&rclk=1",
        "coordinates": {
            "latitude": 30.321192699999997,
            "longitude": 76.8357758
        }
    },
    {
        "name": "Pir Baba Mosque",
        "main_category": "Mosque",
        "address": "9Q45+628 Pir Baba Mosque, Kaithal-Ambala Road (NH-65), Nasirpur, Ambala, Haryana 134003",
        "detailed_address": {
            "ward": "Nasirpur",
            "street": "9Q45+628, Kaithal-Ambala Road (NH-65)",
            "city": "Ambala",
            "postal_code": "134003",
            "state": "Haryana",
            "country_code": "IN"
        },
        "images": [
            {
                "about": "All",
                "link": "https://streetviewpixels-pa.googleapis.com/v1/thumbnail?panoid=2zR3hnnWmT9F1VB4L89VuQ&cb_client=maps_sv.tactile.gps&w=224&h=298&yaw=285.91104&pitch=0&thumbfov=100"
            },
            {
                "about": "Street View & 360deg",
                "link": "https://streetviewpixels-pa.googleapis.com/v1/thumbnail?panoid=2zR3hnnWmT9F1VB4L89VuQ&cb_client=maps_sv.tactile.gps&w=224&h=298&yaw=285.91104&pitch=0&thumbfov=100"
            }
        ],
        "link": "https://www.google.com/maps/place/Pir+Baba+Mosque/data=!4m7!3m6!1s0x390fc8e022d24efb:0x7e9f3ce539e70a53!8m2!3d30.3555316!4d76.7575713!16s%2Fg%2F1pyqnk_21!19sChIJ-07SIuDIDzkRUwrnOeU8n34?authuser=0&hl=en&rclk=1",
        "coordinates": {
            "latitude": 30.3555316,
            "longitude": 76.7575713
        }
    },
    {
        "name": "Peer Baba Mosque",
        "main_category": "Mosque",
        "address": "9QQG+8R4 Peer Baba Mosque, Jogiwara, Old Town, Ambala, Haryana 134003",
        "detailed_address": {
            "ward": "Jogiwara, Old Town",
            "street": "9QQG+8R4",
            "city": "Ambala",
            "postal_code": "134003",
            "state": "Haryana",
            "country_code": "IN"
        },
        "images": [
            {
                "about": "All",
                "link": "https://streetviewpixels-pa.googleapis.com/v1/thumbnail?panoid=na3SNwLTJlX9pTXcizkcIQ&cb_client=maps_sv.tactile.gps&w=224&h=298&yaw=186.34952&pitch=0&thumbfov=100"
            },
            {
                "about": "Street View & 360deg",
                "link": "https://streetviewpixels-pa.googleapis.com/v1/thumbnail?panoid=na3SNwLTJlX9pTXcizkcIQ&cb_client=maps_sv.tactile.gps&w=224&h=298&yaw=186.34952&pitch=0&thumbfov=100"
            }
        ],
        "link": "https://www.google.com/maps/place/Peer+Baba+Mosque/data=!4m7!3m6!1s0x390fc889a85e98e5:0xb007d05efe8ae6a1!8m2!3d30.388266!4d76.777092!16s%2Fg%2F1pyqrhxdj!19sChIJ5ZheqInIDzkRoeaK_l7QB7A?authuser=0&hl=en&rclk=1",
        "coordinates": {
            "latitude": 30.388265999999998,
            "longitude": 76.777092
        }
    },
    {
        "name": "Pir Baba Mosque",
        "main_category": "Mosque",
        "address": "9QC8+XW2 Pir Baba Mosque, Shastri Nagar, Ram Bagh, Ambala, Haryana 134003",
        "detailed_address": {
            "ward": "Shastri Nagar, Ram Bagh",
            "street": "9QC8+XW2",
            "city": "Ambala",
            "postal_code": "134003",
            "state": "Haryana",
            "country_code": "IN"
        },
        "images": [
            {
                "about": "All",
                "link": "https://streetviewpixels-pa.googleapis.com/v1/thumbnail?panoid=MRDhm9ouzMT7naYDFLJ65A&cb_client=maps_sv.tactile.gps&w=224&h=298&yaw=86.31517&pitch=0&thumbfov=100"
            },
            {
                "about": "Street View & 360deg",
                "link": "https://streetviewpixels-pa.googleapis.com/v1/thumbnail?panoid=MRDhm9ouzMT7naYDFLJ65A&cb_client=maps_sv.tactile.gps&w=224&h=298&yaw=86.31517&pitch=0&thumbfov=100"
            }
        ],
        "link": "https://www.google.com/maps/place/Pir+Baba+Mosque/data=!4m7!3m6!1s0x390fc8ee166cdba5:0xa041cfc9579c80a1!8m2!3d30.3723901!4d76.7672574!16s%2Fg%2F1pyqqqrvx!19sChIJpdtsFu7IDzkRoYCcV8nPQaA?authuser=0&hl=en&rclk=1",
        "coordinates": {
            "latitude": 30.372390099999997,
            "longitude": 76.76725739999999
        }
    },
    {
        "name": "Pir Baba Mosque",
        "main_category": "Mosque",
        "address": "9QQW+G4M Pir Baba Mosque, Nai Abadi, Geeta Colony, Baldev Nagar, Ambala, Haryana 134007",
        "detailed_address": {
            "ward": "Nai Abadi, Geeta Colony, Baldev Nagar",
            "street": "9QQW+G4M",
            "city": "Ambala",
            "postal_code": "134007",
            "state": "Haryana",
            "country_code": "IN"
        },
        "images": [
            {
                "about": "All",
                "link": "https://lh5.googleusercontent.com/p/AF1QipPT5RprcC02wlqJtL_w5VmC4_9pbirQp9pWK3tG=w224-h298-k-no"
            },
            {
                "about": "Street View & 360deg",
                "link": "https://streetviewpixels-pa.googleapis.com/v1/thumbnail?panoid=q5d9VctetQ_3dzEB0QlxNA&cb_client=maps_sv.tactile.gps&w=224&h=298&yaw=147.09741&pitch=0&thumbfov=100"
            }
        ],
        "link": "https://www.google.com/maps/place/Pir+Baba+Mosque/data=!4m7!3m6!1s0x390fc86ec682a763:0xbccbfbb651cbf87!8m2!3d30.3888421!4d76.7953081!16s%2Fg%2F1pyqqct_8!19sChIJY6eCxm7IDzkRh78cZbu_zAs?authuser=0&hl=en&rclk=1",
        "coordinates": {
            "latitude": 30.388842099999998,
            "longitude": 76.7953081
        }
    },
    {
        "name": "Pir Baba Mosque",
        "main_category": "Mosque",
        "address": "9Q8X+9CQ Pir Baba Mosque, Grand Trunk Road (NH-1), Model Town, Ambala, Haryana 134003",
        "detailed_address": {
            "ward": "Model Town",
            "street": "9Q8X+9CQ, Grand Trunk Road (NH-1)",
            "city": "Ambala",
            "postal_code": "134003",
            "state": "Haryana",
            "country_code": "IN"
        },
        "images": [
            {
                "about": "All",
                "link": "https://streetviewpixels-pa.googleapis.com/v1/thumbnail?panoid=ewjhJ_b8IvBE_u_2IsFHnw&cb_client=maps_sv.tactile.gps&w=224&h=298&yaw=232.49641&pitch=0&thumbfov=100"
            },
            {
                "about": "Dome",
                "link": "https://lh5.googleusercontent.com/p/AF1QipOQjGZH7nlAuxFlp12S_kfXBzvwZ4NkPXLlvnxF=w224-h298-k-no"
            },
            {
                "about": "Street View & 360deg",
                "link": "https://streetviewpixels-pa.googleapis.com/v1/thumbnail?panoid=ewjhJ_b8IvBE_u_2IsFHnw&cb_client=maps_sv.tactile.gps&w=224&h=298&yaw=232.49641&pitch=0&thumbfov=100"
            }
        ],
        "link": "https://www.google.com/maps/place/Pir+Baba+Mosque/data=!4m7!3m6!1s0x390fc8496746ccf7:0xa8a30c58063741a7!8m2!3d30.3659637!4d76.798596!16s%2Fg%2F1pyqgzv73!19sChIJ98xGZ0nIDzkRp0E3BlgMo6g?authuser=0&hl=en&rclk=1",
        "coordinates": {
            "latitude": 30.3659637,
            "longitude": 76.798596
        }
    },
    {
        "name": "Pir Baba Mosque",
        "main_category": "Mosque",
        "address": "9QVF+C89 Pir Baba Mosque, Grand Trunk Road (NH-1), Manmohan Nagar, Ambala, Haryana 134003",
        "detailed_address": {
            "ward": "Manmohan Nagar",
            "street": "9QVF+C89, Grand Trunk Road (NH-1)",
            "city": "Ambala",
            "postal_code": "134003",
            "state": "Haryana",
            "country_code": "IN"
        },
        "images": [
            {
                "about": "All",
                "link": "https://streetviewpixels-pa.googleapis.com/v1/thumbnail?panoid=lAQyX9x1gD8imIqp-ulw-Q&cb_client=maps_sv.tactile.gps&w=224&h=298&yaw=349.0272&pitch=0&thumbfov=100"
            },
            {
                "about": "Street View & 360deg",
                "link": "https://streetviewpixels-pa.googleapis.com/v1/thumbnail?panoid=lAQyX9x1gD8imIqp-ulw-Q&cb_client=maps_sv.tactile.gps&w=224&h=298&yaw=349.0272&pitch=0&thumbfov=100"
            }
        ],
        "link": "https://www.google.com/maps/place/Pir+Baba+Mosque/data=!4m7!3m6!1s0x390fc885cfd8b78b:0xdd78e1412a42aeec!8m2!3d30.3935328!4d76.7733574!16s%2Fg%2F1pyqghpfy!19sChIJi7fYz4XIDzkR7K5CKkHheN0?authuser=0&hl=en&rclk=1",
        "coordinates": {
            "latitude": 30.3935328,
            "longitude": 76.7733574
        }
    },
    {
        "name": "Badshahi Masjid",
        "main_category": "Museum",
        "address": "9QF6+H5V Badshahi Masjid, Mahavir Nagar, Ambala, Haryana 134003",
        "detailed_address": {
            "ward": "Mahavir Nagar",
            "street": "9QF6+H5V",
            "city": "Ambala",
            "postal_code": "134003",
            "state": "Haryana",
            "country_code": "IN"
        },
        "images": [],
        "link": "https://www.google.com/maps/place/Badshahi+Masjid/data=!4m7!3m6!1s0x390fc9cf2fd71b23:0x4be4949f0633e085!8m2!3d30.3739833!4d76.7604138!16s%2Fg%2F11h7k9hgbq!19sChIJIxvXL8_JDzkRheAzBp-U5Es?authuser=0&hl=en&rclk=1",
        "coordinates": {
            "latitude": 30.3739833,
            "longitude": 76.7604138
        }
    },
    {
        "name": "Masjid e Ibrahim",
        "main_category": "Mosque",
        "address": "Masjid e Ibrahim, 6147/7, Nicholson Road, Mochi Mandi, Sadar Bazar, Ambala Sadar, Haryana 133001",
        "detailed_address": {
            "ward": "Mochi Mandi, Sadar Bazar",
            "street": "6147/7, Nicholson Road",
            "city": "Ambala Sadar",
            "postal_code": "133001",
            "state": "Haryana",
            "country_code": "IN"
        },
        "images": [
            {
                "about": "All",
                "link": "https://lh5.googleusercontent.com/p/AF1QipOsknC7MrUPqg5t7SM23sBJgjAk920apTC8UpxJ=w224-h398-k-no"
            },
            {
                "about": "Videos",
                "link": "https://lh5.googleusercontent.com/p/AF1QipOsknC7MrUPqg5t7SM23sBJgjAk920apTC8UpxJ=w224-h398-k-no"
            }
        ],
        "link": "https://www.google.com/maps/place/Masjid+e+Ibrahim/data=!4m7!3m6!1s0x390fb718b193febd:0x1e07d4c1364d0a6b!8m2!3d30.3365488!4d76.8388913!16s%2Fg%2F11s7p877px!19sChIJvf6TsRi3DzkRawpNNsHUBx4?authuser=0&hl=en&rclk=1",
        "coordinates": {
            "latitude": 30.3365488,
            "longitude": 76.8388913
        }
    },
    {
        "name": "Jaibaba Nagar Khera Mosque",
        "main_category": "Mosque",
        "address": "9QR3+M26 Jaibaba Nagar Khera Mosque, Ghel, Ambala, Haryana 134003",
        "detailed_address": {
            "ward": "Ghel",
            "street": "9QR3+M26",
            "city": "Ambala",
            "postal_code": "134003",
            "state": "Haryana",
            "country_code": "IN"
        },
        "images": [
            {
                "about": "All",
                "link": "https://streetviewpixels-pa.googleapis.com/v1/thumbnail?panoid=7C8vG1LtABXMyFJZXfRyiA&cb_client=maps_sv.tactile.gps&w=224&h=298&yaw=211.67044&pitch=0&thumbfov=100"
            },
            {
                "about": "Street View & 360deg",
                "link": "https://streetviewpixels-pa.googleapis.com/v1/thumbnail?panoid=7C8vG1LtABXMyFJZXfRyiA&cb_client=maps_sv.tactile.gps&w=224&h=298&yaw=211.67044&pitch=0&thumbfov=100"
            }
        ],
        "link": "https://www.google.com/maps/place/Jaibaba+Nagar+Khera+Mosque/data=!4m7!3m6!1s0x390fc8a30b607c63:0x6ea25c41cf56b8e1!8m2!3d30.39166!4d76.752501!16s%2Fg%2F1pyqm5y8l!19sChIJY3xgC6PIDzkR4bhWz0Fcom4?authuser=0&hl=en&rclk=1",
        "coordinates": {
            "latitude": 30.391659999999998,
            "longitude": 76.752501
        }
    },
    {
        "name": "Masjid e Idrees",
        "main_category": "Mosque",
        "address": "Masjid e Idrees, 4910/2, Mochi Mandi, Sadar Bazar, Ambala Cantt, Ambala Sadar, Haryana 133001",
        "detailed_address": {
            "ward": "Mochi Mandi, Sadar Bazar",
            "street": "4910/2",
            "city": "Ambala Cantt, Ambala Sadar",
            "postal_code": "133001",
            "state": "Haryana",
            "country_code": "IN"
        },
        "images": [
            {
                "about": "All",
                "link": "https://lh5.googleusercontent.com/p/AF1QipNGQdtHM0hWBHT9jS5Dfcvsojk8EVO56wSFrGof=w224-h398-k-no"
            }
        ],
        "link": "https://www.google.com/maps/place/Masjid+e+Idrees/data=!4m7!3m6!1s0x390fb721dd615707:0x1719249894be0b09!8m2!3d30.3352402!4d76.8380464!16s%2Fg%2F11s7p7hmf1!19sChIJB1dh3SG3DzkRCQu-lJgkGRc?authuser=0&hl=en&rclk=1",
        "coordinates": {
            "latitude": 30.335240199999998,
            "longitude": 76.8380464
        }
    },
    {
        "name": "Jama Masjid Saha Namaz nahi hoti hai masjid band hai",
        "main_category": "Mosque",
        "address": "8X7G+JM4 Jama Masjid Saha Namaz nahi hoti hai masjid band hai, Ambala, Haryana 133104",
        "detailed_address": {
            "ward": null,
            "street": "8X7G+JM4",
            "city": "Ambala",
            "postal_code": null,
            "state": "Haryana",
            "country_code": "IN"
        },
        "images": [],
        "link": "https://www.google.com/maps/place/Jama+Masjid+Saha+Namaz+nahi+hoti+hai+masjid+band+hai/data=!4m7!3m6!1s0x390fb38ec9c48f93:0xafa7bb9757998cf1!8m2!3d30.3140246!4d76.9767075!16s%2Fg%2F11v6fqx8kd!19sChIJk4_EyY6zDzkR8YyZV5e7p68?authuser=0&hl=en&rclk=1",
        "coordinates": {
            "latitude": 30.3140246,
            "longitude": 76.9767075
        }
    },
    {
        "name": "Noorani Masjid, Babyal",
        "main_category": "Mosque",
        "address": "Noorani Masjid, Babyal, 314, Bhoormandi, Ambala, Haryana 133001",
        "detailed_address": {
            "ward": "Bhoormandi",
            "street": "314",
            "city": "Ambala",
            "postal_code": "133001",
            "state": "Haryana",
            "country_code": "IN"
        },
        "images": [],
        "link": "https://www.google.com/maps/place/Noorani+Masjid,+Babyal/data=!4m7!3m6!1s0x390fb7001978ead3:0x70b8ef803c3fdb5c!8m2!3d30.3592142!4d76.8715203!16s%2Fg%2F11vc2hlf2j!19sChIJ0-p4GQC3DzkRXNs_PIDvuHA?authuser=0&hl=en&rclk=1",
        "coordinates": {
            "latitude": 30.3592142,
            "longitude": 76.8715203
        }
    },
    {
        "name": "Masjid Ali Ambala City",
        "main_category": "Mosque",
        "address": "Masjid Ali Ambala City, Tanduran Bazar, Talkies Rd, Old Town, Ambala, Haryana 134003",
        "detailed_address": {
            "ward": "Old Town",
            "street": "Tanduran Bazar, Talkies Rd",
            "city": "Ambala",
            "postal_code": "134003",
            "state": "Haryana",
            "country_code": "IN"
        },
        "images": [
            {
                "about": "All",
                "link": "https://lh5.googleusercontent.com/p/AF1QipMy9LmcZpdAFdCntpbQtpCXs1njkJUXgT76dNVe=w224-h298-k-no"
            },
            {
                "about": "Street View & 360deg",
                "link": "https://streetviewpixels-pa.googleapis.com/v1/thumbnail?panoid=JLHXCJx68Z7Ch1JOJGGT_g&cb_client=maps_sv.tactile.gps&w=224&h=298&yaw=190.89616&pitch=0&thumbfov=100"
            }
        ],
        "link": "https://www.google.com/maps/place/Masjid+Ali+Ambala+City/data=!4m7!3m6!1s0x390fc9b62807b7af:0x5ac8c73658c084a2!8m2!3d30.3860427!4d76.7655619!16s%2Fg%2F11sv0ts_v1!19sChIJr7cHKLbJDzkRooTAWDbHyFo?authuser=0&hl=en&rclk=1",
        "coordinates": {
            "latitude": 30.386042699999997,
            "longitude": 76.7655619
        }
    },
    {
        "name": "Jama Masjid Sadar Bajar Ambala",
        "main_category": "Mosque",
        "address": "8RQV+9JR Jama Masjid Sadar Bajar Ambala, Hill Rd, Punjabi Mohalla, Sadar Bazar, Ambala Sadar, Ambala Cantt, Haryana 134003",
        "detailed_address": {
            "ward": "Punjabi Mohalla, Sadar Bazar",
            "street": "8RQV+9JR, Hill Rd",
            "city": "Ambala Sadar, Ambala Cantt",
            "postal_code": "134003",
            "state": "Haryana",
            "country_code": "IN"
        },
        "images": [
            {
                "about": "All",
                "link": "https://lh5.googleusercontent.com/p/AF1QipPJBLTZq4hpYxLhS4ifycSit11tEsCvMmIBJqd_=w529-h298-k-no"
            }
        ],
        "link": "https://www.google.com/maps/place/Jama+Masjid+Sadar+Bajar+Ambala/data=!4m7!3m6!1s0x390fb7f2161f5573:0x2d71ddef5aadd0c0!8m2!3d30.3379448!4d76.8438784!16s%2Fg%2F11l2hmfh0p!19sChIJc1UfFvK3DzkRwNCtWu_dcS0?authuser=0&hl=en&rclk=1",
        "coordinates": {
            "latitude": 30.3379448,
            "longitude": 76.8438784
        }
    },
    {
        "name": "Ali Masjid PNB Bank Tandura bazar",
        "main_category": "Mosque",
        "address": "Ali Masjid PNB Bank Tandura bazar, 5598, Durga Nagar, Ambala, Haryana 133003",
        "detailed_address": {
            "ward": "Durga Nagar",
            "street": "5598",
            "city": "Ambala",
            "postal_code": "133003",
            "state": "Haryana",
            "country_code": "IN"
        },
        "images": [
            {
                "about": "All",
                "link": "https://lh5.googleusercontent.com/p/AF1QipPUvyguvC7QpJqP3-cN8UQqTSFibryJ_uP--QpA=w397-h298-k-no"
            },
            {
                "about": "Dome",
                "link": "https://lh5.googleusercontent.com/p/AF1QipO4iqEcz-vt0mJ5YCjvclXJrJgDAAXG0m7UrpDf=w397-h298-k-no"
            },
            {
                "about": "Street View & 360deg",
                "link": "https://streetviewpixels-pa.googleapis.com/v1/thumbnail?panoid=PqzkDldLUPleOYlRtTpAjw&cb_client=maps_sv.tactile.gps&w=224&h=298&yaw=197.73445&pitch=0&thumbfov=100"
            }
        ],
        "link": "https://www.google.com/maps/place/Ali+Masjid+PNB+Bank+Tandura+bazar/data=!4m7!3m6!1s0x390fc991029b385b:0xb5b8271be22dc603!8m2!3d30.3852704!4d76.7663617!16s%2Fg%2F11v0gzntlz!19sChIJWzibApHJDzkRA8Yt4hsnuLU?authuser=0&hl=en&rclk=1",
        "coordinates": {
            "latitude": 30.3852704,
            "longitude": 76.76636169999999
        }
    },
    {
        "name": "Masjid Layalpur Basti",
        "main_category": "Religious destination",
        "address": "9QG6+M3M Masjid Layalpur Basti, Ranjeet Nagar, Mahavir Nagar, Ambala, Haryana 134003",
        "detailed_address": {
            "ward": "Ranjeet Nagar, Mahavir Nagar",
            "street": "9QG6+M3M",
            "city": "Ambala",
            "postal_code": "134003",
            "state": "Haryana",
            "country_code": "IN"
        },
        "images": [
            {
                "about": "All",
                "link": "https://lh5.googleusercontent.com/p/AF1QipOu2o3-pFPEZWgv0MVe9h4vy3sJLhU0JPM68KyT=w645-h298-k-no"
            },
            {
                "about": "Street View & 360deg",
                "link": "https://streetviewpixels-pa.googleapis.com/v1/thumbnail?panoid=mVURCxWZoOcELtvn73agmQ&cb_client=maps_sv.tactile.gps&w=224&h=298&yaw=200.5155&pitch=0&thumbfov=100"
            }
        ],
        "link": "https://www.google.com/maps/place/Masjid+Layalpur+Basti/data=!4m7!3m6!1s0x390fc926bf380321:0x9073670d9fc649ae!8m2!3d30.3767052!4d76.760172!16s%2Fg%2F11h1kfvyrg!19sChIJIQM4vybJDzkRrknGnw1nc5A?authuser=0&hl=en&rclk=1",
        "coordinates": {
            "latitude": 30.3767052,
            "longitude": 76.760172
        }
    },
    {
        "name": "Masjid Ansar",
        "main_category": "Mosque",
        "address": "9QPF+6GW Masjid Ansar, Kaziwara, Old Town, Ambala, Haryana 134003",
        "detailed_address": {
            "ward": "Kaziwara, Old Town",
            "street": "9QPF+6GW",
            "city": "Ambala",
            "postal_code": "134003",
            "state": "Haryana",
            "country_code": "IN"
        },
        "images": [
            {
                "about": "All",
                "link": "https://streetviewpixels-pa.googleapis.com/v1/thumbnail?panoid=49bZ4m8LwWDE5xC1p_NB8g&cb_client=maps_sv.tactile.gps&w=224&h=298&yaw=259.5599&pitch=0&thumbfov=100"
            },
            {
                "about": "Street View & 360deg",
                "link": "https://streetviewpixels-pa.googleapis.com/v1/thumbnail?panoid=49bZ4m8LwWDE5xC1p_NB8g&cb_client=maps_sv.tactile.gps&w=224&h=298&yaw=259.5599&pitch=0&thumbfov=100"
            }
        ],
        "link": "https://www.google.com/maps/place/Masjid+Ansar/data=!4m7!3m6!1s0x390fc9e7d8de018b:0xce5b48b34753905a!8m2!3d30.3856227!4d76.7738177!16s%2Fg%2F11l2_f97j2!19sChIJiwHe2OfJDzkRWpBTR7NIW84?authuser=0&hl=en&rclk=1",
        "coordinates": {
            "latitude": 30.3856227,
            "longitude": 76.7738177
        }
    },
    {
        "name": "Roza Dada Peer",
        "main_category": "Mosque",
        "address": "Roza Dada Peer, Old sabzi mandi, near Miri Piri Chowk, Old Town, Ambala",
        "detailed_address": {
            "ward": "Jogiwara, Old Town",
            "street": "Old sabzi mandi, near Miri Piri Chowk",
            "city": "Ambala",
            "postal_code": null,
            "state": "Haryana",
            "country_code": "IN"
        },
        "images": [
            {
                "about": "All",
                "link": "https://lh5.googleusercontent.com/p/AF1QipPYKzNDlfBJzFhr-BiyycpH2z5AK5THrz8kAYvL=w224-h398-k-no"
            }
        ],
        "link": "https://www.google.com/maps/place/Roza+Dada+Peer/data=!4m7!3m6!1s0x390fc9224551d853:0x9309b6d23c0ef504!8m2!3d30.3876864!4d76.7704338!16s%2Fg%2F11rc4cb5h4!19sChIJU9hRRSLJDzkRBPUOPNK2CZM?authuser=0&hl=en&rclk=1",
        "coordinates": {
            "latitude": 30.3876864,
            "longitude": 76.77043379999999
        }
    }
]