[
    {
        "name": "Mosque",
        "main_category": "Mosque",
        "address": "43QC+VV6 Mosque, Pattunoolkara Theru, Ethraj Nagar, Ariyalur, Tamil Nadu 621704",
        "detailed_address": {
            "ward": "Ethraj Nagar",
            "street": "43QC+VV6, Pattunoolkara Theru",
            "city": "Ariyalur",
            "postal_code": "621704",
            "state": "Tamil Nadu",
            "country_code": "IN"
        },
        "images": [
            {
                "about": "All",
                "link": "https://lh5.googleusercontent.com/p/AF1QipP2Z567y2ni3Wtz-FFY7R5IPKv0B9m4I21PWP88=w224-h298-k-no"
            },
            {
                "about": "Street View & 360deg",
                "link": "https://streetviewpixels-pa.googleapis.com/v1/thumbnail?panoid=sjysy70byGOvp-4UaTv37g&cb_client=maps_sv.tactile.gps&w=224&h=298&yaw=106.81925&pitch=0&thumbfov=100"
            }
        ],
        "link": "https://www.google.com/maps/place/Mosque/data=!4m7!3m6!1s0x3baadf7c4c50544b:0x7e511f9b146f61d1!8m2!3d11.139658!4d79.0721474!16s%2Fg%2F11gdjp3hc8!19sChIJS1RQTHzfqjsR0WFvFJsfUX4?authuser=0&hl=en&rclk=1",
        "coordinates": {
            "latitude": 11.139657999999999,
            "longitude": 79.07214739999999
        }
    },
    {
        "name": "Masjid-E-Umar",
        "main_category": "Mosque",
        "address": "43RH+J78 Masjid-E-Umar, Travellers Bungalow Rd, Subramaniya Nagar, Ariyalur, Tamil Nadu 621704",
        "detailed_address": {
            "ward": "Subramaniya Nagar",
            "street": "43RH+J78, Travellers Bungalow Rd",
            "city": "Ariyalur",
            "postal_code": "621704",
            "state": "Tamil Nadu",
            "country_code": "IN"
        },
        "images": [
            {
                "about": "All",
                "link": "https://lh5.googleusercontent.com/p/AF1QipMWssKyedIHJxrMu-VcwtQYW1jX-Kf1KkwRi6nV=w645-h298-k-no"
            },
            {
                "about": "Street View & 360deg",
                "link": "https://streetviewpixels-pa.googleapis.com/v1/thumbnail?panoid=JJzDTyKTK9TbxwjxbyHYYQ&cb_client=maps_sv.tactile.gps&w=224&h=298&yaw=110.44302&pitch=0&thumbfov=100"
            }
        ],
        "link": "https://www.google.com/maps/place/Masjid-E-Umar/data=!4m7!3m6!1s0x3baadf07704f5d5b:0x72717fc21aee9862!8m2!3d11.1415452!4d79.0782099!16s%2Fg%2F11mw5g0vrl!19sChIJW11PcAffqjsRYpjuGsJ_cXI?authuser=0&hl=en&rclk=1",
        "coordinates": {
            "latitude": 11.1415452,
            "longitude": 79.07820989999999
        }
    },
    {
        "name": "MOSQUE",
        "main_category": "Department store",
        "address": "MOSQUE, 3, Allahkori St, Ethraj Nagar, Ariyalur, Tamil Nadu 621704",
        "detailed_address": {
            "ward": "Ethraj Nagar",
            "street": "3, Allahkori St",
            "city": "Ariyalur",
            "postal_code": "621704",
            "state": "Tamil Nadu",
            "country_code": "IN"
        },
        "images": [
            {
                "about": "All",
                "link": "https://streetviewpixels-pa.googleapis.com/v1/thumbnail?panoid=jIJX8uaHQUkpIH0J2KnDcA&cb_client=maps_sv.tactile.gps&w=224&h=298&yaw=118.971886&pitch=0&thumbfov=100"
            },
            {
                "about": "Street View & 360deg",
                "link": "https://streetviewpixels-pa.googleapis.com/v1/thumbnail?panoid=jIJX8uaHQUkpIH0J2KnDcA&cb_client=maps_sv.tactile.gps&w=224&h=298&yaw=118.971886&pitch=0&thumbfov=100"
            }
        ],
        "link": "https://www.google.com/maps/place/MOSQUE/data=!4m7!3m6!1s0x3baadf7c4f406d09:0xf6d412152b887491!8m2!3d11.1392028!4d79.0720022!16s%2Fg%2F11gb3r3yrw!19sChIJCW1AT3zfqjsRkXSIKxUS1PY?authuser=0&hl=en&rclk=1",
        "coordinates": {
            "latitude": 11.1392028,
            "longitude": 79.0720022
        }
    },
    {
        "name": "Masjide Muhammadiyya",
        "main_category": "Mosque",
        "address": "Masjide Muhammadiyya, Rajajinagar, Ariyalur, Tamil Nadu 621704",
        "detailed_address": {
            "ward": "Rajajinagar",
            "street": null,
            "city": "Ariyalur",
            "postal_code": "621704",
            "state": "Tamil Nadu",
            "country_code": "IN"
        },
        "images": [
            {
                "about": "All",
                "link": "https://lh5.googleusercontent.com/p/AF1QipNxzq5WCWutXh0inDVtf8XLiNGhScsvRRLx9kIT=w224-h485-k-no"
            },
            {
                "about": "By owner",
                "link": "https://lh5.googleusercontent.com/p/AF1QipMfjIQCU5jExGgem7jLfF5IoKMfi0d9YpK12kS7=w224-h298-k-no"
            }
        ],
        "link": "https://www.google.com/maps/place/Masjide+Muhammadiyya/data=!4m7!3m6!1s0x3bab218f173b3897:0xa97ebeec09f74485!8m2!3d11.148164!4d79.080149!16s%2Fg%2F11qp11ybdz!19sChIJlzg7F48hqzsRhUT3Cey-fqk?authuser=0&hl=en&rclk=1",
        "coordinates": {
            "latitude": 11.148164,
            "longitude": 79.08014899999999
        }
    },
    {
        "name": "Mosque In First Floor",
        "main_category": "Mosque",
        "address": "43MH+G38 Mosque In First Floor, santhai pet,opposite,near busstand,upstairs of MRF showroom, Jayankondam Rd, Ariyalur South, Ariyalur, Tamil Nadu 621704",
        "detailed_address": {
            "ward": "Ariyalur South",
            "street": "43MH+G38, santhai pet,opposite,near busstand,upstairs of MRF showroom, Jayankondam Rd",
            "city": "Ariyalur",
            "postal_code": "621704",
            "state": "Tamil Nadu",
            "country_code": "IN"
        },
        "images": [
            {
                "about": "All",
                "link": "https://lh5.googleusercontent.com/p/AF1QipMt41_5xeBR2ixXyj4LjhxYveXYDuLrbif013gu=w397-h298-k-no"
            },
            {
                "about": "Street View & 360deg",
                "link": "https://streetviewpixels-pa.googleapis.com/v1/thumbnail?panoid=5diEv3xCCGEXg9Wj-9bTmg&cb_client=maps_sv.tactile.gps&w=224&h=298&yaw=233.78757&pitch=0&thumbfov=100"
            }
        ],
        "link": "https://www.google.com/maps/place/Mosque+In+First+Floor/data=!4m7!3m6!1s0x3baadf609c864de1:0xe714f6a164a585b5!8m2!3d11.1337771!4d79.0777046!16s%2Fg%2F11gk6c6yww!19sChIJ4U2GnGDfqjsRtYWlZKH2FOc?authuser=0&hl=en&rclk=1",
        "coordinates": {
            "latitude": 11.1337771,
            "longitude": 79.07770459999999
        }
    },
    {
        "name": "Tntj masjid ariyalur",
        "main_category": "Mosque",
        "address": "43VH+6QM Tntj masjid ariyalur, Unnamed Road, Subramaniya Nagar, Ariyalur, Tamil Nadu 621704",
        "detailed_address": {
            "ward": "Subramaniya Nagar",
            "street": "43VH+6QM, Unnamed Road",
            "city": "Ariyalur",
            "postal_code": "621704",
            "state": "Tamil Nadu",
            "country_code": "IN"
        },
        "images": [
            {
                "about": "All",
                "link": "https://lh5.googleusercontent.com/p/AF1QipMyKf9Kn-FcbQQpCbR6VFeCkIwDEDVEURepd1Fq=w528-h298-k-no"
            },
            {
                "about": "Street View & 360deg",
                "link": "https://streetviewpixels-pa.googleapis.com/v1/thumbnail?panoid=bJwNGXbdCOA2scxfY-hkzw&cb_client=maps_sv.tactile.gps&w=224&h=298&yaw=177.10057&pitch=0&thumbfov=100"
            }
        ],
        "link": "https://www.google.com/maps/place/Tntj+masjid+ariyalur/data=!4m7!3m6!1s0x3bab21d0fbd768df:0xf4f685756a3728dd!8m2!3d11.1430943!4d79.0794366!16s%2Fg%2F11lff2_ds3!19sChIJ32jX-9AhqzsR3Sg3anWF9vQ?authuser=0&hl=en&rclk=1",
        "coordinates": {
            "latitude": 11.1430943,
            "longitude": 79.0794366
        }
    },
    {
        "name": "Town palli",
        "main_category": "Mosque",
        "address": "Town palli, 34, GANDHI MARKET, Tamil Nadu 621704",
        "detailed_address": {
            "ward": "Ethraj Nagar",
            "street": "34, GANDHI MARKET",
            "city": "Ariyalur",
            "postal_code": "621704",
            "state": "Tamil Nadu",
            "country_code": "IN"
        },
        "images": [],
        "link": "https://www.google.com/maps/place/Town+palli/data=!4m7!3m6!1s0x3baadfd45cfa066f:0xc306b0a5e6aec3bb!8m2!3d11.1393279!4d79.0723434!16s%2Fg%2F11rcpybr_x!19sChIJbwb6XNTfqjsRu8Ou5qWwBsM?authuser=0&hl=en&rclk=1",
        "coordinates": {
            "latitude": 11.1393279,
            "longitude": 79.0723434
        }
    }
]