[
    {
        "name": "Jama Masjid",
        "main_category": "Mosque",
        "address": "6FR9+4MV Jama Masjid, N - South Corridor, Babina, Uttar Pradesh 284401",
        "detailed_address": {
            "ward": null,
            "street": "6FR9+4MV, N - South Corridor",
            "city": "Babina",
            "postal_code": "284401",
            "state": "Uttar Pradesh",
            "country_code": "IN"
        },
        "images": [
            {
                "about": "All",
                "link": "https://streetviewpixels-pa.googleapis.com/v1/thumbnail?panoid=kURUlVFlNvXMfCardA-qYw&cb_client=maps_sv.tactile.gps&w=224&h=298&yaw=269.12326&pitch=0&thumbfov=100"
            },
            {
                "about": "Street View & 360deg",
                "link": "https://streetviewpixels-pa.googleapis.com/v1/thumbnail?panoid=kURUlVFlNvXMfCardA-qYw&cb_client=maps_sv.tactile.gps&w=224&h=298&yaw=269.12326&pitch=0&thumbfov=100"
            }
        ],
        "link": "https://www.google.com/maps/place/Jama+Masjid/data=!4m7!3m6!1s0x397762cea1f0accd:0xd6ee07b7569ac8f2!8m2!3d25.2403533!4d78.4691781!16s%2Fg%2F1q69qrpvh!19sChIJzazwoc5idzkR8siaVrcH7tY?authuser=0&hl=en&rclk=1",
        "coordinates": {
            "latitude": 25.2403533,
            "longitude": 78.4691781
        }
    },
    {
        "name": "Masjid",
        "main_category": "Mosque",
        "address": "6FQ3+G79 Masjid, Babina, Uttar Pradesh 284401",
        "detailed_address": {
            "ward": null,
            "street": "6FQ3+G79",
            "city": "Babina",
            "postal_code": "284401",
            "state": "Uttar Pradesh",
            "country_code": "IN"
        },
        "images": [],
        "link": "https://www.google.com/maps/place/Masjid/data=!4m7!3m6!1s0x3977630e2ca52d21:0x917832b0ec438eb8!8m2!3d25.2387984!4d78.4532214!16s%2Fg%2F11j909k3hb!19sChIJIS2lLA5jdzkRuI5D7LAyeJE?authuser=0&hl=en&rclk=1",
        "coordinates": {
            "latitude": 25.2387984,
            "longitude": 78.45322139999999
        }
    },
    {
        "name": "Bilal Masjid",
        "main_category": "Mosque",
        "address": "6FQC+H6M Bilal Masjid, Babina, Uttar Pradesh 284401",
        "detailed_address": {
            "ward": null,
            "street": "6FQC+H6M",
            "city": "Babina",
            "postal_code": "284401",
            "state": "Uttar Pradesh",
            "country_code": "IN"
        },
        "images": [],
        "link": "https://www.google.com/maps/place/Bilal+Masjid/data=!4m7!3m6!1s0x397762cbf6164f87:0x26980dee1d5cccbb!8m2!3d25.2389559!4d78.4705395!16s%2Fg%2F11dx904b_g!19sChIJh08W9stidzkRu8xcHe4NmCY?authuser=0&hl=en&rclk=1",
        "coordinates": {
            "latitude": 25.2389559,
            "longitude": 78.4705395
        }
    },
    {
        "name": "Gausiya Masjid, Shastrinagar",
        "main_category": "Mosque",
        "address": "6FJG+54P Gausiya Masjid, Shastrinagar, Shastri Nagar, Babina, Babina Rural, Uttar Pradesh 284401",
        "detailed_address": {
            "ward": "Shastri Nagar",
            "street": "6FJG+54P",
            "city": "Babina, Babina Rural",
            "postal_code": "284401",
            "state": "Uttar Pradesh",
            "country_code": "IN"
        },
        "images": [],
        "link": "https://www.google.com/maps/place/Gausiya+Masjid,+Shastrinagar/data=!4m7!3m6!1s0x39777de258432f6b:0x11366a740ea64a60!8m2!3d25.2304612!4d78.4753136!16s%2Fg%2F11hzy8nsc4!19sChIJay9DWOJ9dzkRYEqmDnRqNhE?authuser=0&hl=en&rclk=1",
        "coordinates": {
            "latitude": 25.2304612,
            "longitude": 78.47531359999999
        }
    },
    {
        "name": "Eid gaah",
        "main_category": "Mosque",
        "address": "7F3H+MP2 Eid gaah, Babina Rd, Babina, Rasoi, Uttar Pradesh 284401",
        "detailed_address": {
            "ward": null,
            "street": "7F3H+MP2, Babina Rd",
            "city": "Babina, Rasoi",
            "postal_code": "284401",
            "state": "Uttar Pradesh",
            "country_code": "IN"
        },
        "images": [
            {
                "about": "All",
                "link": "https://streetviewpixels-pa.googleapis.com/v1/thumbnail?panoid=YtIgR9gOytEpL5wIRsLAqw&cb_client=maps_sv.tactile.gps&w=224&h=298&yaw=283.181&pitch=0&thumbfov=100"
            },
            {
                "about": "Street View & 360deg",
                "link": "https://streetviewpixels-pa.googleapis.com/v1/thumbnail?panoid=YtIgR9gOytEpL5wIRsLAqw&cb_client=maps_sv.tactile.gps&w=224&h=298&yaw=283.181&pitch=0&thumbfov=100"
            }
        ],
        "link": "https://www.google.com/maps/place/Eid+gaah/data=!4m7!3m6!1s0x39777d3980c63a03:0xea809a00c78c177e!8m2!3d25.2541314!4d78.4792789!16s%2Fg%2F11fn4c4gp2!19sChIJAzrGgDl9dzkRfheMxwCagOo?authuser=0&hl=en&rclk=1",
        "coordinates": {
            "latitude": 25.2541314,
            "longitude": 78.4792789
        }
    },
    {
        "name": "Huzur sahab mazar(station wale baba)",
        "main_category": "Mosque",
        "address": "6FQ5+4WF Huzur sahab mazar(station wale baba), Babina Station Rd, Babina, Uttar Pradesh 284401",
        "detailed_address": {
            "ward": null,
            "street": "6FQ5+4WF, Babina Station Rd",
            "city": "Babina",
            "postal_code": "284401",
            "state": "Uttar Pradesh",
            "country_code": "IN"
        },
        "images": [],
        "link": "https://www.google.com/maps/place/Huzur+sahab+mazar%28station+wale+baba%29/data=!4m7!3m6!1s0x397763b6339c32bd:0xaccd52061aef82d3!8m2!3d25.2378121!4d78.4598077!16s%2Fg%2F11flg27p30!19sChIJvTKcM7ZjdzkR04LvGgZSzaw?authuser=0&hl=en&rclk=1",
        "coordinates": {
            "latitude": 25.2378121,
            "longitude": 78.4598077
        }
    }
]