[
    {
        "name": "Khalila Bad Masjid",
        "main_category": "Mosque",
        "address": "Khalila Bad Masjid, Khalila Bad, Araria, Bihar 854311",
        "detailed_address": {
            "ward": "Khalila Bad",
            "street": null,
            "city": "Araria",
            "postal_code": "854311",
            "state": "Bihar",
            "country_code": "IN"
        },
        "images": [
            {
                "about": "All",
                "link": "https://lh5.googleusercontent.com/p/AF1QipOw2o5TxtIz9R1wVnHVHBds90UIs_My55bOFGon=w529-h298-k-no"
            },
            {
                "about": "By owner",
                "link": "https://lh5.googleusercontent.com/p/AF1QipNCJiNtdcTdQdetmPfe_dSDzyBXLxXPqb3TVqOc=w224-h398-k-no"
            },
            {
                "about": "Videos",
                "link": "https://lh5.googleusercontent.com/p/AF1QipPkG35FmkGPRnVqG4Yn3VtHbb7REuK-3ktSAsjv=w224-h398-k-no"
            },
            {
                "about": "Street View & 360deg",
                "link": "https://streetviewpixels-pa.googleapis.com/v1/thumbnail?panoid=oG2c6n97S6ner7B9QNMUzA&cb_client=maps_sv.tactile.gps&w=224&h=298&yaw=331.39252&pitch=0&thumbfov=100"
            }
        ],
        "link": "https://www.google.com/maps/place/Khalila+Bad+Masjid/data=!4m7!3m6!1s0x39ef89442b881401:0x5af22ae75b091d90!8m2!3d26.1307426!4d87.4705948!16s%2Fg%2F11cm07dplk!19sChIJARSIK0SJ7zkRkB0JW-cq8lo?authuser=0&hl=en&rclk=1",
        "coordinates": {
            "latitude": 26.130742599999998,
            "longitude": 87.4705948
        }
    },
    {
        "name": "Yateem Khana Masjid",
        "main_category": "Mosque",
        "address": "4FG9+X8G Yateem Khana Masjid, Azad Nagar, Purandaha, Araria, Bihar 854311",
        "detailed_address": {
            "ward": "Azad Nagar",
            "street": "4FG9+X8G",
            "city": "Purandaha, Araria",
            "postal_code": "854311",
            "state": "Bihar",
            "country_code": "IN"
        },
        "images": [
            {
                "about": "All",
                "link": "https://lh5.googleusercontent.com/p/AF1QipNxqVELrXzlwy0cmiZib9j1LawNwZPR9Ye4u7SV=w529-h298-k-no"
            },
            {
                "about": "Dome",
                "link": "https://lh5.googleusercontent.com/p/AF1QipM0BBBTqDj-q72_l-e70MAVNM9PmfD9XzyHb9n6=w529-h298-k-no"
            },
            {
                "about": "Videos",
                "link": "https://lh5.googleusercontent.com/p/AF1QipNfp8HMiF4reaIv0oRw4htdYQ7jzamrfL4POE1n=w224-h407-k-no"
            },
            {
                "about": "Street View & 360deg",
                "link": "https://streetviewpixels-pa.googleapis.com/v1/thumbnail?panoid=x7dHDro6fcRx6WUoDx-51A&cb_client=maps_sv.tactile.gps&w=224&h=298&yaw=233.6212&pitch=0&thumbfov=100"
            }
        ],
        "link": "https://www.google.com/maps/place/Yateem+Khana+Masjid/data=!4m7!3m6!1s0x39ef894fb73f4813:0x3c3884cc3edfe148!8m2!3d26.127427!4d87.4683417!16s%2Fg%2F11csrcxjm8!19sChIJE0g_t0-J7zkRSOHfPsyEODw?authuser=0&hl=en&rclk=1",
        "coordinates": {
            "latitude": 26.127426999999997,
            "longitude": 87.4683417
        }
    },
    {
        "name": "Madni Masjid",
        "main_category": "Mosque",
        "address": "4FGF+7JW Madni Masjid, Sir Sayyed Colony, Islam Nagar, Millat Nagar, Araria, Bihar 854311",
        "detailed_address": {
            "ward": "Islam Nagar, Millat Nagar",
            "street": "4FGF+7JW, Sir Sayyed Colony",
            "city": "Araria",
            "postal_code": "854311",
            "state": "Bihar",
            "country_code": "IN"
        },
        "images": [
            {
                "about": "All",
                "link": "https://lh5.googleusercontent.com/p/AF1QipN9fVIaYNwRsHeh5bAcaANIw-8AYu3Q4csLjbj4=w397-h298-k-no"
            }
        ],
        "link": "https://www.google.com/maps/place/Madni+Masjid/data=!4m7!3m6!1s0x39ef8944b548d885:0x5913031c6936c198!8m2!3d26.1257372!4d87.4740878!16s%2Fg%2F11c604934m!19sChIJhdhItUSJ7zkRmME2aRwDE1k?authuser=0&hl=en&rclk=1",
        "coordinates": {
            "latitude": 26.1257372,
            "longitude": 87.47408779999999
        }
    },
    {
        "name": "Jama Masjid",
        "main_category": "Mosque",
        "address": "4FM9+8HM Jama Masjid, Jama Masjid Road, Gachhi Tola Rd, PHED Colony, Araria, Bihar 854311",
        "detailed_address": {
            "ward": "Gachi Tola, PHED Colony",
            "street": "4FM9+8HM, Jama Masjid Road, Gachhi Tola Rd",
            "city": "Araria",
            "postal_code": "854311",
            "state": "Bihar",
            "country_code": "IN"
        },
        "images": [
            {
                "about": "All",
                "link": "https://lh5.googleusercontent.com/p/AF1QipNuaGOJ_Uqj1v2ULmVzWUI3IFA2ZLdNJoBYxosB=w224-h298-k-no"
            },
            {
                "about": "Videos",
                "link": "https://lh5.googleusercontent.com/p/AF1QipPpatCwON-mDFsIjAug3YfNWVMNswDCJkpisde6=w518-h298-k-no"
            }
        ],
        "link": "https://www.google.com/maps/place/Jama+Masjid/data=!4m7!3m6!1s0x39ef8948956a7525:0xe864a42a8b59887c!8m2!3d26.1333441!4d87.4689294!16s%2Fg%2F1hhxnpbss!19sChIJJXVqlUiJ7zkRfIhZiyqkZOg?authuser=0&hl=en&rclk=1",
        "coordinates": {
            "latitude": 26.1333441,
            "longitude": 87.4689294
        }
    },
    {
        "name": "Rahika Tola",
        "main_category": "Mosque",
        "address": "4FJ7+W2X Rahika Tola, PHED Colony, Araria, Bihar 854311",
        "detailed_address": {
            "ward": "Rahika Tola, PHED Colony",
            "street": "4FJ7+W2X",
            "city": "Araria",
            "postal_code": "854311",
            "state": "Bihar",
            "country_code": "IN"
        },
        "images": [
            {
                "about": "All",
                "link": "https://lh5.googleusercontent.com/p/AF1QipNqxGFv2BpxtFfy0Do6XAP6LxDeFyV-iyzzxZLQ=w224-h298-k-no"
            },
            {
                "about": "Videos",
                "link": "https://lh5.googleusercontent.com/p/AF1QipO7styu2iO1tQkgf6YKbGJSZ5ehe9dwUhi06urU=w224-h398-k-no"
            }
        ],
        "link": "https://www.google.com/maps/place/Rahika+Tola/data=!4m7!3m6!1s0x39ef894b76df31eb:0x1bb9d5832adc81ad!8m2!3d26.1323689!4d87.4626236!16s%2Fg%2F126390by7!19sChIJ6zHfdkuJ7zkRrYHcKoPVuRs?authuser=0&hl=en&rclk=1",
        "coordinates": {
            "latitude": 26.1323689,
            "longitude": 87.4626236
        }
    },
    {
        "name": "Meer Masjid",
        "main_category": "Mosque",
        "address": "4FHF+G6C Meer Masjid, Tasleemuddin Rd, Kakorwa Basti, Millat Nagar, Araria, Bihar 854311",
        "detailed_address": {
            "ward": "Kakorwa Basti, Millat Nagar",
            "street": "4FHF+G6C, Tasleemuddin Rd",
            "city": "Araria",
            "postal_code": "854311",
            "state": "Bihar",
            "country_code": "IN"
        },
        "images": [
            {
                "about": "All",
                "link": "https://lh5.googleusercontent.com/p/AF1QipOE_TkMGXsfnFnDy27Imra0a69h6xzSf6v2rpR_=w438-h298-k-no"
            },
            {
                "about": "Street View & 360deg",
                "link": "https://streetviewpixels-pa.googleapis.com/v1/thumbnail?panoid=NLIkOpkqr_ESUVRabTgPVw&cb_client=maps_sv.tactile.gps&w=224&h=298&yaw=323.36154&pitch=0&thumbfov=100"
            }
        ],
        "link": "https://www.google.com/maps/place/Meer+Masjid/data=!4m7!3m6!1s0x39ef89445595aabb:0xf1eb4340d33c6bb!8m2!3d26.1288031!4d87.4730045!16s%2Fg%2F11cm16s566!19sChIJu6qVVUSJ7zkRu8YzDTS0Hg8?authuser=0&hl=en&rclk=1",
        "coordinates": {
            "latitude": 26.1288031,
            "longitude": 87.4730045
        }
    },
    {
        "name": "Masjid-e-Hera",
        "main_category": "Mosque",
        "address": "4F6G+X38 Masjid-e-Hera, Sisauna, Araria, Bihar 854311",
        "detailed_address": {
            "ward": null,
            "street": "4F6G+X38",
            "city": "Sisauna, Araria",
            "postal_code": "854311",
            "state": "Bihar",
            "country_code": "IN"
        },
        "images": [],
        "link": "https://www.google.com/maps/place/Masjid-e-Hera/data=!4m7!3m6!1s0x39ef8be22013d38f:0xe4db8250a6d8c496!8m2!3d26.1124243!4d87.4751986!16s%2Fg%2F11c4bc318h!19sChIJj9MTIOKL7zkRlsTYplCC2-Q?authuser=0&hl=en&rclk=1",
        "coordinates": {
            "latitude": 26.112424299999997,
            "longitude": 87.4751986
        }
    },
    {
        "name": "Rahmani Masjid",
        "main_category": "Mosque",
        "address": "Rahmani Masjid, Shop No-01,Sisauna, Bazar Road, near of Rahmani Masjid, Zero Mile, Araria, Bihar 854311",
        "detailed_address": {
            "ward": "Zero Mile",
            "street": "Shop No-01,Sisauna, Bazar Road, near of Rahmani Masjid",
            "city": "Araria",
            "postal_code": "854311",
            "state": "Bihar",
            "country_code": "IN"
        },
        "images": [
            {
                "about": "All",
                "link": "https://lh5.googleusercontent.com/p/AF1QipPQlszEay6dJY0wnJ7VW3LxXTJ4uGnkVBl9mnp7=w397-h298-k-no"
            },
            {
                "about": "Street View & 360deg",
                "link": "https://streetviewpixels-pa.googleapis.com/v1/thumbnail?panoid=zGtgQGnRULg8zkKbNo8uoA&cb_client=maps_sv.tactile.gps&w=224&h=298&yaw=324.9501&pitch=0&thumbfov=100"
            }
        ],
        "link": "https://www.google.com/maps/place/Rahmani+Masjid/data=!4m7!3m6!1s0x39ef8950994bf925:0x657f07fb23553fa1!8m2!3d26.1217081!4d87.4701797!16s%2Fg%2F11c2k6fppz!19sChIJJflLmVCJ7zkRoT9VI_sHf2U?authuser=0&hl=en&rclk=1",
        "coordinates": {
            "latitude": 26.1217081,
            "longitude": 87.4701797
        }
    },
    {
        "name": "Chowk Wali Jama Masjid",
        "main_category": "Mosque",
        "address": "4FW5+5P3 Chowk Wali Jama Masjid, Kharahiya Basti, Araria, Bihar 854311",
        "detailed_address": {
            "ward": "Kharahiya Basti",
            "street": "4FW5+5P3",
            "city": "Araria",
            "postal_code": "854311",
            "state": "Bihar",
            "country_code": "IN"
        },
        "images": [
            {
                "about": "All",
                "link": "https://lh5.googleusercontent.com/p/AF1QipOBiQj-6eBFMGIetw5wIX0_lZ-FcZI0jDc01lBI=w224-h298-k-no"
            },
            {
                "about": "Street View & 360deg",
                "link": "https://streetviewpixels-pa.googleapis.com/v1/thumbnail?panoid=gQOgnzNdWoMDRLpqhD-UAg&cb_client=maps_sv.tactile.gps&w=224&h=298&yaw=268.4014&pitch=0&thumbfov=100"
            }
        ],
        "link": "https://www.google.com/maps/place/Chowk+Wali+Jama+Masjid/data=!4m7!3m6!1s0x39ef8eccc2d50201:0x4aaa9705c5594898!8m2!3d26.1453926!4d87.4593037!16s%2Fg%2F11c74xv5rw!19sChIJAQLVwsyO7zkRmEhZxQWXqko?authuser=0&hl=en&rclk=1",
        "coordinates": {
            "latitude": 26.145392599999997,
            "longitude": 87.45930369999999
        }
    },
    {
        "name": "Rahmani Masjid",
        "main_category": "Mosque",
        "address": "4FH6+HR7 Rahmani Masjid, Azad Nagar Rd, Azad Nagar, Araria, Bihar 854311",
        "detailed_address": {
            "ward": "Azad Nagar",
            "street": "4FH6+HR7, Azad Nagar Rd",
            "city": "Araria",
            "postal_code": "854311",
            "state": "Bihar",
            "country_code": "IN"
        },
        "images": [
            {
                "about": "All",
                "link": "https://streetviewpixels-pa.googleapis.com/v1/thumbnail?panoid=uK-1gwqrM212q74UVq58hA&cb_client=maps_sv.tactile.gps&w=224&h=298&yaw=112.254944&pitch=0&thumbfov=100"
            },
            {
                "about": "Street View & 360deg",
                "link": "https://streetviewpixels-pa.googleapis.com/v1/thumbnail?panoid=uK-1gwqrM212q74UVq58hA&cb_client=maps_sv.tactile.gps&w=224&h=298&yaw=112.254944&pitch=0&thumbfov=100"
            }
        ],
        "link": "https://www.google.com/maps/place/Rahmani+Masjid/data=!4m7!3m6!1s0x39ef894ce6c64647:0x8e4c7f09cf40cf0a!8m2!3d26.1289239!4d87.4620499!16s%2Fg%2F1pxwdzyx_!19sChIJR0bG5kyJ7zkRCs9Azwl_TI4?authuser=0&hl=en&rclk=1",
        "coordinates": {
            "latitude": 26.1289239,
            "longitude": 87.4620499
        }
    },
    {
        "name": "Masjid",
        "main_category": "Mosque",
        "address": "Masjid, NH27, Araria - Jokihat Rd, Sisauna, Bihar 854311",
        "detailed_address": {
            "ward": null,
            "street": "NH27, Araria - Jokihat Rd",
            "city": "Sisauna",
            "postal_code": "854311",
            "state": "Bihar",
            "country_code": "IN"
        },
        "images": [
            {
                "about": "All",
                "link": "https://lh5.googleusercontent.com/p/AF1QipMJSoGOQxjKER7161r248vEWhRjYU0dkxTBZN36=w224-h298-k-no"
            },
            {
                "about": "Street View & 360deg",
                "link": "https://streetviewpixels-pa.googleapis.com/v1/thumbnail?panoid=MZn_DkFtgNd9A-QR_eEmYg&cb_client=maps_sv.tactile.gps&w=224&h=298&yaw=15.147984&pitch=0&thumbfov=100"
            }
        ],
        "link": "https://www.google.com/maps/place/Masjid/data=!4m7!3m6!1s0x39ef8eb2a107a713:0x867c0c0e2f45d171!8m2!3d26.1162055!4d87.4688385!16s%2Fg%2F11dxrr5qjy!19sChIJE6cHobKO7zkRcdFFLw4MfIY?authuser=0&hl=en&rclk=1",
        "coordinates": {
            "latitude": 26.1162055,
            "longitude": 87.46883849999999
        }
    },
    {
        "name": "Azad Acadmy Masjid",
        "main_category": "Mosque",
        "address": "4FH8+5C4 Azad Acadmy Masjid, Azad Nagar, Araria, Bihar 854311",
        "detailed_address": {
            "ward": "Azad Nagar",
            "street": "4FH8+5C4",
            "city": "Araria",
            "postal_code": "854311",
            "state": "Bihar",
            "country_code": "IN"
        },
        "images": [
            {
                "about": "All",
                "link": "https://lh5.googleusercontent.com/p/AF1QipNV-n7WO01gggA0L-qW7QFM-EqiV1oDXyl-gUD8=w397-h298-k-no"
            },
            {
                "about": "Videos",
                "link": "https://lh5.googleusercontent.com/p/AF1QipN_spfkT5F28SjLiDV2J5N7qJcJJQPmxptnq6DA=w224-h448-k-no"
            }
        ],
        "link": "https://www.google.com/maps/place/Azad+Acadmy+Masjid/data=!4m7!3m6!1s0x39ef894e7b684889:0xc505f91c37501898!8m2!3d26.1278947!4d87.4660833!16s%2Fg%2F1pzs29bq4!19sChIJiUhoe06J7zkRmBhQNxz5BcU?authuser=0&hl=en&rclk=1",
        "coordinates": {
            "latitude": 26.1278947,
            "longitude": 87.4660833
        }
    },
    {
        "name": "Hussenia Masjid",
        "main_category": "Mosque",
        "address": "4CP7+GG5 Hussenia Masjid, Dropped pin near, Araria RS, Araria, Bihar 854312",
        "detailed_address": {
            "ward": "Araria RS",
            "street": "4CP7+GG5, Dropped pin near",
            "city": "Araria",
            "postal_code": "854312",
            "state": "Bihar",
            "country_code": "IN"
        },
        "images": [
            {
                "about": "All",
                "link": "https://lh5.googleusercontent.com/p/AF1QipPWaqyAhq5UQorZg8QZYcJd2xK8J4uETXVdCOJA=w397-h298-k-no"
            }
        ],
        "link": "https://www.google.com/maps/place/Hussenia+Masjid/data=!4m7!3m6!1s0x39ef8e677ce49607:0x7539dc905eda17a8!8m2!3d26.1362547!4d87.4138712!16s%2Fg%2F11hbjh8jn1!19sChIJB5bkfGeO7zkRqBfaXpDcOXU?authuser=0&hl=en&rclk=1",
        "coordinates": {
            "latitude": 26.1362547,
            "longitude": 87.4138712
        }
    },
    {
        "name": "Abubakar Jama Masjid Araria RS",
        "main_category": "Mosque",
        "address": "4CM7+V9W Abubakar Jama Masjid Araria RS, Araria RS, Majkuri, Araria, Bihar 854312",
        "detailed_address": {
            "ward": "Araria RS",
            "street": "4CM7+V9W",
            "city": "Majkuri, Araria",
            "postal_code": "854312",
            "state": "Bihar",
            "country_code": "IN"
        },
        "images": [
            {
                "about": "All",
                "link": "https://lh5.googleusercontent.com/p/AF1QipMbQ9EJAcgkJRPBUOvZaqwL1nt-ph3yvDLZsYuv=w224-h398-k-no"
            },
            {
                "about": "Dome",
                "link": "https://lh5.googleusercontent.com/p/AF1QipM5KC2UhvKUaM6XUd5hcdKFHDvgWjOeclwOda89=w224-h361-k-no"
            },
            {
                "about": "Street View & 360deg",
                "link": "https://streetviewpixels-pa.googleapis.com/v1/thumbnail?panoid=qzdE8nTsDlbrJgz0vUQnmg&cb_client=maps_sv.tactile.gps&w=224&h=298&yaw=181.41791&pitch=0&thumbfov=100"
            }
        ],
        "link": "https://www.google.com/maps/place/Abubakar+Jama+Masjid+Araria+RS/data=!4m7!3m6!1s0x39ef8e670a4b3ef3:0x768b33d3da838208!8m2!3d26.134736!4d87.4134654!16s%2Fg%2F1ptzd3_57!19sChIJ8z5LCmeO7zkRCIKD2tMzi3Y?authuser=0&hl=en&rclk=1",
        "coordinates": {
            "latitude": 26.134736,
            "longitude": 87.41346539999999
        }
    },
    {
        "name": "Masjid Araria R.S",
        "main_category": "Mosque",
        "address": "4CJ4+WFC Masjid Araria R.S, Araria, Bihar 854312",
        "detailed_address": {
            "ward": null,
            "street": "4CJ4+WFC",
            "city": "Araria",
            "postal_code": "854312",
            "state": "Bihar",
            "country_code": "IN"
        },
        "images": [
            {
                "about": "All",
                "link": "https://lh5.googleusercontent.com/p/AF1QipNlt1SMv-hchio1bI7ipnPrj_DAh9DkpPJ8V2cH=w529-h298-k-no"
            }
        ],
        "link": "https://www.google.com/maps/place/Masjid+Araria+R.S/data=!4m7!3m6!1s0x39ef8e696157ce85:0xaaf40bcdc919a718!8m2!3d26.1323212!4d87.4061522!16s%2Fg%2F11c702r442!19sChIJhc5XYWmO7zkRGKcZyc0L9Ko?authuser=0&hl=en&rclk=1",
        "coordinates": {
            "latitude": 26.1323212,
            "longitude": 87.4061522
        }
    },
    {
        "name": "Nijam-e-Masjid",
        "main_category": "Mosque",
        "address": "4FJ8+JC5 Nijam-e-Masjid, Rahika Tola, PHED Colony, Araria, Bihar 854311",
        "detailed_address": {
            "ward": "Rahika Tola, PHED Colony",
            "street": "4FJ8+JC5",
            "city": "Araria",
            "postal_code": "854311",
            "state": "Bihar",
            "country_code": "IN"
        },
        "images": [
            {
                "about": "All",
                "link": "https://lh5.googleusercontent.com/p/AF1QipO7PTyCenCk9UB9zQmrLPI9wJAvSq0T164aXWgU=w224-h398-k-no"
            },
            {
                "about": "Videos",
                "link": "https://lh5.googleusercontent.com/p/AF1QipO7PTyCenCk9UB9zQmrLPI9wJAvSq0T164aXWgU=w224-h398-k-no"
            }
        ],
        "link": "https://www.google.com/maps/place/Nijam-e-Masjid/data=!4m7!3m6!1s0x39ef89494cc92dcd:0x456487811ab7f45!8m2!3d26.1315208!4d87.4661143!16s%2Fg%2F11f1khl8dt!19sChIJzS3JTEmJ7zkRRX-rEXhIVgQ?authuser=0&hl=en&rclk=1",
        "coordinates": {
            "latitude": 26.1315208,
            "longitude": 87.4661143
        }
    },
    {
        "name": "Jama Masjid",
        "main_category": "Mosque",
        "address": "Jama Masjid, Kharahiya Basti, Araria, Bihar 854311",
        "detailed_address": {
            "ward": "Kharahiya Basti",
            "street": "Jama Masjid",
            "city": "Araria",
            "postal_code": "854311",
            "state": "Bihar",
            "country_code": "IN"
        },
        "images": [
            {
                "about": "All",
                "link": "https://streetviewpixels-pa.googleapis.com/v1/thumbnail?panoid=iBaow_FnAnnZl2-yr07Ysg&cb_client=maps_sv.tactile.gps&w=224&h=298&yaw=300.49707&pitch=0&thumbfov=100"
            },
            {
                "about": "Street View & 360deg",
                "link": "https://streetviewpixels-pa.googleapis.com/v1/thumbnail?panoid=iBaow_FnAnnZl2-yr07Ysg&cb_client=maps_sv.tactile.gps&w=224&h=298&yaw=300.49707&pitch=0&thumbfov=100"
            },
            {
                "about": "Videos",
                "link": "https://lh5.googleusercontent.com/p/AF1QipMU96Dfp0TYzJMCnaVR-praCVvkm9BEoWfaJL1f=w224-h398-k-no"
            }
        ],
        "link": "https://www.google.com/maps/place/Jama+Masjid/data=!4m7!3m6!1s0x39ef8ecd598861f7:0x217b1a6cf71f4ece!8m2!3d26.1487833!4d87.459664!16s%2Fg%2F11gfgcc0xr!19sChIJ92GIWc2O7zkRzk4f92waeyE?authuser=0&hl=en&rclk=1",
        "coordinates": {
            "latitude": 26.148783299999998,
            "longitude": 87.45966399999999
        }
    },
    {
        "name": "Taquwa Masjid",
        "main_category": "Mosque",
        "address": "4FC9+5H5 Taquwa Masjid, Sisauna, Araria, Bihar 854311",
        "detailed_address": {
            "ward": null,
            "street": "4FC9+5H5",
            "city": "Sisauna, Araria",
            "postal_code": "854311",
            "state": "Bihar",
            "country_code": "IN"
        },
        "images": [
            {
                "about": "All",
                "link": "https://streetviewpixels-pa.googleapis.com/v1/thumbnail?panoid=40Yojl7_qKRdOlOgaw_IRw&cb_client=maps_sv.tactile.gps&w=224&h=298&yaw=262.1892&pitch=0&thumbfov=100"
            },
            {
                "about": "Street View & 360deg",
                "link": "https://streetviewpixels-pa.googleapis.com/v1/thumbnail?panoid=40Yojl7_qKRdOlOgaw_IRw&cb_client=maps_sv.tactile.gps&w=224&h=298&yaw=262.1892&pitch=0&thumbfov=100"
            }
        ],
        "link": "https://www.google.com/maps/place/Taquwa+Masjid/data=!4m7!3m6!1s0x39ef8950c7f8da11:0x76ade26ee3cc7632!8m2!3d26.1203983!4d87.4689819!16s%2Fg%2F11c6s44d73!19sChIJEdr4x1CJ7zkRMnbM427irXY?authuser=0&hl=en&rclk=1",
        "coordinates": {
            "latitude": 26.120398299999998,
            "longitude": 87.4689819
        }
    },
    {
        "name": "Jama Masjid",
        "main_category": "Mosque",
        "address": "Ward no, Jama Masjid, 18, Raniganj Rd, Ward Number 18, PHED Colony, Araria, Bihar 854311",
        "detailed_address": {
            "ward": "Ward Number 18, PHED Colony",
            "street": "Ward no, 18, Raniganj Rd",
            "city": "Araria",
            "postal_code": "854311",
            "state": "Bihar",
            "country_code": "IN"
        },
        "images": [
            {
                "about": "All",
                "link": "https://lh5.googleusercontent.com/p/AF1QipMrhw9Xb4AF61Ag9ESIYCFlHwdn6lY_ZsXfuJYJ=w224-h497-k-no"
            },
            {
                "about": "Street View & 360deg",
                "link": "https://streetviewpixels-pa.googleapis.com/v1/thumbnail?panoid=-tw7LDkhu98urrzi1_Iqiw&cb_client=maps_sv.tactile.gps&w=224&h=298&yaw=206.10435&pitch=0&thumbfov=100"
            },
            {
                "about": "Videos",
                "link": "https://lh5.googleusercontent.com/p/AF1QipN8-lPuJiqwOweQNdI7gHi9G8u2Yf-OdQIyQc6N=w529-h298-k-no"
            }
        ],
        "link": "https://www.google.com/maps/place/Jama+Masjid/data=!4m7!3m6!1s0x39ef8f7da4455de3:0x5f4a320006a40061!8m2!3d26.1257081!4d87.4592906!16s%2Fg%2F11lkfm8cj2!19sChIJ411FpH2P7zkRYQCkBgAySl8?authuser=0&hl=en&rclk=1",
        "coordinates": {
            "latitude": 26.125708099999997,
            "longitude": 87.4592906
        }
    },
    {
        "name": "Masjid-e-quba",
        "main_category": "Mosque",
        "address": "Masjid-e-quba, PHED Colony, Araria, Bihar 854311",
        "detailed_address": {
            "ward": "PHED Colony",
            "street": null,
            "city": "Araria",
            "postal_code": "854311",
            "state": "Bihar",
            "country_code": "IN"
        },
        "images": [
            {
                "about": "All",
                "link": "https://lh5.googleusercontent.com/p/AF1QipOLnc0_hanQY4OXDHJ9n3478KRmgEmp43yO0QB_=w397-h298-k-no"
            },
            {
                "about": "Street View & 360deg",
                "link": "https://streetviewpixels-pa.googleapis.com/v1/thumbnail?panoid=ZrdvB1o7OdEuph1ZPcSE-A&cb_client=maps_sv.tactile.gps&w=224&h=298&yaw=116.316246&pitch=0&thumbfov=100"
            }
        ],
        "link": "https://www.google.com/maps/place/Masjid-e-quba/data=!4m7!3m6!1s0x39ef89ba9560cc3f:0x1a1852519f2eb9a3!8m2!3d26.1303419!4d87.4638698!16s%2Fg%2F11h1jsqm3h!19sChIJP8xglbqJ7zkRo7kun1FSGBo?authuser=0&hl=en&rclk=1",
        "coordinates": {
            "latitude": 26.130341899999998,
            "longitude": 87.4638698
        }
    },
    {
        "name": "Masjid",
        "main_category": "Mosque",
        "address": "4CJW+F62 Masjid, Araria Mahalla, Araria, Bihar 854312",
        "detailed_address": {
            "ward": "Araria Mahalla",
            "street": "4CJW+F62",
            "city": "Araria",
            "postal_code": "854312",
            "state": "Bihar",
            "country_code": "IN"
        },
        "images": [
            {
                "about": "All",
                "link": "https://lh5.googleusercontent.com/p/AF1QipM4mgUCZ-rWXpiVtDZDdSEuEQXdxodV_HJ5GSVp=w415-h298-k-no"
            },
            {
                "about": "Dome",
                "link": "https://lh5.googleusercontent.com/p/AF1QipM4mgUCZ-rWXpiVtDZDdSEuEQXdxodV_HJ5GSVp=w415-h298-k-no"
            }
        ],
        "link": "https://www.google.com/maps/place/Masjid/data=!4m7!3m6!1s0x39ef8eb955555555:0x3a242fc6b002e9f3!8m2!3d26.1311367!4d87.4455026!16s%2Fg%2F11fyv5zlfq!19sChIJVVVVVbmO7zkR8-kCsMYvJDo?authuser=0&hl=en&rclk=1",
        "coordinates": {
            "latitude": 26.1311367,
            "longitude": 87.4455026
        }
    },
    {
        "name": "New Masjid",
        "main_category": "Mosque",
        "address": "4F8G+M68 New Masjid, SH63, Sisauna, Araria, Bihar 854311",
        "detailed_address": {
            "ward": null,
            "street": "4F8G+M68, SH63",
            "city": "Sisauna, Araria",
            "postal_code": "854311",
            "state": "Bihar",
            "country_code": "IN"
        },
        "images": [
            {
                "about": "All",
                "link": "https://lh5.googleusercontent.com/p/AF1QipPKKguYUsxHcheCA7uAbk3ZBthrR5Ao9g_kN5if=w224-h298-k-no"
            },
            {
                "about": "Videos",
                "link": "https://lh5.googleusercontent.com/p/AF1QipMXA_RExQSbE3M-Fv0orBGPff76QCfnByEWkb5I=w224-h398-k-no"
            }
        ],
        "link": "https://www.google.com/maps/place/New+Masjid/data=!4m7!3m6!1s0x39ef89bf49aa488f:0xaebc6a06f28786a7!8m2!3d26.1166738!4d87.4755924!16s%2Fg%2F11fmpbh_tp!19sChIJj0iqSb-J7zkRp4aH8gZqvK4?authuser=0&hl=en&rclk=1",
        "coordinates": {
            "latitude": 26.116673799999997,
            "longitude": 87.4755924
        }
    },
    {
        "name": "Tayyiba masjid",
        "main_category": "Mosque",
        "address": "4FFG+M6M Tayyiba masjid, Millat Nagar, KOSI KINARE, Araria, Bihar 854311",
        "detailed_address": {
            "ward": "Millat Nagar",
            "street": "4FFG+M6M",
            "city": "KOSI KINARE, Araria",
            "postal_code": null,
            "state": "Bihar",
            "country_code": "IN"
        },
        "images": [
            {
                "about": "All",
                "link": "https://lh5.googleusercontent.com/p/AF1QipOHLC3O_iOcsJwmgEekqYlioVT6G0iq5dYHA0Dy=w397-h298-k-no"
            }
        ],
        "link": "https://www.google.com/maps/place/Tayyiba+masjid/data=!4m7!3m6!1s0x39ef8917611efc41:0x85fa79f56e4689b!8m2!3d26.1242045!4d87.4755367!16s%2Fg%2F11h51zx72x!19sChIJQfweYReJ7zkRm2jkVp-nXwg?authuser=0&hl=en&rclk=1",
        "coordinates": {
            "latitude": 26.124204499999998,
            "longitude": 87.47553669999999
        }
    },
    {
        "name": "MOSQUE",
        "main_category": "Mosque",
        "address": "4C7X+R43 MOSQUE, Araria Ct Station Rd, Araria, Itahara, Bihar 854312",
        "detailed_address": {
            "ward": null,
            "street": "4C7X+R43, Araria Ct Station Rd",
            "city": "Araria, Itahara",
            "postal_code": "854312",
            "state": "Bihar",
            "country_code": "IN"
        },
        "images": [],
        "link": "https://www.google.com/maps/place/MOSQUE/data=!4m7!3m6!1s0x39ef8ea776905ba1:0x963279bc58870847!8m2!3d26.1145168!4d87.4478101!16s%2Fg%2F11cs22hthc!19sChIJoVuQdqeO7zkRRwiHWLx5MpY?authuser=0&hl=en&rclk=1",
        "coordinates": {
            "latitude": 26.1145168,
            "longitude": 87.4478101
        }
    },
    {
        "name": "Jama Masjid Kakurwa",
        "main_category": "Mosque",
        "address": "Jama Masjid Kakurwa, Unnamed Road, Kakorwa Basti, Araria, Bihar 854311",
        "detailed_address": {
            "ward": "Kakorwa Basti",
            "street": "Unnamed Road",
            "city": "Araria",
            "postal_code": "854311",
            "state": "Bihar",
            "country_code": "IN"
        },
        "images": [
            {
                "about": "All",
                "link": "https://lh5.googleusercontent.com/p/AF1QipNwRr2fmLs0v7Qs26wbJLrrhR7DQ49cWaes3IYE=w529-h298-k-no"
            },
            {
                "about": "By owner",
                "link": "https://lh5.googleusercontent.com/p/AF1QipO5DtrgTCxypk4YiQrCUyogfUnI4Zcf7O4g4nGX=w662-h298-k-no"
            },
            {
                "about": "Street View & 360deg",
                "link": "https://streetviewpixels-pa.googleapis.com/v1/thumbnail?panoid=k8cea7N3z4gC3N0qrU3jXQ&cb_client=maps_sv.tactile.gps&w=224&h=298&yaw=112.75085&pitch=0&thumbfov=100"
            }
        ],
        "link": "https://www.google.com/maps/place/Jama+Masjid+Kakurwa/data=!4m7!3m6!1s0x39ef897efd18e20b:0x598bac70f49a86b2!8m2!3d26.1303965!4d87.4778889!16s%2Fg%2F11mxrwd6tc!19sChIJC-IY_X6J7zkRsoaa9HCsi1k?authuser=0&hl=en&rclk=1",
        "coordinates": {
            "latitude": 26.1303965,
            "longitude": 87.4778889
        }
    },
    {
        "name": "Masjid Moti Tikkar Balwa Haria Araria",
        "main_category": "Mosque",
        "address": "5CHH+G4J Masjid Moti Tikkar Balwa Haria Araria, Araria, Bihar 854311",
        "detailed_address": {
            "ward": null,
            "street": "5CHH+G4J",
            "city": "Araria",
            "postal_code": "854311",
            "state": "Bihar",
            "country_code": "IN"
        },
        "images": [
            {
                "about": "All",
                "link": "https://lh5.googleusercontent.com/p/AF1QipMQT5uVxpVkkpIUTwopTs0-FDV0Wzsb0JlQebUg=w397-h298-k-no"
            },
            {
                "about": "Videos",
                "link": "https://lh5.googleusercontent.com/p/AF1QipN-x2n-MkxGX4U-3Ky0IiXtDeIpfjsUaKCt9UxU=w224-h398-k-no"
            }
        ],
        "link": "https://www.google.com/maps/place/Masjid+Moti+Tikkar+Balwa+Haria+Araria/data=!4m7!3m6!1s0x39ef8ffa6dae45fb:0xbda5f261b5cc1ac3!8m2!3d26.1788407!4d87.4277609!16s%2Fg%2F11grtz3ym5!19sChIJ-0WubfqP7zkRwxrMtWHypb0?authuser=0&hl=en&rclk=1",
        "coordinates": {
            "latitude": 26.1788407,
            "longitude": 87.4277609
        }
    },
    {
        "name": "Masjid e Zahiria",
        "main_category": "Mosque",
        "address": "Ward no 27, Masjid e Zahiria, Islam Nagar, Millat Nagar, Araria, Bihar 854311",
        "detailed_address": {
            "ward": "Islam Nagar, Millat Nagar",
            "street": "Ward no 27",
            "city": "Araria",
            "postal_code": "854311",
            "state": "Bihar",
            "country_code": "IN"
        },
        "images": [],
        "link": "https://www.google.com/maps/place/Masjid+e+Zahiria/data=!4m7!3m6!1s0x39ef897565ad0d71:0x17c642e51172bb6!8m2!3d26.1270075!4d87.4708996!16s%2Fg%2F11rxdm4yfz!19sChIJcQ2tZXWJ7zkRtisXUS5kfAE?authuser=0&hl=en&rclk=1",
        "coordinates": {
            "latitude": 26.127007499999998,
            "longitude": 87.4708996
        }
    },
    {
        "name": "Madni Masjid",
        "main_category": "Mosque",
        "address": "4FF7+GHF Madni Masjid, Sisauna, Araria, Bihar 854311",
        "detailed_address": {
            "ward": null,
            "street": "4FF7+GHF",
            "city": "Sisauna, Araria",
            "postal_code": "854311",
            "state": "Bihar",
            "country_code": "IN"
        },
        "images": [
            {
                "about": "All",
                "link": "https://streetviewpixels-pa.googleapis.com/v1/thumbnail?panoid=SxzhPLbCH07xFMVAhQXv_w&cb_client=maps_sv.tactile.gps&w=224&h=298&yaw=23.847328&pitch=0&thumbfov=100"
            },
            {
                "about": "Street View & 360deg",
                "link": "https://streetviewpixels-pa.googleapis.com/v1/thumbnail?panoid=SxzhPLbCH07xFMVAhQXv_w&cb_client=maps_sv.tactile.gps&w=224&h=298&yaw=23.847328&pitch=0&thumbfov=100"
            }
        ],
        "link": "https://www.google.com/maps/place/Madni+Masjid/data=!4m7!3m6!1s0x39ef89984c22d33b:0xf6666e8de12ba0b0!8m2!3d26.1238177!4d87.463907!16s%2Fg%2F11j5vqyp8p!19sChIJO9MiTJiJ7zkRsKAr4Y1uZvY?authuser=0&hl=en&rclk=1",
        "coordinates": {
            "latitude": 26.1238177,
            "longitude": 87.46390699999999
        }
    },
    {
        "name": "Central Public School",
        "main_category": "Mosque",
        "address": "W.NO-27, Central Public School, AT, Islam Nagar, Araria, Bihar 854311",
        "detailed_address": {
            "ward": "Islam Nagar",
            "street": "W.NO-27, AT",
            "city": "Araria",
            "postal_code": "854311",
            "state": "Bihar",
            "country_code": "IN"
        },
        "images": [
            {
                "about": "All",
                "link": "https://lh5.googleusercontent.com/p/AF1QipMVr8y5QuWm5Al5c7KAACyiExwJZi4--d5FAwT-=w662-h298-k-no"
            },
            {
                "about": "Street View & 360deg",
                "link": "https://streetviewpixels-pa.googleapis.com/v1/thumbnail?panoid=C7A2oWWMj230KphS2_SbZg&cb_client=maps_sv.tactile.gps&w=224&h=298&yaw=98.51573&pitch=0&thumbfov=100"
            }
        ],
        "link": "https://www.google.com/maps/place/Central+Public+School/data=!4m7!3m6!1s0x39ef89daa496b96f:0x745cf7ba7e6a2c94!8m2!3d26.1205543!4d87.4722122!16s%2Fg%2F11h1hsj3w1!19sChIJb7mWpNqJ7zkRlCxqfrr3XHQ?authuser=0&hl=en&rclk=1",
        "coordinates": {
            "latitude": 26.1205543,
            "longitude": 87.4722122
        }
    },
    {
        "name": "Near by jama masjid",
        "main_category": "Mosque",
        "address": "4FCJ+983 Near by jama masjid, Mirza Bhag, Purandaha, Belwa, Bihar 854311",
        "detailed_address": {
            "ward": "Mirza Bhag",
            "street": "4FCJ+983",
            "city": "Purandaha, Belwa",
            "postal_code": "854311",
            "state": "Bihar",
            "country_code": "IN"
        },
        "images": [],
        "link": "https://www.google.com/maps/place/Near+by+jama+masjid/data=!4m7!3m6!1s0x39ef89bc62844b57:0x6d2a7d060799aa6!8m2!3d26.1208392!4d87.4807611!16s%2Fg%2F11ryr903_y!19sChIJV0uEYryJ7zkRppp5YNCn0gY?authuser=0&hl=en&rclk=1",
        "coordinates": {
            "latitude": 26.1208392,
            "longitude": 87.4807611
        }
    },
    {
        "name": "Masjid Bilal",
        "main_category": "Mosque",
        "address": "4FFH+QHH Masjid Bilal, Araria, Bihar 854311",
        "detailed_address": {
            "ward": null,
            "street": "4FFH+QHH",
            "city": "Araria",
            "postal_code": "854311",
            "state": "Bihar",
            "country_code": "IN"
        },
        "images": [
            {
                "about": "All",
                "link": "https://streetviewpixels-pa.googleapis.com/v1/thumbnail?panoid=4Q0-6OEkgKmkWbo24Y-p4A&cb_client=maps_sv.tactile.gps&w=224&h=298&yaw=236.89688&pitch=0&thumbfov=100"
            },
            {
                "about": "Street View & 360deg",
                "link": "https://streetviewpixels-pa.googleapis.com/v1/thumbnail?panoid=4Q0-6OEkgKmkWbo24Y-p4A&cb_client=maps_sv.tactile.gps&w=224&h=298&yaw=236.89688&pitch=0&thumbfov=100"
            }
        ],
        "link": "https://www.google.com/maps/place/Masjid+Bilal/data=!4m7!3m6!1s0x39ef8951f9a313ab:0x5001e760c2937a6d!8m2!3d26.124716!4d87.479256!16s%2Fg%2F11pts83__b!19sChIJqxOj-VGJ7zkRbXqTwmDnAVA?authuser=0&hl=en&rclk=1",
        "coordinates": {
            "latitude": 26.124716,
            "longitude": 87.47925599999999
        }
    },
    {
        "name": "Mashjid-e-kuba",
        "main_category": "Mosque",
        "address": "4FM5+369 Mashjid-e-kuba, Bhagat Singh Rd, Rahika Tola, PHED Colony, Araria, Bihar 854311",
        "detailed_address": {
            "ward": "Rahika Tola, PHED Colony",
            "street": "4FM5+369, Bhagat Singh Rd",
            "city": "Araria",
            "postal_code": "854311",
            "state": "Bihar",
            "country_code": "IN"
        },
        "images": [
            {
                "about": "All",
                "link": "https://lh5.googleusercontent.com/p/AF1QipO2pE1LyB1hqCAARDB3Igsj3aiKKMILOsjXKfsX=w298-h298-k-no"
            },
            {
                "about": "Dome",
                "link": "https://lh5.googleusercontent.com/p/AF1QipN3xsGaIB2LhEJKua1RwArrRCVdWem8uXC39OXW=w445-h298-k-no"
            },
            {
                "about": "Street View & 360deg",
                "link": "https://streetviewpixels-pa.googleapis.com/v1/thumbnail?panoid=S0C4_-a03NYLDeAb6145tA&cb_client=maps_sv.tactile.gps&w=224&h=298&yaw=151.42896&pitch=0&thumbfov=100"
            }
        ],
        "link": "https://www.google.com/maps/place/Mashjid-e-kuba/data=!4m7!3m6!1s0x39ef8fc4c683c3d7:0x4c0bb3181ebbefe3!8m2!3d26.1326522!4d87.4581048!16s%2Fg%2F11rvlqq3mg!19sChIJ18ODxsSP7zkR4--7HhizC0w?authuser=0&hl=en&rclk=1",
        "coordinates": {
            "latitude": 26.1326522,
            "longitude": 87.4581048
        }
    },
    {
        "name": "Jama masjid",
        "main_category": "Mosque",
        "address": "4F99+9PW Jama masjid, Sisauna, Araria, Bihar 854311",
        "detailed_address": {
            "ward": null,
            "street": "4F99+9PW",
            "city": "Sisauna, Araria",
            "postal_code": null,
            "state": "Bihar",
            "country_code": "IN"
        },
        "images": [
            {
                "about": "All",
                "link": "https://lh5.googleusercontent.com/p/AF1QipPNBulb2hZRXZ_NRidVsqOETRmJj4krUVtlLoff=w529-h298-k-no"
            }
        ],
        "link": "https://www.google.com/maps/place/Jama+masjid/data=!4m7!3m6!1s0x39ef8982a4d91bb7:0x5c929c66354c21f9!8m2!3d26.1184888!4d87.4693137!16s%2Fg%2F11rrr__n86!19sChIJtxvZpIKJ7zkR-SFMNWacklw?authuser=0&hl=en&rclk=1",
        "coordinates": {
            "latitude": 26.118488799999998,
            "longitude": 87.4693137
        }
    },
    {
        "name": "Madni Masjid",
        "main_category": "Mosque",
        "address": "4FFG+8MC Madni Masjid, Sir Syed Colony, Basantpur, Araria, Bihar 854311",
        "detailed_address": {
            "ward": "Sir Syed Colony",
            "street": "4FFG+8MC",
            "city": "Basantpur, Araria",
            "postal_code": "854311",
            "state": "Bihar",
            "country_code": "IN"
        },
        "images": [],
        "link": "https://www.google.com/maps/place/Madni+Masjid/data=!4m7!3m6!1s0x39ef89f2d879796f:0xdf211a70069fbaab!8m2!3d26.123321!4d87.4766266!16s%2Fg%2F11n_l99rgd!19sChIJb3l52PKJ7zkRq7qfBnAaId8?authuser=0&hl=en&rclk=1",
        "coordinates": {
            "latitude": 26.123320999999997,
            "longitude": 87.4766266
        }
    },
    {
        "name": "Masjid simna",
        "main_category": "Mosque",
        "address": "4FGC+8WQ Masjid simna, Uco Bank Rd, Islam Nagar, Millat, Purandaha, Araria, Bihar 854311",
        "detailed_address": {
            "ward": "Islam Nagar, Millat",
            "street": "4FGC+8WQ, Uco Bank Rd",
            "city": "Purandaha, Araria",
            "postal_code": "854311",
            "state": "Bihar",
            "country_code": "IN"
        },
        "images": [
            {
                "about": "All",
                "link": "https://streetviewpixels-pa.googleapis.com/v1/thumbnail?panoid=UG7kyYf4ceZQKDxupGWN6g&cb_client=maps_sv.tactile.gps&w=224&h=298&yaw=308.6933&pitch=0&thumbfov=100"
            },
            {
                "about": "Street View & 360deg",
                "link": "https://streetviewpixels-pa.googleapis.com/v1/thumbnail?panoid=UG7kyYf4ceZQKDxupGWN6g&cb_client=maps_sv.tactile.gps&w=224&h=298&yaw=308.6933&pitch=0&thumbfov=100"
            }
        ],
        "link": "https://www.google.com/maps/place/Masjid+simna/data=!4m7!3m6!1s0x39ef8986f2e59d01:0x75c48ef0f1547793!8m2!3d26.1258352!4d87.4723698!16s%2Fg%2F11kq2d604s!19sChIJAZ3l8oaJ7zkRk3dU8fCOxHU?authuser=0&hl=en&rclk=1",
        "coordinates": {
            "latitude": 26.125835199999997,
            "longitude": 87.4723698
        }
    },
    {
        "name": "Jama Masjid bade Chikni",
        "main_category": "Mosque",
        "address": "Jama Masjid bade Chikni, P.O, Chikne po kamaldaha ward no 02 Ward number 02, Araria, Bihar 854312",
        "detailed_address": {
            "ward": "Araria Mahalla",
            "street": "P.O, Chikne po kamaldaha ward no 02 Ward number 02",
            "city": "Araria",
            "postal_code": "854312",
            "state": "Bihar",
            "country_code": "IN"
        },
        "images": [
            {
                "about": "All",
                "link": "https://lh5.googleusercontent.com/p/AF1QipMkZW_dUb0i5lKBQE-32fiazIzgfvBpF7f790Fh=w529-h298-k-no"
            },
            {
                "about": "Street View & 360deg",
                "link": "https://streetviewpixels-pa.googleapis.com/v1/thumbnail?panoid=APh_1v0iuFw2DNPhKxynng&cb_client=maps_sv.tactile.gps&w=224&h=298&yaw=311.6118&pitch=0&thumbfov=100"
            },
            {
                "about": "Videos",
                "link": "https://lh5.googleusercontent.com/p/AF1QipObnYtl6G3jnNKayBo8bOWm0ucnTuYVQ-9OvrMb=w224-h398-k-no"
            }
        ],
        "link": "https://www.google.com/maps/place/Jama+Masjid+bade+Chikni/data=!4m7!3m6!1s0x39ef8f595f326bb9:0x2063c169a551e1fe!8m2!3d26.1325563!4d87.4527725!16s%2Fg%2F11sx0h6vdc!19sChIJuWsyX1mP7zkR_uFRpWnBYyA?authuser=0&hl=en&rclk=1",
        "coordinates": {
            "latitude": 26.132556299999997,
            "longitude": 87.4527725
        }
    },
    {
        "name": "MASJID TAUHID",
        "main_category": "Mosque",
        "address": "MASJID TAUHID, Araria, Bihar 854311",
        "detailed_address": {
            "ward": null,
            "street": null,
            "city": "Araria",
            "postal_code": "854311",
            "state": "Bihar",
            "country_code": "IN"
        },
        "images": [
            {
                "about": "All",
                "link": "https://lh5.googleusercontent.com/p/AF1QipMlrNS7vN574ZtsIqwfFqL_Z71PWg1OSzkFqpVw=w638-h298-k-no"
            },
            {
                "about": "By owner",
                "link": "https://lh5.googleusercontent.com/p/AF1QipN8E3r2Hy5xiJ8ITFUfRmZyPy-lSkj0MV9ptJM7=w224-h497-k-no"
            }
        ],
        "link": "https://www.google.com/maps/place/MASJID+TAUHID/data=!4m7!3m6!1s0x39ef8971cc91ef1d:0x2ea0e31cc10af156!8m2!3d26.1153651!4d87.4748158!16s%2Fg%2F11rwmf_jz_!19sChIJHe-RzHGJ7zkRVvEKwRzjoC4?authuser=0&hl=en&rclk=1",
        "coordinates": {
            "latitude": 26.115365099999998,
            "longitude": 87.4748158
        }
    },
    {
        "name": "Markaz-e-Islami",
        "main_category": "Mosque",
        "address": "4FJ8+JC9 Markaz-e-Islami, Usman Ali Rd, Rahika Tola, PHED Colony, Araria, Bihar 854311",
        "detailed_address": {
            "ward": "Rahika Tola, PHED Colony",
            "street": "4FJ8+JC9, Usman Ali Rd",
            "city": "Araria",
            "postal_code": "854311",
            "state": "Bihar",
            "country_code": "IN"
        },
        "images": [],
        "link": "https://www.google.com/maps/place/Markaz-e-Islami/data=!4m7!3m6!1s0x39ef89499e001d25:0xd87534bc68fa78b6!8m2!3d26.1315452!4d87.4661091!16s%2Fg%2F11qh1h6zhd!19sChIJJR0AnkmJ7zkRtnj6aLw0ddg?authuser=0&hl=en&rclk=1",
        "coordinates": {
            "latitude": 26.131545199999998,
            "longitude": 87.4661091
        }
    },
    {
        "name": "Markaz wali masjid Sisauna ziromile",
        "main_category": "Mosque",
        "address": "4F99+CP4 Markaz wali masjid Sisauna ziromile, Araria, Bihar 854311",
        "detailed_address": {
            "ward": null,
            "street": "4F99+CP4",
            "city": "Araria",
            "postal_code": "854311",
            "state": "Bihar",
            "country_code": "IN"
        },
        "images": [],
        "link": "https://www.google.com/maps/place/Markaz+wali+masjid+Sisauna+ziromile/data=!4m7!3m6!1s0x39ef8983597e367b:0xe5001be25da4b40e!8m2!3d26.1185093!4d87.4693227!16s%2Fg%2F11nx3jcvsx!19sChIJezZ-WYOJ7zkRDrSkXeIbAOU?authuser=0&hl=en&rclk=1",
        "coordinates": {
            "latitude": 26.1185093,
            "longitude": 87.46932269999999
        }
    },
    {
        "name": "Noori Masjid",
        "main_category": "Mosque",
        "address": "ward no.05, Noori Masjid, Gaiyari, Araria, Bihar 854311",
        "detailed_address": {
            "ward": null,
            "street": "ward no.05, Gaiyari",
            "city": "Araria, Gaiyari",
            "postal_code": "854311",
            "state": "Bihar",
            "country_code": "IN"
        },
        "images": [
            {
                "about": "All",
                "link": "https://lh5.googleusercontent.com/p/AF1QipPOL-FuUkVFPt_srnGNb_hF9FNV68DzySkE9jgl=w224-h298-k-no"
            },
            {
                "about": "By owner",
                "link": "https://lh5.googleusercontent.com/p/AF1QipPOL-FuUkVFPt_srnGNb_hF9FNV68DzySkE9jgl=w224-h298-k-no"
            },
            {
                "about": "Videos",
                "link": "https://lh5.googleusercontent.com/p/AF1QipN0jcfR_CN6fBIBXSYPABuF-TQkkUuHvQMr0qby=w224-h398-k-no"
            },
            {
                "about": "Street View & 360deg",
                "link": "https://streetviewpixels-pa.googleapis.com/v1/thumbnail?panoid=PllT9UhBmuH53lRa3E4-AA&cb_client=maps_sv.tactile.gps&w=224&h=298&yaw=252.70346&pitch=0&thumbfov=100"
            }
        ],
        "link": "https://www.google.com/maps/place/Noori+Masjid/data=!4m7!3m6!1s0x39ef8b82d24abc2f:0x5dd931f2882c43ed!8m2!3d26.1070418!4d87.4756364!16s%2Fg%2F11sf5vbk0z!19sChIJL7xK0oKL7zkR7UMsiPIx2V0?authuser=0&hl=en&rclk=1",
        "coordinates": {
            "latitude": 26.107041799999998,
            "longitude": 87.4756364
        }
    },
    {
        "name": "Eidgah Islam Nagar",
        "main_category": "Mosque",
        "address": "4FFC+XM2 Eidgah Islam Nagar, Islam Nagar, Millat Nagar, Araria, Bihar 854311",
        "detailed_address": {
            "ward": "Islam Nagar, Millat Nagar",
            "street": "4FFC+XM2",
            "city": "Araria",
            "postal_code": "854311",
            "state": "Bihar",
            "country_code": "IN"
        },
        "images": [],
        "link": "https://www.google.com/maps/place/Eidgah+Islam+Nagar/data=!4m7!3m6!1s0x39ef89e8410ff125:0x9b6e183efd723cad!8m2!3d26.124879!4d87.4716552!16s%2Fg%2F11s9jr74hw!19sChIJJfEPQeiJ7zkRrTxy_T4Ybps?authuser=0&hl=en&rclk=1",
        "coordinates": {
            "latitude": 26.124879,
            "longitude": 87.4716552
        }
    },
    {
        "name": "Jama Masjid farkia",
        "main_category": "Mosque",
        "address": "Jama Masjid farkia, Sarpanch tola farkia, Araria Mahalla, Araria, Bihar 854305",
        "detailed_address": {
            "ward": "Araria Mahalla",
            "street": "Sarpanch tola farkia",
            "city": "Araria",
            "postal_code": "854305",
            "state": "Bihar",
            "country_code": "IN"
        },
        "images": [
            {
                "about": "All",
                "link": "https://streetviewpixels-pa.googleapis.com/v1/thumbnail?panoid=APh_1v0iuFw2DNPhKxynng&cb_client=maps_sv.tactile.gps&w=224&h=298&yaw=311.6118&pitch=0&thumbfov=100"
            },
            {
                "about": "Street View & 360deg",
                "link": "https://streetviewpixels-pa.googleapis.com/v1/thumbnail?panoid=APh_1v0iuFw2DNPhKxynng&cb_client=maps_sv.tactile.gps&w=224&h=298&yaw=311.6118&pitch=0&thumbfov=100"
            }
        ],
        "link": "https://www.google.com/maps/place/Jama+Masjid+farkia/data=!4m7!3m6!1s0x39ef8f639874f317:0x177ab7bba03c6e!8m2!3d26.1325563!4d87.4527725!16s%2Fg%2F11p5lh_f71!19sChIJF_N0mGOP7zkRbjygu7d6FwA?authuser=0&hl=en&rclk=1",
        "coordinates": {
            "latitude": 26.132556299999997,
            "longitude": 87.4527725
        }
    },
    {
        "name": "Masjid E Aayesha",
        "main_category": "Mosque",
        "address": "ward no.01, Masjid E Aayesha, 854311, Zero mile, Araria, Bihar 854311",
        "detailed_address": {
            "ward": null,
            "street": "ward no.01, 854311, Zero mile",
            "city": "Araria",
            "postal_code": "854311",
            "state": "Bihar",
            "country_code": "IN"
        },
        "images": [
            {
                "about": "All",
                "link": "https://streetviewpixels-pa.googleapis.com/v1/thumbnail?panoid=d2NbmV3Lf6MMAhgl3kQ-qQ&cb_client=maps_sv.tactile.gps&w=224&h=298&yaw=229.81917&pitch=0&thumbfov=100"
            },
            {
                "about": "Street View & 360deg",
                "link": "https://streetviewpixels-pa.googleapis.com/v1/thumbnail?panoid=d2NbmV3Lf6MMAhgl3kQ-qQ&cb_client=maps_sv.tactile.gps&w=224&h=298&yaw=229.81917&pitch=0&thumbfov=100"
            }
        ],
        "link": "https://www.google.com/maps/place/Masjid+E+Aayesha/data=!4m7!3m6!1s0x39ef89cd95258491:0x3a1c9c78ab0ae31b!8m2!3d26.1168044!4d87.4719029!16s%2Fg%2F11kj_w4c3q!19sChIJkYQllc2J7zkRG-MKq3icHDo?authuser=0&hl=en&rclk=1",
        "coordinates": {
            "latitude": 26.1168044,
            "longitude": 87.47190289999999
        }
    },
    {
        "name": "shrfy jm` msjd",
        "main_category": "Mosque",
        "address": "shrfy jm` msjd, 19, Rd Number 57, Azad Nagar, Araria, Bihar 854311",
        "detailed_address": {
            "ward": "Azad Nagar",
            "street": "19, Rd Number 57",
            "city": "Araria",
            "postal_code": "854311",
            "state": "Bihar",
            "country_code": "IN"
        },
        "images": [],
        "link": "https://www.google.com/maps/place/%D8%A7%D8%B4%D8%B1%D9%81%DB%8C+%D8%AC%D8%A7%D9%85%D8%B9+%D9%85%D8%B3%D8%AC%D8%AF%E2%80%AD/data=!4m7!3m6!1s0x39ef890f800e0609:0xdc7e57a734ddaf98!8m2!3d26.1273453!4d87.4653658!16s%2Fg%2F11v5vxpkg0!19sChIJCQYOgA-J7zkRmK_dNKdXftw?authuser=0&hl=en&rclk=1",
        "coordinates": {
            "latitude": 26.127345299999998,
            "longitude": 87.4653658
        }
    },
    {
        "name": "Mohammadi masjid: Bonsi",
        "main_category": "Mosque",
        "address": "Bonsi ward number 13, Mohammadi masjid: Bonsi, Araria Mahalla, Araria, Bihar 854321",
        "detailed_address": {
            "ward": "Araria Mahalla",
            "street": "Bonsi ward number 13",
            "city": "Araria",
            "postal_code": "854321",
            "state": "Bihar",
            "country_code": "IN"
        },
        "images": [
            {
                "about": "All",
                "link": "https://streetviewpixels-pa.googleapis.com/v1/thumbnail?panoid=APh_1v0iuFw2DNPhKxynng&cb_client=maps_sv.tactile.gps&w=224&h=298&yaw=311.6118&pitch=0&thumbfov=100"
            },
            {
                "about": "Street View & 360deg",
                "link": "https://streetviewpixels-pa.googleapis.com/v1/thumbnail?panoid=APh_1v0iuFw2DNPhKxynng&cb_client=maps_sv.tactile.gps&w=224&h=298&yaw=311.6118&pitch=0&thumbfov=100"
            }
        ],
        "link": "https://www.google.com/maps/place/Mohammadi+masjid:+Bonsi/data=!4m7!3m6!1s0x39ef8f83a3d57ac9:0x324b3e317f483b4d!8m2!3d26.1325563!4d87.4527725!16s%2Fg%2F11tsryvzv3!19sChIJyXrVo4OP7zkRTTtIfzE-SzI?authuser=0&hl=en&rclk=1",
        "coordinates": {
            "latitude": 26.132556299999997,
            "longitude": 87.4527725
        }
    },
    {
        "name": "Siddiqui Masjid",
        "main_category": "Mosque",
        "address": "4FG9+9PW Siddiqui Masjid, Unnamed Road, Islam Nagar, Millat Nagar, Purandaha, Araria, Bihar 854311",
        "detailed_address": {
            "ward": "Islam Nagar, Millat Nagar",
            "street": "4FG9+9PW, Unnamed Road",
            "city": "Purandaha, Araria",
            "postal_code": "854311",
            "state": "Bihar",
            "country_code": "IN"
        },
        "images": [
            {
                "about": "All",
                "link": "https://lh5.googleusercontent.com/p/AF1QipMOLrOh7zlR7Kefzio5M0zGpQkBzeXFqU12zFaB=w298-h298-k-no"
            },
            {
                "about": "Street View & 360deg",
                "link": "https://streetviewpixels-pa.googleapis.com/v1/thumbnail?panoid=11-KKS7OUY2lpB9LBzcTmQ&cb_client=maps_sv.tactile.gps&w=224&h=298&yaw=94.30845&pitch=0&thumbfov=100"
            },
            {
                "about": "Videos",
                "link": "https://lh5.googleusercontent.com/p/AF1QipOLM1D2VNcEYxQzOUtOOHy0rQrHQ3gs_diQI9cN=w224-h407-k-no"
            }
        ],
        "link": "https://www.google.com/maps/place/Siddiqui+Masjid/data=!4m7!3m6!1s0x39ef896471f37239:0x19c458d3db7495eb!8m2!3d26.1259802!4d87.4693136!16s%2Fg%2F11g4d7c_66!19sChIJOXLzcWSJ7zkR65V029NYxBk?authuser=0&hl=en&rclk=1",
        "coordinates": {
            "latitude": 26.125980199999997,
            "longitude": 87.46931359999999
        }
    },
    {
        "name": "Munawar masjid zero mile",
        "main_category": "Mosque",
        "address": "4F7G+JP3 Munawar masjid zero mile, Sisauna, Araria, Bihar 854311",
        "detailed_address": {
            "ward": null,
            "street": "4F7G+JP3",
            "city": "Sisauna, Araria",
            "postal_code": "854311",
            "state": "Bihar",
            "country_code": "IN"
        },
        "images": [],
        "link": "https://www.google.com/maps/place/Munawar+masjid+zero+mile/data=!4m7!3m6!1s0x39ef893a593bd019:0x3f5e790a96f3c3f8!8m2!3d26.11401!4d87.4768537!16s%2Fg%2F11l68fmmjm!19sChIJGdA7WTqJ7zkR-MPzlgp5Xj8?authuser=0&hl=en&rclk=1",
        "coordinates": {
            "latitude": 26.11401,
            "longitude": 87.47685369999999
        }
    },
    {
        "name": "MASJID-E-KHAIR (CHHOTI MASJID)",
        "main_category": "Mosque",
        "address": "4FFJ+H48 MASJID-E-KHAIR (CHHOTI MASJID), Mirza Bhag, Belwa, Bihar 854311",
        "detailed_address": {
            "ward": "Mirza Bhag",
            "street": "4FFJ+H48",
            "city": "Belwa",
            "postal_code": "854311",
            "state": "Bihar",
            "country_code": "IN"
        },
        "images": [
            {
                "about": "All",
                "link": "https://streetviewpixels-pa.googleapis.com/v1/thumbnail?panoid=tCMYOnIfKliKQ0m_eSilPw&cb_client=maps_sv.tactile.gps&w=224&h=298&yaw=245.34305&pitch=0&thumbfov=100"
            },
            {
                "about": "Street View & 360deg",
                "link": "https://streetviewpixels-pa.googleapis.com/v1/thumbnail?panoid=tCMYOnIfKliKQ0m_eSilPw&cb_client=maps_sv.tactile.gps&w=224&h=298&yaw=245.34305&pitch=0&thumbfov=100"
            }
        ],
        "link": "https://www.google.com/maps/place/MASJID-E-KHAIR+%28CHHOTI+MASJID%29/data=!4m7!3m6!1s0x39ef89439bdb5f4b:0x59c1cc602af8c6e7!8m2!3d26.1235239!4d87.4800901!16s%2Fg%2F11t53cx45v!19sChIJS1_bm0OJ7zkR58b4KmDMwVk?authuser=0&hl=en&rclk=1",
        "coordinates": {
            "latitude": 26.1235239,
            "longitude": 87.4800901
        }
    },
    {
        "name": "Mirzabhag choti masjid",
        "main_category": "Mosque",
        "address": "4FCJ+6XR Mirzabhag choti masjid, Mirza Bhag, Araria, Belwa, Bihar 854311",
        "detailed_address": {
            "ward": "Mirza Bhag",
            "street": "4FCJ+6XR",
            "city": "Araria, Belwa",
            "postal_code": null,
            "state": "Bihar",
            "country_code": "IN"
        },
        "images": [
            {
                "about": "All",
                "link": "https://streetviewpixels-pa.googleapis.com/v1/thumbnail?panoid=YLZS0NzIrB7p2TbuDQhyrQ&cb_client=maps_sv.tactile.gps&w=224&h=298&yaw=221.33101&pitch=0&thumbfov=100"
            },
            {
                "about": "Street View & 360deg",
                "link": "https://streetviewpixels-pa.googleapis.com/v1/thumbnail?panoid=YLZS0NzIrB7p2TbuDQhyrQ&cb_client=maps_sv.tactile.gps&w=224&h=298&yaw=221.33101&pitch=0&thumbfov=100"
            }
        ],
        "link": "https://www.google.com/maps/place/Mirzabhag+choti+masjid/data=!4m7!3m6!1s0x39ef896ebda08e35:0x15a38f262cc39b38!8m2!3d26.1206132!4d87.4823964!16s%2Fg%2F11s1drq11p!19sChIJNY6gvW6J7zkROJvDLCaPoxU?authuser=0&hl=en&rclk=1",
        "coordinates": {
            "latitude": 26.120613199999998,
            "longitude": 87.4823964
        }
    },
    {
        "name": "JAMA MASJID - BHARAILI",
        "main_category": "Mosque",
        "address": "JAMA MASJID - BHARAILI, VILLAGE : BHARAILI. WORD NO. 4. POST OFFICE : KARANKIYA. PS : BAUNSI PANCHAYAT : DHOBINIYA. PARKHAND : RANIGANJ. DISTTRICT :, Karankia, Bihar 854312",
        "detailed_address": {
            "ward": null,
            "street": "VILLAGE : BHARAILI. WORD NO. 4. POST OFFICE : KARANKIYA. PS : BAUNSI PANCHAYAT : DHOBINIYA. PARKHAND : RANIGANJ. DISTTRICT :",
            "city": "Karankia, Araria",
            "postal_code": "854312",
            "state": "Bihar",
            "country_code": "IN"
        },
        "images": [
            {
                "about": "All",
                "link": "https://streetviewpixels-pa.googleapis.com/v1/thumbnail?panoid=jOleEAtsfAfOOLtbax-Frg&cb_client=maps_sv.tactile.gps&w=224&h=298&yaw=147.04782&pitch=0&thumbfov=100"
            },
            {
                "about": "Street View & 360deg",
                "link": "https://streetviewpixels-pa.googleapis.com/v1/thumbnail?panoid=jOleEAtsfAfOOLtbax-Frg&cb_client=maps_sv.tactile.gps&w=224&h=298&yaw=147.04782&pitch=0&thumbfov=100"
            }
        ],
        "link": "https://www.google.com/maps/place/JAMA+MASJID+-+BHARAILI/data=!4m7!3m6!1s0x39ef8f000f31f1f7:0xff0c7b83f18511d4!8m2!3d26.1308387!4d87.430282!16s%2Fg%2F11rk03gp6d!19sChIJ9_ExDwCP7zkR1BGF8YN7DP8?authuser=0&hl=en&rclk=1",
        "coordinates": {
            "latitude": 26.130838699999998,
            "longitude": 87.43028199999999
        }
    },
    {
        "name": "rhmtbaag",
        "main_category": "Mosque",
        "address": "4CJW+F62 rhmtbaag, Araria - Raniganj Rd, Araria Mahalla, Araria, Bihar 854312",
        "detailed_address": {
            "ward": "Araria Mahalla",
            "street": "4CJW+F62, Araria - Raniganj Rd",
            "city": "Araria",
            "postal_code": "854312",
            "state": "Bihar",
            "country_code": "IN"
        },
        "images": [],
        "link": "https://www.google.com/maps/place/%E0%A4%B0%E0%A4%B9%E0%A4%AE%E0%A4%A4%E0%A4%AC%E0%A4%BE%E0%A4%97/data=!4m7!3m6!1s0x39ef8f33660f4969:0x22756a65c1ee6b7b!8m2!3d26.1311363!4d87.4455026!16s%2Fg%2F11h_6srjjc!19sChIJaUkPZjOP7zkRe2vuwWVqdSI?authuser=0&hl=en&rclk=1",
        "coordinates": {
            "latitude": 26.131136299999998,
            "longitude": 87.4455026
        }
    },
    {
        "name": "Rahmanya mosque",
        "main_category": "Mosque",
        "address": "4FJF+6F7 Rahmanya mosque, Bhagat Tola, Purandaha, Araria, Bihar 854311",
        "detailed_address": {
            "ward": "Bhagat Tola",
            "street": "4FJF+6F7",
            "city": "Purandaha, Araria",
            "postal_code": "854311",
            "state": "Bihar",
            "country_code": "IN"
        },
        "images": [
            {
                "about": "All",
                "link": "https://lh5.googleusercontent.com/p/AF1QipM8W5BSRf-5LDRBrGVx1bQNEhiR-G7YguCC0dxZ=w224-h298-k-no"
            }
        ],
        "link": "https://www.google.com/maps/place/Rahmanya+mosque/data=!4m7!3m6!1s0x39ef89d77144946b:0x49624f2314797f11!8m2!3d26.1305313!4d87.4736774!16s%2Fg%2F11h77xjtls!19sChIJa5REcdeJ7zkREX95FCNPYkk?authuser=0&hl=en&rclk=1",
        "coordinates": {
            "latitude": 26.130531299999998,
            "longitude": 87.4736774
        }
    }
]