[
    {
        "name": "Dawoodi Bhora Masjid",
        "main_category": "Mosque",
        "address": "5H3F+6Q9 Dawoodi Bhora Masjid, Baramati, Maharashtra 413102",
        "detailed_address": {
            "ward": null,
            "street": "5H3F+6Q9",
            "city": "Baramati",
            "postal_code": "413102",
            "state": "Maharashtra",
            "country_code": "IN"
        },
        "images": [
            {
                "about": "All",
                "link": "https://lh5.googleusercontent.com/p/AF1QipP8pqGGxTKHvsGazla8M38arkBBEEQBkuYZVWq9=w397-h298-k-no"
            }
        ],
        "link": "https://www.google.com/maps/place/Dawoodi+Bhora+Masjid/data=!4m7!3m6!1s0x3bc3a015f2061f1b:0x9d2d1405459dd7a7!8m2!3d18.1530291!4d74.5744765!16s%2Fg%2F1w0hz1rg!19sChIJGx8G8hWgwzsRp9edRQUULZ0?authuser=0&hl=en&rclk=1",
        "coordinates": {
            "latitude": 18.153029099999998,
            "longitude": 74.5744765
        }
    },
    {
        "name": "Masjid e Fatima, Kasba Peth",
        "main_category": "Mosque",
        "address": "4HX8+7RX Masjid e Fatima, Kasba Peth, Khandobanagar, Baramati, Maharashtra 413102",
        "detailed_address": {
            "ward": "Khandobanagar",
            "street": "4HX8+7RX",
            "city": "Baramati",
            "postal_code": "413102",
            "state": "Maharashtra",
            "country_code": "IN"
        },
        "images": [
            {
                "about": "All",
                "link": "https://lh5.googleusercontent.com/p/AF1QipM0f4ETTlkq-__HYcOi2wnuhn_P7otbl3On0Fhw=w529-h298-k-no"
            },
            {
                "about": "Videos",
                "link": "https://lh5.googleusercontent.com/p/AF1QipP9hZnoQ8d39v-K20CXn04iLmXriUxwh6b6TlvZ=w529-h298-k-no"
            }
        ],
        "link": "https://www.google.com/maps/place/Masjid+e+Fatima,+Kasba+Peth/data=!4m7!3m6!1s0x3bc3a040fcbeb6d5:0x399c09c613de1c91!8m2!3d18.1482309!4d74.567121!16s%2Fg%2F11bwptpg43!19sChIJ1ba-_ECgwzsRkRzeE8YJnDk?authuser=0&hl=en&rclk=1",
        "coordinates": {
            "latitude": 18.148230899999998,
            "longitude": 74.567121
        }
    },
    {
        "name": "Makka Masjid (Markaz), Kasba",
        "main_category": "Mosque",
        "address": "4HW9+QR7 Makka Masjid (Markaz), Kasba, Kasba, beside Shree Kashivishveshwar Mandir, Panchashil Nagar, Baramati, Maharashtra 413102",
        "detailed_address": {
            "ward": "Panchashil Nagar",
            "street": "4HW9+QR7, Kasba, beside Shree Kashivishveshwar Mandir",
            "city": "Baramati",
            "postal_code": "413102",
            "state": "Maharashtra",
            "country_code": "IN"
        },
        "images": [
            {
                "about": "All",
                "link": "https://lh5.googleusercontent.com/p/AF1QipPjHn92B6F1gYz18OiGpn2C7CUE0cBJe4QHn7Db=w398-h298-k-no"
            },
            {
                "about": "Dome",
                "link": "https://lh5.googleusercontent.com/p/AF1QipPZgpvkDYKkTW86-wMQVk3CWezcdqbP6W8zdFqZ=w378-h298-k-no"
            },
            {
                "about": "Videos",
                "link": "https://lh5.googleusercontent.com/p/AF1QipPtRUGdkpqOtIxtDHmDCjLuf-gWTUToSQgiK4Nq=w224-h398-k-no"
            }
        ],
        "link": "https://www.google.com/maps/place/Makka+Masjid+%28Markaz%29,+Kasba/data=!4m7!3m6!1s0x3bc3a040a62dde65:0x1605bb8b46ec3f92!8m2!3d18.1469149!4d74.569557!16s%2Fg%2F11bwpt_rzy!19sChIJZd4tpkCgwzsRkj_sRou7BRY?authuser=0&hl=en&rclk=1",
        "coordinates": {
            "latitude": 18.1469149,
            "longitude": 74.569557
        }
    },
    {
        "name": "Aayesha Masjid",
        "main_category": "Mosque",
        "address": "5H7V+GJH Aayesha Masjid, Shiva Nagar, Baramati, Maharashtra 413102",
        "detailed_address": {
            "ward": "Shiva Nagar",
            "street": "5H7V+GJH",
            "city": "Baramati",
            "postal_code": "413102",
            "state": "Maharashtra",
            "country_code": "IN"
        },
        "images": [
            {
                "about": "All",
                "link": "https://lh5.googleusercontent.com/p/AF1QipMqX5vEfsDvAPHZMNcVMhdsAD8NVCwjxwDfZyaf=w397-h298-k-no"
            },
            {
                "about": "Street View & 360deg",
                "link": "https://streetviewpixels-pa.googleapis.com/v1/thumbnail?panoid=1Q0BMV8BfEwRAs3Jq21WAw&cb_client=maps_sv.tactile.gps&w=224&h=298&yaw=49.839508&pitch=0&thumbfov=100"
            }
        ],
        "link": "https://www.google.com/maps/place/Aayesha+Masjid/data=!4m7!3m6!1s0x3bc39ff7c3bee0cb:0x682d66706acf12b4!8m2!3d18.1638177!4d74.5941087!16s%2Fg%2F11f3wt5nlp!19sChIJy-C-w_efwzsRtBLPanBmLWg?authuser=0&hl=en&rclk=1",
        "coordinates": {
            "latitude": 18.1638177,
            "longitude": 74.59410869999999
        }
    },
    {
        "name": "Masjid-E-Madina",
        "main_category": "Mosque",
        "address": "5H39+RPG Masjid-E-Madina, Patangshah Nagar, Baramati, Maharashtra 413102",
        "detailed_address": {
            "ward": "Patangshah Nagar",
            "street": "5H39+RPG",
            "city": "Baramati",
            "postal_code": "413102",
            "state": "Maharashtra",
            "country_code": "IN"
        },
        "images": [
            {
                "about": "All",
                "link": "https://lh5.googleusercontent.com/p/AF1QipPxC7TatWcIomZ8WGm8DrpAgqCqKex7At0rtJNL=w224-h398-k-no"
            }
        ],
        "link": "https://www.google.com/maps/place/Masjid-E-Madina/data=!4m7!3m6!1s0x3bc3a06ad6eb2b43:0xeb5d15dfef8c0601!8m2!3d18.1545746!4d74.5693276!16s%2Fg%2F11c7_xf9v6!19sChIJQyvr1mqgwzsRAQaM798VXes?authuser=0&hl=en&rclk=1",
        "coordinates": {
            "latitude": 18.1545746,
            "longitude": 74.5693276
        }
    },
    {
        "name": "Masjid-e-Amina Sayyad nagar.underguidelineMarkaz Nizamuddin",
        "main_category": "Mosque",
        "address": "Masjid-e-Amina Sayyad nagar.underguidelineMarkaz Nizamuddin, Hingane Wasti, Sadguru Nagar, Baramati, Maharashtra 413102",
        "detailed_address": {
            "ward": "Hingane Wasti, Sadguru Nagar",
            "street": null,
            "city": "Baramati",
            "postal_code": "413102",
            "state": "Maharashtra",
            "country_code": "IN"
        },
        "images": [
            {
                "about": "All",
                "link": "https://lh5.googleusercontent.com/p/AF1QipPYoiETOCxi61ObwYmgLVFD-nzflBYNKbutUFo5=w396-h298-k-no"
            },
            {
                "about": "Videos",
                "link": "https://lh5.googleusercontent.com/p/AF1QipPPL-xsXXFvKznGcQyhAzt1qTUVcN3x4BmJOdbo=w224-h398-k-no"
            }
        ],
        "link": "https://www.google.com/maps/place/Masjid-e-Amina+Sayyad+nagar.underguidelineMarkaz+Nizamuddin/data=!4m7!3m6!1s0x3bc3a013443e09eb:0xb453aea173db5e08!8m2!3d18.1588047!4d74.5707646!16s%2Fg%2F11g81f7cs9!19sChIJ6wk-RBOgwzsRCF7bc6GuU7Q?authuser=0&hl=en&rclk=1",
        "coordinates": {
            "latitude": 18.158804699999997,
            "longitude": 74.57076459999999
        }
    },
    {
        "name": "MAHEBUB-E JANNAT",
        "main_category": "Mosque",
        "address": "4HVM+FC3 MAHEBUB-E JANNAT, Mahebube Jannat Masjid, Yaadgar City, Baramati, Maharashtra 413102",
        "detailed_address": {
            "ward": "Dinprabha Apartment",
            "street": "4HVM+FC3, Mahebube Jannat Masjid, Yaadgar City",
            "city": "Baramati",
            "postal_code": "413102",
            "state": "Maharashtra",
            "country_code": "IN"
        },
        "images": [
            {
                "about": "All",
                "link": "https://lh5.googleusercontent.com/p/AF1QipO8uqQ3MFQ3izP2EhodbmpIO3fMj2V4g3Pw8cOk=w529-h298-k-no"
            },
            {
                "about": "Street View & 360deg",
                "link": "https://streetviewpixels-pa.googleapis.com/v1/thumbnail?panoid=weUZqj_jNEHFTfjhJmZjdw&cb_client=maps_sv.tactile.gps&w=224&h=298&yaw=132.25394&pitch=0&thumbfov=100"
            }
        ],
        "link": "https://www.google.com/maps/place/MAHEBUB-E+JANNAT/data=!4m7!3m6!1s0x3bc3a025106ec053:0xc569d68fe7a5c897!8m2!3d18.1436298!4d74.5835531!16s%2Fg%2F11dfj7qtsk!19sChIJU8BuECWgwzsRl8il54_WacU?authuser=0&hl=en&rclk=1",
        "coordinates": {
            "latitude": 18.1436298,
            "longitude": 74.5835531
        }
    },
    {
        "name": "Bagwan Masjid",
        "main_category": "Mosque",
        "address": "4HVF+RCC Bagwan Masjid, Baramati - Dahigaon Rd, Samarth Nagar, Baramati, Maharashtra 413102",
        "detailed_address": {
            "ward": "Samarth Nagar",
            "street": "4HVF+RCC, Baramati - Dahigaon Rd",
            "city": "Baramati",
            "postal_code": "413102",
            "state": "Maharashtra",
            "country_code": "IN"
        },
        "images": [
            {
                "about": "All",
                "link": "https://lh5.googleusercontent.com/p/AF1QipNKmvH-VOloVDnSqvDZ58xTU682MzPa-Q1DHFtL=w397-h298-k-no"
            },
            {
                "about": "Street View & 360deg",
                "link": "https://streetviewpixels-pa.googleapis.com/v1/thumbnail?panoid=DkIWti7Vb2vIQI_onE0gaw&cb_client=maps_sv.tactile.gps&w=224&h=298&yaw=190.4706&pitch=0&thumbfov=100"
            }
        ],
        "link": "https://www.google.com/maps/place/Bagwan+Masjid/data=!4m7!3m6!1s0x3bc3a115ecaa8cd7:0xb55063ea7c5b978c!8m2!3d18.144559!4d74.5735264!16s%2Fg%2F11gxrw346j!19sChIJ14yq7BWhwzsRjJdbfOpjULU?authuser=0&hl=en&rclk=1",
        "coordinates": {
            "latitude": 18.144558999999997,
            "longitude": 74.57352639999999
        }
    },
    {
        "name": "Eid-Gah Baramati City",
        "main_category": "Mosque",
        "address": "5H28+RM5 Eid-Gah Baramati City, Khandobanagar, Baramati, Maharashtra 413102",
        "detailed_address": {
            "ward": "Khandobanagar",
            "street": "5H28+RM5",
            "city": "Baramati",
            "postal_code": "413102",
            "state": "Maharashtra",
            "country_code": "IN"
        },
        "images": [
            {
                "about": "All",
                "link": "https://lh5.googleusercontent.com/p/AF1QipP3LNz6ck40OHqnMzVuOhsXbx7mSCq_Hr3iLPJZ=w397-h298-k-no"
            }
        ],
        "link": "https://www.google.com/maps/place/Eid-Gah+Baramati+City/data=!4m7!3m6!1s0x3bc3a06a7e72568f:0xbaa0e915e57f0741!8m2!3d18.1520176!4d74.5667289!16s%2Fg%2F11dzlc6v0r!19sChIJj1ZyfmqgwzsRQQd_5RXpoLo?authuser=0&hl=en&rclk=1",
        "coordinates": {
            "latitude": 18.1520176,
            "longitude": 74.5667289
        }
    },
    {
        "name": "Chiman Shah Dargah Baramati",
        "main_category": "Mosque",
        "address": "5H2F+PHG Chiman Shah Dargah Baramati, Baramati, Maharashtra 413102",
        "detailed_address": {
            "ward": null,
            "street": "5H2F+PHG",
            "city": "Baramati",
            "postal_code": "413102",
            "state": "Maharashtra",
            "country_code": "IN"
        },
        "images": [],
        "link": "https://www.google.com/maps/place/Chiman+Shah+Dargah+Baramati/data=!4m7!3m6!1s0x3bc3a03e22387c19:0xfe642c2ef9457883!8m2!3d18.1518047!4d74.5739525!16s%2Fg%2F11c674260n!19sChIJGXw4Ij6gwzsRg3hF-S4sZP4?authuser=0&hl=en&rclk=1",
        "coordinates": {
            "latitude": 18.1518047,
            "longitude": 74.57395249999999
        }
    },
    {
        "name": "Tandulwadi Masjid",
        "main_category": "Mosque",
        "address": "5HMP+CH8 Tandulwadi Masjid, Tandulwadi, Baramati, Maharashtra 413102",
        "detailed_address": {
            "ward": "Tandulwadi",
            "street": "5HMP+CH8",
            "city": "Baramati",
            "postal_code": "413102",
            "state": "Maharashtra",
            "country_code": "IN"
        },
        "images": [
            {
                "about": "All",
                "link": "https://lh5.googleusercontent.com/p/AF1QipNPO8WIS9Mne_1Fr5rcwCCQLB0N5xR4HPpzw94z=w529-h298-k-no"
            },
            {
                "about": "Street View & 360deg",
                "link": "https://streetviewpixels-pa.googleapis.com/v1/thumbnail?panoid=OgudHnU-SYO-4p46RLJRhg&cb_client=maps_sv.tactile.gps&w=224&h=298&yaw=208.1296&pitch=0&thumbfov=100"
            }
        ],
        "link": "https://www.google.com/maps/place/Tandulwadi+Masjid/data=!4m7!3m6!1s0x3bc30bbe7373071b:0x179e6d828b8ad55!8m2!3d18.1835342!4d74.5864579!16s%2Fg%2F11g24tq35t!19sChIJGwdzc74LwzsRVa24KNjmeQE?authuser=0&hl=en&rclk=1",
        "coordinates": {
            "latitude": 18.1835342,
            "longitude": 74.5864579
        }
    },
    {
        "name": "Amina Masjid",
        "main_category": "Mosque",
        "address": "5H5C+G86 Amina Masjid, Hingane Wasti, Sadguru Nagar, Baramati, Maharashtra 413102",
        "detailed_address": {
            "ward": "Hingane Wasti, Sadguru Nagar",
            "street": "5H5C+G86",
            "city": "Baramati",
            "postal_code": "413102",
            "state": "Maharashtra",
            "country_code": "IN"
        },
        "images": [],
        "link": "https://www.google.com/maps/place/Amina+Masjid/data=!4m7!3m6!1s0x3bc3a11f95c34b9f:0xbacf4c8aa83f663!8m2!3d18.158785!4d74.5707773!16s%2Fg%2F11n18t1dhd!19sChIJn0vDlR-hwzsRY_aDqsj0rAs?authuser=0&hl=en&rclk=1",
        "coordinates": {
            "latitude": 18.158784999999998,
            "longitude": 74.5707773
        }
    },
    {
        "name": "Mahedivaiya masjid baramati",
        "main_category": "Mosque",
        "address": "4HX8+7C8 Mahedivaiya masjid baramati, Old Morgaon Rd, Khandobanagar, Baramati, Maharashtra 413102",
        "detailed_address": {
            "ward": "Khandobanagar",
            "street": "4HX8+7C8, Old Morgaon Rd",
            "city": "Baramati",
            "postal_code": "413102",
            "state": "Maharashtra",
            "country_code": "IN"
        },
        "images": [],
        "link": "https://www.google.com/maps/place/Mahedivaiya+masjid+baramati/data=!4m7!3m6!1s0x3bc3a16cc830d13d:0xd3febd775589ec9a!8m2!3d18.148159!4d74.5660723!16s%2Fg%2F11s39nfj7n!19sChIJPdEwyGyhwzsRmuyJVXe9_tM?authuser=0&hl=en&rclk=1",
        "coordinates": {
            "latitude": 18.148159,
            "longitude": 74.5660723
        }
    },
    {
        "name": "Jamia Masjid",
        "main_category": "Mosque",
        "address": "4HXF+5C3 Jamia Masjid, Baramati, Maharashtra 413102",
        "detailed_address": {
            "ward": null,
            "street": "4HXF+5C3",
            "city": "Baramati",
            "postal_code": "413102",
            "state": "Maharashtra",
            "country_code": "IN"
        },
        "images": [],
        "link": "https://www.google.com/maps/place/Jamia+Masjid/data=!4m7!3m6!1s0x3bc3a03ec2900001:0x9977f7e2d674777f!8m2!3d18.1478791!4d74.5735602!16s%2Fg%2F11txmz16gs!19sChIJAQCQwj6gwzsRf3d01uL3d5k?authuser=0&hl=en&rclk=1",
        "coordinates": {
            "latitude": 18.1478791,
            "longitude": 74.5735602
        }
    },
    {
        "name": "Chhagan Shah dargah masjid Masjid",
        "main_category": "Mosque",
        "address": "5H29+JRV Chhagan Shah dargah masjid Masjid, Baramati, Maharashtra 413102",
        "detailed_address": {
            "ward": null,
            "street": "5H29+JRV",
            "city": "Baramati",
            "postal_code": null,
            "state": "Maharashtra",
            "country_code": "IN"
        },
        "images": [],
        "link": "https://www.google.com/maps/place/Chhagan+Shah+dargah+masjid+Masjid/data=!4m7!3m6!1s0x3bc3a1153c7bbf57:0xb5ce9723fade83de!8m2!3d18.151616!4d74.5694447!16s%2Fg%2F11sv_gbynf!19sChIJV797PBWhwzsR3oPe-iOXzrU?authuser=0&hl=en&rclk=1",
        "coordinates": {
            "latitude": 18.151616,
            "longitude": 74.56944469999999
        }
    },
    {
        "name": "H.rajbaghsawar dargha,amrai,baramati",
        "main_category": "Mosque",
        "address": "H, H.rajbaghsawar dargha,amrai,baramati, Rajbaghsawar dargha, Shivdatta Apartment, Amrai, Baramati, Maharashtra 413102",
        "detailed_address": {
            "ward": "Shivdatta Apartment, Amrai",
            "street": "H, Rajbaghsawar dargha",
            "city": "Baramati",
            "postal_code": "413102",
            "state": "Maharashtra",
            "country_code": "IN"
        },
        "images": [],
        "link": "https://www.google.com/maps/place/H.rajbaghsawar+dargha,amrai,baramati/data=!4m7!3m6!1s0x3bc3a1b50be6a285:0x434e7b2399d2de76!8m2!3d18.1477774!4d74.5778125!16s%2Fg%2F11pcpx_mrb!19sChIJhaLmC7WhwzsRdt7SmSN7TkM?authuser=0&hl=en&rclk=1",
        "coordinates": {
            "latitude": 18.1477774,
            "longitude": 74.5778125
        }
    },
    {
        "name": "Rajbaghsawar Dargah",
        "main_category": "Mosque",
        "address": "4HXH+F28 Rajbaghsawar Dargah, NEAR PDC BANK VADAKE, Shivdatta Apartment, Sadguru Nagar, Baramati, Maharashtra 413102",
        "detailed_address": {
            "ward": "Shivdatta Apartment, Sadguru Nagar",
            "street": "4HXH+F28, NEAR PDC BANK VADAKE",
            "city": "Baramati",
            "postal_code": "413102",
            "state": "Maharashtra",
            "country_code": "IN"
        },
        "images": [
            {
                "about": "All",
                "link": "https://streetviewpixels-pa.googleapis.com/v1/thumbnail?panoid=Q2yfeVumYupmJrUED434NQ&cb_client=maps_sv.tactile.gps&w=224&h=298&yaw=124.738716&pitch=0&thumbfov=100"
            },
            {
                "about": "Street View & 360deg",
                "link": "https://streetviewpixels-pa.googleapis.com/v1/thumbnail?panoid=Q2yfeVumYupmJrUED434NQ&cb_client=maps_sv.tactile.gps&w=224&h=298&yaw=124.738716&pitch=0&thumbfov=100"
            }
        ],
        "link": "https://www.google.com/maps/place/Rajbaghsawar+Dargah/data=!4m7!3m6!1s0x3bc3a1ecfcf078b1:0xabf072399ac50956!8m2!3d18.1486688!4d74.5775788!16s%2Fg%2F11fhlb116h!19sChIJsXjw_OyhwzsRVgnFmjly8Ks?authuser=0&hl=en&rclk=1",
        "coordinates": {
            "latitude": 18.1486688,
            "longitude": 74.5775788
        }
    }
]