[
    {
        "name": "Jumma Masjid",
        "main_category": "Mosque",
        "address": "XPGC+C8M Jumma Masjid, Taiwada, Dahanu, Maharashtra 401601",
        "detailed_address": {
            "ward": "Taiwada",
            "street": "XPGC+C8M",
            "city": "Dahanu",
            "postal_code": "401601",
            "state": "Maharashtra",
            "country_code": "IN"
        },
        "images": [
            {
                "about": "All",
                "link": "https://lh5.googleusercontent.com/p/AF1QipPnQxzoHN3sxPdl4W3shtDCHoYqIfZ3UaJxWny7=w596-h298-k-no"
            }
        ],
        "link": "https://www.google.com/maps/place/Jumma+Masjid/data=!4m7!3m6!1s0x3be7276579f6d681:0x3289ab5b3ebac93e!8m2!3d19.976094!4d72.7207971!16s%2Fg%2F11c1w0b4h0!19sChIJgdb2eWUn5zsRPsm6PluriTI?authuser=0&hl=en&rclk=1",
        "coordinates": {
            "latitude": 19.976094,
            "longitude": 72.7207971
        }
    },
    {
        "name": "Masjid E Darul Arqam",
        "main_category": "Mosque",
        "address": "XPRW+JXC Masjid E Darul Arqam, Patel Pada, Dahanu, Maharashtra 401602",
        "detailed_address": {
            "ward": "Patel Pada",
            "street": "XPRW+JXC",
            "city": "Dahanu",
            "postal_code": "401602",
            "state": "Maharashtra",
            "country_code": "IN"
        },
        "images": [
            {
                "about": "All",
                "link": "https://lh5.googleusercontent.com/p/AF1QipOJhE45YQn3DG5H5lybgh9S9OHx8fNfHNgI-Udu=w529-h298-k-no"
            }
        ],
        "link": "https://www.google.com/maps/place/Masjid+E+Darul+Arqam/data=!4m7!3m6!1s0x3be72707977c4919:0x7c6dfe99f74d7422!8m2!3d19.9915674!4d72.7473845!16s%2Fg%2F11g9ngwf1h!19sChIJGUl8lwcn5zsRInRN95n-bXw?authuser=0&hl=en&rclk=1",
        "coordinates": {
            "latitude": 19.991567399999997,
            "longitude": 72.7473845
        }
    },
    {
        "name": "Nagina Masjid",
        "main_category": "Mosque",
        "address": "XPH9+6VC Nagina Masjid, Shringarpur, Dahanu, Maharashtra 401601",
        "detailed_address": {
            "ward": "Shringarpur",
            "street": "XPH9+6VC",
            "city": "Dahanu",
            "postal_code": "401601",
            "state": "Maharashtra",
            "country_code": "IN"
        },
        "images": [
            {
                "about": "All",
                "link": "https://lh5.googleusercontent.com/p/AF1QipOTOt47yAfAHky81x0ydrBZ4-njlumLLaKrG1Wa=w224-h398-k-no"
            },
            {
                "about": "Dome",
                "link": "https://lh5.googleusercontent.com/p/AF1QipM8c1J1KOR-ViBE1_78afV6s4DIu4PnuCseMDxC=w224-h398-k-no"
            }
        ],
        "link": "https://www.google.com/maps/place/Nagina+Masjid/data=!4m7!3m6!1s0x3be727eae60dfc1b:0x859b66c36fef87d1!8m2!3d19.9780565!4d72.7196321!16s%2Fg%2F11h70sfjdv!19sChIJG_wN5uon5zsR0Yfvb8Nmm4U?authuser=0&hl=en&rclk=1",
        "coordinates": {
            "latitude": 19.978056499999997,
            "longitude": 72.7196321
        }
    },
    {
        "name": "Dahanu Jama Masjid",
        "main_category": "Place of worship",
        "address": "XPQV+Q8Q Dahanu Jama Masjid, Malyan, Dahanu, Maharashtra 401601",
        "detailed_address": {
            "ward": "Malyan",
            "street": "XPQV+Q8Q",
            "city": "Dahanu",
            "postal_code": "401601",
            "state": "Maharashtra",
            "country_code": "IN"
        },
        "images": [
            {
                "about": "All",
                "link": "https://lh5.googleusercontent.com/p/AF1QipMSAyz90ItT8YTKSZJrkMGypzPClUDUM8iu_uYD=w224-h398-k-no"
            }
        ],
        "link": "https://www.google.com/maps/place/Dahanu+Jama+Masjid/data=!4m7!3m6!1s0x3be7270858ec72eb:0xe2f0887bfd9dae2b!8m2!3d19.9894535!4d72.7433706!16s%2Fg%2F11fy_fybrj!19sChIJ63LsWAgn5zsRK66d_XuI8OI?authuser=0&hl=en&rclk=1",
        "coordinates": {
            "latitude": 19.9894535,
            "longitude": 72.74337059999999
        }
    },
    {
        "name": "Dawoodi Bohra Masjid",
        "main_category": "Mosque",
        "address": "Dawoodi Bohra Masjid, Radha Swami Satsang Byas East 401602, Dahanu, Maharashtra",
        "detailed_address": {
            "ward": "Pakadi",
            "street": "Radha Swami Satsang Byas East 401602",
            "city": "Dahanu, Raipada",
            "postal_code": null,
            "state": "Maharashtra",
            "country_code": "IN"
        },
        "images": [],
        "link": "https://www.google.com/maps/place/Dawoodi+Bohra+Masjid/data=!4m7!3m6!1s0x3be727bdbd4e7779:0xfb728d33c85f157!8m2!3d19.9852705!4d72.7553453!16s%2Fg%2F11fk7_vsk1!19sChIJeXdOvb0n5zsRV_GFPNMotw8?authuser=0&hl=en&rclk=1",
        "coordinates": {
            "latitude": 19.9852705,
            "longitude": 72.7553453
        }
    },
    {
        "name": "Savata Sunnat Jamat Masjid",
        "main_category": "Mosque",
        "address": "XQ8C+4VP Savata Sunnat Jamat Masjid, At Post Sarvali Savata Savata Sunnat, Dahanu",
        "detailed_address": {
            "ward": null,
            "street": "XQ8C+4VP, At Post Sarvali Savata Savata Sunnat",
            "city": "Dahanu",
            "postal_code": null,
            "state": "Maharashtra",
            "country_code": "IN"
        },
        "images": [
            {
                "about": "All",
                "link": "https://lh5.googleusercontent.com/p/AF1QipOFeOnUSuinnPXgQG-4rNEOqilxHTYrsJx68k4a=w224-h398-k-no"
            },
            {
                "about": "Dome",
                "link": "https://lh5.googleusercontent.com/p/AF1QipPCMYPohAdRcYMDMfDV7vQJBCfcCe3vgbHKjOCj=w298-h298-k-no"
            },
            {
                "about": "Videos",
                "link": "https://lh5.googleusercontent.com/p/AF1QipODuePVtNSvkPHFUbI1jfj24ycuSFegR5CcrlVD=w541-h298-k-no"
            }
        ],
        "link": "https://www.google.com/maps/place/Savata+Sunnat+Jamat+Masjid/data=!4m7!3m6!1s0x3be7274c5242b829:0x44f2f4e0b37d9381!8m2!3d19.9653262!4d72.7721879!16s%2Fg%2F11frf3rrxr!19sChIJKbhCUkwn5zsRgZN9s-D08kQ?authuser=0&hl=en&rclk=1",
        "coordinates": {
            "latitude": 19.9653262,
            "longitude": 72.77218789999999
        }
    },
    {
        "name": "Madrasa Faizan-e- Raza",
        "main_category": "Mosque",
        "address": "XPRW+GVM Madrasa Faizan-e- Raza, Patel Pada, Dahanu, Maharashtra 401602",
        "detailed_address": {
            "ward": "Patel Pada",
            "street": "XPRW+GVM",
            "city": "Dahanu",
            "postal_code": "401602",
            "state": "Maharashtra",
            "country_code": "IN"
        },
        "images": [
            {
                "about": "All",
                "link": "https://lh5.googleusercontent.com/p/AF1QipNCydmMRC0bXhw0JeDDwltsaEGqhZpeg3Yr5Qk9=w224-h298-k-no"
            }
        ],
        "link": "https://www.google.com/maps/place/Madrasa+Faizan-e-+Raza/data=!4m7!3m6!1s0x3be727079627fe9d:0x8a37e81505fbafc5!8m2!3d19.991338!4d72.7471663!16s%2Fg%2F11hbn2k1kv!19sChIJnf4nlgcn5zsRxa_7BRXoN4o?authuser=0&hl=en&rclk=1",
        "coordinates": {
            "latitude": 19.991338,
            "longitude": 72.7471663
        }
    },
    {
        "name": "Shia Imami Ismail Jamatkhana",
        "main_category": "Mosque",
        "address": "XPVW+6R7 Shia Imami Ismail Jamatkhana, Patel Pada Rd, Patel Pada, Dahanu, Maharashtra 401602",
        "detailed_address": {
            "ward": "Patel Pada",
            "street": "XPVW+6R7, Patel Pada Rd",
            "city": "Dahanu",
            "postal_code": "401602",
            "state": "Maharashtra",
            "country_code": "IN"
        },
        "images": [],
        "link": "https://www.google.com/maps/place/Shia+Imami+Ismail+Jamatkhana/data=!4m7!3m6!1s0x3be727078857b20d:0x430424ba5bf9108d!8m2!3d19.9930479!4d72.747057!16s%2Fg%2F11c5_rgjds!19sChIJDbJXiAcn5zsRjRD5W7okBEM?authuser=0&hl=en&rclk=1",
        "coordinates": {
            "latitude": 19.9930479,
            "longitude": 72.747057
        }
    },
    {
        "name": "Burhani Masjid (Vohra Masjid)",
        "main_category": "Mosque",
        "address": "Burhani Masjid (Vohra Masjid), Radha Swami Satsang Byas East 401602, Pakadi, Dahanu, Maharashtra 401602",
        "detailed_address": {
            "ward": "Pakadi",
            "street": "Radha Swami Satsang Byas East 401602",
            "city": "Dahanu, Raipada",
            "postal_code": "401602",
            "state": "Maharashtra",
            "country_code": "IN"
        },
        "images": [],
        "link": "https://www.google.com/maps/place/Burhani+Masjid+%28Vohra+Masjid%29/data=!4m7!3m6!1s0x3be727402afb683b:0x61c4692439810957!8m2!3d19.985271!4d72.755345!16s%2Fg%2F11j1m_yls6!19sChIJO2j7KkAn5zsRVwmBOSRpxGE?authuser=0&hl=en&rclk=1",
        "coordinates": {
            "latitude": 19.985270999999997,
            "longitude": 72.75534499999999
        }
    },
    {
        "name": "Darul Uloom Nizamiya, Madarsa, Masjid",
        "main_category": "Place of worship",
        "address": "Darul Uloom Nizamiya, Madarsa, Masjid, Ram Tekdi, 401602, Dahanu, Maharashtra",
        "detailed_address": {
            "ward": "Gopipura",
            "street": "Ram Tekdi, 401602",
            "city": "Dahanu",
            "postal_code": null,
            "state": "Maharashtra",
            "country_code": "IN"
        },
        "images": [
            {
                "about": "All",
                "link": "https://lh5.googleusercontent.com/p/AF1QipMDTRKS3UlhccQTrGB7FFhrnOGkBq6wEXZG3DCk=w224-h298-k-no"
            }
        ],
        "link": "https://www.google.com/maps/place/Darul+Uloom+Nizamiya,+Madarsa,+Masjid/data=!4m7!3m6!1s0x3be727060bbf608d:0xb9dfaa5d72da91cc!8m2!3d19.9871944!4d72.7463831!16s%2Fg%2F11f10fg1ts!19sChIJjWC_CwYn5zsRzJHacl2q37k?authuser=0&hl=en&rclk=1",
        "coordinates": {
            "latitude": 19.9871944,
            "longitude": 72.7463831
        }
    },
    {
        "name": "Masjid - E - Nabuvat (Mosque)",
        "main_category": "Mosque",
        "address": "XQP2+FVM Masjid - E - Nabuvat (Mosque), Pakadi, Dahanu, Raipada, Maharashtra 401602",
        "detailed_address": {
            "ward": "Pakadi",
            "street": "XQP2+FVM",
            "city": "Dahanu, Raipada",
            "postal_code": "401602",
            "state": "Maharashtra",
            "country_code": "IN"
        },
        "images": [],
        "link": "https://www.google.com/maps/place/Masjid+-+E+-+Nabuvat+%28Mosque%29/data=!4m7!3m6!1s0x3be727cecc1f4d1d:0xe3f94432a74b77b5!8m2!3d19.9862151!4d72.7521569!16s%2Fg%2F11rcrb3c7n!19sChIJHU0fzM4n5zsRtXdLpzJE-eM?authuser=0&hl=en&rclk=1",
        "coordinates": {
            "latitude": 19.9862151,
            "longitude": 72.7521569
        }
    },
    {
        "name": "Bohri Masjid",
        "main_category": "Mosque",
        "address": "XQP4+65X Bohri Masjid, Unnamed Road, Pakadi, Dahanu, Raipada, Maharashtra 401602",
        "detailed_address": {
            "ward": "Pakadi",
            "street": "XQP4+65X, Unnamed Road",
            "city": "Dahanu, Raipada",
            "postal_code": "401602",
            "state": "Maharashtra",
            "country_code": "IN"
        },
        "images": [],
        "link": "https://www.google.com/maps/place/Bohri+Masjid/data=!4m7!3m6!1s0x3be727f5c798c2c9:0x31d852ec68a82ad3!8m2!3d19.9856094!4d72.7554894!16s%2Fg%2F11h_2dg1qq!19sChIJycKYx_Un5zsR0yqoaOxS2DE?authuser=0&hl=en&rclk=1",
        "coordinates": {
            "latitude": 19.985609399999998,
            "longitude": 72.7554894
        }
    },
    {
        "name": "Jumma masjid, Taiwada chawl",
        "main_category": "Housing complex",
        "address": "XPGC+CGW Jumma masjid, Taiwada chawl, Shringarpur, Dahanu, Maharashtra 401601",
        "detailed_address": {
            "ward": "Shringarpur",
            "street": "XPGC+CGW",
            "city": "Dahanu",
            "postal_code": null,
            "state": "Maharashtra",
            "country_code": "IN"
        },
        "images": [
            {
                "about": "All",
                "link": "https://lh5.googleusercontent.com/p/AF1QipNBxDLVNsBPBicDyAACmtQgUFXJCL6G5YXn8hno=w815-h298-k-no"
            },
            {
                "about": "Exterior",
                "link": "https://lh5.googleusercontent.com/p/AF1QipNBxDLVNsBPBicDyAACmtQgUFXJCL6G5YXn8hno=w815-h298-k-no"
            },
            {
                "about": "From visitors",
                "link": "https://lh5.googleusercontent.com/p/AF1QipNBxDLVNsBPBicDyAACmtQgUFXJCL6G5YXn8hno=w815-h298-k-no"
            }
        ],
        "link": "https://www.google.com/maps/place/Jumma+masjid,+Taiwada+chawl/data=!4m7!3m6!1s0x3be727b1a54f9d8d:0x720460237f5998d2!8m2!3d19.9761129!4d72.7213228!16s%2Fg%2F11k9m_1zf5!19sChIJjZ1PpbEn5zsR0phZfyNgBHI?authuser=0&hl=en&rclk=1",
        "coordinates": {
            "latitude": 19.9761129,
            "longitude": 72.7213228
        }
    }
]