[
    {
        "name": "Raza Jama Masjid Amarpatan",
        "main_category": "Mosque",
        "address": "Raza Jama Masjid Amarpatan, purani basti Raza Marg maniharan tola Raza ground, Purani basti, Amarpatan, Madhya Pradesh 485775",
        "detailed_address": {
            "ward": "Purani basti",
            "street": "purani basti Raza Marg maniharan tola Raza ground",
            "city": "Amarpatan",
            "postal_code": "485775",
            "state": "Madhya Pradesh",
            "country_code": "IN"
        },
        "images": [
            {
                "about": "All",
                "link": "https://lh5.googleusercontent.com/p/AF1QipMJ5ti_mo-svFYDB4X9phnUBdWOh7a-HFQ9uWZb=w224-h327-k-no"
            },
            {
                "about": "Dome",
                "link": "https://lh5.googleusercontent.com/p/AF1QipN1F_2hvZQ9muiX4doWpuGOHGYhU9NLJ3fixPIP=w397-h298-k-no"
            },
            {
                "about": "Videos",
                "link": "https://lh5.googleusercontent.com/p/AF1QipNcfLTIV1VfB0FbrYnlg3OMC5QPrpWOlr1xhYoj=w224-h398-k-no"
            },
            {
                "about": "By owner",
                "link": "https://lh5.googleusercontent.com/p/AF1QipOABeJaHs8pa1aHDKObPWLOKaNW9fR3dQf6RmAl=w397-h298-k-no"
            }
        ],
        "link": "https://www.google.com/maps/place/Raza+Jama+Masjid+Amarpatan/data=!4m7!3m6!1s0x3984727abf1b2b87:0x1e1e185d53359b02!8m2!3d24.3135361!4d80.9772246!16s%2Fg%2F11cs40hrtl!19sChIJhysbv3pyhDkRAps1U10YHh4?authuser=0&hl=en&rclk=1",
        "coordinates": {
            "latitude": 24.3135361,
            "longitude": 80.9772246
        }
    },
    {
        "name": "Madina Masjid Amrpatan",
        "main_category": "Mosque",
        "address": "8X7J+RFG Madina Masjid Amrpatan, Amarpatan, Madhya Pradesh 485775",
        "detailed_address": {
            "ward": null,
            "street": "8X7J+RFG",
            "city": "Amarpatan",
            "postal_code": "485775",
            "state": "Madhya Pradesh",
            "country_code": "IN"
        },
        "images": [
            {
                "about": "All",
                "link": "https://lh5.googleusercontent.com/p/AF1QipMW7Up1tRC0i_XuQ78f9K0bUpQC9GlXWHpygEAR=w224-h395-k-no"
            },
            {
                "about": "Videos",
                "link": "https://lh5.googleusercontent.com/p/AF1QipMV6E635LQJC8rEpCNbxI3VVo9LSXvf_SiMtihG=w224-h395-k-no"
            }
        ],
        "link": "https://www.google.com/maps/place/Madina+Masjid+Amrpatan/data=!4m7!3m6!1s0x3984727a0477cb7b:0x1bb50baa8e7c0cc5!8m2!3d24.314571!4d80.9811896!16s%2Fg%2F11c6061qpv!19sChIJe8t3BHpyhDkRxQx8jqoLtRs?authuser=0&hl=en&rclk=1",
        "coordinates": {
            "latitude": 24.314570999999997,
            "longitude": 80.9811896
        }
    },
    {
        "name": "Eid Gah Masjid Amarpatan",
        "main_category": "Mosque",
        "address": "8X7F+R6G Eid Gah Masjid Amarpatan, Amarpatan, Madhya Pradesh 485775",
        "detailed_address": {
            "ward": null,
            "street": "8X7F+R6G",
            "city": "Amarpatan",
            "postal_code": "485775",
            "state": "Madhya Pradesh",
            "country_code": "IN"
        },
        "images": [
            {
                "about": "All",
                "link": "https://lh5.googleusercontent.com/p/AF1QipMmU4z-qBYdJFYO2uKUftCXHdATZd9kKFjUXljK=w285-h298-k-no"
            },
            {
                "about": "Dome",
                "link": "https://lh5.googleusercontent.com/p/AF1QipNkZoFg6QbPqo5o3j_ajSgT3PobDCWn4Mjb2II2=w233-h298-k-no"
            }
        ],
        "link": "https://www.google.com/maps/place/Eid+Gah+Masjid+Amarpatan/data=!4m7!3m6!1s0x39847265805ba665:0x30de35cb42d4556!8m2!3d24.3145618!4d80.9730779!16s%2Fg%2F11c60720xv!19sChIJZaZbgGVyhDkRVkUttFzjDQM?authuser=0&hl=en&rclk=1",
        "coordinates": {
            "latitude": 24.3145618,
            "longitude": 80.97307789999999
        }
    },
    {
        "name": "Madina masjid amarpatan",
        "main_category": "Mosque",
        "address": "8X9F+379 Madina masjid amarpatan, Madina masjid, Amarpatan, Madhya Pradesh",
        "detailed_address": {
            "ward": "Rahamathnagar",
            "street": "8X9F+379, Madina masjid",
            "city": "Amarpatan",
            "postal_code": null,
            "state": "Madhya Pradesh",
            "country_code": "IN"
        },
        "images": [],
        "link": "https://www.google.com/maps/place/Madina+masjid+amarpatan/data=!4m7!3m6!1s0x3984726effffffff:0xf19794b179955040!8m2!3d24.3176544!4d80.9732347!16s%2Fg%2F11dz40kh8g!19sChIJ_____25yhDkRQFCVebGUl_E?authuser=0&hl=en&rclk=1",
        "coordinates": {
            "latitude": 24.3176544,
            "longitude": 80.97323469999999
        }
    },
    {
        "name": "Qadri Masjid Amarpatan",
        "main_category": "Mosque",
        "address": "8X7G+RCR Qadri Masjid Amarpatan, Amarpatan, Madhya Pradesh 485775",
        "detailed_address": {
            "ward": null,
            "street": "8X7G+RCR",
            "city": "Amarpatan",
            "postal_code": "485775",
            "state": "Madhya Pradesh",
            "country_code": "IN"
        },
        "images": [
            {
                "about": "All",
                "link": "https://lh5.googleusercontent.com/p/AF1QipMGMZOoX9CiduxDOk-YOfP9jgRWHR2L79dIpkZO=w338-h298-k-no"
            },
            {
                "about": "Dome",
                "link": "https://lh5.googleusercontent.com/p/AF1QipOuKeTJhcVooC7GFCuSMSSjxSivt72SPsQyXRBg=w224-h317-k-no"
            }
        ],
        "link": "https://www.google.com/maps/place/Qadri+Masjid+Amarpatan/data=!4m7!3m6!1s0x398470ffffffffff:0xd1e8bf63aa136678!8m2!3d24.3146033!4d80.9760216!16s%2Fg%2F11c2pn1249!19sChIJ______9whDkReGYTqmO_6NE?authuser=0&hl=en&rclk=1",
        "coordinates": {
            "latitude": 24.314603299999998,
            "longitude": 80.9760216
        }
    }
]