[
    {
        "name": "Moorish Mosque",
        "main_category": "Mosque",
        "address": "Shop No-162, 99CJ+3CX Moorish Mosque, 167, Circular Road, Kapurthala, Punjab 144602",
        "detailed_address": {
            "ward": null,
            "street": "Shop No-162, 99CJ+3CX, 167, Circular Road",
            "city": "Kapurthala",
            "postal_code": "144602",
            "state": "Punjab",
            "country_code": "IN"
        },
        "images": [
            {
                "about": "All",
                "link": "https://lh5.googleusercontent.com/p/AF1QipOmq6w9mpRGjokoutmotMiMgPFogOnLWHvPeiEe=w529-h298-k-no"
            },
            {
                "about": "Latest",
                "link": "https://lh5.googleusercontent.com/p/AF1QipOZwpJiuQnjBPRxL0BKe1LbdPwPyPUEE-XTn2Lc=w238-h298-k-no"
            },
            {
                "about": "Videos",
                "link": "https://lh5.googleusercontent.com/p/AF1QipNhM_HIPjOX4vqv7Gj8EWXIcOK59JqcSAXTp3IP=w224-h298-k-no"
            }
        ],
        "link": "https://www.google.com/maps/place/Moorish+Mosque/data=!4m7!3m6!1s0x391a48515f5d5ce9:0x4a98b887a9a83233!8m2!3d31.3698068!4d75.3807489!16s%2Fm%2F0130wxvt!19sChIJ6VxdX1FIGjkRMzKoqYe4mEo?authuser=0&hl=en&rclk=1",
        "coordinates": {
            "latitude": 31.3698068,
            "longitude": 75.3807489
        }
    },
    {
        "name": "Masjid",
        "main_category": "Mosque",
        "address": "99PH+652 Masjid, Laxmi Nagar, Kapurthala, Punjab 144602",
        "detailed_address": {
            "ward": "Laxmi Nagar",
            "street": "99PH+652",
            "city": "Kapurthala",
            "postal_code": "144602",
            "state": "Punjab",
            "country_code": "IN"
        },
        "images": [
            {
                "about": "All",
                "link": "https://lh5.googleusercontent.com/p/AF1QipPfoNiM-UkmvSLq78HD25VeOu-lRZzIU0UrqRo=w224-h298-k-no"
            },
            {
                "about": "Street View & 360deg",
                "link": "https://streetviewpixels-pa.googleapis.com/v1/thumbnail?panoid=EHj-sDBDcQZen62Xzzu11A&cb_client=maps_sv.tactile.gps&w=224&h=298&yaw=58.184273&pitch=0&thumbfov=100"
            }
        ],
        "link": "https://www.google.com/maps/place/Masjid/data=!4m7!3m6!1s0x391a49af924ca903:0xe723fdbccede1b58!8m2!3d31.3855183!4d75.3779002!16s%2Fg%2F11c61qv34q!19sChIJA6lMkq9JGjkRWBvezrz9I-c?authuser=0&hl=en&rclk=1",
        "coordinates": {
            "latitude": 31.385518299999998,
            "longitude": 75.3779002
        }
    },
    {
        "name": "LAHORI GATE MASJID",
        "main_category": "Mosque",
        "address": "99JH+W3H LAHORI GATE MASJID, Laxmi Nagar, Kapurthala, Punjab 144602",
        "detailed_address": {
            "ward": "Laxmi Nagar",
            "street": "99JH+W3H",
            "city": "Kapurthala",
            "postal_code": "144602",
            "state": "Punjab",
            "country_code": "IN"
        },
        "images": [
            {
                "about": "All",
                "link": "https://lh5.googleusercontent.com/p/AF1QipOidVKvlna7WMVj1MW8SrzQIbn-uhcqtvVU12dq=w224-h298-k-no"
            }
        ],
        "link": "https://www.google.com/maps/place/LAHORI+GATE+MASJID/data=!4m7!3m6!1s0x391a49cd058a2e71:0x293e67a1034a0b3e!8m2!3d31.3823018!4d75.3777385!16s%2Fg%2F11h773b2y2!19sChIJcS6KBc1JGjkRPgtKA6FnPik?authuser=0&hl=en&rclk=1",
        "coordinates": {
            "latitude": 31.382301799999997,
            "longitude": 75.37773849999999
        }
    },
    {
        "name": "Fateh Wali Masjid",
        "main_category": "Religious destination",
        "address": "99JJ+3MM Fateh Wali Masjid, Sadar Bazar, Kapurthala, Punjab 144602",
        "detailed_address": {
            "ward": "Sadar Bazar",
            "street": "99JJ+3MM",
            "city": "Kapurthala",
            "postal_code": "144602",
            "state": "Punjab",
            "country_code": "IN"
        },
        "images": [
            {
                "about": "All",
                "link": "https://lh5.googleusercontent.com/p/AF1QipOIxMBMbbX_MT9PItLrmt6yGG-jxYpl6pVNzdhP=w529-h298-k-no"
            }
        ],
        "link": "https://www.google.com/maps/place/Fateh+Wali+Masjid/data=!4m7!3m6!1s0x391a49ac0eaaaaab:0xf28eca49db0f0138!8m2!3d31.3802219!4d75.3816596!16s%2Fg%2F11g9mdkrsg!19sChIJq6qqDqxJGjkROAEP20nKjvI?authuser=0&hl=en&rclk=1",
        "coordinates": {
            "latitude": 31.3802219,
            "longitude": 75.38165959999999
        }
    },
    {
        "name": "Ahmadiyya Mosque Kapurthala",
        "main_category": "Mosque",
        "address": "99HH+CX6 Ahmadiyya Mosque Kapurthala, Unnamed Road, Shiv Colony, Kapurthala, Punjab 144602",
        "detailed_address": {
            "ward": "Shiv Colony",
            "street": "99HH+CX6, Unnamed Road",
            "city": "Kapurthala",
            "postal_code": "144602",
            "state": "Punjab",
            "country_code": "IN"
        },
        "images": [],
        "link": "https://www.google.com/maps/place/Ahmadiyya+Mosque+Kapurthala/data=!4m7!3m6!1s0x391a49c1ff9027af:0xfe038cf0a4b899e4!8m2!3d31.3785436!4d75.3798923!16s%2Fg%2F11k5hxzc28!19sChIJryeQ_8FJGjkR5Jm4pPCMA_4?authuser=0&hl=en&rclk=1",
        "coordinates": {
            "latitude": 31.378543599999997,
            "longitude": 75.3798923
        }
    },
    {
        "name": "Mosque",
        "main_category": "Mosque",
        "address": "9CQ5+RQM Mosque, Kadupur, Kapurthala, Punjab 144602",
        "detailed_address": {
            "ward": "Kadupur",
            "street": "9CQ5+RQM",
            "city": "Kapurthala",
            "postal_code": "144602",
            "state": "Punjab",
            "country_code": "IN"
        },
        "images": [
            {
                "about": "All",
                "link": "https://lh5.googleusercontent.com/p/AF1QipNbRQPOGwuiwMwiZf-YFUA3iL7ObZkA4noO1yCH=w224-h298-k-no"
            },
            {
                "about": "Dome",
                "link": "https://lh5.googleusercontent.com/p/AF1QipOJQzaKFbGuwHJMtE8WZ3J0Rs_A4Gu8JS0vzWDF=w397-h298-k-no"
            },
            {
                "about": "Street View & 360deg",
                "link": "https://streetviewpixels-pa.googleapis.com/v1/thumbnail?panoid=vXDlLOKfrv1U3kAWA40VfQ&cb_client=maps_sv.tactile.gps&w=224&h=298&yaw=320.06607&pitch=0&thumbfov=100"
            }
        ],
        "link": "https://www.google.com/maps/place/Mosque/data=!4m7!3m6!1s0x391a4947023ae853:0x80b49ee675f96db3!8m2!3d31.38958!4d75.4094136!16s%2Fg%2F11fm_9cl83!19sChIJU-g6AkdJGjkRs235deaetIA?authuser=0&hl=en&rclk=1",
        "coordinates": {
            "latitude": 31.38958,
            "longitude": 75.4094136
        }
    },
    {
        "name": "Masjid Seenpur",
        "main_category": "Mosque",
        "address": "99WV+3P8 Masjid Seenpur, Guru Nanak Nagar, Seenpur, Kapurthala, Punjab 144602",
        "detailed_address": {
            "ward": "Guru Nanak Nagar",
            "street": "99WV+3P8",
            "city": "Seenpur, Kapurthala",
            "postal_code": "144602",
            "state": "Punjab",
            "country_code": "IN"
        },
        "images": [],
        "link": "https://www.google.com/maps/place/Masjid+Seenpur/data=!4m7!3m6!1s0x391a49a7373bfdf5:0xe02cbd0ffd8369f7!8m2!3d31.3951618!4d75.3943377!16s%2Fg%2F11rfrbbkx1!19sChIJ9f07N6dJGjkR92mD_Q-9LOA?authuser=0&hl=en&rclk=1",
        "coordinates": {
            "latitude": 31.3951618,
            "longitude": 75.3943377
        }
    }
]