[
    {
        "name": "Sunni Ilahi Masjid Garyan Mohalla",
        "main_category": "Mosque",
        "address": "4FJJ+999 Sunni Ilahi Masjid Garyan Mohalla, gariyan mohalla, Nakodar, Punjab",
        "detailed_address": {
            "ward": "Guru Teg Bahadur Nagar",
            "street": "4FJJ+999, gariyan mohalla",
            "city": "Nakodar",
            "postal_code": null,
            "state": "Punjab",
            "country_code": "IN"
        },
        "images": [
            {
                "about": "All",
                "link": "https://lh5.googleusercontent.com/p/AF1QipOUxI0VRzJ3d3JNaECe9L68aeIxkOZ8PtrgBWJK=w257-h298-k-no"
            },
            {
                "about": "Street View & 360deg",
                "link": "https://streetviewpixels-pa.googleapis.com/v1/thumbnail?panoid=dr0vEXx0uw_Su5izdxeVyg&cb_client=maps_sv.tactile.gps&w=224&h=298&yaw=200.63148&pitch=0&thumbfov=100"
            }
        ],
        "link": "https://www.google.com/maps/place/Sunni+Ilahi+Masjid+Garyan+Mohalla/data=!4m7!3m6!1s0x391a69b2b3ff9fdb:0x222084976e6d6192!8m2!3d31.1309014!4d75.4809994!16s%2Fg%2F11c5sx2w2t!19sChIJ25__s7JpGjkRkmFtbpeEICI?authuser=0&hl=en&rclk=1",
        "coordinates": {
            "latitude": 31.1309014,
            "longitude": 75.4809994
        }
    },
    {
        "name": "Madni Masjid Nakodar",
        "main_category": "Mosque",
        "address": "4FFC+QV7 Madni Masjid Nakodar, Sufi Mohalla, Khiwa, Nakodar, Punjab 144040",
        "detailed_address": {
            "ward": "Sufi Mohalla, Khiwa",
            "street": "4FFC+QV7",
            "city": "Nakodar",
            "postal_code": "144040",
            "state": "Punjab",
            "country_code": "IN"
        },
        "images": [
            {
                "about": "All",
                "link": "https://lh5.googleusercontent.com/p/AF1QipOzUtOACgK80PgolkRdDTGZew4tPQKhxHHNSig-=w224-h298-k-no"
            }
        ],
        "link": "https://www.google.com/maps/place/Madni+Masjid+Nakodar/data=!4m7!3m6!1s0x391a6906ed359677:0xa7068f97df6d3a56!8m2!3d31.1244124!4d75.4721734!16s%2Fg%2F11c5zx8jd1!19sChIJd5Y17QZpGjkRVjpt35ePBqc?authuser=0&hl=en&rclk=1",
        "coordinates": {
            "latitude": 31.124412399999997,
            "longitude": 75.4721734
        }
    },
    {
        "name": "Masjid e Deoband",
        "main_category": "Mosque",
        "address": "Masjid e Deoband, Raju Cosmatic, Baba Malik Bazar, Khiwa, Nakodar, Punjab 144040",
        "detailed_address": {
            "ward": "Khiwa",
            "street": "Raju Cosmatic, Baba Malik Bazar",
            "city": "Nakodar",
            "postal_code": "144040",
            "state": "Punjab",
            "country_code": "IN"
        },
        "images": [
            {
                "about": "All",
                "link": "https://lh5.googleusercontent.com/p/AF1QipMDCMOjoVp1R6eXIbdR59dkOUc7UlJHjSLcKUVp=w224-h398-k-no"
            }
        ],
        "link": "https://www.google.com/maps/place/Masjid+e+Deoband/data=!4m7!3m6!1s0x391a69b619381b0f:0x84ece393a17ec42!8m2!3d31.1241057!4d75.4745941!16s%2Fg%2F11j95yl21c!19sChIJDxs4GbZpGjkRQuwXOjnOTgg?authuser=0&hl=en&rclk=1",
        "coordinates": {
            "latitude": 31.124105699999998,
            "longitude": 75.47459409999999
        }
    },
    {
        "name": "MADNI MASJID",
        "main_category": "Place of worship",
        "address": "MADNI MASJID, near RAILWAY STATION, Sufi Mohalla, Khiwa, Nakodar, Punjab 144040",
        "detailed_address": {
            "ward": "Sufi Mohalla, Khiwa",
            "street": "near RAILWAY STATION",
            "city": "Nakodar",
            "postal_code": "144040",
            "state": "Punjab",
            "country_code": "IN"
        },
        "images": [
            {
                "about": "All",
                "link": "https://lh5.googleusercontent.com/p/AF1QipMsc0Eho0K1fe9iuQ6mmYKn7gPfsJc2Zoeq2cim=w224-h298-k-no"
            },
            {
                "about": "Street View & 360deg",
                "link": "https://streetviewpixels-pa.googleapis.com/v1/thumbnail?panoid=TrZMMH73Xby_TlpR-1cSyA&cb_client=maps_sv.tactile.gps&w=224&h=298&yaw=193.33044&pitch=0&thumbfov=100"
            }
        ],
        "link": "https://www.google.com/maps/place/MADNI+MASJID/data=!4m7!3m6!1s0x391a6903fb900001:0xa13002a368c8a434!8m2!3d31.1117546!4d75.4757017!16s%2Fg%2F11c5_0305z!19sChIJAQCQ-wNpGjkRNKTIaKMCMKE?authuser=0&hl=en&rclk=1",
        "coordinates": {
            "latitude": 31.111754599999998,
            "longitude": 75.4757017
        }
    }
]