[
    {
        "name": "Azam Masjid",
        "main_category": "Mosque",
        "address": "JGP4+54G Azam Masjid, G M St, Gowri Nagar, Renigunta, Tirupati, Andhra Pradesh 517520",
        "detailed_address": {
            "ward": "Gowri Nagar",
            "street": "JGP4+54G, G M St",
            "city": "Renigunta, Tirupati",
            "postal_code": "517520",
            "state": "Andhra Pradesh",
            "country_code": "IN"
        },
        "images": [
            {
                "about": "All",
                "link": "https://lh5.googleusercontent.com/p/AF1QipMB_g9e2WvXZk778PLk-gYLp8V4OF-1bOf0RX-R=w529-h298-k-no"
            },
            {
                "about": "Dome",
                "link": "https://lh5.googleusercontent.com/p/AF1QipMB_g9e2WvXZk778PLk-gYLp8V4OF-1bOf0RX-R=w529-h298-k-no"
            },
            {
                "about": "Street View & 360deg",
                "link": "https://streetviewpixels-pa.googleapis.com/v1/thumbnail?panoid=D79crYcb7JNOAe-x4zSnNQ&cb_client=maps_sv.tactile.gps&w=224&h=298&yaw=142.73558&pitch=0&thumbfov=100"
            }
        ],
        "link": "https://www.google.com/maps/place/Azam+Masjid/data=!4m7!3m6!1s0x3a4d4904de8fed81:0x2d868b7fed7eb690!8m2!3d13.6354479!4d79.5053314!16s%2Fg%2F11dft032g5!19sChIJge2P3gRJTToRkLZ-7X-Lhi0?authuser=0&hl=en&rclk=1",
        "coordinates": {
            "latitude": 13.635447899999999,
            "longitude": 79.5053314
        }
    },
    {
        "name": "Masjid-E-Maalik",
        "main_category": "Mosque",
        "address": "JFJ2+23Q Masjid-E-Maalik, Poollavanigunta, Renigunta Rd, Tirupati, Andhra Pradesh",
        "detailed_address": {
            "ward": "SV Auto Nagar",
            "street": "JFJ2+23Q, Poollavanigunta, Renigunta Rd",
            "city": "Tirupati",
            "postal_code": null,
            "state": "Andhra Pradesh",
            "country_code": "IN"
        },
        "images": [
            {
                "about": "All",
                "link": "https://lh5.googleusercontent.com/p/AF1QipNy7ucXxRk6ZIlnh_ovYOu9wb8tlbFkUW4hH2jl=w529-h298-k-no"
            },
            {
                "about": "Street View & 360deg",
                "link": "https://streetviewpixels-pa.googleapis.com/v1/thumbnail?panoid=s4wRWO1THhXSYBoB9qoLag&cb_client=maps_sv.tactile.gps&w=224&h=298&yaw=280.40485&pitch=0&thumbfov=100"
            }
        ],
        "link": "https://www.google.com/maps/place/Masjid-E-Maalik/data=!4m7!3m6!1s0x3a4d4b0c272c1d47:0x152d664e51b68137!8m2!3d13.6300928!4d79.4502289!16s%2Fg%2F11gv1343wv!19sChIJRx0sJwxLTToRN4G2UU5mLRU?authuser=0&hl=en&rclk=1",
        "coordinates": {
            "latitude": 13.6300928,
            "longitude": 79.4502289
        }
    },
    {
        "name": "Macca Masjid",
        "main_category": "Mosque",
        "address": "JFMW+82V Macca Masjid, Renigunta, Tirupati, Andhra Pradesh 517520",
        "detailed_address": {
            "ward": null,
            "street": "JFMW+82V",
            "city": "Renigunta, Tirupati",
            "postal_code": null,
            "state": "Andhra Pradesh",
            "country_code": "IN"
        },
        "images": [
            {
                "about": "All",
                "link": "https://lh5.googleusercontent.com/p/AF1QipO97829D-Ju8xqFUimysDrgdbYXwwHTiRtXMEij=w397-h298-k-no"
            },
            {
                "about": "Videos",
                "link": "https://lh5.googleusercontent.com/p/AF1QipPG-G_ik7ah4BCPhpSN6hx3Jw9-SW2h--FYHyz0=w529-h298-k-no"
            }
        ],
        "link": "https://www.google.com/maps/place/Macca+Masjid/data=!4m7!3m6!1s0x3a4d495686d7c3fd:0x9521e092b31c4568!8m2!3d13.6333723!4d79.4950587!16s%2Fg%2F11g1j5nf9s!19sChIJ_cPXhlZJTToRaEUcs5LgIZU?authuser=0&hl=en&rclk=1",
        "coordinates": {
            "latitude": 13.6333723,
            "longitude": 79.4950587
        }
    },
    {
        "name": "Masjid E Madina Ahle Hadees",
        "main_category": "Mosque",
        "address": "JGM2+7MG Masjid E Madina Ahle Hadees, Gowri Nagar, Renigunta, Tirupati, Andhra Pradesh 517520",
        "detailed_address": {
            "ward": "Gowri Nagar",
            "street": "JGM2+7MG",
            "city": "Renigunta, Tirupati",
            "postal_code": "517520",
            "state": "Andhra Pradesh",
            "country_code": "IN"
        },
        "images": [
            {
                "about": "All",
                "link": "https://lh5.googleusercontent.com/p/AF1QipN0xfbpy30AUwrgq6kaH5gZA-y1IsO9NSmJ5YK9=w395-h298-k-no"
            }
        ],
        "link": "https://www.google.com/maps/place/Masjid+E+Madina+Ahle+Hadees/data=!4m7!3m6!1s0x3a4d49c4debd9327:0x52a52410c2154e5d!8m2!3d13.63318!4d79.501713!16s%2Fg%2F11f5_3215w!19sChIJJ5O93sRJTToRXU4VwhAkpVI?authuser=0&hl=en&rclk=1",
        "coordinates": {
            "latitude": 13.63318,
            "longitude": 79.501713
        }
    },
    {
        "name": "Masjid E Mohammedia Ahle Hadees",
        "main_category": "Mosque",
        "address": "JGP4+X57 Masjid E Mohammedia Ahle Hadees, Gowri Nagar, Renigunta, Tirupati, Andhra Pradesh 517520",
        "detailed_address": {
            "ward": "Gowri Nagar",
            "street": "JGP4+X57",
            "city": "Renigunta, Tirupati",
            "postal_code": "517520",
            "state": "Andhra Pradesh",
            "country_code": "IN"
        },
        "images": [
            {
                "about": "All",
                "link": "https://lh5.googleusercontent.com/p/AF1QipNMrDPOqkse6N8VY3UTK7VtO63yBT_3PzYLcfvB=w397-h298-k-no"
            }
        ],
        "link": "https://www.google.com/maps/place/Masjid+E+Mohammedia+Ahle+Hadees/data=!4m7!3m6!1s0x3a4d49f7f7fc2613:0xb8c0bcf3e38950d7!8m2!3d13.6374131!4d79.5054153!16s%2Fg%2F11f5_316xr!19sChIJEyb89_dJTToR11CJ4_O8wLg?authuser=0&hl=en&rclk=1",
        "coordinates": {
            "latitude": 13.6374131,
            "longitude": 79.5054153
        }
    },
    {
        "name": "Masjid",
        "main_category": "Mosque",
        "address": "JGM3+9RH Masjid, Gowri Nagar, Tirupati, Andhra Pradesh 517520",
        "detailed_address": {
            "ward": "Gowri Nagar",
            "street": "JGM3+9RH",
            "city": "Tirupati",
            "postal_code": "517520",
            "state": "Andhra Pradesh",
            "country_code": "IN"
        },
        "images": [],
        "link": "https://www.google.com/maps/place/Masjid/data=!4m7!3m6!1s0x3a4d49767bd3d545:0x10a459be5e717d6b!8m2!3d13.6334447!4d79.5046142!16s%2Fg%2F11g1gn8x4z!19sChIJRdXTe3ZJTToRa31xXr5ZpBA?authuser=0&hl=en&rclk=1",
        "coordinates": {
            "latitude": 13.6334447,
            "longitude": 79.50461419999999
        }
    },
    {
        "name": "Hidayatul Masjid",
        "main_category": "Mosque",
        "address": "JGVC+5JQ Hidayatul Masjid, Guravarajupalli village , Renigunta mandalam, Tirupati, Andhra Pradesh 517520",
        "detailed_address": {
            "ward": null,
            "street": "JGVC+5JQ, Guravarajupalli village , Renigunta mandalam",
            "city": "Tirupati",
            "postal_code": "517520",
            "state": "Andhra Pradesh",
            "country_code": "IN"
        },
        "images": [
            {
                "about": "All",
                "link": "https://lh5.googleusercontent.com/p/AF1QipMm2c9pC03xgmAOkA_YohcL-rG7dOy1h5mgz9Cm=w529-h298-k-no"
            }
        ],
        "link": "https://www.google.com/maps/place/Hidayatul+Masjid/data=!4m7!3m6!1s0x3a4d49c2e10a861f:0xbe4abf03891fe6f4!8m2!3d13.6429699!4d79.5216006!16s%2Fg%2F11h7drh2t7!19sChIJH4YK4cJJTToR9OYfiQO_Sr4?authuser=0&hl=en&rclk=1",
        "coordinates": {
            "latitude": 13.642969899999999,
            "longitude": 79.5216006
        }
    },
    {
        "name": "renigunta Eidgah",
        "main_category": "Mosque",
        "address": "JFPX+J9X renigunta Eidgah, Renigunta, Tirupati, Andhra Pradesh 517520",
        "detailed_address": {
            "ward": null,
            "street": "JFPX+J9X",
            "city": "Renigunta, Tirupati",
            "postal_code": null,
            "state": "Andhra Pradesh",
            "country_code": "IN"
        },
        "images": [
            {
                "about": "All",
                "link": "https://lh5.googleusercontent.com/p/AF1QipMs0rmjJT2whqeuASs11XuMcLkXd8w1Zn38bYcc=w529-h298-k-no"
            },
            {
                "about": "Street View & 360deg",
                "link": "https://streetviewpixels-pa.googleapis.com/v1/thumbnail?panoid=3dzfaTvZh6e5Z-QFv9-k8w&cb_client=maps_sv.tactile.gps&w=224&h=298&yaw=354.37946&pitch=0&thumbfov=100"
            }
        ],
        "link": "https://www.google.com/maps/place/renigunta+Eidgah/data=!4m7!3m6!1s0x3a4d49369a0ffadf:0x7634b41826b3c8ce!8m2!3d13.6366039!4d79.4984788!16s%2Fg%2F11f7shz4v9!19sChIJ3_oPmjZJTToRzsizJhi0NHY?authuser=0&hl=en&rclk=1",
        "coordinates": {
            "latitude": 13.636603899999999,
            "longitude": 79.4984788
        }
    }
]