[
    {
        "name": "Hazi Patmal Wali Madina Masjid",
        "main_category": "Mosque",
        "address": "Hazi Patmal Wali Madina Masjid, Hazi Patmal Wali gali, Dhirdhaunka, Haryana 122103",
        "detailed_address": {
            "ward": null,
            "street": "Hazi Patmal Wali gali",
            "city": "Dhirdhaunka",
            "postal_code": "122103",
            "state": "Haryana",
            "country_code": "IN"
        },
        "images": [
            {
                "about": "All",
                "link": "https://streetviewpixels-pa.googleapis.com/v1/thumbnail?panoid=J_9tlK_sHXKS9Q3W7fhYoQ&cb_client=maps_sv.tactile.gps&w=224&h=298&yaw=339.1494&pitch=0&thumbfov=100"
            },
            {
                "about": "Street View & 360deg",
                "link": "https://streetviewpixels-pa.googleapis.com/v1/thumbnail?panoid=J_9tlK_sHXKS9Q3W7fhYoQ&cb_client=maps_sv.tactile.gps&w=224&h=298&yaw=339.1494&pitch=0&thumbfov=100"
            }
        ],
        "link": "https://www.google.com/maps/place/Hazi+Patmal+Wali+Madina+Masjid/data=!4m7!3m6!1s0x390d2f13f97952d3:0xb840ab6c66e18f88!8m2!3d28.1903916!4d77.0511492!16s%2Fg%2F11fsvspvhq!19sChIJ01J5-RMvDTkRiI_hZmyrQLg?authuser=0&hl=en&rclk=1",
        "coordinates": {
            "latitude": 28.190391599999998,
            "longitude": 77.0511492
        }
    },
    {
        "name": "Madhi Masjid msjd",
        "main_category": "Mosque",
        "address": "G57P+X22 Madhi Masjid msjd, Aam Bagh, Ladha Sarai Village, Mehrauli, New Delhi, Delhi 110030",
        "detailed_address": {
            "ward": "Aam Bagh, Ladha Sarai Village, Mehrauli",
            "street": "G57P+X22",
            "city": "Mehrauli, New Delhi",
            "postal_code": "110030",
            "state": "Delhi",
            "country_code": "IN"
        },
        "images": [
            {
                "about": "All",
                "link": "https://lh5.googleusercontent.com/p/AF1QipOGMukJyDFSBOd-qztXqYvaZFEyiD8CXxUWteq2=w397-h298-k-no"
            },
            {
                "about": "Latest",
                "link": "https://lh5.googleusercontent.com/p/AF1QipPITCPKNWLQku2Lz68sRLGVwwq2GBmdjJwMRmby=w397-h298-k-no"
            },
            {
                "about": "Videos",
                "link": "https://lh5.googleusercontent.com/p/AF1QipOURglu2AJjbefMjOp4ShbF5g_jDs6aLta6CEJf=w529-h298-k-no"
            },
            {
                "about": "Dome",
                "link": "https://lh5.googleusercontent.com/p/AF1QipPFKdcU1EI8CAj6Pb8AEmlnxCSHLYLLU4y6lWge=w224-h485-k-no"
            },
            {
                "about": "Street View & 360deg",
                "link": "https://lh5.googleusercontent.com/p/AF1QipNz-V5ZlPpEuetdtLHlonM9mTFMWMXbfRWgji2p=w224-h298-k-no-pi-7.5401936-ya357.07394-ro-0-fo100"
            }
        ],
        "link": "https://www.google.com/maps/place/Madhi+Masjid+%D9%85%D8%B3%D8%AC%D8%AF%E2%80%AD/data=!4m7!3m6!1s0x390d1e1aefd51b73:0xeb817d5121e0c393!8m2!3d28.5148909!4d77.1850159!16s%2Fg%2F1tnk_stq!19sChIJcxvV7xoeDTkRk8PgIVF9ges?authuser=0&hl=en&rclk=1",
        "coordinates": {
            "latitude": 28.514890899999997,
            "longitude": 77.1850159
        }
    },
    {
        "name": "Masjid (Mosque)",
        "main_category": "Mosque",
        "address": "95FQ+82P Masjid (Mosque), Home, Hisavati, Uttar Pradesh 203390",
        "detailed_address": {
            "ward": null,
            "street": "95FQ+82P, Home",
            "city": "Hisavati",
            "postal_code": null,
            "state": "Uttar Pradesh",
            "country_code": "IN"
        },
        "images": [
            {
                "about": "All",
                "link": "https://lh5.googleusercontent.com/p/AF1QipP523Nlb_7IJK9jImHoaQ2994Eh0Ji8Xw5sokHj=w224-h298-k-no"
            },
            {
                "about": "Street View & 360deg",
                "link": "https://streetviewpixels-pa.googleapis.com/v1/thumbnail?panoid=UnhTboKxE3OKy-m3kRqURw&cb_client=maps_sv.tactile.gps&w=224&h=298&yaw=102.16668&pitch=0&thumbfov=100"
            }
        ],
        "link": "https://www.google.com/maps/place/Masjid+%28Mosque%29/data=!4m7!3m6!1s0x390b45c4547b6f7f:0x42e22913e5fdee6!8m2!3d28.373339!4d78.1875815!16s%2Fg%2F11hbnvrf22!19sChIJf297VMRFCzkR5t5fPpEiLgQ?authuser=0&hl=en&rclk=1",
        "coordinates": {
            "latitude": 28.373338999999998,
            "longitude": 78.1875815
        }
    },
    {
        "name": "Masjid E Balyana",
        "main_category": "Mosque",
        "address": "QW5X+W28 Masjid E Balyana, Maholi, Haryana 122104",
        "detailed_address": {
            "ward": null,
            "street": "QW5X+W28",
            "city": "Maholi",
            "postal_code": "122104",
            "state": "Haryana",
            "country_code": "IN"
        },
        "images": [
            {
                "about": "All",
                "link": "https://lh5.googleusercontent.com/p/AF1QipNe80lWW6AYL_bKejdVrlXZPt--gnYpXA7F4dFa=w662-h298-k-no"
            }
        ],
        "link": "https://www.google.com/maps/place/Masjid+E+Balyana/data=!4m7!3m6!1s0x3972c387d5367291:0xbf0962599ba3b736!8m2!3d27.759793!4d76.9475894!16s%2Fg%2F11shfbxz4w!19sChIJkXI21YfDcjkRNrejm1liCb8?authuser=0&hl=en&rclk=1",
        "coordinates": {
            "latitude": 27.759793,
            "longitude": 76.9475894
        }
    },
    {
        "name": "Choti Masjid Bilakpur",
        "main_category": "Mosque",
        "address": "QWCX+77M Choti Masjid Bilakpur, Maholi, Firozpur Jhirka, Haryana 122104",
        "detailed_address": {
            "ward": null,
            "street": "QWCX+77M",
            "city": "Maholi, Firozpur Jhirka",
            "postal_code": "122104",
            "state": "Haryana",
            "country_code": "IN"
        },
        "images": [
            {
                "about": "All",
                "link": "https://lh5.googleusercontent.com/p/AF1QipNHm20-epGdq6fTPK2_yuCARIfocKRWRdDdLzIp=w224-h298-k-no"
            },
            {
                "about": "Videos",
                "link": "https://lh5.googleusercontent.com/p/AF1QipOaIiTguI_DiW5k9enHY2Byhw9s0IvjsXl4Ik8y=w224-h398-k-no"
            }
        ],
        "link": "https://www.google.com/maps/place/Choti+Masjid+Bilakpur/data=!4m7!3m6!1s0x3972c4761998cbef:0xd306844816f7a11c!8m2!3d27.7707166!4d76.9481855!16s%2Fg%2F11hbkpn78d!19sChIJ78uYGXbEcjkRHKH3FkiEBtM?authuser=0&hl=en&rclk=1",
        "coordinates": {
            "latitude": 27.7707166,
            "longitude": 76.9481855
        }
    },
    {
        "name": "Masjid Machhayli.",
        "main_category": "Mosque",
        "address": "QJHJ+M44 Masjid Machhayli., Ratupur, Uttar Pradesh 244102",
        "detailed_address": {
            "ward": null,
            "street": "QJHJ+M44",
            "city": "Ratupur",
            "postal_code": "244102",
            "state": "Uttar Pradesh",
            "country_code": "IN"
        },
        "images": [],
        "link": "https://www.google.com/maps/place/Masjid+Machhayli./data=!4m7!3m6!1s0x390b02eb8ed0900b:0xfaeb8d406f4f70dc!8m2!3d28.779126!4d78.6303178!16s%2Fg%2F11dxlbkm1z!19sChIJC5DQjusCCzkR3HBPb0CN6_o?authuser=0&hl=en&rclk=1",
        "coordinates": {
            "latitude": 28.779125999999998,
            "longitude": 78.6303178
        }
    },
    {
        "name": "Badi Masjid Bilakpur",
        "main_category": "Mosque",
        "address": "QX93+Q6F Badi Masjid Bilakpur, Maholi, Haryana 122104",
        "detailed_address": {
            "ward": null,
            "street": "QX93+Q6F",
            "city": "Maholi",
            "postal_code": "122104",
            "state": "Haryana",
            "country_code": "IN"
        },
        "images": [
            {
                "about": "All",
                "link": "https://lh5.googleusercontent.com/p/AF1QipMnCTavSO-4obIugG_2geXpNYqCNtLJGBterXvM=w224-h298-k-no"
            }
        ],
        "link": "https://www.google.com/maps/place/Badi+Masjid+Bilakpur/data=!4m7!3m6!1s0x3972c387e1157589:0x161661f7e1c1deba!8m2!3d27.769437!4d76.953049!16s%2Fg%2F11hbkpd2l4!19sChIJiXUV4YfDcjkRut7B4fdhFhY?authuser=0&hl=en&rclk=1",
        "coordinates": {
            "latitude": 27.769437,
            "longitude": 76.953049
        }
    },
    {
        "name": "Masjid",
        "main_category": "Mosque",
        "address": "Q7JJ+7WC Masjid, Pavi Sadakpur, Uttar Pradesh 201102",
        "detailed_address": {
            "ward": null,
            "street": "Q7JJ+7WC",
            "city": "Pavi Sadakpur",
            "postal_code": "201102",
            "state": "Uttar Pradesh",
            "country_code": "IN"
        },
        "images": [],
        "link": "https://www.google.com/maps/place/Masjid/data=!4m7!3m6!1s0x390cff3247b3c4d7:0xf1b7407f946dd8cc!8m2!3d28.7806806!4d77.2822504!16s%2Fg%2F11ggz8tfhy!19sChIJ18SzRzL_DDkRzNhtlH9At_E?authuser=0&hl=en&rclk=1",
        "coordinates": {
            "latitude": 28.7806806,
            "longitude": 77.2822504
        }
    },
    {
        "name": "Masjid",
        "main_category": "Mosque",
        "address": "Q6MJ+5H5 Masjid, Badarpur, Madanpur Khadar, New Delhi, 110084",
        "detailed_address": {
            "ward": "Madanpur Khadar",
            "street": "Q6MJ+5H5, Badarpur",
            "city": "New Delhi, Delhi",
            "postal_code": "110084",
            "state": "Delhi",
            "country_code": "IN"
        },
        "images": [
            {
                "about": "All",
                "link": "https://streetviewpixels-pa.googleapis.com/v1/thumbnail?panoid=XUnYGpzut1olqu28rwWK6w&cb_client=maps_sv.tactile.gps&w=224&h=298&yaw=109.00809&pitch=0&thumbfov=100"
            },
            {
                "about": "Street View & 360deg",
                "link": "https://streetviewpixels-pa.googleapis.com/v1/thumbnail?panoid=XUnYGpzut1olqu28rwWK6w&cb_client=maps_sv.tactile.gps&w=224&h=298&yaw=109.00809&pitch=0&thumbfov=100"
            }
        ],
        "link": "https://www.google.com/maps/place/Masjid/data=!4m7!3m6!1s0x390cffb780460377:0x9fe224e9c653e965!8m2!3d28.7828891!4d77.2314704!16s%2Fg%2F11qn790lvq!19sChIJdwNGgLf_DDkRZelTxukk4p8?authuser=0&hl=en&rclk=1",
        "coordinates": {
            "latitude": 28.7828891,
            "longitude": 77.23147039999999
        }
    },
    {
        "name": "Stand masjid Maholi",
        "main_category": "Mosque",
        "address": "QW4V+3G4 Stand masjid Maholi, Maholi, Haryana 122104",
        "detailed_address": {
            "ward": null,
            "street": "QW4V+3G4",
            "city": "Maholi",
            "postal_code": "122104",
            "state": "Haryana",
            "country_code": "IN"
        },
        "images": [],
        "link": "https://www.google.com/maps/place/Stand+masjid+Maholi/data=!4m7!3m6!1s0x3972c37d790241df:0x79bf6bfa42ad2276!8m2!3d27.7551426!4d76.9438279!16s%2Fg%2F11qq1qm6d4!19sChIJ30ECeX3DcjkRdiKtQvprv3k?authuser=0&hl=en&rclk=1",
        "coordinates": {
            "latitude": 27.7551426,
            "longitude": 76.9438279
        }
    },
    {
        "name": "Jannatul firdau masjid (Deswaliyan mosque))",
        "main_category": "Mosque",
        "address": "Jannatul firdau masjid (Deswaliyan mosque)), Mahalka, Uttar Pradesh 250222",
        "detailed_address": {
            "ward": null,
            "street": null,
            "city": "Mahalka",
            "postal_code": "250222",
            "state": "Uttar Pradesh",
            "country_code": "IN"
        },
        "images": [
            {
                "about": "All",
                "link": "https://lh5.googleusercontent.com/p/AF1QipNRFfG9Y4RQDYuEgRBXlttafSfaTak0_NykYeAb=w224-h497-k-no"
            },
            {
                "about": "By owner",
                "link": "https://lh5.googleusercontent.com/p/AF1QipMaLVDzaEWhdP806C6PMzPu3heAgjsQkUJTQQ_r=w224-h398-k-no"
            },
            {
                "about": "Videos",
                "link": "https://lh5.googleusercontent.com/p/AF1QipPuQJ9y4SHLb1wgJri9g0bypRpSxZDIyzlwALkZ=w224-h398-k-no"
            }
        ],
        "link": "https://www.google.com/maps/place/Jannatul+firdau+masjid+%28Deswaliyan+mosque%29%29/data=!4m7!3m6!1s0x390c735cb53dcc75:0x7becf41f16b561db!8m2!3d29.1527887!4d77.7803222!16s%2Fg%2F11f6384c1f!19sChIJdcw9tVxzDDkR22G1Fh_07Hs?authuser=0&hl=en&rclk=1",
        "coordinates": {
            "latitude": 29.1527887,
            "longitude": 77.7803222
        }
    },
    {
        "name": "Jama Masjid, Rahimpur Behgawan",
        "main_category": "Mosque",
        "address": "GR5R+72J Jama Masjid, Rahimpur Behgawan, Unnamed Road, Asfabad Chandpura, Maholi, Uttar Pradesh 203408",
        "detailed_address": {
            "ward": null,
            "street": "GR5R+72J, Unnamed Road",
            "city": "Asfabad Chandpura, Maholi",
            "postal_code": "203408",
            "state": "Uttar Pradesh",
            "country_code": "IN"
        },
        "images": [
            {
                "about": "All",
                "link": "https://lh5.googleusercontent.com/p/AF1QipOP-6f9Ep93YIaGRYOjG8nSS38XE_ruHDw-VEHO=w224-h473-k-no"
            },
            {
                "about": "Dome",
                "link": "https://lh5.googleusercontent.com/p/AF1QipM51Zarm3qNYz40Z3pHqSReWiyPkE2O8nd9zi8b=w224-h473-k-no"
            },
            {
                "about": "Videos",
                "link": "https://lh5.googleusercontent.com/p/AF1QipNg7ZtU9Cu3-OfdJdqbJit6BXHgBaQ6rfR21Ppd=w224-h398-k-no"
            }
        ],
        "link": "https://www.google.com/maps/place/Jama+Masjid,+Rahimpur+Behgawan/data=!4m7!3m6!1s0x390c9f9b4a42e307:0xead55730d8839b5f!8m2!3d28.5082198!4d77.8400093!16s%2Fg%2F11p9w6snsr!19sChIJB-NCSpufDDkRX5uD2DBX1eo?authuser=0&hl=en&rclk=1",
        "coordinates": {
            "latitude": 28.5082198,
            "longitude": 77.84000929999999
        }
    },
    {
        "name": "Masjid msjid",
        "main_category": "Mosque",
        "address": "JFFX+X3F Masjid msjid, Kusaila, Uttar Pradesh 261141",
        "detailed_address": {
            "ward": null,
            "street": "JFFX+X3F",
            "city": "Kusaila",
            "postal_code": "261141",
            "state": "Uttar Pradesh",
            "country_code": "IN"
        },
        "images": [],
        "link": "https://www.google.com/maps/place/Masjid+%E0%A4%AE%E0%A4%B8%E0%A5%8D%E0%A4%9C%E0%A4%BF%E0%A4%A6/data=!4m7!3m6!1s0x399f205f0981beaf:0xae6d0872833a9067!8m2!3d27.6249393!4d80.4976599!16s%2Fg%2F11g9qgx2nl!19sChIJr76BCV8gnzkRZ5A6g3IIba4?authuser=0&hl=en&rclk=1",
        "coordinates": {
            "latitude": 27.624939299999998,
            "longitude": 80.4976599
        }
    },
    {
        "name": "Peer Khana & Masjid",
        "main_category": "Mosque",
        "address": "JQF3+XP6 Peer Khana & Masjid, Maholi Kalan, Punjab 141109",
        "detailed_address": {
            "ward": null,
            "street": "JQF3+XP6",
            "city": "Maholi Kalan",
            "postal_code": "141109",
            "state": "Punjab",
            "country_code": "IN"
        },
        "images": [],
        "link": "https://www.google.com/maps/place/Peer+Khana+%26+Masjid/data=!4m7!3m6!1s0x391062e476c41733:0x45fcd0bb1a8f2f01!8m2!3d30.6249239!4d75.7542725!16s%2Fg%2F11fy2yd7s2!19sChIJMxfEduRiEDkRAS-PGrvQ_EU?authuser=0&hl=en&rclk=1",
        "coordinates": {
            "latitude": 30.6249239,
            "longitude": 75.7542725
        }
    },
    {
        "name": "Masjid munira maholi",
        "main_category": "Mosque",
        "address": "QW7X+M2 Masjid munira maholi, Maholi, Haryana 122104",
        "detailed_address": {
            "ward": null,
            "street": "QW7X+M2",
            "city": "Maholi",
            "postal_code": null,
            "state": "Haryana",
            "country_code": "IN"
        },
        "images": [
            {
                "about": "All",
                "link": "https://streetviewpixels-pa.googleapis.com/v1/thumbnail?panoid=3mxHFxdZ5Bv-e06hdqLy1w&cb_client=maps_sv.tactile.gps&w=224&h=298&yaw=110.04992&pitch=0&thumbfov=100"
            },
            {
                "about": "Street View & 360deg",
                "link": "https://streetviewpixels-pa.googleapis.com/v1/thumbnail?panoid=3mxHFxdZ5Bv-e06hdqLy1w&cb_client=maps_sv.tactile.gps&w=224&h=298&yaw=110.04992&pitch=0&thumbfov=100"
            }
        ],
        "link": "https://www.google.com/maps/place/Masjid+munira+maholi/data=!4m7!3m6!1s0x3972c388a7a5446d:0x82d16c3fd94f05d7!8m2!3d27.7641326!4d76.9475773!16s%2Fg%2F11swh1bmf2!19sChIJbUSlp4jDcjkR1wVP2T9s0YI?authuser=0&hl=en&rclk=1",
        "coordinates": {
            "latitude": 27.7641326,
            "longitude": 76.94757729999999
        }
    },
    {
        "name": "Badi masjid",
        "main_category": "Mosque",
        "address": "QW4W+WJ4 Badi masjid, Maholi, Haryana 122104",
        "detailed_address": {
            "ward": null,
            "street": "QW4W+WJ4",
            "city": "Maholi",
            "postal_code": "122104",
            "state": "Haryana",
            "country_code": "IN"
        },
        "images": [],
        "link": "https://www.google.com/maps/place/Badi+masjid/data=!4m7!3m6!1s0x3972c3ce19bcf4e5:0x56760263bd5f2baf!8m2!3d27.7572605!4d76.9465739!16s%2Fg%2F11txf84xsh!19sChIJ5fS8Gc7DcjkRrytfvWMCdlY?authuser=0&hl=en&rclk=1",
        "coordinates": {
            "latitude": 27.757260499999997,
            "longitude": 76.94657389999999
        }
    },
    {
        "name": "Maqqi masjid",
        "main_category": "Mosque",
        "address": "Maqqi masjid, khushal park, Chand Market, Main Road, Loni, Ghaziabad, Uttar Pradesh 201102",
        "detailed_address": {
            "ward": "Loni",
            "street": "khushal park, Chand Market, Main Road",
            "city": "Ghaziabad",
            "postal_code": "201102",
            "state": "Uttar Pradesh",
            "country_code": "IN"
        },
        "images": [],
        "link": "https://www.google.com/maps/place/Maqqi+masjid/data=!4m7!3m6!1s0x390cff5e0ec94889:0x5f11a2cfa7f2d1f6!8m2!3d28.7591698!4d77.2711527!16s%2Fg%2F11q57z_dlr!19sChIJiUjJDl7_DDkR9tHyp8-iEV8?authuser=0&hl=en&rclk=1",
        "coordinates": {
            "latitude": 28.7591698,
            "longitude": 77.2711527
        }
    },
    {
        "name": "Mahmoodiya Masjid",
        "main_category": "Mosque",
        "address": "PH6G+MG2 Mahmoodiya Masjid, Muhiddinpur Dabarsi, Uttar Pradesh 245304",
        "detailed_address": {
            "ward": null,
            "street": "PH6G+MG2",
            "city": "Muhiddinpur Dabarsi",
            "postal_code": null,
            "state": "Uttar Pradesh",
            "country_code": "IN"
        },
        "images": [],
        "link": "https://www.google.com/maps/place/Mahmoodiya+Masjid/data=!4m7!3m6!1s0x390c8d60cff0b153:0xf4243a485eaceadc!8m2!3d28.7116308!4d77.5762703!16s%2Fg%2F11sdn5y0ht!19sChIJU7Hwz2CNDDkR3OqsXkg6JPQ?authuser=0&hl=en&rclk=1",
        "coordinates": {
            "latitude": 28.7116308,
            "longitude": 77.57627029999999
        }
    },
    {
        "name": "Masjid Ghousia",
        "main_category": "Mosque",
        "address": "MF48+WV4 Masjid Ghousia, Lucknow - Shahjahanpur Rd, Maholi, Uttar Pradesh 261141",
        "detailed_address": {
            "ward": null,
            "street": "MF48+WV4, Lucknow - Shahjahanpur Rd",
            "city": "Maholi",
            "postal_code": "261141",
            "state": "Uttar Pradesh",
            "country_code": "IN"
        },
        "images": [],
        "link": "https://www.google.com/maps/place/Masjid+Ghousia/data=!4m7!3m6!1s0x399f21b1b41ef505:0xea429580dfe2af0a!8m2!3d27.6569755!4d80.4672803!16s%2Fg%2F11sd5bc1dr!19sChIJBfUetLEhnzkRCq_i34CVQuo?authuser=0&hl=en&rclk=1",
        "coordinates": {
            "latitude": 27.656975499999998,
            "longitude": 80.4672803
        }
    },
    {
        "name": "Maholi",
        "main_category": null,
        "address": "Maholi, Haryana",
        "detailed_address": {
            "ward": null,
            "street": null,
            "city": "Maholi",
            "postal_code": null,
            "state": "Haryana",
            "country_code": "IN"
        },
        "images": [
            {
                "about": "All",
                "link": "https://lh5.googleusercontent.com/p/AF1QipNvp6gTQ9hse4AyWgrfwtRbXDqlbUU5-E2i9zIH=w224-h485-k-no"
            }
        ],
        "link": "https://www.google.com/maps/place/Maholi/data=!4m7!3m6!1s0x3973370b28130f6f:0xed582fda480049c4!8m2!3d27.9387712!4d77.5110614!16s%2Fg%2F1hdz92yzn!19sChIJbw8TKAs3czkRxEkASNovWO0?authuser=0&hl=en&rclk=1",
        "coordinates": {
            "latitude": 27.938771199999998,
            "longitude": 77.5110614
        }
    }
]