[
    {
        "name": "Jamia Masjid",
        "main_category": "Mosque",
        "address": "9P7P+VCH Jamia Masjid, Fort Gate Rd, Umarkot, Umerkot, Sindh, Pakistan",
        "detailed_address": {
            "ward": null,
            "street": "9P7P+VCH, Fort Gate Rd",
            "city": "Umarkot",
            "postal_code": null,
            "state": "Umerkot, Sindh",
            "country_code": "PK"
        },
        "images": [
            {
                "about": "All",
                "link": "https://lh5.googleusercontent.com/p/AF1QipMf9Y_irPpefL_Wy2Yep-2hog3DClFPNbvG-Q7l=w224-h421-k-no"
            }
        ],
        "link": "https://www.google.com/maps/place/Jamia+Masjid/data=!4m7!3m6!1s0x394f21c36a701c79:0xd3e53fa16e11a896!8m2!3d25.3646924!4d69.736116!16s%2Fg%2F1tjt09zy!19sChIJeRxwasMhTzkRlqgRbqE_5dM?authuser=0&hl=en&rclk=1",
        "coordinates": {
            "latitude": 25.3646924,
            "longitude": 69.736116
        }
    },
    {
        "name": "Madina Masjid",
        "main_category": "Mosque",
        "address": "9P8P+FRX Madina Masjid, Umarkot, Umerkot, Sindh, Pakistan",
        "detailed_address": {
            "ward": null,
            "street": "9P8P+FRX",
            "city": "Umarkot",
            "postal_code": null,
            "state": "Umerkot, Sindh",
            "country_code": "PK"
        },
        "images": [
            {
                "about": "All",
                "link": "https://lh5.googleusercontent.com/p/AF1QipPglhL_S2UV_ObvZmSVQL7Q5cU778bNnHnlXbrr=w397-h298-k-no"
            },
            {
                "about": "Dome",
                "link": "https://lh5.googleusercontent.com/p/AF1QipPglhL_S2UV_ObvZmSVQL7Q5cU778bNnHnlXbrr=w397-h298-k-no"
            },
            {
                "about": "Videos",
                "link": "https://lh5.googleusercontent.com/p/AF1QipN-yee9NdGjxhFoNc0axzdRGbRAfVYGhfs3_s6T=w529-h298-k-no"
            }
        ],
        "link": "https://www.google.com/maps/place/Madina+Masjid/data=!4m7!3m6!1s0x394f21c3a9eca415:0x3e44e2b37f6e6d3b!8m2!3d25.3662456!4d69.7371038!16s%2Fg%2F1tjff731!19sChIJFaTsqcMhTzkRO21uf7PiRD4?authuser=0&hl=en&rclk=1",
        "coordinates": {
            "latitude": 25.3662456,
            "longitude": 69.7371038
        }
    },
    {
        "name": "Masjid Umer Farooq Umerkot",
        "main_category": "Mosque",
        "address": "9Q93+J39 Masjid Umer Farooq Umerkot, Unnamed Road, Umarkot, Umerkot, Sindh, Pakistan",
        "detailed_address": {
            "ward": null,
            "street": "9Q93+J39, Unnamed Road",
            "city": "Umarkot",
            "postal_code": null,
            "state": "Umerkot, Sindh",
            "country_code": "PK"
        },
        "images": [],
        "link": "https://www.google.com/maps/place/Masjid+Umer+Farooq+Umerkot/data=!4m7!3m6!1s0x394f219060af7daf:0x767fcc2ef3ab0935!8m2!3d25.3690367!4d69.7527257!16s%2Fg%2F11fmrfvl4q!19sChIJr32vYJAhTzkRNQmr8y7Mf3Y?authuser=0&hl=en&rclk=1",
        "coordinates": {
            "latitude": 25.3690367,
            "longitude": 69.7527257
        }
    },
    {
        "name": "Masjid Gulistan Khalil",
        "main_category": "Mosque",
        "address": "9P3X+4X2 Masjid Gulistan Khalil, Gulistan_e_khalil mohalla, Umarkot, Umerkot, Sindh, Pakistan",
        "detailed_address": {
            "ward": "Gulistan_e_khalil mohalla",
            "street": "9P3X+4X2",
            "city": "Umarkot",
            "postal_code": null,
            "state": "Umerkot, Sindh",
            "country_code": "PK"
        },
        "images": [
            {
                "about": "All",
                "link": "https://lh5.googleusercontent.com/p/AF1QipMr5u7b-H1pjGaPJRYdyUAhfHezM-LVy4m4LJ9L=w397-h298-k-no"
            }
        ],
        "link": "https://www.google.com/maps/place/Masjid+Gulistan+Khalil/data=!4m7!3m6!1s0x394f1f8cfec25ee7:0xa3ba87c743bceaf9!8m2!3d25.3527739!4d69.7498957!16s%2Fg%2F11gnghbbm7!19sChIJ517C_owfTzkR-eq8Q8eHuqM?authuser=0&hl=en&rclk=1",
        "coordinates": {
            "latitude": 25.3527739,
            "longitude": 69.7498957
        }
    },
    {
        "name": "Jamia Masjid",
        "main_category": "Mosque",
        "address": "Jamia Masjid, Farhad Kot, Chor Rd Marvi Ground, Umarkot, Umerkot, Sindh 69100, Pakistan",
        "detailed_address": {
            "ward": null,
            "street": "Farhad Kot, Chor Rd Marvi Ground",
            "city": "Umarkot",
            "postal_code": "69100",
            "state": "Umerkot, Sindh",
            "country_code": "PK"
        },
        "images": [],
        "link": "https://www.google.com/maps/place/Jamia+Masjid/data=!4m7!3m6!1s0x394f21c3a327e455:0x17858db0d315db1e!8m2!3d25.3667443!4d69.7363372!16s%2Fg%2F11xh7lqjr!19sChIJVeQno8MhTzkRHtsV07CNhRc?authuser=0&hl=en&rclk=1",
        "coordinates": {
            "latitude": 25.3667443,
            "longitude": 69.7363372
        }
    },
    {
        "name": "Mohmmadi Mosque",
        "main_category": "Mosque",
        "address": "9P8P+94G Mohmmadi Mosque, Chor Rd, Umarkot, Umerkot, Sindh, Pakistan",
        "detailed_address": {
            "ward": null,
            "street": "9P8P+94G, Chor Rd",
            "city": "Umarkot",
            "postal_code": null,
            "state": "Umerkot, Sindh",
            "country_code": "PK"
        },
        "images": [
            {
                "about": "All",
                "link": "https://lh5.googleusercontent.com/p/AF1QipO9KxkBctf9CvzBoeT_BcA_-rHc1Ud2moyo4PJC=w298-h298-k-no"
            },
            {
                "about": "Videos",
                "link": "https://lh5.googleusercontent.com/p/AF1QipNaZm0b2cJwMlF8BvIt18xc4I_h393AgEmgOpqP=w529-h298-k-no"
            }
        ],
        "link": "https://www.google.com/maps/place/Mohmmadi+Mosque/data=!4m7!3m6!1s0x394f21c377f93607:0xe6c83dcb4d53c3b8!8m2!3d25.3659319!4d69.735337!16s%2Fg%2F1pzw2nv2n!19sChIJBzb5d8MhTzkRuMNTTcs9yOY?authuser=0&hl=en&rclk=1",
        "coordinates": {
            "latitude": 25.3659319,
            "longitude": 69.735337
        }
    },
    {
        "name": "Jamaa Masjid Baab-ul-Islam Umerkot",
        "main_category": "Mosque",
        "address": "8QQ8+X48 Jamaa Masjid Baab-ul-Islam Umerkot, Umarkot, Umerkot, Sindh, Pakistan",
        "detailed_address": {
            "ward": null,
            "street": "8QQ8+X48",
            "city": "Umarkot",
            "postal_code": null,
            "state": "Umerkot, Sindh",
            "country_code": "PK"
        },
        "images": [
            {
                "about": "All",
                "link": "https://lh5.googleusercontent.com/p/AF1QipPVMTXIpBvf3-p-PYQIrh70EXKo8K6j-rsD-EQk=w224-h398-k-no"
            },
            {
                "about": "Videos",
                "link": "https://lh5.googleusercontent.com/p/AF1QipNPITr7r6KhCHpqpzDlCw_mAoOSqJYGdI4CEOFp=w224-h398-k-no"
            }
        ],
        "link": "https://www.google.com/maps/place/Jamaa+Masjid+Baab-ul-Islam+Umerkot/data=!4m7!3m6!1s0x394f19de38e4c589:0x867ecdf208d8092e!8m2!3d25.3399223!4d69.7653267!16s%2Fg%2F11h51ct3c2!19sChIJicXkON4ZTzkRLgnYCPLNfoY?authuser=0&hl=en&rclk=1",
        "coordinates": {
            "latitude": 25.339922299999998,
            "longitude": 69.7653267
        }
    },
    {
        "name": "Noor Mustafa Mosque",
        "main_category": "Mosque",
        "address": "9PXR+9P3 Noor Mustafa Mosque, Umarkot, Umerkot, Sindh, Pakistan",
        "detailed_address": {
            "ward": null,
            "street": "9PXR+9P3",
            "city": "Umarkot",
            "postal_code": null,
            "state": "Umerkot, Sindh",
            "country_code": "PK"
        },
        "images": [],
        "link": "https://www.google.com/maps/place/Noor+Mustafa+Mosque/data=!4m7!3m6!1s0x394f21854e310489:0x58c6458731529311!8m2!3d25.3983803!4d69.7417983!16s%2Fg%2F11h14cry8v!19sChIJiQQxToUhTzkREZNSMYdFxlg?authuser=0&hl=en&rclk=1",
        "coordinates": {
            "latitude": 25.3983803,
            "longitude": 69.7417983
        }
    },
    {
        "name": "Masjid",
        "main_category": "Mosque",
        "address": "8J57+CPH Masjid, Unnamed Road, Umarkot, Umerkot, Sindh, Pakistan",
        "detailed_address": {
            "ward": null,
            "street": "8J57+CPH, Unnamed Road",
            "city": "Umarkot",
            "postal_code": null,
            "state": "Umerkot, Sindh",
            "country_code": "PK"
        },
        "images": [
            {
                "about": "All",
                "link": "https://lh5.googleusercontent.com/p/AF1QipMOew0e3FUdp6CIJI4-0sW4CQ_FzWgWMQz-5QrV=w397-h298-k-no"
            }
        ],
        "link": "https://www.google.com/maps/place/Masjid/data=!4m7!3m6!1s0x394ee1a6f9b9c7ad:0x8d46a5a818827f2e!8m2!3d25.3085518!4d69.6143692!16s%2Fg%2F11mbs_4tp7!19sChIJrce5-abhTjkRLn-CGKilRo0?authuser=0&hl=en&rclk=1",
        "coordinates": {
            "latitude": 25.3085518,
            "longitude": 69.6143692
        }
    },
    {
        "name": "Jamia masjid goth mandal",
        "main_category": "Mosque",
        "address": "CQQ2+X66 Jamia masjid goth mandal, New Umerkot, Umerkot, Sindh, Pakistan",
        "detailed_address": {
            "ward": null,
            "street": "CQQ2+X66",
            "city": "New Umerkot",
            "postal_code": null,
            "state": "Umerkot, Sindh",
            "country_code": "PK"
        },
        "images": [
            {
                "about": "All",
                "link": "https://lh5.googleusercontent.com/p/AF1QipOPv6DVnSwPvs5FS73KysanempPbGlDluDpkBAM=w224-h298-k-no"
            }
        ],
        "link": "https://www.google.com/maps/place/Jamia+masjid+goth+mandal/data=!4m7!3m6!1s0x394f21b87810df53:0x72faca0ff4673ce4!8m2!3d25.4399137!4d69.7505149!16s%2Fg%2F11h7fksb7_!19sChIJU98QeLghTzkR5Dxn9A_K-nI?authuser=0&hl=en&rclk=1",
        "coordinates": {
            "latitude": 25.439913699999998,
            "longitude": 69.7505149
        }
    },
    {
        "name": "Masjide e Yousaf Umarkot",
        "main_category": "Mosque",
        "address": "Masjide e Yousaf Umarkot, New Kunbher Kaloni, Umarkot, Umerkot, Sindh, Pakistan",
        "detailed_address": {
            "ward": null,
            "street": "New Kunbher Kaloni",
            "city": "Umarkot",
            "postal_code": null,
            "state": "Umerkot, Sindh",
            "country_code": "PK"
        },
        "images": [
            {
                "about": "All",
                "link": "https://lh5.googleusercontent.com/p/AF1QipMYlCtsdU1rHhASxriaJUJBT-3EMZrUf9Iwiqqz=w298-h298-k-no"
            }
        ],
        "link": "https://www.google.com/maps/place/Masjide+e+Yousaf+Umarkot/data=!4m7!3m6!1s0x394f219b522fd1a1:0xd37d9d1ed66344ea!8m2!3d25.3568439!4d69.7585682!16s%2Fg%2F11qn8gvxrn!19sChIJodEvUpshTzkR6kRj1h6dfdM?authuser=0&hl=en&rclk=1",
        "coordinates": {
            "latitude": 25.356843899999998,
            "longitude": 69.7585682
        }
    },
    {
        "name": "Masjid",
        "main_category": "Mosque",
        "address": "Masjid, Farhad Kot, Chor Rd Shehbaz Bus Stand, Umarkot, Umerkot, Sindh 69100, Pakistan",
        "detailed_address": {
            "ward": null,
            "street": "Farhad Kot, Chor Rd Shehbaz Bus Stand",
            "city": "Umarkot",
            "postal_code": "69100",
            "state": "Umerkot, Sindh",
            "country_code": "PK"
        },
        "images": [],
        "link": "https://www.google.com/maps/place/Masjid/data=!4m7!3m6!1s0x394f21c3d41dfbab:0x818e64810531391f!8m2!3d25.3686598!4d69.7372587!16s%2Fg%2F11zrrb8r2!19sChIJq_sd1MMhTzkRHzkxBYFkjoE?authuser=0&hl=en&rclk=1",
        "coordinates": {
            "latitude": 25.3686598,
            "longitude": 69.7372587
        }
    },
    {
        "name": "Jamia Mirza Masjid, jm` mrz msjd, fGn mHlh",
        "main_category": "Mosque",
        "address": "9P6Q+763 Jamia Mirza Masjid, jm` mrz msjd, fGn mHlh, College Rd, Umarkot, Umerkot, Sindh, Pakistan",
        "detailed_address": {
            "ward": null,
            "street": "9P6Q+763, College Rd",
            "city": "Umarkot",
            "postal_code": null,
            "state": "Umerkot, Sindh",
            "country_code": "PK"
        },
        "images": [],
        "link": "https://www.google.com/maps/place/Jamia+Mirza+Masjid,+%D8%AC%D8%A7%D9%85%D8%B9+%D9%85%D8%B1%D8%B2%D8%A7+%D9%85%D8%B3%D8%AC%D8%AF%D8%8C+%D8%A7%D9%81%D8%BA%D8%A7%D9%86+%D9%85%D8%AD%D9%84%DB%81%E2%80%AD/data=!4m7!3m6!1s0x394f214b0f73c80d:0xb22d55e370aba0e3!8m2!3d25.3606327!4d69.7380526!16s%2Fg%2F11h081svpf!19sChIJDchzD0shTzkR46CrcONVLbI?authuser=0&hl=en&rclk=1",
        "coordinates": {
            "latitude": 25.3606327,
            "longitude": 69.7380526
        }
    },
    {
        "name": "Bilal Masjid Punhon Parho Umerkot",
        "main_category": "Mosque",
        "address": "9Q62+948 Bilal Masjid Punhon Parho Umerkot, Umarkot, Umerkot, Sindh, Pakistan",
        "detailed_address": {
            "ward": null,
            "street": "9Q62+948",
            "city": "Umarkot",
            "postal_code": null,
            "state": "Umerkot, Sindh",
            "country_code": "PK"
        },
        "images": [],
        "link": "https://www.google.com/maps/place/Bilal+Masjid+Punhon+Parho+Umerkot/data=!4m7!3m6!1s0x394f218ca76bd4c1:0x1a52ed835bc26222!8m2!3d25.3609229!4d69.7503398!16s%2Fg%2F11h0g_kfp0!19sChIJwdRrp4whTzkRImLCW4PtUho?authuser=0&hl=en&rclk=1",
        "coordinates": {
            "latitude": 25.3609229,
            "longitude": 69.75033979999999
        }
    },
    {
        "name": "REHMANIA MASJID",
        "main_category": "Mosque",
        "address": "9Q72+37M REHMANIA MASJID, Umarkot, Umerkot, Sindh, Pakistan",
        "detailed_address": {
            "ward": null,
            "street": "9Q72+37M",
            "city": "Umarkot",
            "postal_code": null,
            "state": "Umerkot, Sindh",
            "country_code": "PK"
        },
        "images": [
            {
                "about": "All",
                "link": "https://lh5.googleusercontent.com/p/AF1QipMWbszKyEzXu1qrFbPLjHstmqzCrK9cLto7hCAs=w645-h298-k-no"
            },
            {
                "about": "Dome",
                "link": "https://lh5.googleusercontent.com/p/AF1QipMWbszKyEzXu1qrFbPLjHstmqzCrK9cLto7hCAs=w645-h298-k-no"
            },
            {
                "about": "Videos",
                "link": "https://lh5.googleusercontent.com/p/AF1QipNXQmEFhZqBYAsyzWUd-nTSd7tqZTNFiuRVYBtV=w238-h298-k-no"
            }
        ],
        "link": "https://www.google.com/maps/place/REHMANIA+MASJID/data=!4m7!3m6!1s0x394f211a33b61481:0x855c637d1a86244!8m2!3d25.3627123!4d69.7506587!16s%2Fg%2F11j91n914z!19sChIJgRS2MxohTzkRRGKo0TfGVQg?authuser=0&hl=en&rclk=1",
        "coordinates": {
            "latitude": 25.3627123,
            "longitude": 69.7506587
        }
    },
    {
        "name": "Masjid Ghosia Guest House",
        "main_category": "Mosque",
        "address": "9P9H+6J7 Masjid Ghosia Guest House, Umarkot, Umerkot, Sindh, Pakistan",
        "detailed_address": {
            "ward": null,
            "street": "9P9H+6J7",
            "city": "Umarkot",
            "postal_code": null,
            "state": "Umerkot, Sindh",
            "country_code": "PK"
        },
        "images": [
            {
                "about": "All",
                "link": "https://lh5.googleusercontent.com/p/AF1QipPNqthy6UeUdMZufTVOMYSkPR42UPHImgBPFDPe=w397-h298-k-no"
            }
        ],
        "link": "https://www.google.com/maps/place/Masjid+Ghosia+Guest+House/data=!4m7!3m6!1s0x394f21f83fcf185b:0x480472ca534d0c91!8m2!3d25.3680413!4d69.7290462!16s%2Fg%2F11gxxb5f9h!19sChIJWxjPP_ghTzkRkQxNU8pyBEg?authuser=0&hl=en&rclk=1",
        "coordinates": {
            "latitude": 25.368041299999998,
            "longitude": 69.7290462
        }
    },
    {
        "name": "faizan e attar masjid chahro",
        "main_category": "Mosque",
        "address": "9P5R+QH7 faizan e attar masjid chahro, Chachro, Umerkot, Sindh, Pakistan",
        "detailed_address": {
            "ward": null,
            "street": "9P5R+QH7",
            "city": "Chachro",
            "postal_code": null,
            "state": "Umerkot, Sindh",
            "country_code": "PK"
        },
        "images": [],
        "link": "https://www.google.com/maps/place/faizan+e+attar+masjid+chahro/data=!4m7!3m6!1s0x394f211325f0a221:0x613fe2f74c34f4!8m2!3d25.3594162!4d69.7414188!16s%2Fg%2F11fj44yy8g!19sChIJIaLwJRMhTzkR9DRM9-I_YQA?authuser=0&hl=en&rclk=1",
        "coordinates": {
            "latitude": 25.3594162,
            "longitude": 69.74141879999999
        }
    },
    {
        "name": "Chaniya Mosque",
        "main_category": "Mosque",
        "address": "9P7W+X45 Chaniya Mosque, Umarkot, Umerkot, Sindh, Pakistan",
        "detailed_address": {
            "ward": null,
            "street": "9P7W+X45",
            "city": "Umarkot",
            "postal_code": null,
            "state": "Umerkot, Sindh",
            "country_code": "PK"
        },
        "images": [
            {
                "about": "All",
                "link": "https://lh5.googleusercontent.com/p/AF1QipNuuzVDHEd4TVmdsZ-Ghr9MDE6I_xhiI1_irSoL=w224-h445-k-no"
            },
            {
                "about": "Videos",
                "link": "https://lh5.googleusercontent.com/p/AF1QipNhSY4Gj7en5_uQZnjm62AKsbyOQ8c8rIhoN8cf=w526-h298-k-no"
            }
        ],
        "link": "https://www.google.com/maps/place/Chaniya+Mosque/data=!4m7!3m6!1s0x394f211079b0be1f:0x8261d1d9c8dcd525!8m2!3d25.3648933!4d69.745352!16s%2Fg%2F11s1t8c_s2!19sChIJH76weRAhTzkRJdXcyNnRYYI?authuser=0&hl=en&rclk=1",
        "coordinates": {
            "latitude": 25.3648933,
            "longitude": 69.745352
        }
    },
    {
        "name": "Faizan-e-Madina, fyDn mdynh",
        "main_category": "Mosque",
        "address": "9P4M+GXG Faizan-e-Madina, fyDn mdynh, Golli mar ground, Umarkot, Umerkot, Sindh, Pakistan",
        "detailed_address": {
            "ward": null,
            "street": "9P4M+GXG Golli mar ground",
            "city": "Umarkot",
            "postal_code": null,
            "state": "Umerkot, Sindh",
            "country_code": "PK"
        },
        "images": [
            {
                "about": "All",
                "link": "https://lh5.googleusercontent.com/p/AF1QipPhMugzLDzPqOLu-pk28ohuoTmDU19mulGoNfYa=w397-h298-k-no"
            }
        ],
        "link": "https://www.google.com/maps/place/Faizan-e-Madina,+%D9%81%DB%8C%D8%B6%D8%A7%D9%86+%D9%85%D8%AF%DB%8C%D9%86%DB%81%E2%80%AD/data=!4m7!3m6!1s0x394f215bec9bcd3f:0xb947d8008446c5c9!8m2!3d25.3563102!4d69.7349621!16s%2Fg%2F11fs32s3xg!19sChIJP82b7FshTzkRycVGhADYR7k?authuser=0&hl=en&rclk=1",
        "coordinates": {
            "latitude": 25.3563102,
            "longitude": 69.73496209999999
        }
    },
    {
        "name": "MAKTAB TALIMUL QURAN RAHIMAN COLONY MASJID SALEH - UMER KOT - SINDH",
        "main_category": "Religious institution",
        "address": "9P4W+2QF MAKTAB TALIMUL QURAN RAHIMAN COLONY MASJID SALEH - UMER KOT - SINDH, Umarkot, Umerkot, Sindh, Pakistan",
        "detailed_address": {
            "ward": null,
            "street": "9P4W+2QF",
            "city": "Umarkot",
            "postal_code": null,
            "state": "Umerkot, Sindh",
            "country_code": "PK"
        },
        "images": [
            {
                "about": "All",
                "link": "https://lh5.googleusercontent.com/p/AF1QipPK3UOdPENoczVT-F3nnwWdx8nrs3yDUQzOS32F=w397-h298-k-no"
            }
        ],
        "link": "https://www.google.com/maps/place/MAKTAB+TALIMUL+QURAN+RAHIMAN+COLONY+MASJID+SALEH+-+UMER+KOT+-+SINDH/data=!4m7!3m6!1s0x394f21646b4c3ebb:0xf5c73a53ac5da8d0!8m2!3d25.3550555!4d69.7469208!16s%2Fg%2F11h0zr1jt4!19sChIJuz5Ma2QhTzkR0KhdrFM6x_U?authuser=0&hl=en&rclk=1",
        "coordinates": {
            "latitude": 25.3550555,
            "longitude": 69.7469208
        }
    },
    {
        "name": "Quba Masjd",
        "main_category": "Mosque",
        "address": "Quba Masjd, High School, Road, Umarkot, Umerkot, Sindh, Pakistan",
        "detailed_address": {
            "ward": null,
            "street": "High School, Road",
            "city": "Umarkot",
            "postal_code": null,
            "state": "Umerkot, Sindh",
            "country_code": "PK"
        },
        "images": [
            {
                "about": "All",
                "link": "https://lh5.googleusercontent.com/p/AF1QipOV7y741AhO-CSaxK6fRwPI-TYWgLjH5IXxeI1p=w224-h298-k-no"
            }
        ],
        "link": "https://www.google.com/maps/place/Quba+Masjd/data=!4m7!3m6!1s0x394f2180ef552fc3:0x9d8890618e17a19a!8m2!3d25.3623496!4d69.7403456!16s%2Fg%2F11gy7xwb6x!19sChIJwy9V74AhTzkRmqEXjmGQiJ0?authuser=0&hl=en&rclk=1",
        "coordinates": {
            "latitude": 25.362349599999998,
            "longitude": 69.7403456
        }
    },
    {
        "name": "Abdul Rehman jamali jama masjid",
        "main_category": "Mosque",
        "address": "9P4M+5R2 Abdul Rehman jamali jama masjid, Umarkot, Umerkot, Sindh, Pakistan",
        "detailed_address": {
            "ward": null,
            "street": "9P4M+5R2",
            "city": "Umarkot",
            "postal_code": null,
            "state": "Umerkot, Sindh",
            "country_code": "PK"
        },
        "images": [
            {
                "about": "All",
                "link": "https://lh5.googleusercontent.com/p/AF1QipM1Y5LrTz--AyrXJnxb7cAoX-mLfLd8SS9xp7QU=w529-h298-k-no"
            }
        ],
        "link": "https://www.google.com/maps/place/Abdul+Rehman+jamali+jama+masjid/data=!4m7!3m6!1s0x394f21655a1ceb5d:0xc82abb1d9137e03f!8m2!3d25.3553877!4d69.7345098!16s%2Fg%2F11j2m6p3wv!19sChIJXescWmUhTzkRP-A3kR27Ksg?authuser=0&hl=en&rclk=1",
        "coordinates": {
            "latitude": 25.355387699999998,
            "longitude": 69.7345098
        }
    },
    {
        "name": "Makki Masjid Kunbhar mohalla Umerkot",
        "main_category": "Mosque",
        "address": "9Q62+MC2 Makki Masjid Kunbhar mohalla Umerkot, Umarkot, Umerkot, Sindh, Pakistan",
        "detailed_address": {
            "ward": null,
            "street": "9Q62+MC2",
            "city": "Umarkot",
            "postal_code": null,
            "state": "Umerkot, Sindh",
            "country_code": "PK"
        },
        "images": [
            {
                "about": "All",
                "link": "https://lh5.googleusercontent.com/p/AF1QipPWH1v4IvxSkbyQ2Ic5UcTMBIr7d4-PFS-c0baR=w397-h298-k-no"
            },
            {
                "about": "Dome",
                "link": "https://lh5.googleusercontent.com/p/AF1QipOOeE1c1lby-SKxuRZhUeNc3wr4p_W6JsOWsOfj=w397-h298-k-no"
            }
        ],
        "link": "https://www.google.com/maps/place/Makki+Masjid+Kunbhar+mohalla+Umerkot/data=!4m7!3m6!1s0x394f216064c9302d:0xf898a96ebce2f1ed!8m2!3d25.3617004!4d69.7511103!16s%2Fg%2F11ssx73dr8!19sChIJLTDJZGAhTzkR7fHivG6pmPg?authuser=0&hl=en&rclk=1",
        "coordinates": {
            "latitude": 25.3617004,
            "longitude": 69.7511103
        }
    },
    {
        "name": "Masjid Farooque Azam Nohri Mohala",
        "main_category": "Mosque",
        "address": "9Q73+C7R Masjid Farooque Azam Nohri Mohala, Umarkot, Umerkot, Sindh, Pakistan",
        "detailed_address": {
            "ward": null,
            "street": "9Q73+C7R",
            "city": "Umarkot",
            "postal_code": null,
            "state": "Umerkot, Sindh",
            "country_code": "PK"
        },
        "images": [],
        "link": "https://www.google.com/maps/place/Masjid+Farooque+Azam+Nohri+Mohala/data=!4m7!3m6!1s0x394f21af4e783b4f:0xcf99f36f85e2fd44!8m2!3d25.3636017!4d69.7531394!16s%2Fg%2F11mncgsr_f!19sChIJTzt4Tq8hTzkRRP3ihW_zmc8?authuser=0&hl=en&rclk=1",
        "coordinates": {
            "latitude": 25.3636017,
            "longitude": 69.7531394
        }
    },
    {
        "name": "Masjid Rehmat ul Aalameen Umerkot Sindh",
        "main_category": "Mosque",
        "address": "8QX2+FR Masjid Rehmat ul Aalameen Umerkot Sindh, Umarkot, Umerkot, Sindh, Pakistan",
        "detailed_address": {
            "ward": null,
            "street": "8QX2+FR",
            "city": "Umarkot",
            "postal_code": null,
            "state": "Umerkot, Sindh",
            "country_code": "PK"
        },
        "images": [],
        "link": "https://www.google.com/maps/place/Masjid+Rehmat+ul+Aalameen+Umerkot+Sindh/data=!4m7!3m6!1s0x394f1f341d01d039:0x4293e357a8f19a2b!8m2!3d25.3487304!4d69.7520642!16s%2Fg%2F11snryhxv8!19sChIJOdABHTQfTzkRK5rxqFfjk0I?authuser=0&hl=en&rclk=1",
        "coordinates": {
            "latitude": 25.348730399999997,
            "longitude": 69.75206419999999
        }
    },
    {
        "name": "Mangria Mohalla Masjid Sharif",
        "main_category": "Mosque",
        "address": "9P3V+QVR Mangria Mohalla Masjid Sharif, Umarkot, Umerkot, Sindh, Pakistan",
        "detailed_address": {
            "ward": null,
            "street": "9P3V+QVR",
            "city": "Umarkot",
            "postal_code": null,
            "state": "Umerkot, Sindh",
            "country_code": "PK"
        },
        "images": [],
        "link": "https://www.google.com/maps/place/Mangria+Mohalla+Masjid+Sharif/data=!4m7!3m6!1s0x394f2162edf1ea93:0x55cac9074e87fd07!8m2!3d25.3544904!4d69.7446435!16s%2Fg%2F11s57j816f!19sChIJk-rx7WIhTzkRB_2HTgfJylU?authuser=0&hl=en&rclk=1",
        "coordinates": {
            "latitude": 25.3544904,
            "longitude": 69.7446435
        }
    },
    {
        "name": "Jamia Masjid Qasimia jm`h msjd qsmyh",
        "main_category": "Mosque",
        "address": "9P8Q+GQ7 Jamia Masjid Qasimia jm`h msjd qsmyh, Thar Bazar Rd Moti Chowk, Thar Bazar, Umarkot, Umerkot, Sindh 69100, Pakistan",
        "detailed_address": {
            "ward": null,
            "street": "9P8Q+GQ7, Thar Bazar Rd Moti Chowk, Thar Bazar",
            "city": "Umarkot",
            "postal_code": "69100",
            "state": "Umerkot, Sindh",
            "country_code": "PK"
        },
        "images": [],
        "link": "https://www.google.com/maps/place/Jamia+Masjid+Qasimia+%D8%AC%D8%A7%D9%85%D8%B9%DB%81+%D9%85%D8%B3%D8%AC%D8%AF+%D9%82%D8%A7%D8%B3%D9%85%DB%8C%DB%81%E2%80%AD/data=!4m7!3m6!1s0x394f21c28a670387:0x549be2b32291364b!8m2!3d25.3662758!4d69.7394111!16s%2Fg%2F11yvz1pwb!19sChIJhwNnisIhTzkRSzaRIrPim1Q?authuser=0&hl=en&rclk=1",
        "coordinates": {
            "latitude": 25.3662758,
            "longitude": 69.7394111
        }
    },
    {
        "name": "Masjid sydena Siddiq e Akbar",
        "main_category": "Mosque",
        "address": "9Q73+8R2 Masjid sydena Siddiq e Akbar, Umerkot - Kantio Road, Kantio, Tharparkar, Sindh, Pakistan",
        "detailed_address": {
            "ward": null,
            "street": "9Q73+8R2, Umerkot - Kantio Road",
            "city": "Kantio",
            "postal_code": null,
            "state": "Tharparkar, Sindh",
            "country_code": "PK"
        },
        "images": [
            {
                "about": "All",
                "link": "https://lh5.googleusercontent.com/p/AF1QipP_0GVI0wwZP7DD7tY4SLO1Lb9oXHkfWcw6maeJ=w662-h298-k-no"
            }
        ],
        "link": "https://www.google.com/maps/place/Masjid+sydena+Siddiq+e+Akbar/data=!4m7!3m6!1s0x394f21d9e7d6a6c3:0x5be66847938c9289!8m2!3d25.3632748!4d69.7545107!16s%2Fg%2F11p5l51qwh!19sChIJw6bW59khTzkRiZKMk0do5ls?authuser=0&hl=en&rclk=1",
        "coordinates": {
            "latitude": 25.3632748,
            "longitude": 69.7545107
        }
    },
    {
        "name": "Rahimoon Masjad",
        "main_category": "Mosque",
        "address": "9P4W+2QV Rahimoon Masjad, Umarkot, Umerkot, Sindh, Pakistan",
        "detailed_address": {
            "ward": null,
            "street": "9P4W+2QV",
            "city": "Umarkot",
            "postal_code": null,
            "state": "Umerkot, Sindh",
            "country_code": "PK"
        },
        "images": [],
        "link": "https://www.google.com/maps/place/Rahimoon+Masjad/data=!4m7!3m6!1s0x394f21b3bd1ed2ab:0x1f2ad82444ca7abb!8m2!3d25.3551008!4d69.7469233!16s%2Fg%2F11h39x91lw!19sChIJq9IevbMhTzkRu3rKRCTYKh8?authuser=0&hl=en&rclk=1",
        "coordinates": {
            "latitude": 25.3551008,
            "longitude": 69.74692329999999
        }
    },
    {
        "name": "Masjid Roza Dhanni msjd rwDh dhny",
        "main_category": "Mosque",
        "address": "9P7J+VMM Masjid Roza Dhanni msjd rwDh dhny, Mirpurkhas Rd, N-120, Umerkot, Sindh, Pakistan",
        "detailed_address": {
            "ward": null,
            "street": "9P7J+VMM, Mirpurkhas Rd, N-120",
            "city": "Umerkot",
            "postal_code": null,
            "state": "Umerkot, Sindh",
            "country_code": "PK"
        },
        "images": [
            {
                "about": "All",
                "link": "https://lh5.googleusercontent.com/p/AF1QipOsQZn1NeMkntXPwNqNR-6Epie8nHMNQHm59tEm=w486-h298-k-no"
            },
            {
                "about": "Dome",
                "link": "https://lh5.googleusercontent.com/p/AF1QipOsQZn1NeMkntXPwNqNR-6Epie8nHMNQHm59tEm=w486-h298-k-no"
            }
        ],
        "link": "https://www.google.com/maps/place/Masjid+Roza+Dhanni+%D9%85%D8%B3%D8%AC%D8%AF+%D8%B1%D9%88%D8%B6%DB%81+%D8%AF%DA%BE%D9%86%DB%8C%E2%80%AD/data=!4m7!3m6!1s0x394f2172d14a323f:0x39e834a2c2e86b3!8m2!3d25.3647011!4d69.7316713!16s%2Fg%2F11j2whm_p1!19sChIJPzJK0XIhTzkRs4YuLEqDngM?authuser=0&hl=en&rclk=1",
        "coordinates": {
            "latitude": 25.364701099999998,
            "longitude": 69.7316713
        }
    },
    {
        "name": "Faizan-e-Murshid, fyDn mrshd",
        "main_category": "Mosque",
        "address": "9P7Q+W6V Faizan-e-Murshid, fyDn mrshd, Post Office Road, Kaim Khani Mohalla, Umarkot, Umerkot, Sindh, Pakistan",
        "detailed_address": {
            "ward": null,
            "street": "9P7Q+W6V, Post Office Road, Kaim Khani Mohalla",
            "city": "Umarkot",
            "postal_code": null,
            "state": "Umerkot, Sindh",
            "country_code": "PK"
        },
        "images": [
            {
                "about": "All",
                "link": "https://lh5.googleusercontent.com/p/AF1QipMvrRjBAnqg_xh16xrPqDZZPL-IGO0HylBoKiSR=w529-h298-k-no"
            },
            {
                "about": "Videos",
                "link": "https://lh5.googleusercontent.com/p/AF1QipN5bDoyk5rJ-ZScry_Glr2Wn1u_luBUWjhcl8Ib=w529-h298-k-no"
            }
        ],
        "link": "https://www.google.com/maps/place/Faizan-e-Murshid,+%D9%81%DB%8C%D8%B6%D8%A7%D9%86+%D9%85%D8%B1%D8%B4%D8%AF%E2%80%AD/data=!4m7!3m6!1s0x394f2114deabe8db:0x659b9567990392e!8m2!3d25.3648672!4d69.738051!16s%2Fg%2F11j2lst5lg!19sChIJ2-ir3hQhTzkRLjmQeVa5WQY?authuser=0&hl=en&rclk=1",
        "coordinates": {
            "latitude": 25.3648672,
            "longitude": 69.738051
        }
    },
    {
        "name": "Jamia masjid khalid goth",
        "main_category": "Mosque",
        "address": "8QGQ+XGX Jamia masjid khalid goth, Umarkot, Umerkot, Sindh, Pakistan",
        "detailed_address": {
            "ward": null,
            "street": "8QGQ+XGX",
            "city": "Umarkot",
            "postal_code": null,
            "state": "Umerkot, Sindh",
            "country_code": "PK"
        },
        "images": [
            {
                "about": "All",
                "link": "https://lh5.googleusercontent.com/p/AF1QipMMRaOSTii3UN7me7DFB2uYh5ir7rszkqB-Xefa=w629-h298-k-no"
            },
            {
                "about": "Dome",
                "link": "https://lh5.googleusercontent.com/p/AF1QipMMRaOSTii3UN7me7DFB2uYh5ir7rszkqB-Xefa=w629-h298-k-no"
            }
        ],
        "link": "https://www.google.com/maps/place/Jamia+masjid+khalid+goth/data=!4m7!3m6!1s0x394f199ebc51a3eb:0x23a8920c117feaa7!8m2!3d25.3274898!4d69.7888594!16s%2Fg%2F11frqyhtmb!19sChIJ66NRvJ4ZTzkRp-p_EQySqCM?authuser=0&hl=en&rclk=1",
        "coordinates": {
            "latitude": 25.3274898,
            "longitude": 69.78885939999999
        }
    },
    {
        "name": "Masjid",
        "main_category": "Mosque",
        "address": "CQ82+JV4 Masjid, Umarkot, Umerkot, Sindh, Pakistan",
        "detailed_address": {
            "ward": null,
            "street": "CQ82+JV4",
            "city": "Umarkot",
            "postal_code": null,
            "state": "Umerkot, Sindh",
            "country_code": "PK"
        },
        "images": [
            {
                "about": "All",
                "link": "https://lh5.googleusercontent.com/p/AF1QipO1BtqjX8vzo3Nasdl563oBspvWr_bq02RrOW5a=w645-h298-k-no"
            },
            {
                "about": "Videos",
                "link": "https://lh5.googleusercontent.com/p/AF1QipNfGq_LnkSn_lvEdUW5HSNh9L3a5ZIGJLY7Gb-U=w224-h398-k-no"
            }
        ],
        "link": "https://www.google.com/maps/place/Masjid/data=!4m7!3m6!1s0x394f21fec0b8db43:0x2d3280be9c8fdecf!8m2!3d25.4165066!4d69.752206!16s%2Fg%2F11lfbhnqj_!19sChIJQ9u4wP4hTzkRz96PnL6AMi0?authuser=0&hl=en&rclk=1",
        "coordinates": {
            "latitude": 25.416506599999998,
            "longitude": 69.752206
        }
    },
    {
        "name": "Masjid Shareef",
        "main_category": "Mosque",
        "address": "CQ93+3WP Masjid Shareef, New Umerkot, Umerkot, Sindh, Pakistan",
        "detailed_address": {
            "ward": null,
            "street": "CQ93+3WP",
            "city": "New Umerkot",
            "postal_code": null,
            "state": "Umerkot, Sindh",
            "country_code": "PK"
        },
        "images": [],
        "link": "https://www.google.com/maps/place/Masjid+Shareef/data=!4m7!3m6!1s0x394f2166656debbd:0x5d3c1ba59d015e6b!8m2!3d25.4177052!4d69.7548299!16s%2Fg%2F11gd8drdc2!19sChIJvettZWYhTzkRa14BnaUbPF0?authuser=0&hl=en&rclk=1",
        "coordinates": {
            "latitude": 25.4177052,
            "longitude": 69.75482989999999
        }
    },
    {
        "name": "Khajrari Mosque",
        "main_category": "Mosque",
        "address": "Khajrari Mosque, Umarkot, Umerkot, Sindh, Pakistan",
        "detailed_address": {
            "ward": null,
            "street": null,
            "city": "Umarkot",
            "postal_code": null,
            "state": "Umerkot, Sindh",
            "country_code": "PK"
        },
        "images": [
            {
                "about": "All",
                "link": "https://lh5.googleusercontent.com/p/AF1QipPVb-1xNZiDU46BeqyUIWqLKmw2mDfr57G_byNx=w392-h298-k-no"
            },
            {
                "about": "Dome",
                "link": "https://lh5.googleusercontent.com/p/AF1QipPVb-1xNZiDU46BeqyUIWqLKmw2mDfr57G_byNx=w392-h298-k-no"
            }
        ],
        "link": "https://www.google.com/maps/place/Khajrari+Mosque/data=!4m7!3m6!1s0x394f1f96aeb3958d:0x5faa8efde0df2f23!8m2!3d25.3001875!4d69.7190625!16s%2Fg%2F11hdpy909l!19sChIJjZWzrpYfTzkRIy_f4P2Oql8?authuser=0&hl=en&rclk=1",
        "coordinates": {
            "latitude": 25.3001875,
            "longitude": 69.71906249999999
        }
    },
    {
        "name": "Moosa Masjid mwsy' msjd `ly mHmd ply",
        "main_category": "Mosque",
        "address": "CMXF+JM Moosa Masjid mwsy' msjd `ly mHmd ply, Umarkot, Umerkot, Sindh, Pakistan",
        "detailed_address": {
            "ward": null,
            "street": "CMXF+JM",
            "city": "Umarkot",
            "postal_code": null,
            "state": "Umerkot, Sindh",
            "country_code": "PK"
        },
        "images": [
            {
                "about": "All",
                "link": "https://lh5.googleusercontent.com/p/AF1QipOQ0ekBSgwFB6Bay3zBwZZqI5q4LeJQocZttMuS=w397-h298-k-no"
            }
        ],
        "link": "https://www.google.com/maps/place/Moosa+Masjid+%D9%85%D9%88%D8%B3%D8%A6+%D9%85%D8%B3%D8%AC%D8%AF+%D8%B9%D9%84%D9%8A+%D9%85%D8%AD%D9%85%D8%AF+%D9%BE%D9%84%D9%8A%E2%80%AD/data=!4m7!3m6!1s0x394f2795045f0b5b:0x930b135338231858!8m2!3d25.4491444!4d69.6741679!16s%2Fg%2F11kc45qff7!19sChIJWwtfBJUnTzkRWBgjOFMTC5M?authuser=0&hl=en&rclk=1",
        "coordinates": {
            "latitude": 25.449144399999998,
            "longitude": 69.6741679
        }
    },
    {
        "name": "Masjid, msjd",
        "main_category": "Mosque",
        "address": "9P8H+7W Masjid, msjd, Umarkot, Umerkot, Sindh, Pakistan",
        "detailed_address": {
            "ward": null,
            "street": "9P8H+7W",
            "city": "Umarkot",
            "postal_code": null,
            "state": "Umerkot, Sindh",
            "country_code": "PK"
        },
        "images": [],
        "link": "https://www.google.com/maps/place/Masjid,+%D9%85%D8%B3%D8%AC%D8%AF%E2%80%AD/data=!4m7!3m6!1s0x394f2173d76d5b9f:0x63921ec3143b9740!8m2!3d25.365637!4d69.7298541!16s%2Fg%2F11q42jn45t!19sChIJn1tt13MhTzkRQJc7FMMekmM?authuser=0&hl=en&rclk=1",
        "coordinates": {
            "latitude": 25.365637,
            "longitude": 69.7298541
        }
    },
    {
        "name": "Bilal Masjid Umarkot",
        "main_category": "Mosque",
        "address": "9P9X+8V9 Bilal Masjid Umarkot, Umarkot, Umerkot, Sindh, Pakistan",
        "detailed_address": {
            "ward": null,
            "street": "9P9X+8V9",
            "city": "Umarkot",
            "postal_code": null,
            "state": "Umerkot, Sindh",
            "country_code": "PK"
        },
        "images": [],
        "link": "https://www.google.com/maps/place/Bilal+Masjid+Umarkot/data=!4m7!3m6!1s0x394f21c9e33a3cad:0x214a059564b0d7b6!8m2!3d25.3679782!4d69.7501859!16s%2Fg%2F11t6tnk3_7!19sChIJrTw648khTzkRttewZJUFSiE?authuser=0&hl=en&rclk=1",
        "coordinates": {
            "latitude": 25.3679782,
            "longitude": 69.75018589999999
        }
    },
    {
        "name": "Masjid, msjd",
        "main_category": "Mosque",
        "address": "9P3Q+X3C Masjid, msjd, near shrine of Salah ud Din Gaju Rana, Umarkot, Umerkot, Sindh, Pakistan",
        "detailed_address": {
            "ward": null,
            "street": "9P3Q+X3C, near shrine of Salah ud Din Gaju Rana",
            "city": "Umarkot",
            "postal_code": null,
            "state": "Umerkot, Sindh",
            "country_code": "PK"
        },
        "images": [],
        "link": "https://www.google.com/maps/place/Masjid,+%D9%85%D8%B3%D8%AC%D8%AF%E2%80%AD/data=!4m7!3m6!1s0x394f210619c0f629:0xa1032066486c3da9!8m2!3d25.354928!4d69.7376286!16s%2Fg%2F11sqkv9ph7!19sChIJKfbAGQYhTzkRqT1sSGYgA6E?authuser=0&hl=en&rclk=1",
        "coordinates": {
            "latitude": 25.354927999999997,
            "longitude": 69.7376286
        }
    },
    {
        "name": "Aqsa Masjid",
        "main_category": "Mosque",
        "address": "9P4Q+JQX Aqsa Masjid, Umerkot Vehro Rd, Umarkot, Umerkot, Sindh, Pakistan",
        "detailed_address": {
            "ward": null,
            "street": "9P4Q+JQX, Umerkot Vehro Rd",
            "city": "Umarkot",
            "postal_code": null,
            "state": "Umerkot, Sindh",
            "country_code": "PK"
        },
        "images": [],
        "link": "https://www.google.com/maps/place/Aqsa+Masjid/data=!4m7!3m6!1s0x394f2173cc7a7e4b:0xb8f97903c6058694!8m2!3d25.3566077!4d69.7394751!16s%2Fg%2F11v0jlr6rp!19sChIJS356zHMhTzkRlIYFxgN5-bg?authuser=0&hl=en&rclk=1",
        "coordinates": {
            "latitude": 25.356607699999998,
            "longitude": 69.73947509999999
        }
    },
    {
        "name": "Masjid Sharif",
        "main_category": "Mosque",
        "address": "9P3V+3P9 Masjid Sharif, Umarkot, Umerkot, Sindh, Pakistan",
        "detailed_address": {
            "ward": null,
            "street": "9P3V+3P9",
            "city": "Umarkot",
            "postal_code": null,
            "state": "Umerkot, Sindh",
            "country_code": "PK"
        },
        "images": [],
        "link": "https://www.google.com/maps/place/Masjid+Sharif/data=!4m7!3m6!1s0x394f1fb437c2aff1:0x5c606e6da57485a9!8m2!3d25.3526619!4d69.7443708!16s%2Fg%2F11t7bx7z_y!19sChIJ8a_CN7QfTzkRqYV0pW1uYFw?authuser=0&hl=en&rclk=1",
        "coordinates": {
            "latitude": 25.352661899999998,
            "longitude": 69.7443708
        }
    },
    {
        "name": "Bilal masjid",
        "main_category": "Mosque",
        "address": "9P3Q+X3C Bilal masjid, Umarkot, Umerkot, Sindh, Pakistan",
        "detailed_address": {
            "ward": null,
            "street": "9P3Q+X3C",
            "city": "Umarkot",
            "postal_code": null,
            "state": "Umerkot, Sindh",
            "country_code": "PK"
        },
        "images": [],
        "link": "https://www.google.com/maps/place/Bilal+masjid/data=!4m7!3m6!1s0x394f21d389d56fdb:0x4406d7078ed9c4cc!8m2!3d25.354928!4d69.7376286!16s%2Fg%2F11shq28l2r!19sChIJ22_VidMhTzkRzMTZjgfXBkQ?authuser=0&hl=en&rclk=1",
        "coordinates": {
            "latitude": 25.354927999999997,
            "longitude": 69.7376286
        }
    },
    {
        "name": "Masjid bahar deen",
        "main_category": "Mosque",
        "address": "9P3Q+X3C Masjid bahar deen, Umarkot, Umerkot, Sindh, Pakistan",
        "detailed_address": {
            "ward": null,
            "street": "9P3Q+X3C",
            "city": "Umarkot",
            "postal_code": null,
            "state": "Umerkot, Sindh",
            "country_code": "PK"
        },
        "images": [],
        "link": "https://www.google.com/maps/place/Masjid+bahar+deen/data=!4m7!3m6!1s0x394f21edb88ff4db:0x648165f46a5f18e4!8m2!3d25.354928!4d69.7376286!16s%2Fg%2F11shpgjr55!19sChIJ2_SPuO0hTzkR5BhfavRlgWQ?authuser=0&hl=en&rclk=1",
        "coordinates": {
            "latitude": 25.354927999999997,
            "longitude": 69.7376286
        }
    },
    {
        "name": "Masjid",
        "main_category": "Mosque",
        "address": "8PJG+VWR Masjid, Umarkot, Umerkot, Sindh, Pakistan",
        "detailed_address": {
            "ward": null,
            "street": "8PJG+VWR",
            "city": "Umarkot",
            "postal_code": null,
            "state": "Umerkot, Sindh",
            "country_code": "PK"
        },
        "images": [],
        "link": "https://www.google.com/maps/place/Masjid/data=!4m7!3m6!1s0x394f1f1875bf753b:0x54516c9c6ad1ca4!8m2!3d25.3321929!4d69.7272741!16s%2Fg%2F11shqkj3jr!19sChIJO3W_dRgfTzkRpBytxskWRQU?authuser=0&hl=en&rclk=1",
        "coordinates": {
            "latitude": 25.3321929,
            "longitude": 69.7272741
        }
    },
    {
        "name": "Masjid Ibrahim Khalil",
        "main_category": "Mosque",
        "address": "Masjid Ibrahim Khalil, Umarkot, Umerkot, Sindh, Pakistan",
        "detailed_address": {
            "ward": null,
            "street": "Masjid Ibrahim Khalil",
            "city": "Umarkot",
            "postal_code": null,
            "state": "Umerkot, Sindh",
            "country_code": "PK"
        },
        "images": [],
        "link": "https://www.google.com/maps/place/Masjid+Ibrahim+Khalil/data=!4m7!3m6!1s0x394f21c4243abc45:0x6ce12b72371239b6!8m2!3d25.3685391!4d69.7442783!16s%2Fg%2F11scfkj2z3!19sChIJRbw6JMQhTzkRtjkSN3Ir4Ww?authuser=0&hl=en&rclk=1",
        "coordinates": {
            "latitude": 25.3685391,
            "longitude": 69.74427829999999
        }
    },
    {
        "name": "Faizan jelan masjid",
        "main_category": "Mosque",
        "address": "9QF2+R8V Faizan jelan masjid, ratnore Road, Umarkot, Umerkot, Sindh, Pakistan",
        "detailed_address": {
            "ward": null,
            "street": "9QF2+R8V, ratnore Road",
            "city": "Umarkot",
            "postal_code": null,
            "state": "Umerkot, Sindh",
            "country_code": "PK"
        },
        "images": [],
        "link": "https://www.google.com/maps/place/Faizan+jelan+masjid/data=!4m7!3m6!1s0x394f2130acba0b81:0x2c4e07038b451c92!8m2!3d25.3746229!4d69.7508044!16s%2Fg%2F11t6mpdsd5!19sChIJgQu6rDAhTzkRkhxFiwMHTiw?authuser=0&hl=en&rclk=1",
        "coordinates": {
            "latitude": 25.3746229,
            "longitude": 69.75080439999999
        }
    },
    {
        "name": "Masjid",
        "main_category": "Mosque",
        "address": "9PCJ+4PV Masjid, Umarkot, Umerkot, Sindh, Pakistan",
        "detailed_address": {
            "ward": null,
            "street": "9PCJ+4PV",
            "city": "Umarkot",
            "postal_code": null,
            "state": "Umerkot, Sindh",
            "country_code": "PK"
        },
        "images": [],
        "link": "https://www.google.com/maps/place/Masjid/data=!4m7!3m6!1s0x394f217e3cfc6e3d:0xf4c4311a5e1b3e1c!8m2!3d25.3712648!4d69.7308083!16s%2Fg%2F11skv2rp4s!19sChIJPW78PH4hTzkRHD4bXhoxxPQ?authuser=0&hl=en&rclk=1",
        "coordinates": {
            "latitude": 25.3712648,
            "longitude": 69.73080829999999
        }
    },
    {
        "name": "Bilal Mosque",
        "main_category": "Place of worship",
        "address": "8PV8+HWW Bilal Mosque, Umarkot, Umerkot, Sindh, Pakistan",
        "detailed_address": {
            "ward": null,
            "street": "8PV8+HWW",
            "city": "Umarkot",
            "postal_code": null,
            "state": "Umerkot, Sindh",
            "country_code": "PK"
        },
        "images": [
            {
                "about": "All",
                "link": "https://lh5.googleusercontent.com/p/AF1QipMbnZUHie-ftDPvWD0LEVEHeP7di9PBhoajNwQs=w224-h398-k-no"
            },
            {
                "about": "Videos",
                "link": "https://lh5.googleusercontent.com/p/AF1QipMJqdJfbU7b9ocxXV-RxeCLuuJ5c8AmEXYF3XOX=w224-h398-k-no"
            }
        ],
        "link": "https://www.google.com/maps/place/Bilal+Mosque/data=!4m7!3m6!1s0x394f1fb4079941c9:0x2263e8a1b6b84e98!8m2!3d25.3439812!4d69.7173357!16s%2Fg%2F11q26w4hq5!19sChIJyUGZB7QfTzkRmE64tqHoYyI?authuser=0&hl=en&rclk=1",
        "coordinates": {
            "latitude": 25.343981199999998,
            "longitude": 69.71733569999999
        }
    },
    {
        "name": "MAKTAB TALIMUL QURAN MASJID AQSA - UMER KOT - SINDH",
        "main_category": "Religious institution",
        "address": "9P9W+PP7 MAKTAB TALIMUL QURAN MASJID AQSA - UMER KOT - SINDH, near bakra mandi, Thar Bazar Rd, Umarkot, Umerkot, Sindh, Pakistan",
        "detailed_address": {
            "ward": null,
            "street": "9P9W+PP7, near bakra mandi, Thar Bazar Rd",
            "city": "Umarkot",
            "postal_code": null,
            "state": "Umerkot, Sindh",
            "country_code": "PK"
        },
        "images": [
            {
                "about": "All",
                "link": "https://lh5.googleusercontent.com/p/AF1QipPGnUIONBzFY6QC5l_4wkEMBcSLnmbJ83vN_TXJ=w529-h298-k-no"
            }
        ],
        "link": "https://www.google.com/maps/place/MAKTAB+TALIMUL+QURAN+MASJID+AQSA+-+UMER+KOT+-+SINDH/data=!4m7!3m6!1s0x394f21a948a0c319:0xdeb5302ad2927677!8m2!3d25.3692867!4d69.7468032!16s%2Fg%2F11fkr52b8b!19sChIJGcOgSKkhTzkRd3aS0iowtd4?authuser=0&hl=en&rclk=1",
        "coordinates": {
            "latitude": 25.3692867,
            "longitude": 69.7468032
        }
    },
    {
        "name": "MAKTAB TALIMUL QURAN MADINA MASJID - UMER KOT - SINDH",
        "main_category": "Religious institution",
        "address": "9P8P+MVC MAKTAB TALIMUL QURAN MADINA MASJID - UMER KOT - SINDH, Town Bazar Rd, Umarkot, Umerkot, Sindh, Pakistan",
        "detailed_address": {
            "ward": null,
            "street": "9P8P+MVC, Town Bazar Rd",
            "city": "Umarkot",
            "postal_code": null,
            "state": "Umerkot, Sindh",
            "country_code": "PK"
        },
        "images": [
            {
                "about": "All",
                "link": "https://lh5.googleusercontent.com/p/AF1QipOIq-PH-JozYcCcZIV5MPFp5p3DeOcKbFHULNd4=w529-h298-k-no"
            }
        ],
        "link": "https://www.google.com/maps/place/MAKTAB+TALIMUL+QURAN+MADINA+MASJID+-+UMER+KOT+-+SINDH/data=!4m7!3m6!1s0x394f21ad365a3f25:0x2241e168377b58cf!8m2!3d25.3666793!4d69.7371286!16s%2Fg%2F11h6p4my8n!19sChIJJT9aNq0hTzkRz1h7N2jhQSI?authuser=0&hl=en&rclk=1",
        "coordinates": {
            "latitude": 25.366679299999998,
            "longitude": 69.73712859999999
        }
    },
    {
        "name": "Al-Noor Mosque Nahary Jo Tar",
        "main_category": "Mosque",
        "address": "9P9W+Q2F Al-Noor Mosque Nahary Jo Tar, Thar Bazar Rd, Umarkot, Umerkot, Sindh, Pakistan",
        "detailed_address": {
            "ward": null,
            "street": "9P9W+Q2F, Thar Bazar Rd",
            "city": "Umarkot",
            "postal_code": null,
            "state": "Umerkot, Sindh",
            "country_code": "PK"
        },
        "images": [
            {
                "about": "All",
                "link": "https://lh5.googleusercontent.com/p/AF1QipMXh9sp1X6iEKkEMNThrX_pXU7lzwdJl-845T6K=w397-h298-k-no"
            },
            {
                "about": "Dome",
                "link": "https://lh5.googleusercontent.com/p/AF1QipOFjrpvhM7Ht3Pv1yWsYkMV4V0PMrVWNFHioeSA=w397-h298-k-no"
            }
        ],
        "link": "https://www.google.com/maps/place/Al-Noor+Mosque+Nahary+Jo+Tar/data=!4m7!3m6!1s0x394f21eeb18f21b9:0x462577ffef70dfec!8m2!3d25.369445!4d69.7450417!16s%2Fg%2F11fl5n147b!19sChIJuSGPse4hTzkR7N9w7_93JUY?authuser=0&hl=en&rclk=1",
        "coordinates": {
            "latitude": 25.369445,
            "longitude": 69.7450417
        }
    },
    {
        "name": "MAKTAB TALIMUL QURAN MASJID QUBA UDHEYPURI MUHALLAH - UMER KOT - SINDH",
        "main_category": "Religious institution",
        "address": "MAKTAB TALIMUL QURAN MASJID QUBA UDHEYPURI MUHALLAH - UMER KOT - SINDH, High School, Road, Umarkot, Umerkot, Sindh, Pakistan",
        "detailed_address": {
            "ward": null,
            "street": "High School, Road",
            "city": "Umarkot",
            "postal_code": null,
            "state": "Umerkot, Sindh",
            "country_code": "PK"
        },
        "images": [
            {
                "about": "All",
                "link": "https://lh5.googleusercontent.com/p/AF1QipPW1y_bFarfcwBI1eyD7EXPSvPHRmafi6j9WNrP=w397-h298-k-no"
            }
        ],
        "link": "https://www.google.com/maps/place/MAKTAB+TALIMUL+QURAN+MASJID+QUBA+UDHEYPURI+MUHALLAH+-+UMER+KOT+-+SINDH/data=!4m7!3m6!1s0x394f217422b1b7a9:0x849c4820304db318!8m2!3d25.3643213!4d69.7407848!16s%2Fg%2F11h6p4l5vq!19sChIJqbexInQhTzkRGLNNMCBInIQ?authuser=0&hl=en&rclk=1",
        "coordinates": {
            "latitude": 25.3643213,
            "longitude": 69.7407848
        }
    },
    {
        "name": "msjd fTmh",
        "main_category": "Mosque",
        "address": "9Q86+HM msjd fTmh, Umarkot, Umerkot, Sindh, Pakistan",
        "detailed_address": {
            "ward": null,
            "street": "9Q86+HM",
            "city": "Umarkot",
            "postal_code": null,
            "state": "Umerkot, Sindh",
            "country_code": "PK"
        },
        "images": [],
        "link": "https://www.google.com/maps/place/%D9%85%D8%B3%D8%AC%D8%AF+%D9%81%D8%A7%D8%B7%D9%85%DB%81%E2%80%AD/data=!4m7!3m6!1s0x394f214865913b51:0xd40de4270434b0a7!8m2!3d25.3664588!4d69.7616325!16s%2Fg%2F11p6z7cwp9!19sChIJUTuRZUghTzkRp7A0BCfkDdQ?authuser=0&hl=en&rclk=1",
        "coordinates": {
            "latitude": 25.3664588,
            "longitude": 69.76163249999999
        }
    },
    {
        "name": "MAKTAB TALIMUL QURAN MASJID YOUSUF NEW KUMHAR MUHALLA - UMER KOT - SINDH",
        "main_category": "Religious institution",
        "address": "9Q45+R7R MAKTAB TALIMUL QURAN MASJID YOUSUF NEW KUMHAR MUHALLA - UMER KOT - SINDH, Umerkot - Kantio Road, Umarkot, Umerkot, Sindh, Pakistan",
        "detailed_address": {
            "ward": null,
            "street": "9Q45+R7R, Umerkot - Kantio Road",
            "city": "Umarkot",
            "postal_code": null,
            "state": "Umerkot, Sindh",
            "country_code": "PK"
        },
        "images": [],
        "link": "https://www.google.com/maps/place/MAKTAB+TALIMUL+QURAN+MASJID+YOUSUF+NEW+KUMHAR+MUHALLA+-+UMER+KOT+-+SINDH/data=!4m7!3m6!1s0x394f2197bb2d4737:0x4f38948876da1089!8m2!3d25.357107!4d69.7581352!16s%2Fg%2F11h6nq4gcp!19sChIJN0ctu5chTzkRiRDadoiUOE8?authuser=0&hl=en&rclk=1",
        "coordinates": {
            "latitude": 25.357107,
            "longitude": 69.7581352
        }
    },
    {
        "name": "Noor e Mustafa Masjid Bajeer Para",
        "main_category": "Mosque",
        "address": "CQC2+WM Noor e Mustafa Masjid Bajeer Para, New Umerkot, Umerkot, Sindh, Pakistan",
        "detailed_address": {
            "ward": null,
            "street": "CQC2+WM",
            "city": "New Umerkot",
            "postal_code": null,
            "state": "Umerkot, Sindh",
            "country_code": "PK"
        },
        "images": [],
        "link": "https://www.google.com/maps/place/Noor+e+Mustafa+Masjid+Bajeer+Para/data=!4m7!3m6!1s0x394f21355b75766f:0xdfb357ae69eebbbc!8m2!3d25.4222541!4d69.7517068!16s%2Fg%2F11l1xhf7gz!19sChIJb3Z1WzUhTzkRvLvuaa5Xs98?authuser=0&hl=en&rclk=1",
        "coordinates": {
            "latitude": 25.4222541,
            "longitude": 69.7517068
        }
    },
    {
        "name": "Masjid",
        "main_category": "Mosque",
        "address": "7MQ2+9W6 Masjid, Digu - Umerkot Rd, Umarkot, Umerkot, Sindh, Pakistan",
        "detailed_address": {
            "ward": null,
            "street": "7MQ2+9W6, Digu - Umerkot Rd",
            "city": "Umarkot",
            "postal_code": null,
            "state": "Umerkot, Sindh",
            "country_code": "PK"
        },
        "images": [],
        "link": "https://www.google.com/maps/place/Masjid/data=!4m7!3m6!1s0x394ee10a7d79c53f:0x210cc51cec9ba5d0!8m2!3d25.2884167!4d69.6522781!16s%2Fg%2F11q_b8sq5j!19sChIJP8V5fQrhTjkR0KWb7BzFDCE?authuser=0&hl=en&rclk=1",
        "coordinates": {
            "latitude": 25.2884167,
            "longitude": 69.6522781
        }
    }
]