[
    {
        "name": "Masjid Aqsa",
        "main_category": "Mosque",
        "address": "3F3G+Q27 Masjid Aqsa, Malvan, Maharashtra 416606",
        "detailed_address": {
            "ward": null,
            "street": "3F3G+Q27",
            "city": "Malvan",
            "postal_code": "416606",
            "state": "Maharashtra",
            "country_code": "IN"
        },
        "images": [],
        "link": "https://www.google.com/maps/place/Masjid+Aqsa/data=!4m7!3m6!1s0x3bc003b9b573a365:0xfc67440a603927d9!8m2!3d16.0544132!4d73.4750608!16s%2Fg%2F11h312hvv1!19sChIJZaNztbkDwDsR2Sc5YApEZ_w?authuser=0&hl=en&rclk=1",
        "coordinates": {
            "latitude": 16.0544132,
            "longitude": 73.4750608
        }
    },
    {
        "name": "Hadi jama masjid",
        "main_category": "Mosque",
        "address": "4FW9+X6X Hadi jama masjid, Malvan - Achara Rd, Sarjekot, Kothewada, Maharashtra 416606",
        "detailed_address": {
            "ward": "Sarjekot",
            "street": "4FW9+X6X, Malvan - Achara Rd",
            "city": "Kothewada",
            "postal_code": "416606",
            "state": "Maharashtra",
            "country_code": "IN"
        },
        "images": [],
        "link": "https://www.google.com/maps/place/Hadi+jama+masjid/data=!4m7!3m6!1s0x3bc01dc58448dbff:0x147aa78f227e35b9!8m2!3d16.147495!4d73.468108!16s%2Fg%2F11h6sf9kbs!19sChIJ_9tIhMUdwDsRuTV-Io-nehQ?authuser=0&hl=en&rclk=1",
        "coordinates": {
            "latitude": 16.147495,
            "longitude": 73.468108
        }
    },
    {
        "name": "Madina Masjid",
        "main_category": "Mosque",
        "address": "3F46+FJ8 Madina Masjid, Dhuriwada, Malvan, Maharashtra 416606",
        "detailed_address": {
            "ward": "Dhuriwada",
            "street": "3F46+FJ8",
            "city": "Malvan",
            "postal_code": "416606",
            "state": "Maharashtra",
            "country_code": "IN"
        },
        "images": [],
        "link": "https://www.google.com/maps/place/Madina+Masjid/data=!4m7!3m6!1s0x3beaa9e117f633e7:0xca8d1038159abfe9!8m2!3d16.0561608!4d73.4615643!16s%2Fg%2F11fks4m76b!19sChIJ5zP2F-Gp6jsR6b-aFTgQjco?authuser=0&hl=en&rclk=1",
        "coordinates": {
            "latitude": 16.0561608,
            "longitude": 73.46156429999999
        }
    },
    {
        "name": "Jama masjid",
        "main_category": "Mosque",
        "address": "3F48+JPF Jama masjid, Bazarpeth, Dhuriwada, Malvan, Maharashtra 416606",
        "detailed_address": {
            "ward": "Bazarpeth, Dhuriwada",
            "street": "3F48+JPF",
            "city": "Malvan",
            "postal_code": null,
            "state": "Maharashtra",
            "country_code": "IN"
        },
        "images": [
            {
                "about": "All",
                "link": "https://lh5.googleusercontent.com/p/AF1QipMDaMLNEsjcJMzygrGA888V-bOB8etc2JwoJWBp=w398-h298-k-no"
            }
        ],
        "link": "https://www.google.com/maps/place/Jama+masjid/data=!4m7!3m6!1s0x3bc003093115a151:0x2a451bfaec24f2ea!8m2!3d16.0565668!4d73.466802!16s%2Fg%2F11rqck3yvf!19sChIJUaEVMQkDwDsR6vIk7PobRSo?authuser=0&hl=en&rclk=1",
        "coordinates": {
            "latitude": 16.0565668,
            "longitude": 73.466802
        }
    },
    {
        "name": "Anjuman Masjid Malvan",
        "main_category": "Mosque",
        "address": "R85F+PCW Anjuman Masjid Malvan, Malvan, Gujarat 388245",
        "detailed_address": {
            "ward": null,
            "street": "R85F+PCW",
            "city": "Malvan",
            "postal_code": "388245",
            "state": "Gujarat",
            "country_code": "IN"
        },
        "images": [],
        "link": "https://www.google.com/maps/place/Anjuman+Masjid+Malvan/data=!4m7!3m6!1s0x395e23bfc642fa8f:0x51de1bee06a6dc35!8m2!3d22.8093536!4d73.3235928!16s%2Fg%2F11pkhktwcl!19sChIJj_pCxr8jXjkRNdymBu4b3lE?authuser=0&hl=en&rclk=1",
        "coordinates": {
            "latitude": 22.809353599999998,
            "longitude": 73.3235928
        }
    }
]