[
    {
        "name": "mosque msjd",
        "main_category": "Mosque",
        "address": "4JW7+RJH mosque msjd, Kumhari, Rajasthan 341021",
        "detailed_address": {
            "ward": null,
            "street": "4JW7+RJH",
            "city": "Kumhari",
            "postal_code": "341021",
            "state": "Rajasthan",
            "country_code": "IN"
        },
        "images": [
            {
                "about": "All",
                "link": "https://lh5.googleusercontent.com/p/AF1QipPVi2sl9U1G644AckyjsM6c1pIWTyUPXVqwKkhZ=w397-h298-k-no"
            },
            {
                "about": "Dome",
                "link": "https://lh5.googleusercontent.com/p/AF1QipOS0YhRmSgPfJ1mkRU-DhBSE4vwH_XoIxiLSHeC=w660-h298-k-no"
            }
        ],
        "link": "https://www.google.com/maps/place/mosque+%D9%85%D8%B3%D8%AC%D8%AF%E2%80%AD/data=!4m7!3m6!1s0x396a9ad0977cf5b9:0xc91cd63c8597df9f!8m2!3d27.1470679!4d73.6141011!16s%2Fg%2F11f104s2hq!19sChIJufV8l9CaajkRn9-XhTzWHMk?authuser=0&hl=en&rclk=1",
        "coordinates": {
            "latitude": 27.1470679,
            "longitude": 73.6141011
        }
    },
    {
        "name": "Ahmed Shaheed Masjid",
        "main_category": "Mosque",
        "address": "4JV6+W6V Ahmed Shaheed Masjid, Kumhari, Rajasthan 341021",
        "detailed_address": {
            "ward": null,
            "street": "4JV6+W6V",
            "city": "Kumhari",
            "postal_code": "341021",
            "state": "Rajasthan",
            "country_code": "IN"
        },
        "images": [
            {
                "about": "All",
                "link": "https://lh5.googleusercontent.com/p/AF1QipPsiP0aZ_eIBhCSVeo5Y2lNnaAQjcja8bllzKHw=w398-h298-k-no"
            },
            {
                "about": "Dome",
                "link": "https://lh5.googleusercontent.com/p/AF1QipM9AyGQwI_5bja8QBGldwRReQyAU4kvXqg1_ZKo=w224-h496-k-no"
            }
        ],
        "link": "https://www.google.com/maps/place/Ahmed+Shaheed+Masjid/data=!4m7!3m6!1s0x396a9ad717a01151:0x71ca3e4f6df0ec16!8m2!3d27.1448589!4d73.61056!16s%2Fg%2F11bttg82tp!19sChIJURGgF9eaajkRFuzwbU8-ynE?authuser=0&hl=en&rclk=1",
        "coordinates": {
            "latitude": 27.1448589,
            "longitude": 73.61055999999999
        }
    },
    {
        "name": "Aqsa masjid",
        "main_category": "Mosque",
        "address": "4JV7+J5R Aqsa masjid, Talai, Kumhari, Rajasthan 341021",
        "detailed_address": {
            "ward": "Talai",
            "street": "4JV7+J5R",
            "city": "Kumhari",
            "postal_code": "341021",
            "state": "Rajasthan",
            "country_code": "IN"
        },
        "images": [
            {
                "about": "All",
                "link": "https://lh5.googleusercontent.com/p/AF1QipP3bFAbRoepWiT6MVZ1daLjVO5xdZOtMp-dbpAk=w224-h298-k-no"
            }
        ],
        "link": "https://www.google.com/maps/place/Aqsa+masjid/data=!4m7!3m6!1s0x396a9ad12e24e8f9:0xbb193df46c443375!8m2!3d27.1441211!4d73.6129012!16s%2Fg%2F11btt54ps0!19sChIJ-egkLtGaajkRdTNEbPQ9Gbs?authuser=0&hl=en&rclk=1",
        "coordinates": {
            "latitude": 27.1441211,
            "longitude": 73.6129012
        }
    },
    {
        "name": "Gousia Masjeed,Kumhari",
        "main_category": "Mosque",
        "address": "6GV5+7QR Gousia Masjeed,Kumhari, Kumhari NP Part, Chhattisgarh 490042",
        "detailed_address": {
            "ward": null,
            "street": "6GV5+7QR",
            "city": "Kumhari NP Part",
            "postal_code": "490042",
            "state": "Chhattisgarh",
            "country_code": "IN"
        },
        "images": [
            {
                "about": "All",
                "link": "https://lh5.googleusercontent.com/p/AF1QipPlNcT12t_VpYx8SaRuT3mT0QycQigFdyI1Kvh8=w224-h298-k-no"
            },
            {
                "about": "Videos",
                "link": "https://lh5.googleusercontent.com/p/AF1QipPQcvkFnykeYOcz10_TypOrzRbZYU_kjaTE3LDv=w224-h398-k-no"
            }
        ],
        "link": "https://www.google.com/maps/place/Gousia+Masjeed,Kumhari/data=!4m7!3m6!1s0x3a29200c1d9d2bd5:0x37a70b7709cd1b4a!8m2!3d21.2432474!4d81.509398!16s%2Fg%2F11gfj5y595!19sChIJ1SudHQwgKToRShvNCXcLpzc?authuser=0&hl=en&rclk=1",
        "coordinates": {
            "latitude": 21.243247399999998,
            "longitude": 81.50939799999999
        }
    },
    {
        "name": "Gausiya Jama Maszid",
        "main_category": "Mosque",
        "address": "Gausiya Jama Maszid, Gausiya Nagar,Ward No.11, Kumhari, Chhattisgarh",
        "detailed_address": {
            "ward": null,
            "street": "Gausiya Nagar,Ward No.11",
            "city": "Kumhari",
            "postal_code": null,
            "state": "Chhattisgarh",
            "country_code": "IN"
        },
        "images": [],
        "link": "https://www.google.com/maps/place/Gausiya+Jama+Maszid/data=!4m7!3m6!1s0x3a2921742277dbc1:0x68589510de7c0ad0!8m2!3d21.2455627!4d81.5116581!16s%2Fg%2F11f62vk7xz!19sChIJwdt3InQhKToR0Ap83hCVWGg?authuser=0&hl=en&rclk=1",
        "coordinates": {
            "latitude": 21.2455627,
            "longitude": 81.51165809999999
        }
    },
    {
        "name": "Jama Masjid (kumhari)",
        "main_category": "Mosque",
        "address": "MP58+MM9 Jama Masjid (kumhari), Raghunathpur, Kumhari, Bihar 855105",
        "detailed_address": {
            "ward": null,
            "street": "MP58+MM9",
            "city": "Raghunathpur, Kumhari",
            "postal_code": null,
            "state": "Bihar",
            "country_code": "IN"
        },
        "images": [
            {
                "about": "All",
                "link": "https://lh5.googleusercontent.com/p/AF1QipPcu8jH3dl2OyyVDhR29boT7e5TU9GkxYD3f_A7=w541-h298-k-no"
            },
            {
                "about": "Videos",
                "link": "https://lh5.googleusercontent.com/p/AF1QipMet-SwO1Yy9U7LDPnvv-I3ASeK2R6NmX44oRPF=w224-h395-k-no"
            }
        ],
        "link": "https://www.google.com/maps/place/Jama+Masjid+%28kumhari%29/data=!4m7!3m6!1s0x39e54d05c077b1cf:0x657e31a79d4f61e5!8m2!3d25.6591529!4d87.7167222!16s%2Fg%2F11h5lh_hzz!19sChIJz7F3wAVN5TkR5WFPnacxfmU?authuser=0&hl=en&rclk=1",
        "coordinates": {
            "latitude": 25.6591529,
            "longitude": 87.71672219999999
        }
    },
    {
        "name": "Faruqiya Jama Masjid Kumhari",
        "main_category": "Mosque",
        "address": "4JW7+QHX Faruqiya Jama Masjid Kumhari, Kumhari, Rajasthan 341021",
        "detailed_address": {
            "ward": null,
            "street": "4JW7+QHX",
            "city": "Kumhari",
            "postal_code": null,
            "state": "Rajasthan",
            "country_code": "IN"
        },
        "images": [
            {
                "about": "All",
                "link": "https://lh5.googleusercontent.com/p/AF1QipO7_oj8hGgpN1j51QUmklHZnh3b0E7o7MJRmsnI=w529-h298-k-no"
            },
            {
                "about": "Dome",
                "link": "https://lh5.googleusercontent.com/p/AF1QipPVI7HBTqzXVSoxI95uiA6S-JGifJvZYyr2JK4S=w662-h298-k-no"
            }
        ],
        "link": "https://www.google.com/maps/place/Faruqiya+Jama+Masjid+Kumhari/data=!4m7!3m6!1s0x396a9bf23f0332b3:0x20abd4806066c23a!8m2!3d27.1469854!4d73.6139738!16s%2Fg%2F11p_5zqsj2!19sChIJszIDP_KbajkROsJmYIDUqyA?authuser=0&hl=en&rclk=1",
        "coordinates": {
            "latitude": 27.1469854,
            "longitude": 73.6139738
        }
    },
    {
        "name": "Masjid",
        "main_category": "Mosque",
        "address": "XWV8+63P Masjid, Kumhari Pathan, Chhattisgarh 495687",
        "detailed_address": {
            "ward": null,
            "street": "XWV8+63P",
            "city": "Kumhari Pathan",
            "postal_code": null,
            "state": "Chhattisgarh",
            "country_code": "IN"
        },
        "images": [],
        "link": "https://www.google.com/maps/place/Masjid/data=!4m7!3m6!1s0x3a270bcbd548d497:0xd4a9447d8caeb58!8m2!3d21.99309!4d82.9151937!16s%2Fg%2F11vhhsk59f!19sChIJl9RI1csLJzoRWOvK2EeUSg0?authuser=0&hl=en&rclk=1",
        "coordinates": {
            "latitude": 21.99309,
            "longitude": 82.9151937
        }
    },
    {
        "name": "Jama Masjid",
        "main_category": "Mosque",
        "address": "XWR6+M9R Jama Masjid, Kumhari Pathan, Chhattisgarh 495687",
        "detailed_address": {
            "ward": null,
            "street": "XWR6+M9R",
            "city": "Kumhari Pathan",
            "postal_code": "495687",
            "state": "Chhattisgarh",
            "country_code": "IN"
        },
        "images": [],
        "link": "https://www.google.com/maps/place/Jama+Masjid/data=!4m7!3m6!1s0x3a270b2ea2f4c813:0x551a53b91149d70e!8m2!3d21.9917274!4d82.9108872!16s%2Fg%2F11vj2ngz64!19sChIJE8j0oi4LJzoRDtdJEblTGlU?authuser=0&hl=en&rclk=1",
        "coordinates": {
            "latitude": 21.9917274,
            "longitude": 82.91088719999999
        }
    },
    {
        "name": "Ibrahim mosque",
        "main_category": "Mosque",
        "address": "4JX6+8MX Ibrahim mosque, Chistiya Nagar, Kumhari, Rajasthan 341021",
        "detailed_address": {
            "ward": "Chistiya Nagar",
            "street": "4JX6+8MX",
            "city": "Kumhari",
            "postal_code": "341021",
            "state": "Rajasthan",
            "country_code": "IN"
        },
        "images": [],
        "link": "https://www.google.com/maps/place/Ibrahim+mosque/data=!4m7!3m6!1s0x396a9ba5c00b9579:0xfa590db1cc03f035!8m2!3d27.1492735!4d73.6109033!16s%2Fg%2F11pzfx2lxm!19sChIJeZULwKWbajkRNfADzLENWfo?authuser=0&hl=en&rclk=1",
        "coordinates": {
            "latitude": 27.1492735,
            "longitude": 73.61090329999999
        }
    },
    {
        "name": "Aafaqiya masjid",
        "main_category": "School",
        "address": "4JW8+5PC Aafaqiya masjid, Kumhari, Rajasthan 341021",
        "detailed_address": {
            "ward": null,
            "street": "4JW8+5PC",
            "city": "Kumhari",
            "postal_code": "341021",
            "state": "Rajasthan",
            "country_code": "IN"
        },
        "images": [
            {
                "about": "All",
                "link": "https://lh5.googleusercontent.com/p/AF1QipOsajnKZjQL3VygUG7bPKQ9TU93XmlwP8hv9bi3=w529-h298-k-no"
            }
        ],
        "link": "https://www.google.com/maps/place/Aafaqiya+masjid/data=!4m7!3m6!1s0x396a9b63811145c5:0xc6e149e20753190b!8m2!3d27.1454283!4d73.6167551!16s%2Fg%2F11h37wfd7d!19sChIJxUURgWObajkRCxlTB-JJ4cY?authuser=0&hl=en&rclk=1",
        "coordinates": {
            "latitude": 27.1454283,
            "longitude": 73.61675509999999
        }
    }
]