[
    {
        "name": "Jama Masjid Obra",
        "main_category": "Mosque",
        "address": "FX5R+FJ4 Jama Masjid Obra, VIP Road, Sector 5, Obra, Uttar Pradesh 231219",
        "detailed_address": {
            "ward": "Sector 5",
            "street": "FX5R+FJ4, VIP Road",
            "city": "Obra",
            "postal_code": "231219",
            "state": "Uttar Pradesh",
            "country_code": "IN"
        },
        "images": [
            {
                "about": "All",
                "link": "https://lh5.googleusercontent.com/p/AF1QipPS-KMwXRAQEMxqcANH82bUyzbBZHBQU9Uey9Jr=w629-h298-k-no"
            },
            {
                "about": "Videos",
                "link": "https://lh5.googleusercontent.com/p/AF1QipO0AdGANeSfOhZ-Xx2afKlTWs_5dHbwTxHonj8I=w529-h298-k-no"
            }
        ],
        "link": "https://www.google.com/maps/place/Jama+Masjid+Obra/data=!4m7!3m6!1s0x398ee3ffbee0a24b:0x699098a814ed3618!8m2!3d24.45863!4d82.991567!16s%2Fg%2F11_q37h2l!19sChIJS6Lgvv_jjjkRGDbtFKiYkGk?authuser=0&hl=en&rclk=1",
        "coordinates": {
            "latitude": 24.45863,
            "longitude": 82.99156699999999
        }
    },
    {
        "name": "Zama Masjid OBRA",
        "main_category": "Mosque",
        "address": "Zama Masjid OBRA, Jama Masjid, Masjid Road, Near, Obra, Bihar 824124",
        "detailed_address": {
            "ward": null,
            "street": "Jama Masjid, Masjid Road, Near",
            "city": "Obra",
            "postal_code": "824124",
            "state": "Bihar",
            "country_code": "IN"
        },
        "images": [],
        "link": "https://www.google.com/maps/place/Zama+Masjid+OBRA/data=!4m7!3m6!1s0x398d0397b6a1d511:0xbc44ea6840deeb5c!8m2!3d24.8892522!4d84.3734688!16s%2Fg%2F11h2bwtmqh!19sChIJEdWhtpcDjTkRXOveQGjqRLw?authuser=0&hl=en&rclk=1",
        "coordinates": {
            "latitude": 24.889252199999998,
            "longitude": 84.3734688
        }
    },
    {
        "name": "Madina Masjid",
        "main_category": "Mosque",
        "address": "FX3V+VM6 Madina Masjid, Panari, Obra, Uttar Pradesh 231219",
        "detailed_address": {
            "ward": "Panari",
            "street": "FX3V+VM6",
            "city": "Obra",
            "postal_code": "231219",
            "state": "Uttar Pradesh",
            "country_code": "IN"
        },
        "images": [
            {
                "about": "All",
                "link": "https://lh5.googleusercontent.com/p/AF1QipPdCMkKZRyCzQUcP-52ESRPvx7cyqosVUbu6EIr=w224-h298-k-no"
            },
            {
                "about": "Latest",
                "link": "https://lh5.googleusercontent.com/p/AF1QipPgOcLrnEs2SoC0yIQ3_r4svyid6VN2-JWQ1Ipa=w224-h298-k-no"
            },
            {
                "about": "Videos",
                "link": "https://lh5.googleusercontent.com/p/AF1QipOxyjM6KUaR9lmtkkdJCxmy5f44B7gasCSilLAY=w397-h298-k-no"
            },
            {
                "about": "Dome",
                "link": "https://lh5.googleusercontent.com/p/AF1QipPgOcLrnEs2SoC0yIQ3_r4svyid6VN2-JWQ1Ipa=w224-h298-k-no"
            }
        ],
        "link": "https://www.google.com/maps/place/Madina+Masjid/data=!4m7!3m6!1s0x398ee79cedd6df71:0x5369a4bb29ae4c5d!8m2!3d24.4546601!4d82.9941264!16s%2Fg%2F11n5k_976x!19sChIJcd_W7ZznjjkRXUyuKbukaVM?authuser=0&hl=en&rclk=1",
        "coordinates": {
            "latitude": 24.454660099999998,
            "longitude": 82.9941264
        }
    }
]