[
    {
        "name": "Masjid Umar Bin Khattab",
        "main_category": "Museum",
        "address": "HGX7+JP2 Masjid Umar Bin Khattab, Khandela, Rajasthan 332709",
        "detailed_address": {
            "ward": null,
            "street": "HGX7+JP2",
            "city": "Khandela",
            "postal_code": null,
            "state": "Rajasthan",
            "country_code": "IN"
        },
        "images": [
            {
                "about": "All",
                "link": "https://lh5.googleusercontent.com/p/AF1QipNK9Wox8ydEuKk2K4ukG3JEwDHZCom4VWcmflnI=w224-h398-k-no"
            },
            {
                "about": "Latest",
                "link": "https://lh5.googleusercontent.com/p/AF1QipNK9Wox8ydEuKk2K4ukG3JEwDHZCom4VWcmflnI=w224-h398-k-no"
            }
        ],
        "link": "https://www.google.com/maps/place/Masjid+Umar+Bin+Khattab/data=!4m7!3m6!1s0x396cc3b26c823e51:0x118bd37cf8857553!8m2!3d27.5990163!4d75.5142615!16s%2Fg%2F11fm9fs57f!19sChIJUT6CbLLDbDkRU3WF-HzTixE?authuser=0&hl=en&rclk=1",
        "coordinates": {
            "latitude": 27.5990163,
            "longitude": 75.5142615
        }
    },
    {
        "name": "Bai Paas Masjid khandela",
        "main_category": "Mosque",
        "address": "HGW4+JQG Bai Paas Masjid khandela, Sikar, Rajasthan 332709",
        "detailed_address": {
            "ward": null,
            "street": "HGW4+JQG",
            "city": "Sikar",
            "postal_code": "332709",
            "state": "Rajasthan",
            "country_code": "IN"
        },
        "images": [
            {
                "about": "All",
                "link": "https://streetviewpixels-pa.googleapis.com/v1/thumbnail?panoid=FGEou1vX5P7XgbH4uiF15w&cb_client=maps_sv.tactile.gps&w=224&h=298&yaw=129.7434&pitch=0&thumbfov=100"
            },
            {
                "about": "Street View & 360deg",
                "link": "https://streetviewpixels-pa.googleapis.com/v1/thumbnail?panoid=FGEou1vX5P7XgbH4uiF15w&cb_client=maps_sv.tactile.gps&w=224&h=298&yaw=129.7434&pitch=0&thumbfov=100"
            }
        ],
        "link": "https://www.google.com/maps/place/Bai+Paas+Masjid+khandela/data=!4m7!3m6!1s0x396cc33e7c8435d7:0x5e0b6adedc51e730!8m2!3d27.5965592!4d75.5069564!16s%2Fg%2F11c5s66r6b!19sChIJ1zWEfD7DbDkRMOdR3N5qC14?authuser=0&hl=en&rclk=1",
        "coordinates": {
            "latitude": 27.596559199999998,
            "longitude": 75.50695639999999
        }
    },
    {
        "name": "Topchiwara Masjid khandela",
        "main_category": "Mosque",
        "address": "JG53+C57 Topchiwara Masjid khandela, Khandela, Rajasthan 332709",
        "detailed_address": {
            "ward": null,
            "street": "JG53+C57",
            "city": "Khandela",
            "postal_code": "332709",
            "state": "Rajasthan",
            "country_code": "IN"
        },
        "images": [
            {
                "about": "All",
                "link": "https://lh5.googleusercontent.com/p/AF1QipMwd6KIhSzZ_CaSXVsY53t_VecUPCUv-AuOHDCz=w234-h298-k-no"
            },
            {
                "about": "Latest",
                "link": "https://lh5.googleusercontent.com/p/AF1QipPpphIUJcEWjw44fB7zkmo0V3vNEzSAtrIgNNWh=w224-h440-k-no"
            },
            {
                "about": "Dome",
                "link": "https://lh5.googleusercontent.com/p/AF1QipMhyV-3UZtGvyi_1oogipriZVomyTGsIJLmOK6-=w397-h298-k-no"
            },
            {
                "about": "Street View & 360deg",
                "link": "https://streetviewpixels-pa.googleapis.com/v1/thumbnail?panoid=2ZnCzTV5uoBM8Ope0P6kWA&cb_client=maps_sv.tactile.gps&w=224&h=298&yaw=256.3986&pitch=0&thumbfov=100"
            }
        ],
        "link": "https://www.google.com/maps/place/Topchiwara+Masjid+khandela/data=!4m7!3m6!1s0x396cc31bcb34a563:0x8cc218499ecbe718!8m2!3d27.6085384!4d75.5029194!16s%2Fg%2F11ghnyck29!19sChIJY6U0yxvDbDkRGOfLnkkYwow?authuser=0&hl=en&rclk=1",
        "coordinates": {
            "latitude": 27.6085384,
            "longitude": 75.5029194
        }
    },
    {
        "name": "Mohammedi Masjid khandela.jahir tailor",
        "main_category": "Mosque",
        "address": "JF3W+27J Mohammedi Masjid khandela.jahir tailor, Khandela, Rajasthan 332709",
        "detailed_address": {
            "ward": null,
            "street": "JF3W+27J",
            "city": "Khandela",
            "postal_code": "332709",
            "state": "Rajasthan",
            "country_code": "IN"
        },
        "images": [
            {
                "about": "All",
                "link": "https://lh5.googleusercontent.com/p/AF1QipNUwUNhWoxKS5-_1WLMqytab3CQGRvcM9VTgfj6=w224-h298-k-no"
            },
            {
                "about": "Street View & 360deg",
                "link": "https://streetviewpixels-pa.googleapis.com/v1/thumbnail?panoid=12O8w1vzewxaTicXmj-98w&cb_client=maps_sv.tactile.gps&w=224&h=298&yaw=300.93457&pitch=0&thumbfov=100"
            }
        ],
        "link": "https://www.google.com/maps/place/Mohammedi+Masjid+khandela.jahir+tailor/data=!4m7!3m6!1s0x396cc36d1d88761d:0x4d2100959fefc818!8m2!3d27.6025892!4d75.4956377!16s%2Fg%2F11c5s6_396!19sChIJHXaIHW3DbDkRGMjvn5UAIU0?authuser=0&hl=en&rclk=1",
        "coordinates": {
            "latitude": 27.602589199999997,
            "longitude": 75.4956377
        }
    },
    {
        "name": "Nagina Masjid CHOPATI KHANDELA",
        "main_category": "Mosque",
        "address": "JF3V+9CW Nagina Masjid CHOPATI KHANDELA, Khandela, Rajasthan 332709",
        "detailed_address": {
            "ward": null,
            "street": "JF3V+9CW",
            "city": "Khandela",
            "postal_code": "332709",
            "state": "Rajasthan",
            "country_code": "IN"
        },
        "images": [
            {
                "about": "All",
                "link": "https://lh5.googleusercontent.com/p/AF1QipO0-8WrdLCwpITiXbib0bZHKmzu3DVLJV5-XI6E=w224-h445-k-no"
            },
            {
                "about": "Street View & 360deg",
                "link": "https://streetviewpixels-pa.googleapis.com/v1/thumbnail?panoid=slxkdqPqmvm-wx1V4D_akw&cb_client=maps_sv.tactile.gps&w=224&h=298&yaw=211.52785&pitch=0&thumbfov=100"
            },
            {
                "about": "Videos",
                "link": "https://lh5.googleusercontent.com/p/AF1QipNJWgd0E5nJJbvMNYNg0kI9mKqTLB6WqI_jMrLu=w224-h398-k-no"
            }
        ],
        "link": "https://www.google.com/maps/place/Nagina+Masjid+CHOPATI+KHANDELA/data=!4m7!3m6!1s0x396cc36d9c91d4ef:0xe214f29e49778daa!8m2!3d27.6034982!4d75.4935877!16s%2Fg%2F11ddwj6588!19sChIJ79SRnG3DbDkRqo13SZ7yFOI?authuser=0&hl=en&rclk=1",
        "coordinates": {
            "latitude": 27.603498199999997,
            "longitude": 75.49358769999999
        }
    },
    {
        "name": "Hidayat Masjid khandela",
        "main_category": "Mosque",
        "address": "HGX4+V86 Hidayat Masjid khandela, Khandela, Rajasthan 332709",
        "detailed_address": {
            "ward": null,
            "street": "HGX4+V86",
            "city": "Khandela",
            "postal_code": "332709",
            "state": "Rajasthan",
            "country_code": "IN"
        },
        "images": [
            {
                "about": "All",
                "link": "https://lh5.googleusercontent.com/p/AF1QipP7cpYvDSYidtBaruIe9y2llQEk1g6-2SQszrBJ=w397-h298-k-no"
            },
            {
                "about": "Street View & 360deg",
                "link": "https://streetviewpixels-pa.googleapis.com/v1/thumbnail?panoid=E0iI3br8LJ_wjx-oenFP6Q&cb_client=maps_sv.tactile.gps&w=224&h=298&yaw=101.61974&pitch=0&thumbfov=100"
            },
            {
                "about": "Videos",
                "link": "https://lh5.googleusercontent.com/p/AF1QipMgKaOD9Ttt2Al_Be0g8qzYuCjY3Qqj3LxZEDQ=w224-h403-k-no"
            }
        ],
        "link": "https://www.google.com/maps/place/Hidayat+Masjid+khandela/data=!4m7!3m6!1s0x396cc33fc7eb7857:0xa50cbe2fbdf40544!8m2!3d27.5996619!4d75.5057522!16s%2Fg%2F11c6_vn5z9!19sChIJV3jrxz_DbDkRRAX0vS--DKU?authuser=0&hl=en&rclk=1",
        "coordinates": {
            "latitude": 27.599661899999997,
            "longitude": 75.5057522
        }
    },
    {
        "name": "QURESHIYAN MASJID khandela",
        "main_category": "Mosque",
        "address": "QURESHIYAN MASJID khandela, NADI, BAZAR, Bhoji Ki Dhani, Khandela, Rajasthan 332709",
        "detailed_address": {
            "ward": "Bhoji Ki Dhani",
            "street": "NADI, BAZAR",
            "city": "Khandela",
            "postal_code": "332709",
            "state": "Rajasthan",
            "country_code": "IN"
        },
        "images": [
            {
                "about": "All",
                "link": "https://lh5.googleusercontent.com/p/AF1QipOnctg2HVJunO0pQTrY6kbL5W2gotiy8eGDzgHJ=w224-h398-k-no"
            },
            {
                "about": "Street View & 360deg",
                "link": "https://streetviewpixels-pa.googleapis.com/v1/thumbnail?panoid=akkgbLI-IVZr1LdbVqofyA&cb_client=maps_sv.tactile.gps&w=224&h=298&yaw=318.9635&pitch=0&thumbfov=100"
            }
        ],
        "link": "https://www.google.com/maps/place/QURESHIYAN+MASJID+khandela/data=!4m7!3m6!1s0x396cc36bebe7ba95:0xd8ad71a150b71646!8m2!3d27.6040326!4d75.5014016!16s%2Fg%2F11f51_1jb3!19sChIJlbrn62vDbDkRRha3UKFxrdg?authuser=0&hl=en&rclk=1",
        "coordinates": {
            "latitude": 27.6040326,
            "longitude": 75.5014016
        }
    },
    {
        "name": "Masjid siras wali, khandela",
        "main_category": "Mosque",
        "address": "Masjid siras wali, khandela, Unnamed Road, Khandela, Rajasthan 332709",
        "detailed_address": {
            "ward": null,
            "street": "Unnamed Road",
            "city": "Khandela",
            "postal_code": "332709",
            "state": "Rajasthan",
            "country_code": "IN"
        },
        "images": [
            {
                "about": "All",
                "link": "https://lh5.googleusercontent.com/p/AF1QipPaQr_u-ITR0NtvFcH0qV7jKBAnaykPL0Nu3hvq=w397-h298-k-no"
            },
            {
                "about": "By owner",
                "link": "https://lh5.googleusercontent.com/p/AF1QipN6sB1aP21hf846Lf2t_DydEev9BLjc255ccDZT=w224-h298-k-no"
            },
            {
                "about": "Street View & 360deg",
                "link": "https://streetviewpixels-pa.googleapis.com/v1/thumbnail?panoid=buEQrcmQ56GVWobx23XDZw&cb_client=maps_sv.tactile.gps&w=224&h=298&yaw=227.22786&pitch=0&thumbfov=100"
            }
        ],
        "link": "https://www.google.com/maps/place/Masjid+siras+wali,+khandela/data=!4m7!3m6!1s0x396cc37993d9b58f:0xfcf96aae5be7f970!8m2!3d27.6038905!4d75.4982588!16s%2Fg%2F11hz162zg8!19sChIJj7XZk3nDbDkRcPnnW65q-fw?authuser=0&hl=en&rclk=1",
        "coordinates": {
            "latitude": 27.6038905,
            "longitude": 75.4982588
        }
    },
    {
        "name": "Masjid Sahra, Ahle Hadees khandela",
        "main_category": "Mosque",
        "address": "JF2R+VVV Masjid Sahra, Ahle Hadees khandela, Ward No 4, Khandela, Rajasthan 332709",
        "detailed_address": {
            "ward": "Ward No 4",
            "street": "JF2R+VVV",
            "city": "Khandela",
            "postal_code": "332709",
            "state": "Rajasthan",
            "country_code": "IN"
        },
        "images": [
            {
                "about": "All",
                "link": "https://lh5.googleusercontent.com/p/AF1QipPKdfU2Rar57rdaTBf69bsBHA8KsMsswgtyry5m=w397-h298-k-no"
            },
            {
                "about": "Street View & 360deg",
                "link": "https://streetviewpixels-pa.googleapis.com/v1/thumbnail?panoid=8e5RNH_Ip8CEaHmI6JyQMQ&cb_client=maps_sv.tactile.gps&w=224&h=298&yaw=270.2696&pitch=0&thumbfov=100"
            }
        ],
        "link": "https://www.google.com/maps/place/Masjid+Sahra,+Ahle+Hadees+khandela/data=!4m7!3m6!1s0x396cddf430714caf:0xc819aa7e9b5e806d!8m2!3d27.6022453!4d75.4921683!16s%2Fg%2F11h3x5kckd!19sChIJr0xxMPTdbDkRbYBem36qGcg?authuser=0&hl=en&rclk=1",
        "coordinates": {
            "latitude": 27.6022453,
            "longitude": 75.4921683
        }
    },
    {
        "name": "RAHMANIYA MASJID BHUTKUI",
        "main_category": "Mosque",
        "address": "JG42+2CC RAHMANIYA MASJID BHUTKUI, Khandela, Rajasthan 332709",
        "detailed_address": {
            "ward": null,
            "street": "JG42+2CC",
            "city": "Khandela",
            "postal_code": null,
            "state": "Rajasthan",
            "country_code": "IN"
        },
        "images": [
            {
                "about": "All",
                "link": "https://lh5.googleusercontent.com/p/AF1QipOLfYPaFdFguj4O03Nhqvfu65yhA0cxg3Dy5P6N=w398-h298-k-no"
            }
        ],
        "link": "https://www.google.com/maps/place/RAHMANIYA+MASJID+BHUTKUI/data=!4m7!3m6!1s0x396cc36b00000007:0x4846f772910f376f!8m2!3d27.6050724!4d75.5010224!16s%2Fg%2F11f3jhtxqy!19sChIJBwAAAGvDbDkRbzcPkXL3Rkg?authuser=0&hl=en&rclk=1",
        "coordinates": {
            "latitude": 27.605072399999997,
            "longitude": 75.5010224
        }
    },
    {
        "name": "Eidgah Maidan",
        "main_category": "Mosque",
        "address": "JF2R+HJ8 Eidgah Maidan, Unnamed Road, Khandela, Rajasthan 332709",
        "detailed_address": {
            "ward": null,
            "street": "JF2R+HJ8, Unnamed Road",
            "city": "Khandela",
            "postal_code": "332709",
            "state": "Rajasthan",
            "country_code": "IN"
        },
        "images": [
            {
                "about": "All",
                "link": "https://lh5.googleusercontent.com/p/AF1QipO8wiPKhDlE0unGQLgbzhhGXyi97Mp1mGtT8yUd=w526-h298-k-no"
            },
            {
                "about": "Street View & 360deg",
                "link": "https://streetviewpixels-pa.googleapis.com/v1/thumbnail?panoid=PA9DHbRHgzhtDK-HvYkpBA&cb_client=maps_sv.tactile.gps&w=224&h=298&yaw=253.20657&pitch=0&thumbfov=100"
            }
        ],
        "link": "https://www.google.com/maps/place/Eidgah+Maidan/data=!4m7!3m6!1s0x396cc372be61e063:0x92e44b7cb0d4b173!8m2!3d27.6014245!4d75.491565!16s%2Fg%2F11c2y42q9h!19sChIJY-BhvnLDbDkRc7HUsHxL5JI?authuser=0&hl=en&rclk=1",
        "coordinates": {
            "latitude": 27.6014245,
            "longitude": 75.491565
        }
    },
    {
        "name": "Markaz masjid khandela",
        "main_category": "Mosque",
        "address": "JF3X+VWW Markaz masjid khandela, RJ SH 37, Khandela, Rajasthan 332709",
        "detailed_address": {
            "ward": null,
            "street": "JF3X+VWW, RJ SH 37",
            "city": "Khandela",
            "postal_code": "332709",
            "state": "Rajasthan",
            "country_code": "IN"
        },
        "images": [
            {
                "about": "All",
                "link": "https://lh5.googleusercontent.com/p/AF1QipOzmoVzm1oc6irOzmlpBpt0o11VM7_85qGzmBJc=w298-h298-k-no"
            }
        ],
        "link": "https://www.google.com/maps/place/Markaz+masjid+khandela/data=!4m7!3m6!1s0x396cc36b97a14bd7:0x1c5238105daac877!8m2!3d27.6047457!4d75.4998365!16s%2Fg%2F11dxkzpjpp!19sChIJ10uhl2vDbDkRd8iqXRA4Uhw?authuser=0&hl=en&rclk=1",
        "coordinates": {
            "latitude": 27.6047457,
            "longitude": 75.4998365
        }
    },
    {
        "name": "aaiisaa msjid",
        "main_category": "Mosque",
        "address": "JF4W+8RV aaiisaa msjid, chopati, Khandela, Rajasthan 332709",
        "detailed_address": {
            "ward": "chopati",
            "street": "JF4W+8RV",
            "city": "Khandela",
            "postal_code": "332709",
            "state": "Rajasthan",
            "country_code": "IN"
        },
        "images": [
            {
                "about": "All",
                "link": "https://lh5.googleusercontent.com/p/AF1QipNzWfpQ9V9-kLZ1X9w0G2vHu43FPSjchFceqqnA=w224-h398-k-no"
            },
            {
                "about": "Street View & 360deg",
                "link": "https://streetviewpixels-pa.googleapis.com/v1/thumbnail?panoid=SLUiaSwr7JUs6UdmXwEDOA&cb_client=maps_sv.tactile.gps&w=224&h=298&yaw=292.55835&pitch=0&thumbfov=100"
            }
        ],
        "link": "https://www.google.com/maps/place/%E0%A4%86%E0%A4%88%E0%A4%B8%E0%A4%BE+%E0%A4%AE%E0%A4%B8%E0%A5%8D%E0%A4%9C%E0%A4%BF%E0%A4%A6/data=!4m7!3m6!1s0x396cc3c8766d8e99:0x3c9ed0e3a6f2321a!8m2!3d27.6058672!4d75.4970467!16s%2Fg%2F11fmrlpsqc!19sChIJmY5tdsjDbDkRGjLypuPQnjw?authuser=0&hl=en&rclk=1",
        "coordinates": {
            "latitude": 27.6058672,
            "longitude": 75.4970467
        }
    },
    {
        "name": "Bilal Masjid",
        "main_category": "Mosque",
        "address": "JF4W+4R7 Bilal Masjid, Khandela, Rajasthan 332709",
        "detailed_address": {
            "ward": null,
            "street": "JF4W+4R7",
            "city": "Khandela",
            "postal_code": "332709",
            "state": "Rajasthan",
            "country_code": "IN"
        },
        "images": [
            {
                "about": "All",
                "link": "https://lh5.googleusercontent.com/p/AF1QipPMODs2ofXMf5kpXnaGQnUsOFEgx7fsRz2cCMwl=w224-h298-k-no"
            }
        ],
        "link": "https://www.google.com/maps/place/Bilal+Masjid/data=!4m7!3m6!1s0x396cc38eab7d3fab:0xccefc88b8abf082e!8m2!3d27.6052837!4d75.4970618!16s%2Fg%2F11h56hzrh7!19sChIJqz99q47DbDkRLgi_iovI78w?authuser=0&hl=en&rclk=1",
        "coordinates": {
            "latitude": 27.605283699999998,
            "longitude": 75.4970618
        }
    },
    {
        "name": "Abubakar Masjid khandela",
        "main_category": "Mosque",
        "address": "HGW4+V87 Abubakar Masjid khandela, Sikar, Rajasthan 332709",
        "detailed_address": {
            "ward": null,
            "street": "HGW4+V87",
            "city": "Sikar",
            "postal_code": "332709",
            "state": "Rajasthan",
            "country_code": "IN"
        },
        "images": [
            {
                "about": "All",
                "link": "https://streetviewpixels-pa.googleapis.com/v1/thumbnail?panoid=vfcjTHTVO26M2nazisShBg&cb_client=maps_sv.tactile.gps&w=224&h=298&yaw=306.74094&pitch=0&thumbfov=100"
            },
            {
                "about": "Street View & 360deg",
                "link": "https://streetviewpixels-pa.googleapis.com/v1/thumbnail?panoid=vfcjTHTVO26M2nazisShBg&cb_client=maps_sv.tactile.gps&w=224&h=298&yaw=306.74094&pitch=0&thumbfov=100"
            }
        ],
        "link": "https://www.google.com/maps/place/Abubakar+Masjid+khandela/data=!4m7!3m6!1s0x396cc33e6b4a07d5:0x8f023fb82a7d91c!8m2!3d27.5971698!4d75.50579!16s%2Fg%2F11g8fzkq3_!19sChIJ1QdKaz7DbDkRHNmngvsj8Ag?authuser=0&hl=en&rclk=1",
        "coordinates": {
            "latitude": 27.5971698,
            "longitude": 75.50578999999999
        }
    },
    {
        "name": "Madina Masjid",
        "main_category": "Mosque",
        "address": "JF3X+XMG Madina Masjid, Khandela, Rajasthan 332709",
        "detailed_address": {
            "ward": null,
            "street": "JF3X+XMG",
            "city": "Khandela",
            "postal_code": "332709",
            "state": "Rajasthan",
            "country_code": "IN"
        },
        "images": [],
        "link": "https://www.google.com/maps/place/Madina+Masjid/data=!4m7!3m6!1s0x396cc342d0ba5975:0xa94a755601fccab5!8m2!3d27.6049365!4d75.4992146!16s%2Fg%2F11h52ngmqm!19sChIJdVm60ELDbDkRtcr8AVZ1Sqk?authuser=0&hl=en&rclk=1",
        "coordinates": {
            "latitude": 27.604936499999997,
            "longitude": 75.4992146
        }
    },
    {
        "name": "mkkaa msjid khandela",
        "main_category": "Mosque",
        "address": "JG52+CX2 mkkaa msjid khandela, Khandela, Rajasthan 332709",
        "detailed_address": {
            "ward": null,
            "street": "JG52+CX2",
            "city": "Khandela",
            "postal_code": "332709",
            "state": "Rajasthan",
            "country_code": "IN"
        },
        "images": [
            {
                "about": "All",
                "link": "https://lh5.googleusercontent.com/p/AF1QipOfq2Q_DkSotVSNNnCNVMOuEZUiWxRccQAXqu8p=w224-h470-k-no"
            },
            {
                "about": "Videos",
                "link": "https://lh5.googleusercontent.com/p/AF1QipOLDgsIO3LXvOOv0YfUZ0c8m0PzL_a5SVhZF_Ng=w224-h497-k-no"
            }
        ],
        "link": "https://www.google.com/maps/place/%E0%A4%AE%E0%A4%95%E0%A5%8D%E0%A4%95%E0%A4%BE+%E0%A4%AE%E0%A4%B8%E0%A5%8D%E0%A4%9C%E0%A4%BF%E0%A4%A6+khandela/data=!4m7!3m6!1s0x396cc369962bcd4b:0x51963a3ed371780d!8m2!3d27.6085082!4d75.5024044!16s%2Fg%2F11f4pvhcfx!19sChIJS80rlmnDbDkRDXhx0z46llE?authuser=0&hl=en&rclk=1",
        "coordinates": {
            "latitude": 27.6085082,
            "longitude": 75.5024044
        }
    },
    {
        "name": "Eidgah masjid khandela",
        "main_category": "Mosque",
        "address": "Eidgah masjid khandela, RJ SH 37, udepurwati, road, Bhoji Ki Dhani, Khandela, Rajasthan 332709",
        "detailed_address": {
            "ward": "Bhoji Ki Dhani",
            "street": "RJ SH 37, udepurwati, road",
            "city": "Khandela",
            "postal_code": "332709",
            "state": "Rajasthan",
            "country_code": "IN"
        },
        "images": [
            {
                "about": "All",
                "link": "https://streetviewpixels-pa.googleapis.com/v1/thumbnail?panoid=wkMmOYCceSzxU15UG1JPyw&cb_client=maps_sv.tactile.gps&w=224&h=298&yaw=194.34753&pitch=0&thumbfov=100"
            },
            {
                "about": "Street View & 360deg",
                "link": "https://streetviewpixels-pa.googleapis.com/v1/thumbnail?panoid=wkMmOYCceSzxU15UG1JPyw&cb_client=maps_sv.tactile.gps&w=224&h=298&yaw=194.34753&pitch=0&thumbfov=100"
            }
        ],
        "link": "https://www.google.com/maps/place/Eidgah+masjid+khandela/data=!4m7!3m6!1s0x396cc3eb0ca647ad:0xa8540e68a1b1094f!8m2!3d27.6021396!4d75.5039709!16s%2Fg%2F11v0c8ydpy!19sChIJrUemDOvDbDkRTwmxoWgOVKg?authuser=0&hl=en&rclk=1",
        "coordinates": {
            "latitude": 27.602139599999997,
            "longitude": 75.5039709
        }
    },
    {
        "name": "MUHAMMADI MASJID",
        "main_category": "Mosque",
        "address": "JF2X+PWV MUHAMMADI MASJID, BUDHA KA BAS, Khandela, Rajasthan 332709",
        "detailed_address": {
            "ward": null,
            "street": "JF2X+PWV, BUDHA KA BAS",
            "city": "Khandela",
            "postal_code": "332709",
            "state": "Rajasthan",
            "country_code": "IN"
        },
        "images": [
            {
                "about": "All",
                "link": "https://streetviewpixels-pa.googleapis.com/v1/thumbnail?panoid=Qs-kZxLk_bbg7og_l6d3rQ&cb_client=maps_sv.tactile.gps&w=224&h=298&yaw=91.22712&pitch=0&thumbfov=100"
            },
            {
                "about": "Street View & 360deg",
                "link": "https://streetviewpixels-pa.googleapis.com/v1/thumbnail?panoid=Qs-kZxLk_bbg7og_l6d3rQ&cb_client=maps_sv.tactile.gps&w=224&h=298&yaw=91.22712&pitch=0&thumbfov=100"
            }
        ],
        "link": "https://www.google.com/maps/place/MUHAMMADI+MASJID/data=!4m7!3m6!1s0x396cc3178ebc4513:0xd907d3e894662d05!8m2!3d27.6018651!4d75.4997825!16s%2Fg%2F11ks0w6pwg!19sChIJE0W8jhfDbDkRBS1mlOjTB9k?authuser=0&hl=en&rclk=1",
        "coordinates": {
            "latitude": 27.601865099999998,
            "longitude": 75.4997825
        }
    },
    {
        "name": "Kusar masjid",
        "main_category": "Museum",
        "address": "Kusar masjid, Ward No.20 Brahampuri Mohalla, Khandela, Rajasthan 332709",
        "detailed_address": {
            "ward": null,
            "street": "Ward No.20 Brahampuri Mohalla",
            "city": "Khandela",
            "postal_code": "332709",
            "state": "Rajasthan",
            "country_code": "IN"
        },
        "images": [],
        "link": "https://www.google.com/maps/place/Kusar+masjid/data=!4m7!3m6!1s0x396cc3c54bef10df:0x62feeb1a130e2ed!8m2!3d27.6071754!4d75.4965683!16s%2Fg%2F11lpb_741c!19sChIJ3xDvS8XDbDkR7eIwobHuLwY?authuser=0&hl=en&rclk=1",
        "coordinates": {
            "latitude": 27.6071754,
            "longitude": 75.49656829999999
        }
    }
]