[
    {
        "name": "KAHAR PARA JUMMA MASJID",
        "main_category": "Mosque",
        "address": "KAHAR PARA JUMMA MASJID, Kahar para ,manikchak Kahar para jumma masjid, Lalgola, West Bengal 742148",
        "detailed_address": {
            "ward": null,
            "street": "Kahar para ,manikchak Kahar para jumma masjid",
            "city": "Lalgola, Krishnapur",
            "postal_code": "742148",
            "state": "West Bengal",
            "country_code": "IN"
        },
        "images": [
            {
                "about": "All",
                "link": "https://lh5.googleusercontent.com/p/AF1QipOb_oYyBVKlVZhOFhlSOAUDVSsNorhH5RvCFh2W=w224-h497-k-no"
            },
            {
                "about": "By owner",
                "link": "https://lh5.googleusercontent.com/p/AF1QipOIInoFdr7X98MrRg937Dz-4x4Xhj3nVnLXifOL=w662-h298-k-no"
            }
        ],
        "link": "https://www.google.com/maps/place/KAHAR+PARA+JUMMA+MASJID/data=!4m7!3m6!1s0x39fbcf1d9d556607:0x620685f874588727!8m2!3d24.4088291!4d88.2625027!16s%2Fg%2F11sw_41kpv!19sChIJB2ZVnR3P-zkRJ4dYdPiFBmI?authuser=0&hl=en&rclk=1",
        "coordinates": {
            "latitude": 24.4088291,
            "longitude": 88.2625027
        }
    },
    {
        "name": "Dakshin Latiber Para Jumma Mosque",
        "main_category": "Mosque",
        "address": "C75F+78R Dakshin Latiber Para Jumma Mosque, Kaimegha, West Bengal 742148",
        "detailed_address": {
            "ward": null,
            "street": "C75F+78R",
            "city": "Kaimegha",
            "postal_code": "742148",
            "state": "West Bengal",
            "country_code": "IN"
        },
        "images": [
            {
                "about": "All",
                "link": "https://lh5.googleusercontent.com/p/AF1QipO7JTis4-R9Q0r0G12IwhPpx4kaCXyl2UIVXwl7=w447-h298-k-no"
            },
            {
                "about": "Videos",
                "link": "https://lh5.googleusercontent.com/p/AF1QipOsKk4wy2jjkftuxhDWxl2U10NDxygriwVrZQfz=w224-h398-k-no"
            }
        ],
        "link": "https://www.google.com/maps/place/Dakshin+Latiber+Para+Jumma+Mosque/data=!4m7!3m6!1s0x39fbcfd16aaaa831:0xfd817c956ce3d671!8m2!3d24.408246!4d88.27326!16s%2Fg%2F11f6dtxbwy!19sChIJMaiqatHP-zkRcdbjbJV8gf0?authuser=0&hl=en&rclk=1",
        "coordinates": {
            "latitude": 24.408246,
            "longitude": 88.27326
        }
    },
    {
        "name": "Hossainabad New Jumma Masjid",
        "main_category": "Mosque",
        "address": "C728+JGG Hossainabad New Jumma Masjid, Karttikpur, West Bengal 742148",
        "detailed_address": {
            "ward": null,
            "street": "C728+JGG",
            "city": "Karttikpur",
            "postal_code": "742148",
            "state": "West Bengal",
            "country_code": "IN"
        },
        "images": [
            {
                "about": "All",
                "link": "https://lh5.googleusercontent.com/p/AF1QipNw3F4BymTQUINvmt0wF3eyPyC7x2rjpNkeAsRt=w529-h298-k-no"
            }
        ],
        "link": "https://www.google.com/maps/place/Hossainabad+New+Jumma+Masjid/data=!4m7!3m6!1s0x39fbcec74d2740db:0x98bc1bdfbb122edc!8m2!3d24.4015733!4d88.2663369!16s%2Fg%2F11c5_c87cb!19sChIJ20AnTcfO-zkR3C4Su98bvJg?authuser=0&hl=en&rclk=1",
        "coordinates": {
            "latitude": 24.4015733,
            "longitude": 88.2663369
        }
    },
    {
        "name": "Ramnagar Middle Jumma Masjid",
        "main_category": "Mosque",
        "address": "C6QQ+2G8 Ramnagar Middle Jumma Masjid, Ramnagar jumma Masjid, near Ramnagar Bijlee Songho Club, Lalgola, West Bengal 742148",
        "detailed_address": {
            "ward": null,
            "street": "C6QQ+2G8 Ramnagar jumma Masjid, near Ramnagar Bijlee Songho Club",
            "city": "Lalgola",
            "postal_code": "742148",
            "state": "West Bengal",
            "country_code": "IN"
        },
        "images": [
            {
                "about": "All",
                "link": "https://lh5.googleusercontent.com/p/AF1QipMp4VvPB838_H90kL7XnJ_dNoRMiByJ6lCYp40w=w529-h298-k-no"
            },
            {
                "about": "Videos",
                "link": "https://lh5.googleusercontent.com/p/AF1QipO8EJJPbhUFIiSM2a_YbFOymSzU6j7wCs5WgHwT=w529-h298-k-no"
            }
        ],
        "link": "https://www.google.com/maps/place/Ramnagar+Middle+Jumma+Masjid/data=!4m7!3m6!1s0x39fbcbe7041c7383:0x319c2b12dfa162ea!8m2!3d24.440248!4d88.2391382!16s%2Fg%2F11cnm21wxj!19sChIJg3McBOfL-zkR6mKh3xIrnDE?authuser=0&hl=en&rclk=1",
        "coordinates": {
            "latitude": 24.440248,
            "longitude": 88.2391382
        }
    },
    {
        "name": "Uttar Latiber Para Jumma Masjid",
        "main_category": "Mosque",
        "address": "Uttar Latiber Para Jumma Masjid, Main Road, Latiber Para, Lalgola, West Bengal 742164",
        "detailed_address": {
            "ward": null,
            "street": "Main Road, Latiber Para",
            "city": "Lalgola, Bansgara",
            "postal_code": "742164",
            "state": "West Bengal",
            "country_code": "IN"
        },
        "images": [
            {
                "about": "All",
                "link": "https://lh5.googleusercontent.com/p/AF1QipOKjUaETBJT632cLmUAiEwacms-jMoGDRqS9iZP=w224-h298-k-no"
            },
            {
                "about": "Videos",
                "link": "https://lh5.googleusercontent.com/p/AF1QipNEkqzccs-2GTDG-R7iLy8gZkn5c4pFlFTE1MfB=w529-h298-k-no"
            }
        ],
        "link": "https://www.google.com/maps/place/Uttar+Latiber+Para+Jumma+Masjid/data=!4m7!3m6!1s0x39fbced09334f32d:0xa505aeb7d44f5ca3!8m2!3d24.4090691!4d88.2785392!16s%2Fg%2F11c6cd7lkz!19sChIJLfM0k9DO-zkRo1xP1LeuBaU?authuser=0&hl=en&rclk=1",
        "coordinates": {
            "latitude": 24.4090691,
            "longitude": 88.2785392
        }
    },
    {
        "name": "Lalgola Aratpatti Jame Masjid",
        "main_category": "Mosque",
        "address": "C7C4+V76 Lalgola Aratpatti Jame Masjid, Lalgola Station Rd, Lalgola, Krishnapur, West Bengal 742148",
        "detailed_address": {
            "ward": "Lalgola",
            "street": "C7C4+V76, Lalgola Station Rd",
            "city": "Krishnapur",
            "postal_code": "742148",
            "state": "West Bengal",
            "country_code": "IN"
        },
        "images": [
            {
                "about": "All",
                "link": "https://lh5.googleusercontent.com/p/AF1QipOSO80YRPMjOVtSMH_wvY8fYlAbX0xEZ1UA2Niy=w224-h398-k-no"
            },
            {
                "about": "Videos",
                "link": "https://lh5.googleusercontent.com/p/AF1QipPBc-KlhGseBx5pbSL1VjCejazFfa5WW5aFknGQ=w224-h398-k-no"
            }
        ],
        "link": "https://www.google.com/maps/place/Lalgola+Aratpatti+Jame+Masjid/data=!4m7!3m6!1s0x39fbc952809c0993:0x7a7cb5cddb34734f!8m2!3d24.4221633!4d88.2556468!16s%2Fg%2F11cr_74m0_!19sChIJkwmcgFLJ-zkRT3M02821fHo?authuser=0&hl=en&rclk=1",
        "coordinates": {
            "latitude": 24.422163299999998,
            "longitude": 88.2556468
        }
    },
    {
        "name": "New Naldahari Jumma Masjid",
        "main_category": "Mosque",
        "address": "C796+JCG New Naldahari Jumma Masjid, Lalgola, West Bengal 742148",
        "detailed_address": {
            "ward": null,
            "street": "C796+JCG",
            "city": "Lalgola",
            "postal_code": "742148",
            "state": "West Bengal",
            "country_code": "IN"
        },
        "images": [
            {
                "about": "All",
                "link": "https://lh5.googleusercontent.com/p/AF1QipPR8JGsdNvujpACRVzRAnQaBnet6wW1bysSva9L=w224-h398-k-no"
            }
        ],
        "link": "https://www.google.com/maps/place/New+Naldahari+Jumma+Masjid/data=!4m7!3m6!1s0x39fbceb4ac701ce7:0x679608a958221b05!8m2!3d24.4190526!4d88.2610744!16s%2Fg%2F11bxjm5bdg!19sChIJ5xxwrLTO-zkRBRsiWKkIlmc?authuser=0&hl=en&rclk=1",
        "coordinates": {
            "latitude": 24.4190526,
            "longitude": 88.2610744
        }
    },
    {
        "name": "Chamapara Jumma Masjid",
        "main_category": "Mosque",
        "address": "C7G4+89F Chamapara Jumma Masjid, Chamapara, Lalgola, West Bengal 742148",
        "detailed_address": {
            "ward": "Chamapara",
            "street": "C7G4+89F",
            "city": "Lalgola",
            "postal_code": "742148",
            "state": "West Bengal",
            "country_code": "IN"
        },
        "images": [
            {
                "about": "All",
                "link": "https://lh5.googleusercontent.com/p/AF1QipMwAUiAtBvk9QcS_5DC4qGvDJKqLrxUaUUmUBfm=w298-h298-k-no"
            },
            {
                "about": "Dome",
                "link": "https://lh5.googleusercontent.com/p/AF1QipNaOYLnvo2USWpWwNsFHYbXi-izGhJ39CtbaDFu=w529-h298-k-no"
            }
        ],
        "link": "https://www.google.com/maps/place/Chamapara+Jumma+Masjid/data=!4m7!3m6!1s0x39fbc94e032e03d3:0xc3111b057d2fffbf!8m2!3d24.4258142!4d88.2559108!16s%2Fg%2F11f40jy5g7!19sChIJ0wMuA07J-zkRv_8vfQUbEcM?authuser=0&hl=en&rclk=1",
        "coordinates": {
            "latitude": 24.425814199999998,
            "longitude": 88.2559108
        }
    },
    {
        "name": "Mallikpur Jumma Masjid",
        "main_category": "Mosque",
        "address": "C68W+RPP Mallikpur Jumma Masjid, Unnamed Road, Lalgola, West Bengal 742148",
        "detailed_address": {
            "ward": null,
            "street": "C68W+RPP, Unnamed Road",
            "city": "Lalgola",
            "postal_code": "742148",
            "state": "West Bengal",
            "country_code": "IN"
        },
        "images": [
            {
                "about": "All",
                "link": "https://lh5.googleusercontent.com/p/AF1QipNBQKmYwITYWlLuIlnhGUAqaVrjKSIRNTgE3bE=w397-h298-k-no"
            }
        ],
        "link": "https://www.google.com/maps/place/Mallikpur+Jumma+Masjid/data=!4m7!3m6!1s0x39fbceaa90f65a6b:0x7dfbee6a506a3465!8m2!3d24.417096!4d88.2468229!16s%2Fg%2F11f5djhmz4!19sChIJa1r2kKrO-zkRZTRqUGru-30?authuser=0&hl=en&rclk=1",
        "coordinates": {
            "latitude": 24.417095999999997,
            "longitude": 88.2468229
        }
    },
    {
        "name": "New Naldahari Mosque",
        "main_category": "Mosque",
        "address": "C787+6H5 New Naldahari Mosque, Bansgara, West Bengal 742148",
        "detailed_address": {
            "ward": null,
            "street": "C787+6H5",
            "city": "Bansgara",
            "postal_code": "742148",
            "state": "West Bengal",
            "country_code": "IN"
        },
        "images": [
            {
                "about": "All",
                "link": "https://lh5.googleusercontent.com/p/AF1QipMG8RQpOCqCckmaa59sRKBacVBrEVkxA73B3qwV=w447-h298-k-no"
            }
        ],
        "link": "https://www.google.com/maps/place/New+Naldahari+Mosque/data=!4m7!3m6!1s0x39fbceb5bb159df5:0x5be764d19094538c!8m2!3d24.4155121!4d88.2639741!16s%2Fg%2F11b8_nt629!19sChIJ9Z0Vu7XO-zkRjFOUkNFk51s?authuser=0&hl=en&rclk=1",
        "coordinates": {
            "latitude": 24.415512099999997,
            "longitude": 88.2639741
        }
    },
    {
        "name": "Namujhowbona Masjid",
        "main_category": "Mosque",
        "address": "97R9+WJ2 Namujhowbona Masjid, Namujhowbona, Lalgola, West Bengal",
        "detailed_address": {
            "ward": null,
            "street": "97R9+WJ2, Namujhowbona",
            "city": "Lalgola, Radhakantapur",
            "postal_code": null,
            "state": "West Bengal",
            "country_code": "IN"
        },
        "images": [
            {
                "about": "All",
                "link": "https://lh5.googleusercontent.com/p/AF1QipNV5sCu0De3M31j0b66ib4HKBOVYXawJHs7Q9vK=w531-h298-k-no"
            },
            {
                "about": "Dome",
                "link": "https://lh5.googleusercontent.com/p/AF1QipOxt3Sat7MSBVc3hKAyKX_P6er0xMl4yhA2ZCrO=w531-h298-k-no"
            }
        ],
        "link": "https://www.google.com/maps/place/Namujhowbona+Masjid/data=!4m7!3m6!1s0x39fbceebb69f6bd1:0xdd2ec113fb092b7f!8m2!3d24.3922526!4d88.2690091!16s%2Fg%2F11g68_p0nh!19sChIJ0WuftuvO-zkRfysJ-xPBLt0?authuser=0&hl=en&rclk=1",
        "coordinates": {
            "latitude": 24.3922526,
            "longitude": 88.26900909999999
        }
    },
    {
        "name": "Chataidubi Jaame Mosque",
        "main_category": "Mosque",
        "address": "Chataidubi Jaame Mosque, Chataidubi Rd, Lalgola, Bansgara, West Bengal 742148",
        "detailed_address": {
            "ward": null,
            "street": "Chataidubi Rd",
            "city": "Lalgola, Bansgara",
            "postal_code": "742148",
            "state": "West Bengal",
            "country_code": "IN"
        },
        "images": [
            {
                "about": "All",
                "link": "https://lh5.googleusercontent.com/p/AF1QipNdAbdZJDyaGfcxt8w-gvhqSq5DTeJwA-76HBGi=w396-h298-k-no"
            },
            {
                "about": "By owner",
                "link": "https://lh5.googleusercontent.com/p/AF1QipOjBxLOnz97pe_NelY02Ta_e7gY-uKG3n12pDai=w397-h298-k-no"
            }
        ],
        "link": "https://www.google.com/maps/place/Chataidubi+Jaame+Mosque/data=!4m7!3m6!1s0x39fbcec97b0e9949:0xc061c92b9f7e6113!8m2!3d24.4129577!4d88.2684862!16s%2Fg%2F11c2pb5k1z!19sChIJSZkOe8nO-zkRE2F-nyvJYcA?authuser=0&hl=en&rclk=1",
        "coordinates": {
            "latitude": 24.4129577,
            "longitude": 88.2684862
        }
    },
    {
        "name": "Ekdaliya Masjid ekddaaliy'aa msjid",
        "main_category": "Mosque",
        "address": "Ekdaliya Masjid ekddaaliy'aa msjid, 11, SH 11A, Lalgola, Bhabanipur, West Bengal 742148",
        "detailed_address": {
            "ward": null,
            "street": "11, SH 11A",
            "city": "Lalgola, Bhabanipur",
            "postal_code": "742148",
            "state": "West Bengal",
            "country_code": "IN"
        },
        "images": [
            {
                "about": "All",
                "link": "https://lh5.googleusercontent.com/p/AF1QipNpSH3fafGEEe_bBtYhBQzqjlFqr5MxUxL6P0tu=w224-h487-k-no"
            },
            {
                "about": "Street View & 360deg",
                "link": "https://streetviewpixels-pa.googleapis.com/v1/thumbnail?panoid=G1MCNtdPn7q6VVr6eWSYSw&cb_client=maps_sv.tactile.gps&w=224&h=298&yaw=75.010254&pitch=0&thumbfov=100"
            }
        ],
        "link": "https://www.google.com/maps/place/Ekdaliya+Masjid+%E0%A6%8F%E0%A6%95%E0%A6%A1%E0%A6%BE%E0%A6%B2%E0%A6%BF%E0%A6%AF%E0%A6%BC%E0%A6%BE+%E0%A6%AE%E0%A6%B8%E0%A6%9C%E0%A6%BF%E0%A6%A6/data=!4m7!3m6!1s0x39fbce8d70516257:0xa0f89bcbf3202bbb!8m2!3d24.3827649!4d88.2636334!16s%2Fg%2F11f0krmmxj!19sChIJV2JRcI3O-zkRuysg88ub-KA?authuser=0&hl=en&rclk=1",
        "coordinates": {
            "latitude": 24.382764899999998,
            "longitude": 88.26363339999999
        }
    },
    {
        "name": "Natungram Jama Masjid",
        "main_category": "Mosque",
        "address": "Natungram Jama Masjid, 201, Natungram Rd, Lalgola, Natun Gram, West Bengal 742148",
        "detailed_address": {
            "ward": null,
            "street": "201, Natungram Rd",
            "city": "Lalgola, Natun Gram",
            "postal_code": "742148",
            "state": "West Bengal",
            "country_code": "IN"
        },
        "images": [
            {
                "about": "All",
                "link": "https://lh5.googleusercontent.com/p/AF1QipPeBw4uuvA9N_g7s15z62sB3EXjD1Sx6LntE5BP=w529-h298-k-no"
            },
            {
                "about": "By owner",
                "link": "https://lh5.googleusercontent.com/p/AF1QipPeBw4uuvA9N_g7s15z62sB3EXjD1Sx6LntE5BP=w529-h298-k-no"
            },
            {
                "about": "Videos",
                "link": "https://lh5.googleusercontent.com/p/AF1QipNBlEiqkI9km222nBHtCI-SUElZvt4W3ePvQrxt=w224-h448-k-no"
            }
        ],
        "link": "https://www.google.com/maps/place/Natungram+Jama+Masjid/data=!4m7!3m6!1s0x39fbcecb9837ce89:0xf4227e4ee0f03d7e!8m2!3d24.4156963!4d88.2693511!16s%2Fg%2F11c704kl7c!19sChIJic43mMvO-zkRfj3w4E5-IvQ?authuser=0&hl=en&rclk=1",
        "coordinates": {
            "latitude": 24.4156963,
            "longitude": 88.2693511
        }
    },
    {
        "name": "(Rahmatullah)Lalgola Mosque",
        "main_category": "Mosque",
        "address": "C7C4+PXM (Rahmatullah)Lalgola Mosque, P.O-, P.S-,, Lalgola, West Bengal 742148",
        "detailed_address": {
            "ward": "Lalgola",
            "street": "C7C4+PXM, P.O-, P.S-,",
            "city": "Lalgola",
            "postal_code": "742148",
            "state": "West Bengal",
            "country_code": "IN"
        },
        "images": [
            {
                "about": "All",
                "link": "https://lh5.googleusercontent.com/p/AF1QipPoAvLjRTkw0lvqWioig_GswFpv3AU7kEro7ICS=w224-h298-k-no"
            }
        ],
        "link": "https://www.google.com/maps/place/%28Rahmatullah%29Lalgola+Mosque/data=!4m7!3m6!1s0x39fbc94d0eb2a8af:0xab5c25d857102728!8m2!3d24.4218324!4d88.2574124!16s%2Fg%2F11bvt4vcfn!19sChIJr6iyDk3J-zkRKCcQV9glXKs?authuser=0&hl=en&rclk=1",
        "coordinates": {
            "latitude": 24.4218324,
            "longitude": 88.25741239999999
        }
    },
    {
        "name": "mllikpur dkssinnpaadd'aa msjid",
        "main_category": "Mosque",
        "address": "C68X+C8P mllikpur dkssinnpaadd'aa msjid, Village:- Mallipur Post :, Krishnapur, West Bengal 742148",
        "detailed_address": {
            "ward": null,
            "street": "C68X+C8P, Village:- Mallipur Post :",
            "city": "Krishnapur, Lalgola",
            "postal_code": "742148",
            "state": "West Bengal",
            "country_code": "IN"
        },
        "images": [
            {
                "about": "All",
                "link": "https://lh5.googleusercontent.com/p/AF1QipOdrXuhznKTQSkuJVeZX7S3Q2homgWkRS4B28tT=w529-h298-k-no"
            }
        ],
        "link": "https://www.google.com/maps/place/%E0%A6%AE%E0%A6%B2%E0%A7%8D%E0%A6%B2%E0%A6%BF%E0%A6%95%E0%A6%AA%E0%A7%81%E0%A6%B0+%E0%A6%A6%E0%A6%95%E0%A7%8D%E0%A6%B7%E0%A6%BF%E0%A6%A3%E0%A6%AA%E0%A6%BE%E0%A6%A1%E0%A6%BC%E0%A6%BE+%E0%A6%AE%E0%A6%B8%E0%A6%9C%E0%A6%BF%E0%A6%A6/data=!4m7!3m6!1s0x39fbceaa55e910c3:0x3330c2cfdbce5b47!8m2!3d24.416091!4d88.2483191!16s%2Fg%2F11hckfqlqq!19sChIJwxDpVarO-zkRR1vO28_CMDM?authuser=0&hl=en&rclk=1",
        "coordinates": {
            "latitude": 24.416090999999998,
            "longitude": 88.24831909999999
        }
    },
    {
        "name": "gaabtlaa jummaa msjid Gabtala Jumma Masjid",
        "main_category": "Mosque",
        "address": "C7F6+C74 gaabtlaa jummaa msjid Gabtala Jumma Masjid, Gabtala, Lalgola, West Bengal 742148",
        "detailed_address": {
            "ward": "Gabtala",
            "street": "C7F6+C74",
            "city": "Lalgola",
            "postal_code": "742148",
            "state": "West Bengal",
            "country_code": "IN"
        },
        "images": [
            {
                "about": "All",
                "link": "https://lh5.googleusercontent.com/p/AF1QipNATg6JhXAO9GtQiyi1iYayWcSRlA7q4UhdtujY=w397-h298-k-no"
            }
        ],
        "link": "https://www.google.com/maps/place/%E0%A6%97%E0%A6%BE%E0%A6%AC%E0%A6%A4%E0%A6%B2%E0%A6%BE+%E0%A6%9C%E0%A7%81%E0%A6%AE%E0%A7%8D%E0%A6%AE%E0%A6%BE+%E0%A6%AE%E0%A6%B8%E0%A6%9C%E0%A6%BF%E0%A6%A6+Gabtala+Jumma+Masjid/data=!4m7!3m6!1s0x39fbc97794ea919f:0x55270ae4af477bba!8m2!3d24.4235118!4d88.2606997!16s%2Fg%2F11f6dm8fhw!19sChIJn5HqlHfJ-zkRuntHr-QKJ1U?authuser=0&hl=en&rclk=1",
        "coordinates": {
            "latitude": 24.4235118,
            "longitude": 88.26069969999999
        }
    },
    {
        "name": "mosque",
        "main_category": "Mosque",
        "address": "C7F5+MC7 mosque, Lalgola Bazar Rd, Lalgola, West Bengal 742148",
        "detailed_address": {
            "ward": "Lalgola",
            "street": "C7F5+MC7, Lalgola Bazar Rd",
            "city": "Lalgola",
            "postal_code": "742148",
            "state": "West Bengal",
            "country_code": "IN"
        },
        "images": [
            {
                "about": "All",
                "link": "https://lh5.googleusercontent.com/p/AF1QipNu7Z0o3UqTXUVZzZnDUlWMZVKNNUPlwVeJ1p1D=w397-h298-k-no"
            },
            {
                "about": "Videos",
                "link": "https://lh5.googleusercontent.com/p/AF1QipNnzlEHe6PamwXMnwdrOQbYBKMDaqBwGkckmGgo=w224-h398-k-no"
            }
        ],
        "link": "https://www.google.com/maps/place/mosque/data=!4m7!3m6!1s0x39fbc94c33e9df59:0x2b6c7b3f7c01812d!8m2!3d24.4241681!4d88.2585386!16s%2Fg%2F11d_x3t7v3!19sChIJWd_pM0zJ-zkRLYEBfD97bCs?authuser=0&hl=en&rclk=1",
        "coordinates": {
            "latitude": 24.4241681,
            "longitude": 88.2585386
        }
    },
    {
        "name": "Naldahari Old Jame Masjid",
        "main_category": "Mosque",
        "address": "C7C7+273 Naldahari Old Jame Masjid, Naldahari Rd, Naldahari, Lalgola, West Bengal 742148",
        "detailed_address": {
            "ward": "Naldahari",
            "street": "C7C7+273, Naldahari Rd",
            "city": "Lalgola",
            "postal_code": "742148",
            "state": "West Bengal",
            "country_code": "IN"
        },
        "images": [
            {
                "about": "All",
                "link": "https://lh5.googleusercontent.com/p/AF1QipNhjaj33_QxU4ra9-LDvXSoMHQ35a0B5Fa3YlKK=w224-h496-k-no"
            }
        ],
        "link": "https://www.google.com/maps/place/Naldahari+Old+Jame+Masjid/data=!4m7!3m6!1s0x39fbc94ad7fce35f:0xaa3661cfcf055d51!8m2!3d24.4200068!4d88.2631624!16s%2Fg%2F1pv043zwf!19sChIJX-P810rJ-zkRUV0Fz89hNqo?authuser=0&hl=en&rclk=1",
        "coordinates": {
            "latitude": 24.4200068,
            "longitude": 88.2631624
        }
    },
    {
        "name": "Ramnager Jame Masqui",
        "main_category": "Mosque",
        "address": "C6QV+WQF Ramnager Jame Masqui, Lalgola, West Bengal 742148",
        "detailed_address": {
            "ward": null,
            "street": "C6QV+WQF",
            "city": "Lalgola",
            "postal_code": "742148",
            "state": "West Bengal",
            "country_code": "IN"
        },
        "images": [
            {
                "about": "All",
                "link": "https://lh5.googleusercontent.com/p/AF1QipN-8En6tRwZTTBx_VvGYhOFgjGMAKhksAt0oyc-=w224-h298-k-no"
            }
        ],
        "link": "https://www.google.com/maps/place/Ramnager+Jame+Masqui/data=!4m7!3m6!1s0x39fbcb6e16a05f7b:0xc177a16c3cd9c4!8m2!3d24.4398171!4d88.2444354!16s%2Fg%2F11gxn0gr4z!19sChIJe1-gFm7L-zkRxNk8bKF3wQA?authuser=0&hl=en&rclk=1",
        "coordinates": {
            "latitude": 24.4398171,
            "longitude": 88.2444354
        }
    },
    {
        "name": "Kalikapur Jumma Masjid.",
        "main_category": "Mosque",
        "address": "C7M2+V69 Kalikapur Jumma Masjid., Lalgola, West Bengal 742148",
        "detailed_address": {
            "ward": null,
            "street": "C7M2+V69",
            "city": "Lalgola",
            "postal_code": "742148",
            "state": "West Bengal",
            "country_code": "IN"
        },
        "images": [
            {
                "about": "All",
                "link": "https://lh5.googleusercontent.com/p/AF1QipM_covmrU_jsKgPWVkrSMH0m1lRbaFZYN2ng5k9=w224-h298-k-no"
            }
        ],
        "link": "https://www.google.com/maps/place/Kalikapur+Jumma+Masjid./data=!4m7!3m6!1s0x39fbc913fa8802dd:0x218796b18515901d!8m2!3d24.4346705!4d88.250613!16s%2Fg%2F11p068gmhf!19sChIJ3QKI-hPJ-zkRHZAVhbGWhyE?authuser=0&hl=en&rclk=1",
        "coordinates": {
            "latitude": 24.4346705,
            "longitude": 88.250613
        }
    },
    {
        "name": "Gabtala School Masjid gaabtlaa skul msjid",
        "main_category": "Mosque",
        "address": "C7C6+Q88 Gabtala School Masjid gaabtlaa skul msjid, Gabtala, Lalgola, West Bengal 742148",
        "detailed_address": {
            "ward": "Gabtala",
            "street": "C7C6+Q88",
            "city": "Lalgola",
            "postal_code": "742148",
            "state": "West Bengal",
            "country_code": "IN"
        },
        "images": [
            {
                "about": "All",
                "link": "https://lh5.googleusercontent.com/p/AF1QipO1abvlQI_RuHtoF1GO10zxQbPk6pjRep4PialJ=w529-h298-k-no"
            },
            {
                "about": "Videos",
                "link": "https://lh5.googleusercontent.com/p/AF1QipM0mqdbnwK1tMyoQ6rfrxmGfS95VJG7irvP92jx=w224-h398-k-no"
            }
        ],
        "link": "https://www.google.com/maps/place/Gabtala+School+Masjid+%E0%A6%97%E0%A6%BE%E0%A6%AC%E0%A6%A4%E0%A6%B2%E0%A6%BE+%E0%A6%B8%E0%A7%8D%E0%A6%95%E0%A7%81%E0%A6%B2+%E0%A6%AE%E0%A6%B8%E0%A6%9C%E0%A6%BF%E0%A6%A6/data=!4m7!3m6!1s0x39fbc9563ab91053:0xec6798f39de1df97!8m2!3d24.4219007!4d88.2608213!16s%2Fg%2F11ghwj86mf!19sChIJUxC5OlbJ-zkRl9_hnfOYZ-w?authuser=0&hl=en&rclk=1",
        "coordinates": {
            "latitude": 24.4219007,
            "longitude": 88.26082129999999
        }
    },
    {
        "name": "Ramchandrapur Mosque",
        "main_category": "Mosque",
        "address": "97V7+GQJ Ramchandrapur Mosque, Ramchandrapur, Lalgola, West Bengal 742148",
        "detailed_address": {
            "ward": null,
            "street": "97V7+GQJ",
            "city": "Ramchandrapur, Lalgola",
            "postal_code": null,
            "state": "West Bengal",
            "country_code": "IN"
        },
        "images": [
            {
                "about": "All",
                "link": "https://lh5.googleusercontent.com/p/AF1QipO4RVMIcL6nuZzy5cYU7cKLAAm_ATu0Q7kjp22V=w224-h298-k-no"
            },
            {
                "about": "Videos",
                "link": "https://lh5.googleusercontent.com/p/AF1QipNhu_whq5eiUWBgf8eg3kElv0B30Wx-4aOBBQBz=w224-h398-k-no"
            }
        ],
        "link": "https://www.google.com/maps/place/Ramchandrapur+Mosque/data=!4m7!3m6!1s0x39fbcf2cf72359a3:0xd3549e8a6d14b06d!8m2!3d24.393842!4d88.2644005!16s%2Fg%2F11gyxdfknv!19sChIJo1kj9yzP-zkRbbAUbYqeVNM?authuser=0&hl=en&rclk=1",
        "coordinates": {
            "latitude": 24.393842,
            "longitude": 88.2644005
        }
    },
    {
        "name": "ramnagar jumma masjid",
        "main_category": "Mosque",
        "address": "C6QW+6J4 ramnagar jumma masjid, Lalgola, West Bengal 742148",
        "detailed_address": {
            "ward": null,
            "street": "C6QW+6J4",
            "city": "Lalgola",
            "postal_code": "742148",
            "state": "West Bengal",
            "country_code": "IN"
        },
        "images": [
            {
                "about": "All",
                "link": "https://lh5.googleusercontent.com/p/AF1QipNrrd7N4WshbYY7mO9pjzttDDuKKMgvnnHh_SUX=w224-h336-k-no"
            }
        ],
        "link": "https://www.google.com/maps/place/ramnagar+jumma+masjid/data=!4m7!3m6!1s0x39fbc90602454fb3:0x27d6a8a34b991ed4!8m2!3d24.4380098!4d88.2465933!16s%2Fg%2F11rsv4xd1b!19sChIJs09FAgbJ-zkR1B6ZS6Oo1ic?authuser=0&hl=en&rclk=1",
        "coordinates": {
            "latitude": 24.4380098,
            "longitude": 88.2465933
        }
    },
    {
        "name": "Chataidubi Masjid caattaaiddubi msjid",
        "main_category": "Mosque",
        "address": "C77C+C7C Chataidubi Masjid caattaaiddubi msjid, Bansgara, West Bengal 742148",
        "detailed_address": {
            "ward": null,
            "street": "C77C+C7C",
            "city": "Bansgara",
            "postal_code": null,
            "state": "West Bengal",
            "country_code": "IN"
        },
        "images": [
            {
                "about": "All",
                "link": "https://lh5.googleusercontent.com/p/AF1QipOavrOd2-ccACqe41Nm7dTrO5tPMARax8GVClHs=w529-h298-k-no"
            }
        ],
        "link": "https://www.google.com/maps/place/Chataidubi+Masjid+%E0%A6%9A%E0%A6%BE%E0%A6%9F%E0%A6%BE%E0%A6%87%E0%A6%A1%E0%A7%81%E0%A6%AC%E0%A6%BF+%E0%A6%AE%E0%A6%B8%E0%A6%9C%E0%A6%BF%E0%A6%A6/data=!4m7!3m6!1s0x39fbcf0110004643:0x5b85c7d5e29a081c!8m2!3d24.413556!4d88.2706333!16s%2Fg%2F11f6y4dhr6!19sChIJQ0YAEAHP-zkRHAia4tXHhVs?authuser=0&hl=en&rclk=1",
        "coordinates": {
            "latitude": 24.413556,
            "longitude": 88.2706333
        }
    },
    {
        "name": "Krishnapur Jumma Masjid",
        "main_category": "Mosque",
        "address": "C753+76C Krishnapur Jumma Masjid, Vill + P.o - Krishnapur, P.s - lalgola, Krishnapur, West Bengal 742148",
        "detailed_address": {
            "ward": null,
            "street": "C753+76C, Vill + P.o - Krishnapur, P.s - lalgola",
            "city": "Krishnapur",
            "postal_code": "742148",
            "state": "West Bengal",
            "country_code": "IN"
        },
        "images": [
            {
                "about": "All",
                "link": "https://lh5.googleusercontent.com/p/AF1QipMM-NRGi0FitOn4N6mefvfHznzCYLH1A_VqaUsw=w396-h298-k-no"
            },
            {
                "about": "Street View & 360deg",
                "link": "https://streetviewpixels-pa.googleapis.com/v1/thumbnail?panoid=NwBtTwKMXlMmbCSn0i_tMg&cb_client=maps_sv.tactile.gps&w=224&h=298&yaw=132.26797&pitch=0&thumbfov=100"
            },
            {
                "about": "Videos",
                "link": "https://lh5.googleusercontent.com/p/AF1QipMrYe-GdjPXw_cezNrEhS5xI8v2yPB9RKBakAgf=w529-h298-k-no"
            }
        ],
        "link": "https://www.google.com/maps/place/Krishnapur+Jumma+Masjid/data=!4m7!3m6!1s0x39fbcf7ad03cd693:0x735fccfc6ae9d102!8m2!3d24.4081813!4d88.2530032!16s%2Fg%2F11lbgrx0hx!19sChIJk9Y80HrP-zkRAtHpavzMX3M?authuser=0&hl=en&rclk=1",
        "coordinates": {
            "latitude": 24.4081813,
            "longitude": 88.2530032
        }
    },
    {
        "name": "Malatipur Jumuah Masjid",
        "main_category": "Mosque",
        "address": "C6PG+35F Malatipur Jumuah Masjid, Malatipur, West Bengal 742148",
        "detailed_address": {
            "ward": null,
            "street": "C6PG+35F",
            "city": "Malatipur",
            "postal_code": "742148",
            "state": "West Bengal",
            "country_code": "IN"
        },
        "images": [],
        "link": "https://www.google.com/maps/place/Malatipur+Jumuah+Masjid/data=!4m7!3m6!1s0x39fbcb936aaaaaab:0xff07e4ee0a44299!8m2!3d24.4352!4d88.2254259!16s%2Fg%2F11dftk7_zd!19sChIJq6qqapPL-zkRmUKk4E5-8A8?authuser=0&hl=en&rclk=1",
        "coordinates": {
            "latitude": 24.4352,
            "longitude": 88.22542589999999
        }
    },
    {
        "name": "Durgapur Jumma Masjid",
        "main_category": "Mosque",
        "address": "C64W+QRM Durgapur Jumma Masjid, Durgapur, West Bengal 742148",
        "detailed_address": {
            "ward": null,
            "street": "C64W+QRM",
            "city": "Durgapur",
            "postal_code": "742148",
            "state": "West Bengal",
            "country_code": "IN"
        },
        "images": [
            {
                "about": "All",
                "link": "https://lh5.googleusercontent.com/p/AF1QipNabR2ExHqkHy1g8H8N2PssvtvXO_DbZs_460m6=w224-h398-k-no"
            }
        ],
        "link": "https://www.google.com/maps/place/Durgapur+Jumma+Masjid/data=!4m7!3m6!1s0x39fbcea7e1609f4b:0x8ef8d039e0a8025b!8m2!3d24.4069614!4d88.247045!16s%2Fg%2F11c5_s4rhn!19sChIJS59g4afO-zkRWwKo4DnQ-I4?authuser=0&hl=en&rclk=1",
        "coordinates": {
            "latitude": 24.4069614,
            "longitude": 88.247045
        }
    },
    {
        "name": "Natungram Pulpara Jumma Mosque",
        "main_category": "Mosque",
        "address": "C789+J6J Natungram Pulpara Jumma Mosque, Natun Gram, Lalgola, West Bengal 742148",
        "detailed_address": {
            "ward": null,
            "street": "C789+J6J",
            "city": "Natun Gram, Lalgola",
            "postal_code": "742148",
            "state": "West Bengal",
            "country_code": "IN"
        },
        "images": [
            {
                "about": "All",
                "link": "https://lh5.googleusercontent.com/p/AF1QipNDM9BSENHh3vrPCjKqCKpychq2m082gb5eYf9R=w224-h398-k-no"
            },
            {
                "about": "Videos",
                "link": "https://lh5.googleusercontent.com/p/AF1QipMH_Crc0kMgdQZ6lXLHUW9qwboKUHBRPKIXKILo=w224-h398-k-no"
            }
        ],
        "link": "https://www.google.com/maps/place/Natungram+Pulpara+Jumma+Mosque/data=!4m7!3m6!1s0x39fbcf5df549a4a3:0x7ed32cda01b90c29!8m2!3d24.4165946!4d88.2680004!16s%2Fg%2F11gjt_k3pc!19sChIJo6RJ9V3P-zkRKQy5Ados034?authuser=0&hl=en&rclk=1",
        "coordinates": {
            "latitude": 24.4165946,
            "longitude": 88.26800039999999
        }
    },
    {
        "name": "Dumuriapara Zumma Masjid ddumuriy'aapaaraa jummaa msjid",
        "main_category": "Mosque",
        "address": "C72C+QWM Dumuriapara Zumma Masjid ddumuriy'aapaaraa jummaa msjid, Dumuriapara, Bansgara, Lalgola",
        "detailed_address": {
            "ward": null,
            "street": "C72C+QWM, Dumuriapara, Bansgara",
            "city": "Lalgola, Karttikpur",
            "postal_code": null,
            "state": "West Bengal",
            "country_code": "IN"
        },
        "images": [
            {
                "about": "All",
                "link": "https://lh5.googleusercontent.com/p/AF1QipM-sMA_89rlHeRT8E9WfdCqpxMpLUbdFkO7TDyI=w662-h298-k-no"
            }
        ],
        "link": "https://www.google.com/maps/place/Dumuriapara+Zumma+Masjid+%E0%A6%A1%E0%A7%81%E0%A6%AE%E0%A7%81%E0%A6%B0%E0%A6%BF%E0%A6%AF%E0%A6%BC%E0%A6%BE%E0%A6%AA%E0%A6%BE%E0%A6%B0%E0%A6%BE+%E0%A6%9C%E0%A7%81%E0%A6%AE%E0%A7%8D%E0%A6%AE%E0%A6%BE+%E0%A6%AE%E0%A6%B8%E0%A6%9C%E0%A6%BF%E0%A6%A6/data=!4m7!3m6!1s0x39fbcfe9161d3c99:0x360b0a0f1cfdff9f!8m2!3d24.4019572!4d88.2722882!16s%2Fg%2F11sq1n8yd3!19sChIJmTwdFunP-zkRn__9HA8KCzY?authuser=0&hl=en&rclk=1",
        "coordinates": {
            "latitude": 24.4019572,
            "longitude": 88.27228819999999
        }
    },
    {
        "name": "msjid Masjid",
        "main_category": "Mosque",
        "address": "97WC+MR2 msjid Masjid, Jhowbona School Road, Jhowbona, Bansgara, Lalgola, West Bengal 742148",
        "detailed_address": {
            "ward": null,
            "street": "97WC+MR2, Jhowbona School Road, Jhowbona, Bansgara",
            "city": "Lalgola",
            "postal_code": "742148",
            "state": "West Bengal",
            "country_code": "IN"
        },
        "images": [],
        "link": "https://www.google.com/maps/place/%E0%A6%AE%E0%A6%B8%E0%A6%9C%E0%A6%BF%E0%A6%A6+Masjid/data=!4m7!3m6!1s0x39fbcfdad143a68d:0x2da3340536b9c1a8!8m2!3d24.3966497!4d88.2720274!16s%2Fg%2F11q96g41_l!19sChIJjaZD0drP-zkRqMG5NgU0oy0?authuser=0&hl=en&rclk=1",
        "coordinates": {
            "latitude": 24.396649699999998,
            "longitude": 88.2720274
        }
    },
    {
        "name": "phkirpaadd'aa jummaa msjid",
        "main_category": "Mosque",
        "address": "C7H3+669 phkirpaadd'aa jummaa msjid, Lalgola, West Bengal 742148",
        "detailed_address": {
            "ward": "Lalgola",
            "street": "C7H3+669",
            "city": "Lalgola",
            "postal_code": "742148",
            "state": "West Bengal",
            "country_code": "IN"
        },
        "images": [],
        "link": "https://www.google.com/maps/place/%E0%A6%AB%E0%A6%95%E0%A6%BF%E0%A6%B0%E0%A6%AA%E0%A6%BE%E0%A6%A1%E0%A6%BC%E0%A6%BE+%E0%A6%9C%E0%A7%81%E0%A6%AE%E0%A7%8D%E0%A6%AE%E0%A6%BE+%E0%A6%AE%E0%A6%B8%E0%A6%9C%E0%A6%BF%E0%A6%A6/data=!4m7!3m6!1s0x39fbc9761ff937bf:0xdc39056b83866494!8m2!3d24.4280352!4d88.2531214!16s%2Fg%2F11gvy201nd!19sChIJvzf5H3bJ-zkRlGSGg2sFOdw?authuser=0&hl=en&rclk=1",
        "coordinates": {
            "latitude": 24.4280352,
            "longitude": 88.2531214
        }
    },
    {
        "name": "msjid",
        "main_category": "Mosque",
        "address": "97XF+4XF msjid, Jhowbona,Bansgara, Lalgola, West Bengal 742148",
        "detailed_address": {
            "ward": null,
            "street": "97XF+4XF, Jhowbona,Bansgara",
            "city": "Lalgola",
            "postal_code": "742148",
            "state": "West Bengal",
            "country_code": "IN"
        },
        "images": [
            {
                "about": "All",
                "link": "https://lh5.googleusercontent.com/p/AF1QipPBYKY2HTOpGecHqwgAnSD_Yh8ks2bKqkHExJQ_=w224-h496-k-no"
            }
        ],
        "link": "https://www.google.com/maps/place/%E0%A6%AE%E0%A6%B8%E0%A6%9C%E0%A6%BF%E0%A6%A6/data=!4m7!3m6!1s0x39fbcf3d1dd98251:0xb8fff420b044be70!8m2!3d24.3978028!4d88.2749294!16s%2Fg%2F11rssdztw3!19sChIJUYLZHT3P-zkRcL5EsCD0_7g?authuser=0&hl=en&rclk=1",
        "coordinates": {
            "latitude": 24.397802799999997,
            "longitude": 88.27492939999999
        }
    },
    {
        "name": "RAMNAGAR MIDDLE WAKTIA MASJID",
        "main_category": "Mosque",
        "address": "C6RP+F5 RAMNAGAR MIDDLE WAKTIA MASJID, Lalgola, West Bengal 742148",
        "detailed_address": {
            "ward": null,
            "street": "C6RP+F5",
            "city": "Lalgola",
            "postal_code": "742148",
            "state": "West Bengal",
            "country_code": "IN"
        },
        "images": [
            {
                "about": "All",
                "link": "https://lh5.googleusercontent.com/p/AF1QipOCmZnayWbfSGdLJz1OpH7wct5GE2upcGxlVYwu=w224-h398-k-no"
            },
            {
                "about": "Videos",
                "link": "https://lh5.googleusercontent.com/p/AF1QipOCmZnayWbfSGdLJz1OpH7wct5GE2upcGxlVYwu=w224-h398-k-no"
            }
        ],
        "link": "https://www.google.com/maps/place/RAMNAGAR+MIDDLE+WAKTIA+MASJID/data=!4m7!3m6!1s0x39fbcba29c6ba50d:0x7616f9f8ca390e38!8m2!3d24.441094!4d88.2354173!16s%2Fg%2F11pztfd251!19sChIJDaVrnKLL-zkROA45yvj5FnY?authuser=0&hl=en&rclk=1",
        "coordinates": {
            "latitude": 24.441094,
            "longitude": 88.2354173
        }
    },
    {
        "name": "Uttar Latiber Para (Hazipara) Jummah Masjid",
        "main_category": "Mosque",
        "address": "C75F+RF5 Uttar Latiber Para (Hazipara) Jummah Masjid, Uttar Latiber Par,Bansgara, Lalgola, 742148",
        "detailed_address": {
            "ward": null,
            "street": "C75F+RF5, Uttar Latiber Par,Bansgara",
            "city": "Lalgola, Kaimegha",
            "postal_code": "742148",
            "state": "West Bengal",
            "country_code": "IN"
        },
        "images": [
            {
                "about": "All",
                "link": "https://lh5.googleusercontent.com/p/AF1QipO0wh5H1hnaXRpIz_99aF1U3B0sGaifLNe_EBVF=w659-h298-k-no"
            }
        ],
        "link": "https://www.google.com/maps/place/Uttar+Latiber+Para+%28Hazipara%29+Jummah+Masjid/data=!4m7!3m6!1s0x39fbcf37b8ffe95b:0xeac1f333066039e5!8m2!3d24.409518!4d88.2737312!16s%2Fg%2F11py6fvnfg!19sChIJW-n_uDfP-zkR5TlgBjPzweo?authuser=0&hl=en&rclk=1",
        "coordinates": {
            "latitude": 24.409518,
            "longitude": 88.2737312
        }
    },
    {
        "name": "Damodarpur Jumma Masjid",
        "main_category": "Mosque",
        "address": "C65X+MH6 Damodarpur Jumma Masjid, Unnamed Road, Lalgola, Durgapur, West Bengal 742148",
        "detailed_address": {
            "ward": null,
            "street": "C65X+MH6, Unnamed Road",
            "city": "Lalgola, Durgapur",
            "postal_code": "742148",
            "state": "West Bengal",
            "country_code": "IN"
        },
        "images": [],
        "link": "https://www.google.com/maps/place/Damodarpur+Jumma+Masjid/data=!4m7!3m6!1s0x39fbcffafddaddb5:0x174be1cdf4426dfa!8m2!3d24.4091704!4d88.2489027!16s%2Fg%2F11rfccg109!19sChIJtd3a_frP-zkR-m1C9M3hSxc?authuser=0&hl=en&rclk=1",
        "coordinates": {
            "latitude": 24.409170399999997,
            "longitude": 88.2489027
        }
    },
    {
        "name": "Mosque",
        "main_category": "Mosque",
        "address": "Mosque, Lalgola College Rd, Durgapur, Krishnapur, West Bengal 742148",
        "detailed_address": {
            "ward": null,
            "street": "Lalgola College Rd",
            "city": "Durgapur, Krishnapur",
            "postal_code": "742148",
            "state": "West Bengal",
            "country_code": "IN"
        },
        "images": [],
        "link": "https://www.google.com/maps/place/Mosque/data=!4m7!3m6!1s0x39fbcfce62d0b37b:0xd2f358b9c6c7e1a2!8m2!3d24.4072974!4d88.2518809!16s%2Fg%2F11h2j7sxrw!19sChIJe7PQYs7P-zkRouHHxrlY89I?authuser=0&hl=en&rclk=1",
        "coordinates": {
            "latitude": 24.407297399999997,
            "longitude": 88.25188089999999
        }
    },
    {
        "name": "msjid MOSQUE",
        "main_category": "Mosque",
        "address": "msjid MOSQUE, Rail Get, Krishnapur, West Bengal 742148",
        "detailed_address": {
            "ward": null,
            "street": "Rail Get",
            "city": "Krishnapur",
            "postal_code": "742148",
            "state": "West Bengal",
            "country_code": "IN"
        },
        "images": [],
        "link": "https://www.google.com/maps/place/%E0%A6%AE%E0%A6%B8%E0%A6%9C%E0%A6%BF%E0%A6%A6+MOSQUE/data=!4m7!3m6!1s0x39fbcfcaeb683b55:0xc18b79279694b3fa!8m2!3d24.4122246!4d88.2556394!16s%2Fg%2F11qgg5476_!19sChIJVTto68rP-zkR-rOUlid5i8E?authuser=0&hl=en&rclk=1",
        "coordinates": {
            "latitude": 24.4122246,
            "longitude": 88.25563939999999
        }
    },
    {
        "name": "MASJID",
        "main_category": "Mosque",
        "address": "C784+Q7Q MASJID, Lalgola, Krishnapur, West Bengal 742148",
        "detailed_address": {
            "ward": "Lalgola",
            "street": "C784+Q7Q",
            "city": "Krishnapur",
            "postal_code": "742148",
            "state": "West Bengal",
            "country_code": "IN"
        },
        "images": [],
        "link": "https://www.google.com/maps/place/MASJID/data=!4m7!3m6!1s0x39fbcfbf13f2a97b:0x93eccf526b4eb683!8m2!3d24.4159966!4d88.2564218!16s%2Fg%2F11v0c1pz4v!19sChIJe6nyE7_P-zkRg7ZOa1LP7JM?authuser=0&hl=en&rclk=1",
        "coordinates": {
            "latitude": 24.4159966,
            "longitude": 88.2564218
        }
    },
    {
        "name": "KALMEGHA JUMMA MASJID",
        "main_category": "Mosque",
        "address": "KALMEGHA JUMMA MASJID, Kalmegh Rd, Lalgola, Karttikpur, West Bengal 742148",
        "detailed_address": {
            "ward": null,
            "street": "Kalmegh Rd",
            "city": "Lalgola, Karttikpur",
            "postal_code": "742148",
            "state": "West Bengal",
            "country_code": "IN"
        },
        "images": [],
        "link": "https://www.google.com/maps/place/KALMEGHA+JUMMA+MASJID/data=!4m7!3m6!1s0x39fbceb88e6e1db1:0x327d8c49fe82fb93!8m2!3d24.4038484!4d88.264658!16s%2Fg%2F11f33pr_kw!19sChIJsR1ujrjO-zkRk_uC_kmMfTI?authuser=0&hl=en&rclk=1",
        "coordinates": {
            "latitude": 24.403848399999998,
            "longitude": 88.264658
        }
    },
    {
        "name": "Maidapara Masjid",
        "main_category": "Mosque",
        "address": "C736+4VV Maidapara Masjid, Hossainabad, Kaimegha, Karttikpur, West Bengal 742148",
        "detailed_address": {
            "ward": "Hossainabad",
            "street": "C736+4VV",
            "city": "Kaimegha, Karttikpur",
            "postal_code": "742148",
            "state": "West Bengal",
            "country_code": "IN"
        },
        "images": [
            {
                "about": "All",
                "link": "https://lh5.googleusercontent.com/p/AF1QipPoB03Lmy0yvcu7DPSJaUM2EQ8t7VNbMLygAz6d=w224-h398-k-no"
            },
            {
                "about": "Videos",
                "link": "https://lh5.googleusercontent.com/p/AF1QipORBluMB65l7g39xo-7sJhwZ5CvEg4rGOXx3QPf=w529-h298-k-no"
            }
        ],
        "link": "https://www.google.com/maps/place/Maidapara+Masjid/data=!4m7!3m6!1s0x39fbcf93ef4a187d:0x1710d9634e837885!8m2!3d24.4028613!4d88.2621703!16s%2Fg%2F11rstvmxym!19sChIJfRhK75PP-zkRhXiDTmPZEBc?authuser=0&hl=en&rclk=1",
        "coordinates": {
            "latitude": 24.402861299999998,
            "longitude": 88.2621703
        }
    },
    {
        "name": "uttr ltiber paarraa jummaa msjid( JUMMA MASJID)",
        "main_category": "Mosque",
        "address": "uttr ltiber paarraa jummaa msjid( JUMMA MASJID), 201, Natungram Rd, Lalgola, Bansgara, West Bengal 742148",
        "detailed_address": {
            "ward": null,
            "street": "201, Natungram Rd",
            "city": "Lalgola, Bansgara",
            "postal_code": "742148",
            "state": "West Bengal",
            "country_code": "IN"
        },
        "images": [
            {
                "about": "All",
                "link": "https://lh5.googleusercontent.com/p/AF1QipMeBUyBn476ieayrozwHgQLKv0FbmEudRXs-eRN=w224-h398-k-no"
            },
            {
                "about": "Videos",
                "link": "https://lh5.googleusercontent.com/p/AF1QipN7HiQ2ol1v7EhpjswQ2be-nWj4_hHxuJug-3LQ=w224-h399-k-no"
            }
        ],
        "link": "https://www.google.com/maps/place/%E0%A6%89%E0%A6%A4%E0%A7%8D%E0%A6%A4%E0%A6%B0+%E0%A6%B2%E0%A6%A4%E0%A6%BF%E0%A6%AC%E0%A7%87%E0%A6%B0+%E0%A6%AA%E0%A6%BE%E0%A7%9C%E0%A6%BE+%E0%A6%9C%E0%A7%81%E0%A6%AE%E0%A7%8D%E0%A6%AE%E0%A6%BE+%E0%A6%AE%E0%A6%B8%E0%A6%9C%E0%A6%BF%E0%A6%A6%28+JUMMA+MASJID%29/data=!4m7!3m6!1s0x39fbcfe6c03dec25:0xcbeb20abbc39322d!8m2!3d24.4140375!4d88.2726991!16s%2Fg%2F11skwp0n98!19sChIJJew9wObP-zkRLTI5vKsg68s?authuser=0&hl=en&rclk=1",
        "coordinates": {
            "latitude": 24.4140375,
            "longitude": 88.2726991
        }
    },
    {
        "name": "Chamapara Jumma Masjid",
        "main_category": "Mosque",
        "address": "C776+87R Chamapara Jumma Masjid, Lalgola, Krishnapur, West Bengal 742148",
        "detailed_address": {
            "ward": null,
            "street": "C776+87R",
            "city": "Lalgola, Krishnapur",
            "postal_code": "742148",
            "state": "West Bengal",
            "country_code": "IN"
        },
        "images": [],
        "link": "https://www.google.com/maps/place/Chamapara+Jumma+Masjid/data=!4m7!3m6!1s0x39fbceb6aaaaaaab:0xe012e98087b26e4f!8m2!3d24.413353!4d88.2606446!16s%2Fg%2F11hbvqyy0n!19sChIJq6qqqrbO-zkRT26yh4DpEuA?authuser=0&hl=en&rclk=1",
        "coordinates": {
            "latitude": 24.413352999999997,
            "longitude": 88.26064459999999
        }
    },
    {
        "name": "Dakshin Latiberpara Jumma Masjid (A.C)",
        "main_category": "Mosque",
        "address": "C74F+5Q6 Dakshin Latiberpara Jumma Masjid (A.C), Kaimegha, West Bengal 742148",
        "detailed_address": {
            "ward": null,
            "street": "C74F+5Q6",
            "city": "Kaimegha",
            "postal_code": "742148",
            "state": "West Bengal",
            "country_code": "IN"
        },
        "images": [
            {
                "about": "All",
                "link": "https://lh5.googleusercontent.com/p/AF1QipPLxkI8uxKO6FwBHvVtB8IfBxV231rSPVJberqp=w252-h298-k-no"
            },
            {
                "about": "Dome",
                "link": "https://lh5.googleusercontent.com/p/AF1QipMV44U2EOvdboWtbJQPEOZyb6XoPHGPsSNJkknV=w461-h298-k-no"
            }
        ],
        "link": "https://www.google.com/maps/place/Dakshin+Latiberpara+Jumma+Masjid+%28A.C%29/data=!4m7!3m6!1s0x39fbcf9cea0ab39b:0x3983229cb0dcd56c!8m2!3d24.4054139!4d88.2743801!16s%2Fg%2F11kjf7lm5g!19sChIJm7MK6pzP-zkRbNXcsJwigzk?authuser=0&hl=en&rclk=1",
        "coordinates": {
            "latitude": 24.4054139,
            "longitude": 88.2743801
        }
    },
    {
        "name": "Bhwanipur Jummah masjid",
        "main_category": "Mosque",
        "address": "97X5+QPW Bhwanipur Jummah masjid, Krishnapur, West Bengal 742148",
        "detailed_address": {
            "ward": null,
            "street": "97X5+QPW",
            "city": "Krishnapur",
            "postal_code": "742148",
            "state": "West Bengal",
            "country_code": "IN"
        },
        "images": [],
        "link": "https://www.google.com/maps/place/Bhwanipur+Jummah+masjid/data=!4m7!3m6!1s0x39fbcf3537aeaaeb:0x34d88520445a081b!8m2!3d24.3994838!4d88.2593152!16s%2Fg%2F11p75pqsk0!19sChIJ66quNzXP-zkRGwhaRCCF2DQ?authuser=0&hl=en&rclk=1",
        "coordinates": {
            "latitude": 24.3994838,
            "longitude": 88.25931519999999
        }
    },
    {
        "name": "KHALIFABAD( KALPARA) OKTIA MASJID",
        "main_category": "Mosque",
        "address": "C6JG+4WR KHALIFABAD( KALPARA) OKTIA MASJID, KHALIFABAD, PAHARPUR, LALGOLA, WES, West Bengal 724148",
        "detailed_address": {
            "ward": null,
            "street": "C6JG+4WR, KHALIFABAD, PAHARPUR, LALGOLA",
            "city": "WES, Khalifabaj",
            "postal_code": "724148",
            "state": "West Bengal",
            "country_code": "IN"
        },
        "images": [
            {
                "about": "All",
                "link": "https://lh5.googleusercontent.com/p/AF1QipMyLnd5m9bf2ZYoX8yWyNmIaUHgXKlGMtem1HCk=w603-h298-k-no"
            }
        ],
        "link": "https://www.google.com/maps/place/KHALIFABAD%28+KALPARA%29+OKTIA+MASJID/data=!4m7!3m6!1s0x39fbcb646ef995a5:0xa834e829e8db8ef1!8m2!3d24.4303652!4d88.2272611!16s%2Fg%2F11sv1cwqr6!19sChIJpZX5bmTL-zkR8Y7b6CnoNKg?authuser=0&hl=en&rclk=1",
        "coordinates": {
            "latitude": 24.4303652,
            "longitude": 88.22726109999999
        }
    },
    {
        "name": "Al Hera Jama masjid (aal heraa jummaa msjid)",
        "main_category": "Mosque",
        "address": "C6GG+P27 Al Hera Jama masjid (aal heraa jummaa msjid), Natatala,paharpur, Lalgola, 742148",
        "detailed_address": {
            "ward": null,
            "street": "C6GG+P27, Natatala,paharpur",
            "city": "Lalgola, Paharpur",
            "postal_code": "742148",
            "state": "West Bengal",
            "country_code": "IN"
        },
        "images": [],
        "link": "https://www.google.com/maps/place/Al+Hera+Jama+masjid+%28%E0%A6%86%E0%A6%B2+%E0%A6%B9%E0%A7%87%E0%A6%B0%E0%A6%BE+%E0%A6%9C%E0%A7%81%E0%A6%AE%E0%A7%8D%E0%A6%AE%E0%A6%BE+%E0%A6%AE%E0%A6%B8%E0%A6%9C%E0%A6%BF%E0%A6%A6%29/data=!4m7!3m6!1s0x39fbcb11ed284353:0x177f7b94f79d841e!8m2!3d24.4267851!4d88.2250616!16s%2Fg%2F11tf7842qt!19sChIJU0Mo7RHL-zkRHoSd95R7fxc?authuser=0&hl=en&rclk=1",
        "coordinates": {
            "latitude": 24.4267851,
            "longitude": 88.22506159999999
        }
    },
    {
        "name": "Jumma masjid",
        "main_category": "Mosque",
        "address": "C749+JCM Jumma masjid, Kaimegha, West Bengal 742148",
        "detailed_address": {
            "ward": null,
            "street": "C749+JCM",
            "city": "Kaimegha",
            "postal_code": "742148",
            "state": "West Bengal",
            "country_code": "IN"
        },
        "images": [
            {
                "about": "All",
                "link": "https://lh5.googleusercontent.com/p/AF1QipPvnxmSb_i3vNiqj3_8YaxlqCDGr4DjNcr7k6OI=w224-h501-k-no"
            },
            {
                "about": "By owner",
                "link": "https://lh5.googleusercontent.com/p/AF1QipPvnxmSb_i3vNiqj3_8YaxlqCDGr4DjNcr7k6OI=w224-h501-k-no"
            }
        ],
        "link": "https://www.google.com/maps/place/Jumma+masjid/data=!4m7!3m6!1s0x39fbcf507a713575:0xffe93c2bb4f85db0!8m2!3d24.4070195!4d88.2693258!16s%2Fg%2F11v3h0858q!19sChIJdTVxelDP-zkRsF34tCs86f8?authuser=0&hl=en&rclk=1",
        "coordinates": {
            "latitude": 24.4070195,
            "longitude": 88.26932579999999
        }
    },
    {
        "name": "Masjid",
        "main_category": "Mosque",
        "address": "C745+2R Masjid, Lalgola, Krishnapur, West Bengal 742148",
        "detailed_address": {
            "ward": null,
            "street": "C745+2R",
            "city": "Lalgola, Krishnapur",
            "postal_code": null,
            "state": "West Bengal",
            "country_code": "IN"
        },
        "images": [
            {
                "about": "All",
                "link": "https://lh5.googleusercontent.com/p/AF1QipOW7qbXxg2tVxrieVZ_Z9t3dpFkd6FWf0nFhynm=w224-h298-k-no"
            }
        ],
        "link": "https://www.google.com/maps/place/Masjid/data=!4m7!3m6!1s0x39fbcfc43c0d6ccd:0x6330c31a807703f4!8m2!3d24.4050381!4d88.2596106!16s%2Fg%2F11kpvkkvqp!19sChIJzWwNPMTP-zkR9AN3gBrDMGM?authuser=0&hl=en&rclk=1",
        "coordinates": {
            "latitude": 24.4050381,
            "longitude": 88.2596106
        }
    },
    {
        "name": "Masjid",
        "main_category": "Mosque",
        "address": "C749+JCM Masjid, Kaimegha, West Bengal 742148",
        "detailed_address": {
            "ward": null,
            "street": "C749+JCM",
            "city": "Kaimegha",
            "postal_code": "742148",
            "state": "West Bengal",
            "country_code": "IN"
        },
        "images": [
            {
                "about": "All",
                "link": "https://lh5.googleusercontent.com/p/AF1QipOwLvW9Hi2eF8tS9lp1TyrnjgnU8iQg6R8SLrWU=w224-h298-k-no"
            },
            {
                "about": "By owner",
                "link": "https://lh5.googleusercontent.com/p/AF1QipOwLvW9Hi2eF8tS9lp1TyrnjgnU8iQg6R8SLrWU=w224-h298-k-no"
            }
        ],
        "link": "https://www.google.com/maps/place/Masjid/data=!4m7!3m6!1s0x39fbcfcf56b4dee3:0x67962f87c19dfa68!8m2!3d24.4069196!4d88.2693969!16s%2Fg%2F11krh58p_1!19sChIJ4960Vs_P-zkRaPqdwYcvlmc?authuser=0&hl=en&rclk=1",
        "coordinates": {
            "latitude": 24.4069196,
            "longitude": 88.26939689999999
        }
    },
    {
        "name": "Masjid",
        "main_category": "Mosque",
        "address": "C746+C2 Masjid, Lalgola, Krishnapur, West Bengal 742148",
        "detailed_address": {
            "ward": null,
            "street": "C746+C2",
            "city": "Lalgola, Krishnapur",
            "postal_code": null,
            "state": "West Bengal",
            "country_code": "IN"
        },
        "images": [
            {
                "about": "All",
                "link": "https://lh5.googleusercontent.com/p/AF1QipPHuV3K5tcjpztE8fOd58JJcZoSfgW_LRzMOu_X=w224-h298-k-no"
            }
        ],
        "link": "https://www.google.com/maps/place/Masjid/data=!4m7!3m6!1s0x39fbcf79af422501:0x4d935c3c67ee84f6!8m2!3d24.4060727!4d88.2599798!16s%2Fg%2F11sv2r55hs!19sChIJASVCr3nP-zkR9oTuZzxck00?authuser=0&hl=en&rclk=1",
        "coordinates": {
            "latitude": 24.4060727,
            "longitude": 88.2599798
        }
    },
    {
        "name": "Masjid",
        "main_category": "Mosque",
        "address": "C795+43V Masjid, Krishnapur, West Bengal 742148",
        "detailed_address": {
            "ward": null,
            "street": "C795+43V",
            "city": "Krishnapur",
            "postal_code": "742148",
            "state": "West Bengal",
            "country_code": "IN"
        },
        "images": [
            {
                "about": "All",
                "link": "https://lh5.googleusercontent.com/p/AF1QipPLy4DQTVvohAyyTiQfqafpMlpACsCHpcvxmCzO=w396-h298-k-no"
            }
        ],
        "link": "https://www.google.com/maps/place/Masjid/data=!4m7!3m6!1s0x39fbcf0365101d8f:0x164b0e698af52168!8m2!3d24.4174006!4d88.258042!16s%2Fg%2F11stxpgvdw!19sChIJjx0QZQPP-zkRaCH1imkOSxY?authuser=0&hl=en&rclk=1",
        "coordinates": {
            "latitude": 24.4174006,
            "longitude": 88.25804199999999
        }
    },
    {
        "name": "Masjid",
        "main_category": "Mosque",
        "address": "C758+7GV Masjid, Kalmegh Rd, Lalgola, Kaimegha, West Bengal 742148",
        "detailed_address": {
            "ward": null,
            "street": "C758+7GV, Kalmegh Rd",
            "city": "Lalgola, Kaimegha",
            "postal_code": "742148",
            "state": "West Bengal",
            "country_code": "IN"
        },
        "images": [],
        "link": "https://www.google.com/maps/place/Masjid/data=!4m7!3m6!1s0x39fbcfd94581193f:0x449981f5921a5c63!8m2!3d24.4082493!4d88.2662888!16s%2Fg%2F11v0hbyxph!19sChIJPxmBRdnP-zkRY1wakvWBmUQ?authuser=0&hl=en&rclk=1",
        "coordinates": {
            "latitude": 24.408249299999998,
            "longitude": 88.2662888
        }
    },
    {
        "name": "Abul Kasem's Masjid",
        "main_category": "Mosque",
        "address": "C777+8R3 Abul Kasem's Masjid, Bansgara, West Bengal 742148",
        "detailed_address": {
            "ward": null,
            "street": "C777+8R3",
            "city": "Bansgara",
            "postal_code": "742148",
            "state": "West Bengal",
            "country_code": "IN"
        },
        "images": [
            {
                "about": "All",
                "link": "https://lh5.googleusercontent.com/p/AF1QipPjKzI9IpuFq_OQAmwC3AfNGHyVVlZViyERLTTU=w224-h298-k-no"
            }
        ],
        "link": "https://www.google.com/maps/place/Abul+Kasem%27s+Masjid/data=!4m7!3m6!1s0x39fbcfe6a332e5b5:0x64b46a6e321b247!8m2!3d24.4135225!4d88.2646513!16s%2Fg%2F11s758lkhw!19sChIJteUyo-bP-zkRR7Ih46ZGSwY?authuser=0&hl=en&rclk=1",
        "coordinates": {
            "latitude": 24.4135225,
            "longitude": 88.2646513
        }
    },
    {
        "name": "Tentuliya para jumma masjid",
        "main_category": "Mosque",
        "address": "C775+6CH Tentuliya para jumma masjid, Lalgola, Krishnapur, West Bengal 742148",
        "detailed_address": {
            "ward": null,
            "street": "C775+6CH",
            "city": "Lalgola, Krishnapur",
            "postal_code": "742148",
            "state": "West Bengal",
            "country_code": "IN"
        },
        "images": [],
        "link": "https://www.google.com/maps/place/Tentuliya+para+jumma+masjid/data=!4m7!3m6!1s0x39fbcf01521760b9:0x24142d45732524c9!8m2!3d24.4130554!4d88.2586107!16s%2Fg%2F11twkgpz00!19sChIJuWAXUgHP-zkRySQlc0UtFCQ?authuser=0&hl=en&rclk=1",
        "coordinates": {
            "latitude": 24.413055399999998,
            "longitude": 88.25861069999999
        }
    },
    {
        "name": "Uttra Latiber Para - 2 Jumma Masjid",
        "main_category": "Mosque",
        "address": "C75H+Q68 Uttra Latiber Para - 2 Jumma Masjid, Lalgola, Bansgara, West Bengal 742148",
        "detailed_address": {
            "ward": null,
            "street": "C75H+Q68",
            "city": "Lalgola, Bansgara",
            "postal_code": "742148",
            "state": "West Bengal",
            "country_code": "IN"
        },
        "images": [],
        "link": "https://www.google.com/maps/place/Uttra+Latiber+Para+-+2+Jumma+Masjid/data=!4m7!3m6!1s0x39fbcf1bc1fa71af:0x61722ebedb906d89!8m2!3d24.4097642!4d88.2775209!16s%2Fg%2F11kb585qb8!19sChIJr3H6wRvP-zkRiW2Q274ucmE?authuser=0&hl=en&rclk=1",
        "coordinates": {
            "latitude": 24.409764199999998,
            "longitude": 88.2775209
        }
    },
    {
        "name": "Sahajipara jumma masjid",
        "main_category": "Mosque",
        "address": "Sahajipara jumma masjid, Krishnapur, West Bengal 742148",
        "detailed_address": {
            "ward": null,
            "street": null,
            "city": "Krishnapur",
            "postal_code": "742148",
            "state": "West Bengal",
            "country_code": "IN"
        },
        "images": [
            {
                "about": "All",
                "link": "https://lh5.googleusercontent.com/p/AF1QipN0_SiIMb3UDE5AeRYVrbzOHKw06k6f4gMky-th=w529-h298-k-no"
            },
            {
                "about": "By owner",
                "link": "https://lh5.googleusercontent.com/p/AF1QipPHyQtsjG-if-etidKry5gPZi2KkUNTo7FXsFDc=w224-h496-k-no"
            }
        ],
        "link": "https://www.google.com/maps/place/Sahajipara+jumma+masjid/data=!4m7!3m6!1s0x39fbcff3866e8eb1:0xe1d7ebb96f230802!8m2!3d24.4160881!4d88.2553256!16s%2Fg%2F11szfk5hkj!19sChIJsY5uhvPP-zkRAggjb7nr1-E?authuser=0&hl=en&rclk=1",
        "coordinates": {
            "latitude": 24.4160881,
            "longitude": 88.25532559999999
        }
    },
    {
        "name": "Ganeshpur jumma masjid",
        "main_category": "Mosque",
        "address": "96XV+V3V Ganeshpur jumma masjid, Ganeshpur, Lalgola, West Bengal 742148",
        "detailed_address": {
            "ward": null,
            "street": "96XV+V3V, Ganeshpur",
            "city": "Lalgola",
            "postal_code": "742148",
            "state": "West Bengal",
            "country_code": "IN"
        },
        "images": [],
        "link": "https://www.google.com/maps/place/Ganeshpur+jumma+masjid/data=!4m7!3m6!1s0x39fbcd433c68fd6d:0x10aa0c3285181c30!8m2!3d24.3997325!4d88.242669!16s%2Fg%2F11pl6vcz4l!19sChIJbf1oPEPN-zkRMBwYhTIMqhA?authuser=0&hl=en&rclk=1",
        "coordinates": {
            "latitude": 24.3997325,
            "longitude": 88.24266899999999
        }
    },
    {
        "name": "Natungram Kokilpara jaame Mosque ntungraam kokilpaadd'aa jummaa msjid",
        "main_category": "Mosque",
        "address": "Natungram Kokilpara jaame Mosque ntungraam kokilpaadd'aa jummaa msjid, 201, Natungram Rd, Lalgola, Bansgara, West Bengal 742148",
        "detailed_address": {
            "ward": null,
            "street": "201, Natungram Rd",
            "city": "Lalgola, Bansgara",
            "postal_code": "742148",
            "state": "West Bengal",
            "country_code": "IN"
        },
        "images": [
            {
                "about": "All",
                "link": "https://lh5.googleusercontent.com/p/AF1QipOSzGxyKu5conPLTdslj4BCRBo-LDqo1Hn9N4lN=w529-h298-k-no"
            }
        ],
        "link": "https://www.google.com/maps/place/Natungram+Kokilpara+jaame+Mosque+%E0%A6%A8%E0%A6%A4%E0%A7%81%E0%A6%A8%E0%A6%97%E0%A7%8D%E0%A6%B0%E0%A6%BE%E0%A6%AE+%E0%A6%95%E0%A7%8B%E0%A6%95%E0%A6%BF%E0%A6%B2%E0%A6%AA%E0%A6%BE%E0%A6%A1%E0%A6%BC%E0%A6%BE+%E0%A6%9C%E0%A7%81%E0%A6%AE%E0%A7%8D%E0%A6%AE%E0%A6%BE+%E0%A6%AE%E0%A6%B8%E0%A6%9C%E0%A6%BF%E0%A6%A6/data=!4m7!3m6!1s0x39fbcf7fd8933d7f:0xd2574dc270d43d40!8m2!3d24.413833!4d88.2717955!16s%2Fg%2F11qpkryw9j!19sChIJfz2T2H_P-zkRQD3UcMJNV9I?authuser=0&hl=en&rclk=1",
        "coordinates": {
            "latitude": 24.413833,
            "longitude": 88.2717955
        }
    },
    {
        "name": "raamngr msjid Ramnagar Masjid",
        "main_category": "Mosque",
        "address": "C6QQ+2G8 raamngr msjid Ramnagar Masjid, near Ramnagar Bijlee Songho Club, Lalgola, West Bengal 742148",
        "detailed_address": {
            "ward": null,
            "street": "C6QQ+2G8, near Ramnagar Bijlee Songho Club",
            "city": "Lalgola",
            "postal_code": "742148",
            "state": "West Bengal",
            "country_code": "IN"
        },
        "images": [],
        "link": "https://www.google.com/maps/place/%E0%A6%B0%E0%A6%BE%E0%A6%AE%E0%A6%A8%E0%A6%97%E0%A6%B0+%E0%A6%AE%E0%A6%B8%E0%A6%9C%E0%A6%BF%E0%A6%A6+Ramnagar+Masjid/data=!4m7!3m6!1s0x39fbcbb896cbf94b:0x98dcb88447942df9!8m2!3d24.4375743!4d88.2388015!16s%2Fg%2F11l5rlmmj1!19sChIJS_nLlrjL-zkR-S2UR4S43Jg?authuser=0&hl=en&rclk=1",
        "coordinates": {
            "latitude": 24.437574299999998,
            "longitude": 88.2388015
        }
    },
    {
        "name": "Kanapara Jummah Masjid",
        "main_category": "Mosque",
        "address": "C724+872 Kanapara Jummah Masjid, Krishnapur, West Bengal 742148",
        "detailed_address": {
            "ward": null,
            "street": "C724+872",
            "city": "Krishnapur",
            "postal_code": "742148",
            "state": "West Bengal",
            "country_code": "IN"
        },
        "images": [
            {
                "about": "All",
                "link": "https://lh5.googleusercontent.com/p/AF1QipN-fU433IpCRET-4qLW-PcQTCrK2Z_AujM5I1FO=w661-h298-k-no"
            },
            {
                "about": "Dome",
                "link": "https://lh5.googleusercontent.com/p/AF1QipPlGd1ymwp_N5l8tke3gl7Ygn8XY09wU6-_ptfU=w224-h497-k-no"
            },
            {
                "about": "Videos",
                "link": "https://lh5.googleusercontent.com/p/AF1QipM4eu_sCqj84qBVvUbJ-aNW3gH8be9BD1nJMcDb=w529-h298-k-no"
            }
        ],
        "link": "https://www.google.com/maps/place/Kanapara+Jummah+Masjid/data=!4m7!3m6!1s0x39fbcf45275319c7:0x4df5b75d85257121!8m2!3d24.40076!4d88.255625!16s%2Fg%2F11rfbl8tnl!19sChIJxxlTJ0XP-zkRIXElhV239U0?authuser=0&hl=en&rclk=1",
        "coordinates": {
            "latitude": 24.40076,
            "longitude": 88.255625
        }
    },
    {
        "name": "NamuJhawbona 1No Jumma Masjid",
        "main_category": "Mosque",
        "address": "97VC+P55 NamuJhawbona 1No Jumma Masjid, Unnamed Road, Lalgola, Ramchandrapur, West Bengal 742148",
        "detailed_address": {
            "ward": null,
            "street": "97VC+P55, Unnamed Road",
            "city": "Lalgola, Ramchandrapur",
            "postal_code": "742148",
            "state": "West Bengal",
            "country_code": "IN"
        },
        "images": [
            {
                "about": "All",
                "link": "https://lh5.googleusercontent.com/p/AF1QipNPmdXwdp9lU-YtUthj4zgRLbTiRQDvtlVVsboS=w529-h298-k-no"
            }
        ],
        "link": "https://www.google.com/maps/place/NamuJhawbona+1No+Jumma+Masjid/data=!4m7!3m6!1s0x39fbcf6dd772affd:0xc7734e48aa778020!8m2!3d24.3942619!4d88.2704969!16s%2Fg%2F11lq4n5qvr!19sChIJ_a9y123P-zkRIIB3qkhOc8c?authuser=0&hl=en&rclk=1",
        "coordinates": {
            "latitude": 24.3942619,
            "longitude": 88.2704969
        }
    },
    {
        "name": "NOTUNGRAM JUMMA MASJID",
        "main_category": "Mosque",
        "address": "C78C+2HP NOTUNGRAM JUMMA MASJID, Natungram Rd, ashariadaha, Lalgola, West Bengal 742148",
        "detailed_address": {
            "ward": "ashariadaha",
            "street": "C78C+2HP, Natungram Rd",
            "city": "Lalgola",
            "postal_code": "742148",
            "state": "West Bengal",
            "country_code": "IN"
        },
        "images": [],
        "link": "https://www.google.com/maps/place/NOTUNGRAM+JUMMA+MASJID/data=!4m7!3m6!1s0x39fbcf5cd821f373:0x2b1831e9c5053d17!8m2!3d24.415077!4d88.271441!16s%2Fg%2F11hjk4vw95!19sChIJc_Mh2FzP-zkRFz0FxekxGCs?authuser=0&hl=en&rclk=1",
        "coordinates": {
            "latitude": 24.415077,
            "longitude": 88.271441
        }
    },
    {
        "name": "Lalgola Guripara Mosque",
        "main_category": "Mosque",
        "address": "C7C4+3Q7 Lalgola Guripara Mosque, Lalgola, Krishnapur, West Bengal 742148",
        "detailed_address": {
            "ward": "Lalgola",
            "street": "C7C4+3Q7",
            "city": "Lalgola, Krishnapur",
            "postal_code": "742148",
            "state": "West Bengal",
            "country_code": "IN"
        },
        "images": [],
        "link": "https://www.google.com/maps/place/Lalgola+Guripara+Mosque/data=!4m7!3m6!1s0x39fbc97b1cc923c1:0xe55a439c7874af3!8m2!3d24.419386!4d88.256906!16s%2Fg%2F11tgbd3qwl!19sChIJwSPJHHvJ-zkR80qHxzmkVQ4?authuser=0&hl=en&rclk=1",
        "coordinates": {
            "latitude": 24.419386,
            "longitude": 88.256906
        }
    },
    {
        "name": "jotkhaamaar id gaah",
        "main_category": "Mosque",
        "address": "C6JX+JH9 jotkhaamaar id gaah, Lalgola, West Bengal 742148",
        "detailed_address": {
            "ward": null,
            "street": "C6JX+JH9",
            "city": "Lalgola",
            "postal_code": "742148",
            "state": "West Bengal",
            "country_code": "IN"
        },
        "images": [],
        "link": "https://www.google.com/maps/place/%E0%A6%9C%E0%A7%8B%E0%A6%A4%E0%A6%96%E0%A6%BE%E0%A6%AE%E0%A6%BE%E0%A6%B0+%E0%A6%87%E0%A6%A6+%E0%A6%97%E0%A6%BE%E0%A6%B9/data=!4m7!3m6!1s0x39fbc923b653064b:0x3864f77eeb6ed82e!8m2!3d24.4314595!4d88.2489894!16s%2Fg%2F11q4gfvp0g!19sChIJSwZTtiPJ-zkRLthu6373ZDg?authuser=0&hl=en&rclk=1",
        "coordinates": {
            "latitude": 24.4314595,
            "longitude": 88.2489894
        }
    },
    {
        "name": "Boss",
        "main_category": "Mosque",
        "address": "Boss, msjid, Ganeshpur jumma masjid gneshpur jummaa, Lalgola, West Bengal",
        "detailed_address": {
            "ward": null,
            "street": "msjid, Ganeshpur jumma masjid gneshpur jummaa",
            "city": "Lalgola",
            "postal_code": null,
            "state": "West Bengal",
            "country_code": "IN"
        },
        "images": [],
        "link": "https://www.google.com/maps/place/Boss/data=!4m7!3m6!1s0x39fbcde54db2def7:0x6dc46d053e37e15a!8m2!3d24.3995943!4d88.2429098!16s%2Fg%2F11nwxzq97p!19sChIJ996yTeXN-zkRWuE3PgVtxG0?authuser=0&hl=en&rclk=1",
        "coordinates": {
            "latitude": 24.3995943,
            "longitude": 88.24290979999999
        }
    }
]