[
    {
        "name": "Small Masjid (Muhaideen Aandavar Masjid)",
        "main_category": "Mosque",
        "address": "FG26+HW3 Small Masjid (Muhaideen Aandavar Masjid), Gandhi Rd, Angalamman Kovil, Palani, Tamil Nadu 624601",
        "detailed_address": {
            "ward": "Angalamman Kovil",
            "street": "FG26+HW3, Gandhi Rd",
            "city": "Palani",
            "postal_code": "624601",
            "state": "Tamil Nadu",
            "country_code": "IN"
        },
        "images": [
            {
                "about": "All",
                "link": "https://lh5.googleusercontent.com/p/AF1QipPaAkszb3zpJyew9Vj5rslpLVS8dVj2InwMMQy4=w224-h398-k-no"
            }
        ],
        "link": "https://www.google.com/maps/place/Small+Masjid+%28Muhaideen+Aandavar+Masjid%29/data=!4m7!3m6!1s0x3ba9de8672841fdd:0x3b2bce155f2ba047!8m2!3d10.4513873!4d77.5123054!16s%2Fg%2F11c75y3zpj!19sChIJ3R-EcobeqTsRR6ArXxXOKzs?authuser=0&hl=en&rclk=1",
        "coordinates": {
            "latitude": 10.4513873,
            "longitude": 77.5123054
        }
    },
    {
        "name": "Alfalah Masjid Small mosque",
        "main_category": "Mosque",
        "address": "FG25+4MX Alfalah Masjid Small mosque, Madheena Nagar, Angalamman Kovil, Palani, Tamil Nadu 624601",
        "detailed_address": {
            "ward": "Madheena Nagar, Angalamman Kovil",
            "street": "FG25+4MX",
            "city": "Palani",
            "postal_code": null,
            "state": "Tamil Nadu",
            "country_code": "IN"
        },
        "images": [],
        "link": "https://www.google.com/maps/place/Alfalah+Masjid+Small+mosque/data=!4m7!3m6!1s0x3ba9de8f5c9af0cb:0xe8a8441c4ca634e9!8m2!3d10.4503611!4d77.5092312!16s%2Fg%2F11b6hjy65h!19sChIJy_CaXI_eqTsR6TSmTBxEqOg?authuser=0&hl=en&rclk=1",
        "coordinates": {
            "latitude": 10.4503611,
            "longitude": 77.5092312
        }
    },
    {
        "name": "Masjith Elaahe",
        "main_category": "Mosque",
        "address": "FG2F+4MG Masjith Elaahe, Laxmipuram, Palani, Tamil Nadu 624601",
        "detailed_address": {
            "ward": "Laxmipuram",
            "street": "FG2F+4MG",
            "city": "Palani",
            "postal_code": "624601",
            "state": "Tamil Nadu",
            "country_code": "IN"
        },
        "images": [
            {
                "about": "All",
                "link": "https://lh5.googleusercontent.com/p/AF1QipPg9XpAJQXSWEzymCjNN-KVIkj8-WnvrdV-mh5r=w224-h398-k-no"
            }
        ],
        "link": "https://www.google.com/maps/place/Masjith+Elaahe/data=!4m7!3m6!1s0x3ba9dfe1772d3c9b:0x63c138220b222911!8m2!3d10.4503077!4d77.5241883!16s%2Fg%2F11f61z8d80!19sChIJmzwtd-HfqTsRESkiCyI4wWM?authuser=0&hl=en&rclk=1",
        "coordinates": {
            "latitude": 10.4503077,
            "longitude": 77.52418829999999
        }
    },
    {
        "name": "Masjidur Rahman JAQH MARKAZ",
        "main_category": "Mosque",
        "address": "Masjidur Rahman JAQH MARKAZ, 49, Cheran street, Madheena Nagar, Angalamman Kovil, Palani, Tamil Nadu 624601",
        "detailed_address": {
            "ward": "Madheena Nagar, Angalamman Kovil",
            "street": "49, Cheran street",
            "city": "Palani",
            "postal_code": "624601",
            "state": "Tamil Nadu",
            "country_code": "IN"
        },
        "images": [
            {
                "about": "All",
                "link": "https://lh5.googleusercontent.com/p/AF1QipN_tIm4Fmq-b4fNboc0Qx0p6b1lyUSObLvbtZkW=w529-h298-k-no"
            }
        ],
        "link": "https://www.google.com/maps/place/Masjidur+Rahman+JAQH+MARKAZ/data=!4m7!3m6!1s0x3ba9de85f9eeec09:0x1b07b5df2725b172!8m2!3d10.4512227!4d77.5097653!16s%2Fg%2F11c1qysf30!19sChIJCezu-YXeqTsRcrElJ9-1Bxs?authuser=0&hl=en&rclk=1",
        "coordinates": {
            "latitude": 10.451222699999999,
            "longitude": 77.5097653
        }
    },
    {
        "name": "Kabarsthan Masjid Pallivasal",
        "main_category": "Mosque",
        "address": "FG55+X7H Kabarsthan Masjid Pallivasal, Vinayakar Kovil, Palani, Tamil Nadu 624601",
        "detailed_address": {
            "ward": "Vinayakar Kovil",
            "street": "FG55+X7H",
            "city": "Palani",
            "postal_code": "624601",
            "state": "Tamil Nadu",
            "country_code": "IN"
        },
        "images": [
            {
                "about": "All",
                "link": "https://lh5.googleusercontent.com/p/AF1QipNfmcoJmaYsnpetiYArh7OhzyJ-qHW8lnXQSHo6=w224-h298-k-no"
            },
            {
                "about": "Latest",
                "link": "https://lh5.googleusercontent.com/p/AF1QipNVjv0Hck7OrBJVWdIjqNogJ1gPDEZh2DHeSXkt=w529-h298-k-no"
            }
        ],
        "link": "https://www.google.com/maps/place/Kabarsthan+Masjid+Pallivasal/data=!4m7!3m6!1s0x3ba9df9e51239363:0x28cec5f74c990a00!8m2!3d10.4599379!4d77.5082412!16s%2Fg%2F11f6nkmvhb!19sChIJY5MjUZ7fqTsRAAqZTPfFzig?authuser=0&hl=en&rclk=1",
        "coordinates": {
            "latitude": 10.4599379,
            "longitude": 77.5082412
        }
    },
    {
        "name": "plllnnni cunnnnnnt jmaaat periypllllivaacl",
        "main_category": "Mosque",
        "address": "FG35+52Q plllnnni cunnnnnnt jmaaat periypllllivaacl, Angalamman Kovil, Palani, Tamil Nadu 624601",
        "detailed_address": {
            "ward": "Angalamman Kovil",
            "street": "FG35+52Q",
            "city": "Palani",
            "postal_code": "624601",
            "state": "Tamil Nadu",
            "country_code": "IN"
        },
        "images": [
            {
                "about": "All",
                "link": "https://lh5.googleusercontent.com/p/AF1QipO3bZ_sHhOBap4bUlOv0PqFvq26OCVDL6t8bqrz=w298-h298-k-no"
            },
            {
                "about": "Videos",
                "link": "https://lh5.googleusercontent.com/p/AF1QipPXRDyTAnmAUyJd0nsZaU4oHNksFpkpozbxrym0=w525-h298-k-no"
            }
        ],
        "link": "https://www.google.com/maps/place/%E0%AE%AA%E0%AE%B4%E0%AE%A9%E0%AE%BF+%E0%AE%9A%E0%AF%81%E0%AE%A9%E0%AF%8D%E0%AE%A9%E0%AE%A4%E0%AF%8D+%E0%AE%9C%E0%AE%AE%E0%AE%BE%E0%AE%85%E0%AE%A4%E0%AF%8D+%E0%AE%AA%E0%AF%86%E0%AE%B0%E0%AE%BF%E0%AE%AF%E0%AE%AA%E0%AE%B3%E0%AF%8D%E0%AE%B3%E0%AE%BF%E0%AE%B5%E0%AE%BE%E0%AE%9A%E0%AE%B2%E0%AF%8D/data=!4m7!3m6!1s0x3ba9df982ec9ef0f:0x31f90eee7ed55fd9!8m2!3d10.4527794!4d77.5075571!16s%2Fg%2F11ptzvqpth!19sChIJD-_JLpjfqTsR2V_Vfu4O-TE?authuser=0&hl=en&rclk=1",
        "coordinates": {
            "latitude": 10.452779399999999,
            "longitude": 77.5075571
        }
    },
    {
        "name": "Almatharasuthur Rahamaniaya & Jumma Masjid",
        "main_category": "Mosque",
        "address": "Almatharasuthur Rahamaniaya & Jumma Masjid, 624601, Railway Station Back Side Rd, Pandian Nagar, Palani, Tamil Nadu 624601",
        "detailed_address": {
            "ward": "Pandian Nagar",
            "street": "624601, Railway Station Back Side Rd",
            "city": "Palani",
            "postal_code": "624601",
            "state": "Tamil Nadu",
            "country_code": "IN"
        },
        "images": [
            {
                "about": "All",
                "link": "https://lh5.googleusercontent.com/p/AF1QipN50KuODVHURLZjPh4CGRCSSiKITZOypCPxE8vW=w224-h298-k-no"
            }
        ],
        "link": "https://www.google.com/maps/place/Almatharasuthur+Rahamaniaya+%26+Jumma+Masjid/data=!4m7!3m6!1s0x3ba9df92a27114bf:0x40f4551802308786!8m2!3d10.4598399!4d77.524218!16s%2Fg%2F11h1dflw8v!19sChIJvxRxopLfqTsRhocwAhhV9EA?authuser=0&hl=en&rclk=1",
        "coordinates": {
            "latitude": 10.4598399,
            "longitude": 77.52421799999999
        }
    },
    {
        "name": "TNTJ PALANI Masjith thowheed",
        "main_category": "Mosque",
        "address": "TNTJ PALANI Masjith thowheed, Bus Stand, Road, Adivaram, South Anna Nagar, Palani, Tamil Nadu 624601",
        "detailed_address": {
            "ward": "Adivaram, South Anna Nagar",
            "street": "Bus Stand, Road",
            "city": "Palani",
            "postal_code": "624601",
            "state": "Tamil Nadu",
            "country_code": "IN"
        },
        "images": [
            {
                "about": "All",
                "link": "https://lh5.googleusercontent.com/p/AF1QipOYTXDLeg7jtomc7FOodKQvG0ahYN7-bJj0u1bZ=w613-h298-k-no"
            }
        ],
        "link": "https://www.google.com/maps/place/TNTJ+PALANI+Masjith+thowheed/data=!4m7!3m6!1s0x3ba9df20c0548ef9:0x670ab43d25ab74b7!8m2!3d10.452839!4d77.5089996!16s%2Fg%2F11qpy17vzq!19sChIJ-Y5UwCDfqTsRt3SrJT20Cmc?authuser=0&hl=en&rclk=1",
        "coordinates": {
            "latitude": 10.452838999999999,
            "longitude": 77.5089996
        }
    },
    {
        "name": "Hazrat Sengakattu Avuliya Dargah",
        "main_category": "Mosque",
        "address": "FG25+F9H Hazrat Sengakattu Avuliya Dargah, Angalamman Kovil, Palani, Tamil Nadu 624601",
        "detailed_address": {
            "ward": "Angalamman Kovil",
            "street": "FG25+F9H",
            "city": "Palani",
            "postal_code": "624601",
            "state": "Tamil Nadu",
            "country_code": "IN"
        },
        "images": [
            {
                "about": "All",
                "link": "https://lh5.googleusercontent.com/p/AF1QipNx25VAjZcz7yYdnpoiCueBWukSNPFEhZigTMlK=w326-h298-k-no"
            }
        ],
        "link": "https://www.google.com/maps/place/Hazrat+Sengakattu+Avuliya+Dargah/data=!4m7!3m6!1s0x3ba9df222d390401:0xbae07d607c552c74!8m2!3d10.4511992!4d77.5084713!16s%2Fg%2F11hzpcmgmr!19sChIJAQQ5LSLfqTsRdCxVfGB94Lo?authuser=0&hl=en&rclk=1",
        "coordinates": {
            "latitude": 10.4511992,
            "longitude": 77.5084713
        }
    },
    {
        "name": "Hazrat Madhan Sayubu Valiyullah Dargah",
        "main_category": "Mosque",
        "address": "FG25+99P Hazrat Madhan Sayubu Valiyullah Dargah, Angalamman Kovil, Palani, Tamil Nadu 624601",
        "detailed_address": {
            "ward": "Angalamman Kovil",
            "street": "FG25+99P",
            "city": "Palani",
            "postal_code": "624601",
            "state": "Tamil Nadu",
            "country_code": "IN"
        },
        "images": [
            {
                "about": "All",
                "link": "https://lh5.googleusercontent.com/p/AF1QipOn3I8DfE82_99tit1on84K1Ny88eHkEwhkHTqR=w397-h298-k-no"
            }
        ],
        "link": "https://www.google.com/maps/place/Hazrat+Madhan+Sayubu+Valiyullah+Dargah/data=!4m7!3m6!1s0x3ba9df80fb66779d:0xf414c7234a779e57!8m2!3d10.4509606!4d77.5084464!16s%2Fg%2F11lsz6ywkl!19sChIJnXdm-4DfqTsRV553SiPHFPQ?authuser=0&hl=en&rclk=1",
        "coordinates": {
            "latitude": 10.4509606,
            "longitude": 77.5084464
        }
    },
    {
        "name": "Palani Periya Pallivaasal",
        "main_category": "Mosque",
        "address": "FG34+4XJ Palani Periya Pallivaasal, Angalamman Kovil, Palani, Tamil Nadu 624601",
        "detailed_address": {
            "ward": "Angalamman Kovil",
            "street": "FG34+4XJ",
            "city": "Palani",
            "postal_code": "624601",
            "state": "Tamil Nadu",
            "country_code": "IN"
        },
        "images": [],
        "link": "https://www.google.com/maps/place/Palani+Periya+Pallivaasal/data=!4m7!3m6!1s0x3ba9de85083fffff:0x72db962b6aa3715a!8m2!3d10.4528431!4d77.5073878!16s%2Fg%2F11sscs84qg!19sChIJ__8_CIXeqTsRWnGjaiuW23I?authuser=0&hl=en&rclk=1",
        "coordinates": {
            "latitude": 10.452843099999999,
            "longitude": 77.50738779999999
        }
    }
]