[
    {
        "name": "Noori Masjid",
        "main_category": "Mosque",
        "address": "G542+HH7 Noori Masjid, Noori Nagar, Puranpur, Uttar Pradesh 262122",
        "detailed_address": {
            "ward": "Noori Nagar",
            "street": "G542+HH7",
            "city": "Puranpur",
            "postal_code": "262122",
            "state": "Uttar Pradesh",
            "country_code": "IN"
        },
        "images": [
            {
                "about": "All",
                "link": "https://lh5.googleusercontent.com/p/AF1QipOC4BwNny07JFx1eqnKHx3s50kS2XRiUmUx_Krz=w224-h298-k-no"
            },
            {
                "about": "Videos",
                "link": "https://lh5.googleusercontent.com/p/AF1QipM1eZiD8OeVgoJ0kP5zUZ_zgr5lb7HhSpGTkdOc=w224-h398-k-no"
            }
        ],
        "link": "https://www.google.com/maps/place/Noori+Masjid/data=!4m7!3m6!1s0x39a1cde44f35278f:0xf8cb3466cfe9e161!8m2!3d28.5064133!4d80.1514317!16s%2Fg%2F11f5v8fblb!19sChIJjyc1T-TNoTkRYeHpz2Y0y_g?authuser=0&hl=en&rclk=1",
        "coordinates": {
            "latitude": 28.5064133,
            "longitude": 80.1514317
        }
    },
    {
        "name": "Noori Masjid Dhaka J. Puranpur",
        "main_category": "Mosque",
        "address": "Noori Masjid Dhaka J. Puranpur, noori masjid dhaka, Puranpur Khas Rural, Uttar Pradesh 262122",
        "detailed_address": {
            "ward": null,
            "street": "noori masjid dhaka",
            "city": "Puranpur Khas Rural",
            "postal_code": "262122",
            "state": "Uttar Pradesh",
            "country_code": "IN"
        },
        "images": [
            {
                "about": "All",
                "link": "https://lh5.googleusercontent.com/p/AF1QipMaftjo9jKelamV1-mrHeTP2urQ2yk48b-JMjm4=w224-h298-k-no"
            },
            {
                "about": "Videos",
                "link": "https://lh5.googleusercontent.com/p/AF1QipP-IJmUh2qsUschRVLd9LjMzKmYt2TDN86CG17m=w224-h398-k-no"
            }
        ],
        "link": "https://www.google.com/maps/place/Noori+Masjid+Dhaka+J.+Puranpur/data=!4m7!3m6!1s0x39a1cd8972d5a533:0x9bacef3ab6671593!8m2!3d28.5054276!4d80.1581507!16s%2Fg%2F11gf1xwkrk!19sChIJM6XVconNoTkRkxVntjrvrJs?authuser=0&hl=en&rclk=1",
        "coordinates": {
            "latitude": 28.505427599999997,
            "longitude": 80.1581507
        }
    },
    {
        "name": "Sunni Masjid",
        "main_category": "Religious destination",
        "address": "H9C8+JVC Sunni Masjid, Arjunpur Rd, Puranpur, Prem Nagar, Uttar Pradesh 271208",
        "detailed_address": {
            "ward": null,
            "street": "H9C8+JVC, Arjunpur Rd",
            "city": "Puranpur, Prem Nagar",
            "postal_code": "271208",
            "state": "Uttar Pradesh",
            "country_code": "IN"
        },
        "images": [
            {
                "about": "All",
                "link": "https://lh5.googleusercontent.com/p/AF1QipO6Jk5dNQqOwtroeqduiGSwBoO1ayWsNt_kpTkO=w224-h298-k-no"
            },
            {
                "about": "Videos",
                "link": "https://lh5.googleusercontent.com/p/AF1QipMJDW2_eUtZJqFqAk7tJKR7BczsyFGKOhXmVGDd=w224-h403-k-no"
            }
        ],
        "link": "https://www.google.com/maps/place/Sunni+Masjid/data=!4m7!3m6!1s0x39977a8b2a800d25:0x208a20eab9512f15!8m2!3d27.5715531!4d82.3671382!16s%2Fg%2F11f2wcr3g6!19sChIJJQ2AKot6lzkRFS9RueogiiA?authuser=0&hl=en&rclk=1",
        "coordinates": {
            "latitude": 27.5715531,
            "longitude": 82.3671382
        }
    },
    {
        "name": "Masjid Puranpur",
        "main_category": "Mosque",
        "address": "VX4V+5Q3 Masjid Puranpur, Puranpur Pathkhan, Uttar Pradesh 230001",
        "detailed_address": {
            "ward": null,
            "street": "VX4V+5Q3",
            "city": "Puranpur Pathkhan",
            "postal_code": null,
            "state": "Uttar Pradesh",
            "country_code": "IN"
        },
        "images": [
            {
                "about": "All",
                "link": "https://lh5.googleusercontent.com/p/AF1QipPC588yM6exFxBOrFi12ncNFC-kmcpBxVOcvXDr=w646-h298-k-no"
            }
        ],
        "link": "https://www.google.com/maps/place/Masjid+Puranpur/data=!4m7!3m6!1s0x399a971dfc8e9bcf:0x8454c3ed8925141f!8m2!3d25.8553789!4d81.9944171!16s%2Fg%2F11rhwg4tgm!19sChIJz5uO_B2XmjkRHxQlie3DVIQ?authuser=0&hl=en&rclk=1",
        "coordinates": {
            "latitude": 25.855378899999998,
            "longitude": 81.99441709999999
        }
    },
    {
        "name": "Mecca Masjid near altamas Khan puranpur Patkhan Pratapgarh",
        "main_category": "Mosque",
        "address": "VX5P+8J Mecca Masjid near altamas Khan puranpur Patkhan Pratapgarh, Puranpur Pathkhan, Uttar Pradesh 230001",
        "detailed_address": {
            "ward": null,
            "street": "VX5P+8J",
            "city": "Puranpur Pathkhan",
            "postal_code": "230001",
            "state": "Uttar Pradesh",
            "country_code": "IN"
        },
        "images": [],
        "link": "https://www.google.com/maps/place/Mecca+Masjid+near+altamas+Khan+puranpur+Patkhan+Pratapgarh/data=!4m7!3m6!1s0x399a97d8e0a404ab:0xc4117df7316ea853!8m2!3d25.8584334!4d81.9867172!16s%2Fg%2F11kqy3k_sw!19sChIJqwSk4NiXmjkRU6huMfd9EcQ?authuser=0&hl=en&rclk=1",
        "coordinates": {
            "latitude": 25.8584334,
            "longitude": 81.9867172
        }
    }
]