[
    {
        "name": "Masjid Vyapariyan Ahle-Hadish",
        "main_category": "Mosque",
        "address": "6W2Q+XCR Masjid Vyapariyan Ahle-Hadish, Jaitaran, Rajasthan 306302",
        "detailed_address": {
            "ward": null,
            "street": "6W2Q+XCR",
            "city": "Jaitaran",
            "postal_code": "306302",
            "state": "Rajasthan",
            "country_code": "IN"
        },
        "images": [
            {
                "about": "All",
                "link": "https://lh5.googleusercontent.com/p/AF1QipNS2mQktj9kiKw0OtL6lBGFTNBz2S7RmDIVWz4=w224-h497-k-no"
            },
            {
                "about": "Dome",
                "link": "https://lh5.googleusercontent.com/p/AF1QipNwb-zvuU9f79LLqTXmmQDDd5Hl5sGbdCTdkdou=w446-h298-k-no"
            },
            {
                "about": "Street View & 360deg",
                "link": "https://streetviewpixels-pa.googleapis.com/v1/thumbnail?panoid=nBBN3fvX7xz20SJiXJvtgw&cb_client=maps_sv.tactile.gps&w=224&h=298&yaw=146.0689&pitch=0&thumbfov=100"
            }
        ],
        "link": "https://www.google.com/maps/place/Masjid+Vyapariyan+Ahle-Hadish/data=!4m7!3m6!1s0x3969897d0405706b:0x1bc2c0a59645660b!8m2!3d26.2024984!4d73.9385161!16s%2Fg%2F11bwmvdl_b!19sChIJa3AFBH2JaTkRC2ZFlqXAwhs?authuser=0&hl=en&rclk=1",
        "coordinates": {
            "latitude": 26.2024984,
            "longitude": 73.9385161
        }
    },
    {
        "name": "Jama Masjid (Shipahiyo Ka Bada Bas)",
        "main_category": "Mosque",
        "address": "6W2P+W66 Jama Masjid (Shipahiyo Ka Bada Bas), Shipahiyo ka bada bas, Jaitaran, Rajasthan 306302",
        "detailed_address": {
            "ward": "Sikho Ka Mohalla",
            "street": "6W2P+W66, Shipahiyo ka bada bas",
            "city": "Jaitaran",
            "postal_code": "306302",
            "state": "Rajasthan",
            "country_code": "IN"
        },
        "images": [
            {
                "about": "All",
                "link": "https://lh5.googleusercontent.com/p/AF1QipM09rvAtSakcF_SpAz1OT2zNcVXnUPD8AvnGw7J=w224-h365-k-no"
            },
            {
                "about": "Dome",
                "link": "https://lh5.googleusercontent.com/p/AF1QipM09rvAtSakcF_SpAz1OT2zNcVXnUPD8AvnGw7J=w224-h365-k-no"
            }
        ],
        "link": "https://www.google.com/maps/place/Jama+Masjid+%28Shipahiyo+Ka+Bada+Bas%29/data=!4m7!3m6!1s0x39698b4a22bea50f:0x7d4bbe83100b4e2c!8m2!3d26.2022874!4d73.9355069!16s%2Fg%2F11kmblyy_0!19sChIJD6W-IkqLaTkRLE4LEIO-S30?authuser=0&hl=en&rclk=1",
        "coordinates": {
            "latitude": 26.2022874,
            "longitude": 73.9355069
        }
    },
    {
        "name": "Majid",
        "main_category": "Mosque",
        "address": "6W3Q+JGH Majid, Jaitaran, Rajasthan 306302",
        "detailed_address": {
            "ward": null,
            "street": "6W3Q+JGH",
            "city": "Jaitaran",
            "postal_code": "306302",
            "state": "Rajasthan",
            "country_code": "IN"
        },
        "images": [],
        "link": "https://www.google.com/maps/place/Majid/data=!4m7!3m6!1s0x396989af5ee05473:0x303a570d77c66d9d!8m2!3d26.2040623!4d73.9388706!16s%2Fg%2F11kml24q8r!19sChIJc1TgXq-JaTkRnW3Gdw1XOjA?authuser=0&hl=en&rclk=1",
        "coordinates": {
            "latitude": 26.2040623,
            "longitude": 73.9388706
        }
    },
    {
        "name": "Silawat masjid",
        "main_category": "Mosque",
        "address": "6W3M+XWQ Silawat masjid, Jaitaran, Rajasthan 306302",
        "detailed_address": {
            "ward": null,
            "street": "6W3M+XWQ",
            "city": "Jaitaran",
            "postal_code": "306302",
            "state": "Rajasthan",
            "country_code": "IN"
        },
        "images": [
            {
                "about": "All",
                "link": "https://lh5.googleusercontent.com/p/AF1QipNWHeOLEQjNvabaPusyX7d00lDTniccK343cR7V=w224-h398-k-no"
            }
        ],
        "link": "https://www.google.com/maps/place/Silawat+masjid/data=!4m7!3m6!1s0x39698b6d855770cb:0x7e07e8479ae00fbb!8m2!3d26.2049565!4d73.9348667!16s%2Fg%2F11frykjjyc!19sChIJy3BXhW2LaTkRuw_gmkfoB34?authuser=0&hl=en&rclk=1",
        "coordinates": {
            "latitude": 26.204956499999998,
            "longitude": 73.9348667
        }
    },
    {
        "name": "Makka masjid ahle hadis",
        "main_category": "Mosque",
        "address": "6W2R+W56 Makka masjid ahle hadis, Jaitaran, Rajasthan 306302",
        "detailed_address": {
            "ward": null,
            "street": "6W2R+W56",
            "city": "Jaitaran",
            "postal_code": "306302",
            "state": "Rajasthan",
            "country_code": "IN"
        },
        "images": [
            {
                "about": "All",
                "link": "https://lh5.googleusercontent.com/p/AF1QipOQfIPU9e6W1hcwhqZoMB4whI0dvaijJzpKochF=w397-h298-k-no"
            },
            {
                "about": "Street View & 360deg",
                "link": "https://streetviewpixels-pa.googleapis.com/v1/thumbnail?panoid=SouOTbmYVkNHItB72swtZg&cb_client=maps_sv.tactile.gps&w=224&h=298&yaw=70.65231&pitch=0&thumbfov=100"
            }
        ],
        "link": "https://www.google.com/maps/place/Makka+masjid+ahle+hadis/data=!4m7!3m6!1s0x396989663bd83f33:0xcbd536363a4557ef!8m2!3d26.2007495!4d73.9401964!16s%2Fg%2F11ss86sqyh!19sChIJMz_YO2aJaTkR71dFOjY21cs?authuser=0&hl=en&rclk=1",
        "coordinates": {
            "latitude": 26.2007495,
            "longitude": 73.94019639999999
        }
    },
    {
        "name": "Rahmaniya Masjid Ahle hadees",
        "main_category": "Mosque",
        "address": "6W3Q+R85 Rahmaniya Masjid Ahle hadees, Jaitaran, Rajasthan 306302",
        "detailed_address": {
            "ward": null,
            "street": "6W3Q+R85",
            "city": "Jaitaran",
            "postal_code": "306302",
            "state": "Rajasthan",
            "country_code": "IN"
        },
        "images": [],
        "link": "https://www.google.com/maps/place/Rahmaniya+Masjid+Ahle+hadees/data=!4m7!3m6!1s0x396989ab982a27cb:0x150f2a04b3042661!8m2!3d26.2045194!4d73.9383667!16s%2Fg%2F11q9m06n63!19sChIJyycqmKuJaTkRYSYEswQqDxU?authuser=0&hl=en&rclk=1",
        "coordinates": {
            "latitude": 26.2045194,
            "longitude": 73.9383667
        }
    },
    {
        "name": "Masjid Tauheed ahle hadis",
        "main_category": "Mosque",
        "address": "6W4W+F5Q Masjid Tauheed ahle hadis, Jaitaran, Rajasthan 306302",
        "detailed_address": {
            "ward": null,
            "street": "6W4W+F5Q",
            "city": "Jaitaran",
            "postal_code": "306302",
            "state": "Rajasthan",
            "country_code": "IN"
        },
        "images": [
            {
                "about": "All",
                "link": "https://streetviewpixels-pa.googleapis.com/v1/thumbnail?panoid=9VTzchZ2gszLAqVwsMrPHQ&cb_client=maps_sv.tactile.gps&w=224&h=298&yaw=316.3347&pitch=0&thumbfov=100"
            },
            {
                "about": "Street View & 360deg",
                "link": "https://streetviewpixels-pa.googleapis.com/v1/thumbnail?panoid=9VTzchZ2gszLAqVwsMrPHQ&cb_client=maps_sv.tactile.gps&w=224&h=298&yaw=316.3347&pitch=0&thumbfov=100"
            }
        ],
        "link": "https://www.google.com/maps/place/Masjid+Tauheed+ahle+hadis/data=!4m7!3m6!1s0x396989e50e47d195:0xce23202cea071436!8m2!3d26.2056926!4d73.94453!16s%2Fg%2F11ss8gn36q!19sChIJldFHDuWJaTkRNhQH6iwgI84?authuser=0&hl=en&rclk=1",
        "coordinates": {
            "latitude": 26.2056926,
            "longitude": 73.94453
        }
    },
    {
        "name": "iidgaah",
        "main_category": "Mosque",
        "address": "6W5R+575 iidgaah, Jaitaran, Rajasthan 306302",
        "detailed_address": {
            "ward": null,
            "street": "6W5R+575",
            "city": "Jaitaran",
            "postal_code": "306302",
            "state": "Rajasthan",
            "country_code": "IN"
        },
        "images": [
            {
                "about": "All",
                "link": "https://streetviewpixels-pa.googleapis.com/v1/thumbnail?panoid=JPJssMsJVNc0nIoSXmy4jw&cb_client=maps_sv.tactile.gps&w=224&h=298&yaw=290.57455&pitch=0&thumbfov=100"
            },
            {
                "about": "Street View & 360deg",
                "link": "https://streetviewpixels-pa.googleapis.com/v1/thumbnail?panoid=JPJssMsJVNc0nIoSXmy4jw&cb_client=maps_sv.tactile.gps&w=224&h=298&yaw=290.57455&pitch=0&thumbfov=100"
            }
        ],
        "link": "https://www.google.com/maps/place/%E0%A4%88%E0%A4%A6%E0%A4%97%E0%A4%BE%E0%A4%B9/data=!4m7!3m6!1s0x396989af67d72ac1:0x38f70ec1cacdbd47!8m2!3d26.2078862!4d73.940731!16s%2Fg%2F11kmn385gt!19sChIJwSrXZ6-JaTkRR73NysEO9zg?authuser=0&hl=en&rclk=1",
        "coordinates": {
            "latitude": 26.207886199999997,
            "longitude": 73.940731
        }
    },
    {
        "name": "Silawat masjid",
        "main_category": "Mosque",
        "address": "6W3J+W32 Silawat masjid, Silawato ka bas, Jaitaran, Rajasthan 306302",
        "detailed_address": {
            "ward": null,
            "street": "6W3J+W32, Silawato ka bas",
            "city": "Jaitaran",
            "postal_code": "306302",
            "state": "Rajasthan",
            "country_code": "IN"
        },
        "images": [
            {
                "about": "All",
                "link": "https://streetviewpixels-pa.googleapis.com/v1/thumbnail?panoid=FCzZx2uzt0Yj66zmRAWtoA&cb_client=maps_sv.tactile.gps&w=224&h=298&yaw=34.18678&pitch=0&thumbfov=100"
            },
            {
                "about": "Street View & 360deg",
                "link": "https://streetviewpixels-pa.googleapis.com/v1/thumbnail?panoid=FCzZx2uzt0Yj66zmRAWtoA&cb_client=maps_sv.tactile.gps&w=224&h=298&yaw=34.18678&pitch=0&thumbfov=100"
            }
        ],
        "link": "https://www.google.com/maps/place/Silawat+masjid/data=!4m7!3m6!1s0x39698bcb1cad08eb:0xbdb35583439a84d9!8m2!3d26.2047623!4d73.9301524!16s%2Fg%2F11j7rnjzpy!19sChIJ6witHMuLaTkR2YSaQ4NVs70?authuser=0&hl=en&rclk=1",
        "coordinates": {
            "latitude": 26.2047623,
            "longitude": 73.9301524
        }
    }
]