[
    {
        "name": "Masjid Alahazrat",
        "main_category": "Mosque",
        "address": "R342+CX5 Masjid Alahazrat, b block, JJ Colony, JJ Cluster Colony, Bawana, Delhi, 110039",
        "detailed_address": {
            "ward": "JJ Colony, JJ Cluster Colony, Bawana",
            "street": "R342+CX5, b block",
            "city": "Delhi",
            "postal_code": "110039",
            "state": "Delhi",
            "country_code": "IN"
        },
        "images": [
            {
                "about": "All",
                "link": "https://lh5.googleusercontent.com/p/AF1QipNimdKm-kwGw0LpmxzzLS5jwZ99A7IWJnZdY9wR=w224-h398-k-no"
            },
            {
                "about": "Street View & 360deg",
                "link": "https://streetviewpixels-pa.googleapis.com/v1/thumbnail?panoid=Sf7-G8dgipD86Tag9LnKQQ&cb_client=maps_sv.tactile.gps&w=224&h=298&yaw=235.08646&pitch=0&thumbfov=100"
            },
            {
                "about": "Videos",
                "link": "https://lh5.googleusercontent.com/p/AF1QipMWtYEvC8ApC8N2GL7A4LZyqG8eSg0iw3kypLbC=w224-h497-k-no"
            }
        ],
        "link": "https://www.google.com/maps/place/Masjid+Alahazrat/data=!4m7!3m6!1s0x390da833b9909e53:0x7267e7ff8986237f!8m2!3d28.8060016!4d77.0524872!16s%2Fg%2F11bc7f9t38!19sChIJU56QuTOoDTkRfyOGif_nZ3I?authuser=0&hl=en&rclk=1",
        "coordinates": {
            "latitude": 28.8060016,
            "longitude": 77.0524872
        }
    },
    {
        "name": "Masjid",
        "main_category": "Mosque",
        "address": "VWH4+PQM Masjid, Kharkhoda, Haryana 131402",
        "detailed_address": {
            "ward": null,
            "street": "VWH4+PQM",
            "city": "Kharkhoda",
            "postal_code": "131402",
            "state": "Haryana",
            "country_code": "IN"
        },
        "images": [
            {
                "about": "All",
                "link": "https://lh5.googleusercontent.com/p/AF1QipNY2mvMfZJFh4JdQvMvqwj_OGtOuNgaehxQw-fe=w397-h298-k-no"
            }
        ],
        "link": "https://www.google.com/maps/place/Masjid/data=!4m7!3m6!1s0x390da3faab966753:0xbee9dcc0d4ceae49!8m2!3d28.8793393!4d76.9069137!16s%2Fg%2F11f3jbb0k4!19sChIJU2eWq_qjDTkRSa7O1MDc6b4?authuser=0&hl=en&rclk=1",
        "coordinates": {
            "latitude": 28.879339299999998,
            "longitude": 76.90691369999999
        }
    },
    {
        "name": "Masjid.umar",
        "main_category": "Mosque",
        "address": "R333+VPQ Masjid.umar, Masjid umar, E-Block, JJ Cluster Colony, Bawana, Delhi, 110039",
        "detailed_address": {
            "ward": "JJ Colony, JJ Cluster Colony, Bawana",
            "street": "R333+VPQ, Masjid umar, E-Block",
            "city": "Delhi",
            "postal_code": "110039",
            "state": "Delhi",
            "country_code": "IN"
        },
        "images": [
            {
                "about": "All",
                "link": "https://streetviewpixels-pa.googleapis.com/v1/thumbnail?panoid=SVpqZSeVu8WZZauJB81Bxg&cb_client=maps_sv.tactile.gps&w=224&h=298&yaw=230.05588&pitch=0&thumbfov=100"
            },
            {
                "about": "Street View & 360deg",
                "link": "https://streetviewpixels-pa.googleapis.com/v1/thumbnail?panoid=SVpqZSeVu8WZZauJB81Bxg&cb_client=maps_sv.tactile.gps&w=224&h=298&yaw=230.05588&pitch=0&thumbfov=100"
            },
            {
                "about": "Videos",
                "link": "https://lh5.googleusercontent.com/p/AF1QipMR5nQ4_Xvwt_vZi6Up9VAZmXi9T7Fpn4wNgFnc=w224-h398-k-no"
            }
        ],
        "link": "https://www.google.com/maps/place/Masjid.umar/data=!4m7!3m6!1s0x390da95aa33376fb:0x3b55bc75011a7dc1!8m2!3d28.8047163!4d77.0543497!16s%2Fg%2F11lx5whpvq!19sChIJ-3Yzo1qpDTkRwX0aAXW8VTs?authuser=0&hl=en&rclk=1",
        "coordinates": {
            "latitude": 28.8047163,
            "longitude": 77.0543497
        }
    },
    {
        "name": "Masjid",
        "main_category": "Mosque",
        "address": "Masjid, I116, DSIIDC Industrial Area, Sector 5, Bawana, New Delhi, Delhi, 110039",
        "detailed_address": {
            "ward": "DSIIDC Industrial Area, Sector 5, Bawana",
            "street": "I116",
            "city": "New Delhi, Delhi",
            "postal_code": "110039",
            "state": "Delhi",
            "country_code": "IN"
        },
        "images": [],
        "link": "https://www.google.com/maps/place/Masjid/data=!4m7!3m6!1s0x390da9cb278fea55:0x351e1b7ec09414c4!8m2!3d28.8011996!4d77.0752247!16s%2Fg%2F11vd9vydsd!19sChIJVeqPJ8upDTkRxBSUwH4bHjU?authuser=0&hl=en&rclk=1",
        "coordinates": {
            "latitude": 28.8011996,
            "longitude": 77.07522469999999
        }
    },
    {
        "name": "Masjid",
        "main_category": "Mosque",
        "address": "RPMV+JG2 Masjid, Kharkhauda, Uttar Pradesh 245206",
        "detailed_address": {
            "ward": null,
            "street": "RPMV+JG2",
            "city": "Kharkhauda",
            "postal_code": "245206",
            "state": "Uttar Pradesh",
            "country_code": "IN"
        },
        "images": [
            {
                "about": "All",
                "link": "https://streetviewpixels-pa.googleapis.com/v1/thumbnail?panoid=SNuA2RQYvFA5cAwx2NHh0A&cb_client=maps_sv.tactile.gps&w=224&h=298&yaw=216.3486&pitch=0&thumbfov=100"
            },
            {
                "about": "Street View & 360deg",
                "link": "https://streetviewpixels-pa.googleapis.com/v1/thumbnail?panoid=SNuA2RQYvFA5cAwx2NHh0A&cb_client=maps_sv.tactile.gps&w=224&h=298&yaw=216.3486&pitch=0&thumbfov=100"
            }
        ],
        "link": "https://www.google.com/maps/place/Masjid/data=!4m7!3m6!1s0x390c893f7ebc0d7f:0x949b6f0ebf840232!8m2!3d28.8340156!4d77.7437691!16s%2Fg%2F11h_fs81m8!19sChIJfw28fj-JDDkRMgKEvw5vm5Q?authuser=0&hl=en&rclk=1",
        "coordinates": {
            "latitude": 28.834015599999997,
            "longitude": 77.7437691
        }
    }
]