[
    {
        "name": "Tipu Sultan Masjid",
        "main_category": "Mosque",
        "address": "X56P+F55 Tipu Sultan Masjid, Thirukovilur Bypass Rd, T.Keeranur, Tamil Nadu 605757",
        "detailed_address": {
            "ward": null,
            "street": "X56P+F55, Thirukovilur Bypass Rd",
            "city": "T.Keeranur",
            "postal_code": null,
            "state": "Tamil Nadu",
            "country_code": "IN"
        },
        "images": [
            {
                "about": "All",
                "link": "https://lh5.googleusercontent.com/p/AF1QipM6RUf7qH1Q_8XXYW8bQ3LRTJdaGjVxOR3h7go=w529-h298-k-no"
            }
        ],
        "link": "https://www.google.com/maps/place/Tipu+Sultan+Masjid/data=!4m7!3m6!1s0x3baca51584e287c3:0xbf6eab6975d60fb5!8m2!3d11.96114!4d79.185472!16s%2Fg%2F11str8sxjw!19sChIJw4fihBWlrDsRtQ_WdWmrbr8?authuser=0&hl=en&rclk=1",
        "coordinates": {
            "latitude": 11.96114,
            "longitude": 79.18547199999999
        }
    },
    {
        "name": "Markaz as-Sunnah Ahle Hadees Jamat",
        "main_category": "Mosque",
        "address": "X695+6F3 Markaz as-Sunnah Ahle Hadees Jamat, Thirukoilure, Tamil Nadu 605757",
        "detailed_address": {
            "ward": null,
            "street": "X695+6F3",
            "city": "Thirukoilure",
            "postal_code": "605757",
            "state": "Tamil Nadu",
            "country_code": "IN"
        },
        "images": [
            {
                "about": "All",
                "link": "https://lh5.googleusercontent.com/p/AF1QipMf5CNBtKHTt9I012M82QbIUHfvB6pRXYtqDEQI=w529-h298-k-no"
            }
        ],
        "link": "https://www.google.com/maps/place/Markaz+as-Sunnah+Ahle+Hadees+Jamat/data=!4m7!3m6!1s0x3bacafa1b31a6273:0x4178a13f3c880393!8m2!3d11.9680003!4d79.2086627!16s%2Fg%2F11f8zs2zfg!19sChIJc2Ias6GvrDsRkwOIPD-heEE?authuser=0&hl=en&rclk=1",
        "coordinates": {
            "latitude": 11.9680003,
            "longitude": 79.20866269999999
        }
    },
    {
        "name": "Tirukkoilur Jummah Masjid",
        "main_category": "Mosque",
        "address": "X682+7PP Tirukkoilur Jummah Masjid, SH 137, Thirukoilure, Tamil Nadu 605757",
        "detailed_address": {
            "ward": null,
            "street": "X682+7PP, SH 137",
            "city": "Thirukoilure",
            "postal_code": "605757",
            "state": "Tamil Nadu",
            "country_code": "IN"
        },
        "images": [],
        "link": "https://www.google.com/maps/place/Tirukkoilur+Jummah+Masjid/data=!4m7!3m6!1s0x3bacaf579ff4d789:0x30cee08a3a09cf24!8m2!3d11.9657083!4d79.2018207!16s%2Fg%2F1vgw720g!19sChIJidf0n1evrDsRJM8JOorgzjA?authuser=0&hl=en&rclk=1",
        "coordinates": {
            "latitude": 11.9657083,
            "longitude": 79.2018207
        }
    }
]