[
    {
        "name": "Masjid-E-Jaleel",
        "main_category": "Mosque",
        "address": "H9MG+CJP Masjid-E-Jaleel, Akividu, Andhra Pradesh 534235",
        "detailed_address": {
            "ward": null,
            "street": "H9MG+CJP",
            "city": "Akividu",
            "postal_code": "534235",
            "state": "Andhra Pradesh",
            "country_code": "IN"
        },
        "images": [
            {
                "about": "All",
                "link": "https://lh5.googleusercontent.com/p/AF1QipODfQvmVPTyLsfxZDguzpiqgqjvOgfDRavD2CvV=w224-h366-k-no"
            }
        ],
        "link": "https://www.google.com/maps/place/Masjid-E-Jaleel/data=!4m7!3m6!1s0x3a363106024efb2d:0x6b54cf39fae227ca!8m2!3d16.5839386!4d81.3763386!16s%2Fg%2F11sx07hh3l!19sChIJLftOAgYxNjoRyifi-jnPVGs?authuser=0&hl=en&rclk=1",
        "coordinates": {
            "latitude": 16.5839386,
            "longitude": 81.3763386
        }
    },
    {
        "name": "ALAMGEER MASJID",
        "main_category": "Mosque",
        "address": "H9MH+2PH ALAMGEER MASJID, National Highway 214, Muslim Street, Akividu, Andhra Pradesh 534235",
        "detailed_address": {
            "ward": "Muslim Street",
            "street": "H9MH+2PH, National Highway 214",
            "city": "Akividu",
            "postal_code": "534235",
            "state": "Andhra Pradesh",
            "country_code": "IN"
        },
        "images": [
            {
                "about": "All",
                "link": "https://streetviewpixels-pa.googleapis.com/v1/thumbnail?panoid=7MSqEHqi2qdlKGdTIwxwKg&cb_client=maps_sv.tactile.gps&w=224&h=298&yaw=19.095793&pitch=0&thumbfov=100"
            },
            {
                "about": "Street View & 360deg",
                "link": "https://streetviewpixels-pa.googleapis.com/v1/thumbnail?panoid=7MSqEHqi2qdlKGdTIwxwKg&cb_client=maps_sv.tactile.gps&w=224&h=298&yaw=19.095793&pitch=0&thumbfov=100"
            }
        ],
        "link": "https://www.google.com/maps/place/ALAMGEER+MASJID/data=!4m7!3m6!1s0x3a36305233db8543:0x439d04eb86f743e3!8m2!3d16.5825511!4d81.3793561!16s%2Fg%2F124yhx6l5!19sChIJQ4XbM1IwNjoR40P3husEnUM?authuser=0&hl=en&rclk=1",
        "coordinates": {
            "latitude": 16.5825511,
            "longitude": 81.3793561
        }
    },
    {
        "name": "Small Mosque",
        "main_category": "Mosque",
        "address": "H9MH+8JR Small Mosque, Akividu, Andhra Pradesh 534235",
        "detailed_address": {
            "ward": null,
            "street": "H9MH+8JR",
            "city": "Akividu",
            "postal_code": "534235",
            "state": "Andhra Pradesh",
            "country_code": "IN"
        },
        "images": [
            {
                "about": "All",
                "link": "https://lh5.googleusercontent.com/p/AF1QipMfmfo52tLv1zPI9HSBsj2hEAhpwAXABuqpRcMd=w224-h398-k-no"
            }
        ],
        "link": "https://www.google.com/maps/place/Small+Mosque/data=!4m7!3m6!1s0x3a36305225bbe345:0xef9f8a8523a48db3!8m2!3d16.5833621!4d81.3790047!16s%2Fg%2F1vfn51r2!19sChIJReO7JVIwNjoRs42kI4WKn-8?authuser=0&hl=en&rclk=1",
        "coordinates": {
            "latitude": 16.5833621,
            "longitude": 81.3790047
        }
    },
    {
        "name": "Anwari Mosque",
        "main_category": "Mosque",
        "address": "H9J9+Q6J Anwari Mosque, Akividu, Andhra Pradesh 534235",
        "detailed_address": {
            "ward": null,
            "street": "H9J9+Q6J",
            "city": "Akividu",
            "postal_code": "534235",
            "state": "Andhra Pradesh",
            "country_code": "IN"
        },
        "images": [
            {
                "about": "All",
                "link": "https://lh5.googleusercontent.com/p/AF1QipPotv5-e68auUNmNGz_4AcY8A3UrXjY8r3Cl230=w529-h298-k-no"
            },
            {
                "about": "Street View & 360deg",
                "link": "https://streetviewpixels-pa.googleapis.com/v1/thumbnail?panoid=Yf8TCRPv531F-nkWmlOKOA&cb_client=maps_sv.tactile.gps&w=224&h=298&yaw=192.07329&pitch=0&thumbfov=100"
            }
        ],
        "link": "https://www.google.com/maps/place/Anwari+Mosque/data=!4m7!3m6!1s0x3a36305b7a38fae7:0xf4b1dfc938cca61a!8m2!3d16.5819666!4d81.3680103!16s%2Fg%2F11c5692x9v!19sChIJ5_o4elswNjoRGqbMOMnfsfQ?authuser=0&hl=en&rclk=1",
        "coordinates": {
            "latitude": 16.581966599999998,
            "longitude": 81.3680103
        }
    },
    {
        "name": "JAMIA MASJID",
        "main_category": "Custom home builder",
        "address": "H9MH+9J3 JAMIA MASJID, Akividu, Andhra Pradesh 534235",
        "detailed_address": {
            "ward": null,
            "street": "H9MH+9J3",
            "city": "Akividu",
            "postal_code": "534235",
            "state": "Andhra Pradesh",
            "country_code": "IN"
        },
        "images": [
            {
                "about": "All",
                "link": "https://lh5.googleusercontent.com/p/AF1QipOoz8xnNGXbbSQ2K1Mvi0fXvLvUKyPKAB8gYP0j=w224-h398-k-no"
            }
        ],
        "link": "https://www.google.com/maps/place/JAMIA+MASJID/data=!4m7!3m6!1s0x3a363053d1b5fbd3:0x5e427a1600e8e818!8m2!3d16.5833983!4d81.3790349!16s%2Fg%2F11hdb15gkx!19sChIJ0_u10VMwNjoRGOjoABZ6Ql4?authuser=0&hl=en&rclk=1",
        "coordinates": {
            "latitude": 16.5833983,
            "longitude": 81.3790349
        }
    }
]