[
    {
        "name": "Madina Masjid Noori Mohalla Kalamnuri",
        "main_category": "Mosque",
        "address": "M8F7+PWR Madina Masjid Noori Mohalla Kalamnuri, Kalamnuri, Maharashtra 431702",
        "detailed_address": {
            "ward": null,
            "street": "M8F7+PWR",
            "city": "Kalamnuri",
            "postal_code": "431702",
            "state": "Maharashtra",
            "country_code": "IN"
        },
        "images": [
            {
                "about": "All",
                "link": "https://lh5.googleusercontent.com/p/AF1QipMtUpHSZ58Wf2nmx1HuOR08Be5sW_5wwd49X2Gk=w397-h298-k-no"
            },
            {
                "about": "Videos",
                "link": "https://lh5.googleusercontent.com/p/AF1QipNPMt4vi4zEEshriq8eg8Q2VvsRiTA0TmYwrlyy=w224-h398-k-no"
            }
        ],
        "link": "https://www.google.com/maps/place/Madina+Masjid+Noori+Mohalla+Kalamnuri/data=!4m7!3m6!1s0x3bd1b1c35a6ac50b:0xbba38d14cd8962ad!8m2!3d19.6743602!4d77.3147597!16s%2Fg%2F11c5qpw6tf!19sChIJC8VqWsOx0TsRrWKJzRSNo7s?authuser=0&hl=en&rclk=1",
        "coordinates": {
            "latitude": 19.6743602,
            "longitude": 77.3147597
        }
    },
    {
        "name": "Masjid Naikwadi",
        "main_category": "Mosque",
        "address": "M8C7+X8C Masjid Naikwadi, Kalamnuri, Maharashtra 431702",
        "detailed_address": {
            "ward": null,
            "street": "M8C7+X8C",
            "city": "Kalamnuri",
            "postal_code": "431702",
            "state": "Maharashtra",
            "country_code": "IN"
        },
        "images": [
            {
                "about": "All",
                "link": "https://lh5.googleusercontent.com/p/AF1QipMQ3ddHmrQOtagmOL6Q6umjHFlJuS0vX3W06ki1=w541-h298-k-no"
            }
        ],
        "link": "https://www.google.com/maps/place/Masjid+Naikwadi/data=!4m7!3m6!1s0x3bd1b1c308d9a0fd:0x37367dfb8002ea59!8m2!3d19.6724437!4d77.313261!16s%2Fg%2F12jm107m0!19sChIJ_aDZCMOx0TsRWeoCgPt9Njc?authuser=0&hl=en&rclk=1",
        "coordinates": {
            "latitude": 19.6724437,
            "longitude": 77.313261
        }
    },
    {
        "name": "Maula Ali Masjid",
        "main_category": "Mosque",
        "address": "M89C+R26 Maula Ali Masjid, Kalamnuri, Maharashtra 431702",
        "detailed_address": {
            "ward": null,
            "street": "M89C+R26",
            "city": "Kalamnuri",
            "postal_code": "431702",
            "state": "Maharashtra",
            "country_code": "IN"
        },
        "images": [
            {
                "about": "All",
                "link": "https://lh5.googleusercontent.com/p/AF1QipPX5UNBHpu6iTgiDQKRotIpe49MALvLnW7VBLHY=w529-h298-k-no"
            },
            {
                "about": "Videos",
                "link": "https://lh5.googleusercontent.com/p/AF1QipOL9c3zeEsukKSNBaVYGwwVHI385-1hm-t8GXtY=w224-h398-k-no"
            }
        ],
        "link": "https://www.google.com/maps/place/Maula+Ali+Masjid/data=!4m7!3m6!1s0x3bd1b18261b9a033:0xce73e3d478280bc7!8m2!3d19.669531!4d77.320005!16s%2Fg%2F11h1mjp1b4!19sChIJM6C5YYKx0TsRxwsoeNTjc84?authuser=0&hl=en&rclk=1",
        "coordinates": {
            "latitude": 19.669531,
            "longitude": 77.320005
        }
    },
    {
        "name": "Makka masjid",
        "main_category": "Mosque",
        "address": "M8H7+869 Makka masjid, Zamzam colony, Kalamnuri, Maharashtra 431702",
        "detailed_address": {
            "ward": "Zamzam colony",
            "street": "M8H7+869",
            "city": "Kalamnuri",
            "postal_code": null,
            "state": "Maharashtra",
            "country_code": "IN"
        },
        "images": [],
        "link": "https://www.google.com/maps/place/Makka+masjid/data=!4m7!3m6!1s0x3bd1b1eea0fe4e71:0x3e01919dca795b8f!8m2!3d19.6782923!4d77.3130961!16s%2Fg%2F11n0p55xgt!19sChIJcU7-oO6x0TsRj1t5yp2RAT4?authuser=0&hl=en&rclk=1",
        "coordinates": {
            "latitude": 19.6782923,
            "longitude": 77.3130961
        }
    },
    {
        "name": "JAAMA Masjid",
        "main_category": "Mosque",
        "address": "M8F6+WC7 JAAMA Masjid, Kalamnuri, Maharashtra 431702",
        "detailed_address": {
            "ward": null,
            "street": "M8F6+WC7",
            "city": "Kalamnuri",
            "postal_code": "431702",
            "state": "Maharashtra",
            "country_code": "IN"
        },
        "images": [],
        "link": "https://www.google.com/maps/place/JAAMA+Masjid/data=!4m7!3m6!1s0x3bd1b1c2cafb8dc1:0x8444d7d0c37d1dd0!8m2!3d19.674791!4d77.31106!16s%2Fg%2F11f50wq_lv!19sChIJwY37ysKx0TsR0B19w9DXRIQ?authuser=0&hl=en&rclk=1",
        "coordinates": {
            "latitude": 19.674791,
            "longitude": 77.31106
        }
    },
    {
        "name": "GADI MASJID",
        "main_category": "Mosque",
        "address": "M8F6+H6H GADI MASJID, Kalamnuri, Maharashtra 431702",
        "detailed_address": {
            "ward": null,
            "street": "M8F6+H6H",
            "city": "Kalamnuri",
            "postal_code": "431702",
            "state": "Maharashtra",
            "country_code": "IN"
        },
        "images": [],
        "link": "https://www.google.com/maps/place/GADI+MASJID/data=!4m7!3m6!1s0x3bd1b1709bb0986d:0xfe793fc353a5f2c5!8m2!3d19.6739381!4d77.3106065!16s%2Fg%2F11rwmh9v28!19sChIJbZiwm3Cx0TsRxfKlU8M_ef4?authuser=0&hl=en&rclk=1",
        "coordinates": {
            "latitude": 19.6739381,
            "longitude": 77.31060649999999
        }
    },
    {
        "name": "Masjid Baghbaan",
        "main_category": "Mosque",
        "address": "M8F6+GP6 Masjid Baghbaan, Ashraf Nagar, Kalamnuri, Maharashtra 431702",
        "detailed_address": {
            "ward": "Ashraf Nagar",
            "street": "M8F6+GP6",
            "city": "Kalamnuri",
            "postal_code": "431702",
            "state": "Maharashtra",
            "country_code": "IN"
        },
        "images": [],
        "link": "https://www.google.com/maps/place/Masjid+Baghbaan/data=!4m7!3m6!1s0x3bd1b1661eac8c85:0x7bc0efc6aac41220!8m2!3d19.6737797!4d77.3117633!16s%2Fg%2F11gxzkkttr!19sChIJhYysHmax0TsRIBLEqsbvwHs?authuser=0&hl=en&rclk=1",
        "coordinates": {
            "latitude": 19.6737797,
            "longitude": 77.3117633
        }
    },
    {
        "name": "Masjid moiyodin",
        "main_category": "Mosque",
        "address": "M8GF+F3V Masjid moiyodin, Kalamnuri, Maharashtra 431702",
        "detailed_address": {
            "ward": null,
            "street": "M8GF+F3V",
            "city": "Kalamnuri",
            "postal_code": "431702",
            "state": "Maharashtra",
            "country_code": "IN"
        },
        "images": [],
        "link": "https://www.google.com/maps/place/Masjid+moiyodin/data=!4m7!3m6!1s0x3bd1b1009cfc55b5:0xec92fc08de27ee4c!8m2!3d19.6762354!4d77.3226785!16s%2Fg%2F11kpt36n5t!19sChIJtVX8nACx0TsRTO4n3gj8kuw?authuser=0&hl=en&rclk=1",
        "coordinates": {
            "latitude": 19.6762354,
            "longitude": 77.3226785
        }
    },
    {
        "name": "Masjid e huzur ameen e shariyat",
        "main_category": "Religious destination",
        "address": "M8GC+84 Masjid e huzur ameen e shariyat, Kalamnuri, Maharashtra 431702",
        "detailed_address": {
            "ward": null,
            "street": "M8GC+84",
            "city": "Kalamnuri",
            "postal_code": null,
            "state": "Maharashtra",
            "country_code": "IN"
        },
        "images": [],
        "link": "https://www.google.com/maps/place/Masjid+e+huzur+ameen+e+shariyat/data=!4m7!3m6!1s0x3bd1b13cfbef839b:0x54dac9eb0390fd51!8m2!3d19.6757606!4d77.3203622!16s%2Fg%2F11rkmvsrwq!19sChIJm4Pv-zyx0TsRUf2QA-vJ2lQ?authuser=0&hl=en&rclk=1",
        "coordinates": {
            "latitude": 19.6757606,
            "longitude": 77.32036219999999
        }
    },
    {
        "name": "Eidgaah KalamNoori",
        "main_category": "Mosque",
        "address": "M8CF+QCF Eidgaah KalamNoori, Kalamnuri, Maharashtra 431702",
        "detailed_address": {
            "ward": null,
            "street": "M8CF+QCF",
            "city": "Kalamnuri",
            "postal_code": "431702",
            "state": "Maharashtra",
            "country_code": "IN"
        },
        "images": [],
        "link": "https://www.google.com/maps/place/Eidgaah+KalamNoori/data=!4m7!3m6!1s0x3bd1b1a047aacbeb:0xd4fb76b5525cf194!8m2!3d19.6719476!4d77.3235369!16s%2Fg%2F11f7qyf6km!19sChIJ68uqR6Cx0TsRlPFcUrV2-9Q?authuser=0&hl=en&rclk=1",
        "coordinates": {
            "latitude": 19.6719476,
            "longitude": 77.3235369
        }
    },
    {
        "name": "Old Qabristan KalamNoori",
        "main_category": "Mosque",
        "address": "M8F7+VX9 Old Qabristan KalamNoori, Kalamnuri, Maharashtra 431702",
        "detailed_address": {
            "ward": null,
            "street": "M8F7+VX9",
            "city": "Kalamnuri",
            "postal_code": "431702",
            "state": "Maharashtra",
            "country_code": "IN"
        },
        "images": [],
        "link": "https://www.google.com/maps/place/Old+Qabristan+KalamNoori/data=!4m7!3m6!1s0x3bd1b1938eab1449:0xa157c92f58a6637f!8m2!3d19.6746626!4d77.3149947!16s%2Fg%2F11f7qyc1g_!19sChIJSRSrjpOx0TsRf2OmWC_JV6E?authuser=0&hl=en&rclk=1",
        "coordinates": {
            "latitude": 19.674662599999998,
            "longitude": 77.3149947
        }
    },
    {
        "name": "Masjid",
        "main_category": "School",
        "address": "M8G7+46H Masjid, Kalamnuri, Maharashtra 431702",
        "detailed_address": {
            "ward": null,
            "street": "M8G7+46H",
            "city": "Kalamnuri",
            "postal_code": "431702",
            "state": "Maharashtra",
            "country_code": "IN"
        },
        "images": [],
        "link": "https://www.google.com/maps/place/Masjid/data=!4m7!3m6!1s0x3bd1b1ca27b8d119:0xb7f01b26198ec104!8m2!3d19.6753035!4d77.3131246!16s%2Fg%2F11fpmq3s7f!19sChIJGdG4J8qx0TsRBMGOGSYb8Lc?authuser=0&hl=en&rclk=1",
        "coordinates": {
            "latitude": 19.6753035,
            "longitude": 77.3131246
        }
    }
]