[
    {
        "name": "Bade Khan Gazi Masjid - Sunni Hanafi",
        "main_category": "Mosque",
        "address": "FWVQ+2GW Bade Khan Gazi Masjid - Sunni Hanafi, Motiganj, Manikhamb, Balasore, Gopalgoan, Odisha 756001",
        "detailed_address": {
            "ward": "Motiganj, Manikhamb",
            "street": "FWVQ+2GW",
            "city": "Balasore, Gopalgoan",
            "postal_code": "756001",
            "state": "Odisha",
            "country_code": "IN"
        },
        "images": [
            {
                "about": "All",
                "link": "https://lh5.googleusercontent.com/p/AF1QipPVpgZjZcIzuS5Iu58XkLbJ7Z4SlGpA6HbDB68c=w224-h298-k-no"
            },
            {
                "about": "Dome",
                "link": "https://lh5.googleusercontent.com/p/AF1QipPy3oWe8bnTqqQhG1mfGA8FGd6II1xdgr3hN4TW=w224-h298-k-no"
            },
            {
                "about": "Videos",
                "link": "https://lh5.googleusercontent.com/p/AF1QipNIetj1AcvbhnJlJo3LR5hbLGol3bICE2Lnm5UD=w224-h395-k-no"
            },
            {
                "about": "Street View & 360deg",
                "link": "https://streetviewpixels-pa.googleapis.com/v1/thumbnail?panoid=8lIAne-kZQqNUSten62Ltw&cb_client=maps_sv.tactile.gps&w=224&h=298&yaw=162.043&pitch=0&thumbfov=100"
            }
        ],
        "link": "https://www.google.com/maps/place/Bade+Khan+Gazi+Masjid+-+Sunni+Hanafi/data=!4m7!3m6!1s0x3a1cf500e6ef3d51:0xfe6bf04f4373d217!8m2!3d21.4926096!4d86.9388287!16s%2Fg%2F11f0kxnbmp!19sChIJUT3v5gD1HDoRF9JzQ0_wa_4?authuser=0&hl=en&rclk=1",
        "coordinates": {
            "latitude": 21.492609599999998,
            "longitude": 86.9388287
        }
    },
    {
        "name": "Eidgah Masjid - Sunni Hanafi",
        "main_category": "Mosque",
        "address": "GW2G+PWP Eidgah Masjid - Sunni Hanafi, Vivekanand Marg, Balasore, Gopalgoan, Odisha 756001",
        "detailed_address": {
            "ward": "Balasore",
            "street": "GW2G+PWP, Vivekanand Marg",
            "city": "Gopalgoan",
            "postal_code": "756001",
            "state": "Odisha",
            "country_code": "IN"
        },
        "images": [
            {
                "about": "All",
                "link": "https://lh5.googleusercontent.com/p/AF1QipNRL2w1337A1SX9zP79K0_oHXtL8myAxv_co_w=w529-h298-k-no"
            },
            {
                "about": "Street View & 360deg",
                "link": "https://streetviewpixels-pa.googleapis.com/v1/thumbnail?panoid=rO2z3ZZ81ohkXb2ij42NwA&cb_client=maps_sv.tactile.gps&w=224&h=298&yaw=248.22118&pitch=0&thumbfov=100"
            }
        ],
        "link": "https://www.google.com/maps/place/Eidgah+Masjid+-+Sunni+Hanafi/data=!4m7!3m6!1s0x3a1cf5a3f7984467:0xc90b3822680d8350!8m2!3d21.5018272!4d86.9273404!16s%2Fg%2F11bwghlph0!19sChIJZ0SY96P1HDoRUIMNaCI4C8k?authuser=0&hl=en&rclk=1",
        "coordinates": {
            "latitude": 21.501827199999997,
            "longitude": 86.92734039999999
        }
    },
    {
        "name": "Arad Bazar Masjid - Sunni Masjid",
        "main_category": "Mosque",
        "address": "Arad Bazar Masjid - Sunni Masjid, Arad Bazaar Rd, Arad Bazar, Balia, Balasore, Gopalgoan, Odisha 756001",
        "detailed_address": {
            "ward": "Arad Bazar, Balia",
            "street": "Arad Bazaar Rd",
            "city": "Balasore, Gopalgoan",
            "postal_code": "756001",
            "state": "Odisha",
            "country_code": "IN"
        },
        "images": [
            {
                "about": "All",
                "link": "https://lh5.googleusercontent.com/p/AF1QipMaquRC98y0Vj4-5X2p855wA4EqCh3MNoO7k53n=w397-h298-k-no"
            },
            {
                "about": "Dome",
                "link": "https://lh5.googleusercontent.com/p/AF1QipMD0wWPP1VCEH_XgCIccgOJHDBRYM8XBX13Lv06=w418-h298-k-no"
            },
            {
                "about": "Videos",
                "link": "https://lh5.googleusercontent.com/p/AF1QipMJq6_UdOHqTFpFpVu9DDsdCyMTDKGxK0wGb7W-=w224-h398-k-no"
            },
            {
                "about": "Street View & 360deg",
                "link": "https://streetviewpixels-pa.googleapis.com/v1/thumbnail?panoid=76YFmCwiUttuRkfxRCdS9A&cb_client=maps_sv.tactile.gps&w=224&h=298&yaw=112.13914&pitch=0&thumbfov=100"
            }
        ],
        "link": "https://www.google.com/maps/place/Arad+Bazar+Masjid+-+Sunni+Masjid/data=!4m7!3m6!1s0x3a1cf5bcef284b05:0x2659d3f1a4489af7!8m2!3d21.5087222!4d86.9256875!16s%2Fg%2F11c2pwkb8b!19sChIJBUso77z1HDoR95pIpPHTWSY?authuser=0&hl=en&rclk=1",
        "coordinates": {
            "latitude": 21.508722199999998,
            "longitude": 86.9256875
        }
    },
    {
        "name": "Quadri Rizvi Masjid - Sunni Hanafi",
        "main_category": "Mosque",
        "address": "GW6H+R56 Quadri Rizvi Masjid - Sunni Hanafi, Lalbahadur Shastri Marg, Arad Bazar, Balia, Balasore, Gopalgoan, Odisha 756001",
        "detailed_address": {
            "ward": "Arad Bazar, Balia",
            "street": "GW6H+R56, Lalbahadur Shastri Marg",
            "city": "Balasore, Gopalgoan",
            "postal_code": "756001",
            "state": "Odisha",
            "country_code": "IN"
        },
        "images": [
            {
                "about": "All",
                "link": "https://lh5.googleusercontent.com/p/AF1QipMzVL8WyRLglXrl0GmnqU7Up38esaP6YU4hDnAr=w397-h298-k-no"
            },
            {
                "about": "Street View & 360deg",
                "link": "https://streetviewpixels-pa.googleapis.com/v1/thumbnail?panoid=Z9FThPhspW2-2U-Exv9-og&cb_client=maps_sv.tactile.gps&w=224&h=298&yaw=55.1663&pitch=0&thumbfov=100"
            },
            {
                "about": "Videos",
                "link": "https://lh5.googleusercontent.com/p/AF1QipM25_lzYEtlayyGqv9KKm4oyd55yaqp3qrsMSto=w224-h398-k-no"
            }
        ],
        "link": "https://www.google.com/maps/place/Quadri+Rizvi+Masjid+-+Sunni+Hanafi/data=!4m7!3m6!1s0x3a1cf5bbf03c4eab:0xeded579d01c895ab!8m2!3d21.5120414!4d86.9278923!16s%2Fg%2F11c2lr3m6x!19sChIJq0488Lv1HDoRq5XIAZ1X7e0?authuser=0&hl=en&rclk=1",
        "coordinates": {
            "latitude": 21.512041399999998,
            "longitude": 86.9278923
        }
    },
    {
        "name": "Khawaja Bagh Masjid - Sunni Hanafi",
        "main_category": "Mosque",
        "address": "FWPX+5W6 Khawaja Bagh Masjid - Sunni Hanafi, Mallikashpur, Balasore, Gopalgoan, Odisha 756002",
        "detailed_address": {
            "ward": "Mallikashpur",
            "street": "FWPX+5W6",
            "city": "Balasore, Gopalgoan",
            "postal_code": "756002",
            "state": "Odisha",
            "country_code": "IN"
        },
        "images": [
            {
                "about": "All",
                "link": "https://lh5.googleusercontent.com/p/AF1QipMCa5wKdNU4n9RAHqWmTeBG9YpvJ1OJx8AjgP0S=w224-h298-k-no"
            },
            {
                "about": "Videos",
                "link": "https://lh5.googleusercontent.com/p/AF1QipMUOQP0ysZh-1Looal-OkOc_sQr_fGdo-mnWI68=w541-h298-k-no"
            }
        ],
        "link": "https://www.google.com/maps/place/Khawaja+Bagh+Masjid+-+Sunni+Hanafi/data=!4m7!3m6!1s0x3a1cf4fb1c56bb3f:0x1a11f2920b512072!8m2!3d21.4854096!4d86.9497734!16s%2Fg%2F1pyqvjr_q!19sChIJP7tWHPv0HDoRciBRC5LyERo?authuser=0&hl=en&rclk=1",
        "coordinates": {
            "latitude": 21.4854096,
            "longitude": 86.9497734
        }
    },
    {
        "name": "Farooqi Masjid - Tablighi Jamaat (Sunni Hanafi)",
        "main_category": "Mosque",
        "address": "FXQ2+88M Farooqi Masjid - Tablighi Jamaat (Sunni Hanafi), Puruna Balasore Rd, Mallikashpur, Balasore, Gopalgoan, Odisha 756002",
        "detailed_address": {
            "ward": "Mallikashpur",
            "street": "FXQ2+88M, Puruna Balasore Rd",
            "city": "Balasore, Gopalgoan",
            "postal_code": "756002",
            "state": "Odisha",
            "country_code": "IN"
        },
        "images": [
            {
                "about": "All",
                "link": "https://lh5.googleusercontent.com/p/AF1QipMJp93J2xGB524KEQevEKV63D0A_v3Bk7Eo7oiV=w275-h298-k-no"
            },
            {
                "about": "Street View & 360deg",
                "link": "https://streetviewpixels-pa.googleapis.com/v1/thumbnail?panoid=Tp4n7Gr2C4sklUlWyLBKrg&cb_client=maps_sv.tactile.gps&w=224&h=298&yaw=50.916462&pitch=0&thumbfov=100"
            },
            {
                "about": "Videos",
                "link": "https://lh5.googleusercontent.com/p/AF1QipOW_f4Y4BJZKTPLTHQNtjSuW3m1O9JPws4Ysrgq=w224-h398-k-no"
            }
        ],
        "link": "https://www.google.com/maps/place/Farooqi+Masjid+-+Tablighi+Jamaat+%28Sunni+Hanafi%29/data=!4m7!3m6!1s0x3a1cf4fa3b064afb:0x508dda49b9678065!8m2!3d21.4883274!4d86.9507869!16s%2Fg%2F11bwysgpsr!19sChIJ-0oGO_r0HDoRZYBnuUnajVA?authuser=0&hl=en&rclk=1",
        "coordinates": {
            "latitude": 21.4883274,
            "longitude": 86.9507869
        }
    },
    {
        "name": "Boro Mosque",
        "main_category": "Mosque",
        "address": "FWMR+RCC Boro Mosque, Mallikashpur, Balasore, Taziabad, Odisha 756002",
        "detailed_address": {
            "ward": "Mallikashpur",
            "street": "FWMR+RCC",
            "city": "Balasore, Taziabad",
            "postal_code": "756002",
            "state": "Odisha",
            "country_code": "IN"
        },
        "images": [],
        "link": "https://www.google.com/maps/place/Boro+Mosque/data=!4m7!3m6!1s0x3a1cf502ea1f6133:0xeae5958402dc7074!8m2!3d21.4845639!4d86.941019!16s%2Fg%2F1pyqhc5p4!19sChIJM2Ef6gL1HDoRdHDcAoSV5eo?authuser=0&hl=en&rclk=1",
        "coordinates": {
            "latitude": 21.484563899999998,
            "longitude": 86.941019
        }
    },
    {
        "name": "Jama Masjid Balasore - Sunni Hanafi",
        "main_category": "Mosque",
        "address": "FWHX+JMH Jama Masjid Balasore - Sunni Hanafi, Mallikashpur, Balasore, Hidigan, Odisha 756002",
        "detailed_address": {
            "ward": "Mallikashpur",
            "street": "FWHX+JMH",
            "city": "Balasore, Hidigan",
            "postal_code": "756002",
            "state": "Odisha",
            "country_code": "IN"
        },
        "images": [
            {
                "about": "All",
                "link": "https://lh5.googleusercontent.com/p/AF1QipP8jej08jeZ31H5Ck0QjEx71HfX3n-cN-MEaAkX=w629-h298-k-no"
            }
        ],
        "link": "https://www.google.com/maps/place/Jama+Masjid+Balasore+-+Sunni+Hanafi/data=!4m7!3m6!1s0x3a1cf4e447cb1c4d:0xb0694a1a03b828ca!8m2!3d21.4790668!4d86.9492294!16s%2Fg%2F1pyqkz0wg!19sChIJTRzLR-T0HDoRyii4AxpKabA?authuser=0&hl=en&rclk=1",
        "coordinates": {
            "latitude": 21.4790668,
            "longitude": 86.9492294
        }
    },
    {
        "name": "Qalandari Masjid",
        "main_category": "Mosque",
        "address": "FWWV+FVX Qalandari Masjid, Manikhamb, Balasore, Gopalgoan, Odisha 756003",
        "detailed_address": {
            "ward": "Manikhamb",
            "street": "FWWV+FVX",
            "city": "Balasore, Gopalgoan",
            "postal_code": "756003",
            "state": "Odisha",
            "country_code": "IN"
        },
        "images": [],
        "link": "https://www.google.com/maps/place/Qalandari+Masjid/data=!4m7!3m6!1s0x3a1cf4557416ad8d:0xc3ac945e2ffd60d0!8m2!3d21.4962398!4d86.9447292!16s%2Fg%2F11bw5zkf_9!19sChIJja0WdFX0HDoR0GD9L16UrMM?authuser=0&hl=en&rclk=1",
        "coordinates": {
            "latitude": 21.496239799999998,
            "longitude": 86.9447292
        }
    },
    {
        "name": "Dargha Mosque",
        "main_category": "Mosque",
        "address": "FWQW+PQW Dargha Mosque, Puruna Balasore Rd, Old Balasore, Balasore, Gopalgoan, Odisha 756002",
        "detailed_address": {
            "ward": "Old Balasore",
            "street": "FWQW+PQW, Puruna Balasore Rd",
            "city": "Balasore, Gopalgoan",
            "postal_code": "756002",
            "state": "Odisha",
            "country_code": "IN"
        },
        "images": [
            {
                "about": "All",
                "link": "https://lh5.googleusercontent.com/p/AF1QipOasE3c9L96BKwf8Cq1jv4HTtOh-gmGp3Zm_wq_=w529-h298-k-no"
            }
        ],
        "link": "https://www.google.com/maps/place/Dargha+Mosque/data=!4m7!3m6!1s0x3a1cf4fea834ed89:0xd75083544be17c6d!8m2!3d21.4893583!4d86.9469641!16s%2Fg%2F11bwggm7z5!19sChIJie00qP70HDoRbXzhS1SDUNc?authuser=0&hl=en&rclk=1",
        "coordinates": {
            "latitude": 21.4893583,
            "longitude": 86.9469641
        }
    },
    {
        "name": "Masjid Sha Baba Mosque",
        "main_category": "Mosque",
        "address": "FXQ2+34H Masjid Sha Baba Mosque, Khaira, Balasore, Gopalgoan, Odisha 756002",
        "detailed_address": {
            "ward": "Khaira",
            "street": "FXQ2+34H",
            "city": "Balasore, Gopalgoan",
            "postal_code": "756002",
            "state": "Odisha",
            "country_code": "IN"
        },
        "images": [
            {
                "about": "All",
                "link": "https://streetviewpixels-pa.googleapis.com/v1/thumbnail?panoid=5i0gmnVzBtwo9rwsvXiMJw&cb_client=maps_sv.tactile.gps&w=224&h=298&yaw=155.84296&pitch=0&thumbfov=100"
            },
            {
                "about": "Street View & 360deg",
                "link": "https://streetviewpixels-pa.googleapis.com/v1/thumbnail?panoid=5i0gmnVzBtwo9rwsvXiMJw&cb_client=maps_sv.tactile.gps&w=224&h=298&yaw=155.84296&pitch=0&thumbfov=100"
            }
        ],
        "link": "https://www.google.com/maps/place/Masjid+Sha+Baba+Mosque/data=!4m7!3m6!1s0x3a1cf4fa493d2c23:0x67d4a659fa71850a!8m2!3d21.4876983!4d86.9503739!16s%2Fg%2F1pyqvr818!19sChIJIyw9Sfr0HDoRCoVx-lmm1Gc?authuser=0&hl=en&rclk=1",
        "coordinates": {
            "latitude": 21.487698299999998,
            "longitude": 86.9503739
        }
    },
    {
        "name": "Abdulah Khalifa Masjid - Sunni Hanafi",
        "main_category": "Mosque",
        "address": "FWQV+2WH Abdulah Khalifa Masjid - Sunni Hanafi, Motigang Rd, Mallikashpur, Gopalgoan, Odisha 756002",
        "detailed_address": {
            "ward": "Mallikashpur",
            "street": "FWQV+2WH, Motigang Rd",
            "city": "Gopalgoan",
            "postal_code": "756002",
            "state": "Odisha",
            "country_code": "IN"
        },
        "images": [
            {
                "about": "All",
                "link": "https://lh5.googleusercontent.com/p/AF1QipPFPEOt0HI5Kp-9zlhjq9b0rEIx6leZ2vUN9cga=w224-h398-k-no"
            },
            {
                "about": "Dome",
                "link": "https://lh5.googleusercontent.com/p/AF1QipPYTQLl1OoDT5m1HOJXQpqkPd9Yt06ainbGxZvV=w529-h298-k-no"
            },
            {
                "about": "Street View & 360deg",
                "link": "https://streetviewpixels-pa.googleapis.com/v1/thumbnail?panoid=mP3exM9n9hq_kHTZiGcalw&cb_client=maps_sv.tactile.gps&w=224&h=298&yaw=58.50999&pitch=0&thumbfov=100"
            }
        ],
        "link": "https://www.google.com/maps/place/Abdulah+Khalifa+Masjid+-+Sunni+Hanafi/data=!4m7!3m6!1s0x3a1cf4fc15440de5:0x20a7e1ad27f9def7!8m2!3d21.4875505!4d86.9448553!16s%2Fg%2F1pyql0t47!19sChIJ5Q1EFfz0HDoR9975J63hpyA?authuser=0&hl=en&rclk=1",
        "coordinates": {
            "latitude": 21.487550499999998,
            "longitude": 86.9448553
        }
    },
    {
        "name": "Amtaz Masjid - Sunni Hanafi",
        "main_category": "Mosque",
        "address": "FWVQ+2GP Amtaz Masjid - Sunni Hanafi, Manikhamb, Balasore, Gopalgoan, Odisha 756001",
        "detailed_address": {
            "ward": "Manikhamb",
            "street": "FWVQ+2GP",
            "city": "Balasore, Gopalgoan",
            "postal_code": "756001",
            "state": "Odisha",
            "country_code": "IN"
        },
        "images": [
            {
                "about": "All",
                "link": "https://lh5.googleusercontent.com/p/AF1QipNapNqivedLwupj_RIJTug3aEHx3mjjp7a9smKW=w224-h298-k-no"
            },
            {
                "about": "Dome",
                "link": "https://lh5.googleusercontent.com/p/AF1QipPgxGSDhCS4nJNVU0SYqCfdtYbUtES31KGkPZzH=w397-h298-k-no"
            },
            {
                "about": "Street View & 360deg",
                "link": "https://streetviewpixels-pa.googleapis.com/v1/thumbnail?panoid=noVOzjXfpk5O3GmONqKjdQ&cb_client=maps_sv.tactile.gps&w=224&h=298&yaw=274.98758&pitch=0&thumbfov=100"
            }
        ],
        "link": "https://www.google.com/maps/place/Amtaz+Masjid+-+Sunni+Hanafi/data=!4m7!3m6!1s0x3a1cf5011dfffed9:0x6befe5c893b0529!8m2!3d21.4925887!4d86.938832!16s%2Fg%2F1pyqs1mdq!19sChIJ2f7_HQH1HDoRKQU7iVz-vgY?authuser=0&hl=en&rclk=1",
        "coordinates": {
            "latitude": 21.4925887,
            "longitude": 86.93883199999999
        }
    },
    {
        "name": "BALIA SUNNI MASJID, BALASORE",
        "main_category": "Mosque",
        "address": "FWW2+RGM BALIA SUNNI MASJID, BALASORE, Artung, Balia, Balasore, Baleshwar, Odisha 756019",
        "detailed_address": {
            "ward": "Artung, Balia",
            "street": "FWW2+RGM",
            "city": "Balasore, Baleshwar",
            "postal_code": "756019",
            "state": "Odisha",
            "country_code": "IN"
        },
        "images": [
            {
                "about": "All",
                "link": "https://lh5.googleusercontent.com/p/AF1QipNvm8bcLfCdCSJ_b_oLm1W_a5PJpq6baOH360t3=w529-h298-k-no"
            }
        ],
        "link": "https://www.google.com/maps/place/BALIA+SUNNI+MASJID,+BALASORE/data=!4m7!3m6!1s0x3a1c5f2b9ac04d19:0xadaaf94e8b6e632d!8m2!3d21.4969721!4d86.9008624!16s%2Fg%2F11tmdhtfgh!19sChIJGU3AmitfHDoRLWNui075qq0?authuser=0&hl=en&rclk=1",
        "coordinates": {
            "latitude": 21.4969721,
            "longitude": 86.9008624
        }
    },
    {
        "name": "Shams-ud-Daulah Mosque",
        "main_category": "Mosque",
        "address": "FWMR+RCX Shams-ud-Daulah Mosque, Masjid Ln, Mallikashpur, Balasore, Taziabad, Odisha 756002",
        "detailed_address": {
            "ward": "Mallikashpur",
            "street": "FWMR+RCX, Masjid Ln",
            "city": "Balasore, Taziabad",
            "postal_code": "756002",
            "state": "Odisha",
            "country_code": "IN"
        },
        "images": [
            {
                "about": "All",
                "link": "https://lh5.googleusercontent.com/p/AF1QipPu9wtpYEY-5JHYqrdtGyvz1mzBLsJdDZJ1iDjC=w224-h485-k-no"
            },
            {
                "about": "Dome",
                "link": "https://lh5.googleusercontent.com/p/AF1QipNyJz3wkJPEfsS5hIQ8ltd0OkSo1TMVpgCeIUnN=w273-h298-k-no"
            },
            {
                "about": "Videos",
                "link": "https://lh5.googleusercontent.com/p/AF1QipPDiCAgWwyvxjKsqLWl9ILVgem5-8HbnDbYGCcQ=w224-h398-k-no"
            }
        ],
        "link": "https://www.google.com/maps/place/Shams-ud-Daulah+Mosque/data=!4m7!3m6!1s0x3a1cf5930a6381cb:0x17a12cd640056f9c!8m2!3d21.4846004!4d86.9411076!16s%2Fg%2F11g0gncn6k!19sChIJy4FjCpP1HDoRnG8FQNYsoRc?authuser=0&hl=en&rclk=1",
        "coordinates": {
            "latitude": 21.484600399999998,
            "longitude": 86.9411076
        }
    },
    {
        "name": "Jama Masjid msjd",
        "main_category": "Mosque",
        "address": "FWMW+P69 Jama Masjid msjd, Ushamerh Rd, Sunhat, Mallikashpur, Balasore, Gopalgoan, Odisha 756002",
        "detailed_address": {
            "ward": "Sunhat, Mallikashpur",
            "street": "FWMW+P69, Ushamerh Rd",
            "city": "Balasore, Gopalgoan",
            "postal_code": "756002",
            "state": "Odisha",
            "country_code": "IN"
        },
        "images": [
            {
                "about": "All",
                "link": "https://lh5.googleusercontent.com/p/AF1QipNFhH9EmXtsFiK2duy3UpLi5RPwOqqtkzZO88WM=w397-h298-k-no"
            },
            {
                "about": "Dome",
                "link": "https://lh5.googleusercontent.com/p/AF1QipNFhH9EmXtsFiK2duy3UpLi5RPwOqqtkzZO88WM=w397-h298-k-no"
            },
            {
                "about": "Street View & 360deg",
                "link": "https://streetviewpixels-pa.googleapis.com/v1/thumbnail?panoid=FMnRba-ns0k5W_DHIPwXkg&cb_client=maps_sv.tactile.gps&w=224&h=298&yaw=229.78307&pitch=0&thumbfov=100"
            }
        ],
        "link": "https://www.google.com/maps/place/Jama+Masjid+%D9%85%D8%B3%D8%AC%D8%AF%E2%80%AD/data=!4m7!3m6!1s0x3a1cf4fcc4eb8859:0x6037e12e24b9f93e!8m2!3d21.484294!4d86.9456073!16s%2Fg%2F11hbv9y_cb!19sChIJWYjrxPz0HDoRPvm5JC7hN2A?authuser=0&hl=en&rclk=1",
        "coordinates": {
            "latitude": 21.484294,
            "longitude": 86.94560729999999
        }
    },
    {
        "name": "Bait un Noor Masjid",
        "main_category": "Mosque",
        "address": "GW6H+7RG Bait un Noor Masjid, Lalbahadur Shastri Marg, Manikhamb, Balasore, Gopalgoan, Odisha 756001",
        "detailed_address": {
            "ward": "Manikhamb",
            "street": "GW6H+7RG, Lalbahadur Shastri Marg",
            "city": "Balasore, Gopalgoan",
            "postal_code": "756001",
            "state": "Odisha",
            "country_code": "IN"
        },
        "images": [
            {
                "about": "All",
                "link": "https://streetviewpixels-pa.googleapis.com/v1/thumbnail?panoid=8zI3muoQJOH2s-xQzD8GVA&cb_client=maps_sv.tactile.gps&w=224&h=298&yaw=0.8187387&pitch=0&thumbfov=100"
            },
            {
                "about": "Street View & 360deg",
                "link": "https://streetviewpixels-pa.googleapis.com/v1/thumbnail?panoid=8zI3muoQJOH2s-xQzD8GVA&cb_client=maps_sv.tactile.gps&w=224&h=298&yaw=0.8187387&pitch=0&thumbfov=100"
            }
        ],
        "link": "https://www.google.com/maps/place/Bait+un+Noor+Masjid/data=!4m7!3m6!1s0x3a1cf5a68271c133:0xfc89654b89455a01!8m2!3d21.510676!4d86.9295895!16s%2Fg%2F11fnx6w2vm!19sChIJM8Fxgqb1HDoRAVpFiUtlifw?authuser=0&hl=en&rclk=1",
        "coordinates": {
            "latitude": 21.510676,
            "longitude": 86.92958949999999
        }
    },
    {
        "name": "Kazhi Sahi Masjid",
        "main_category": "Mosque",
        "address": "FWVR+9CG Kazhi Sahi Masjid, Suelpur, Motiganj",
        "detailed_address": {
            "ward": "Motiganj, Manikhamb",
            "street": "FWVR+9CG, Suelpur",
            "city": "Gopalgoan",
            "postal_code": null,
            "state": "Odisha",
            "country_code": "IN"
        },
        "images": [
            {
                "about": "All",
                "link": "https://lh5.googleusercontent.com/p/AF1QipNeunuOy_6FVN8EbT-OUzhDMAnCet_u13ay_GPn=w271-h298-k-no"
            }
        ],
        "link": "https://www.google.com/maps/place/Kazhi+Sahi+Masjid/data=!4m7!3m6!1s0x3a1cf5091b6f9b45:0x9ac6304afe6bfce0!8m2!3d21.4934361!4d86.9410861!16s%2Fg%2F11hmrm3hj4!19sChIJRZtvGwn1HDoR4Pxr_kowxpo?authuser=0&hl=en&rclk=1",
        "coordinates": {
            "latitude": 21.4934361,
            "longitude": 86.94108609999999
        }
    },
    {
        "name": "Fulwar masjid",
        "main_category": "Religious destination",
        "address": "FWV7+89X Fulwar masjid, Artung, Balia, Balasore, Odisha 756001",
        "detailed_address": {
            "ward": "Artung, Balia",
            "street": "FWV7+89X",
            "city": "Balasore",
            "postal_code": null,
            "state": "Odisha",
            "country_code": "IN"
        },
        "images": [
            {
                "about": "All",
                "link": "https://streetviewpixels-pa.googleapis.com/v1/thumbnail?panoid=oaHRG0QPRoe4u--xCltf4w&cb_client=maps_sv.tactile.gps&w=224&h=298&yaw=147.78845&pitch=0&thumbfov=100"
            },
            {
                "about": "Street View & 360deg",
                "link": "https://streetviewpixels-pa.googleapis.com/v1/thumbnail?panoid=oaHRG0QPRoe4u--xCltf4w&cb_client=maps_sv.tactile.gps&w=224&h=298&yaw=147.78845&pitch=0&thumbfov=100"
            }
        ],
        "link": "https://www.google.com/maps/place/Fulwar+masjid/data=!4m7!3m6!1s0x3a1cf5e4649a949b:0x401288b0da6ed17!8m2!3d21.4933578!4d86.9134794!16s%2Fg%2F11jt380pyn!19sChIJm5SaZOT1HDoRF-2mDYsoAQQ?authuser=0&hl=en&rclk=1",
        "coordinates": {
            "latitude": 21.4933578,
            "longitude": 86.9134794
        }
    },
    {
        "name": "binnaabaaid uttrpaarraa jaame msjid",
        "main_category": "Mosque",
        "address": "FWPF+QVC binnaabaaid uttrpaarraa jaame msjid, Pragati Nagar, Mallikashpur, Balasore, Odisha 756001",
        "detailed_address": {
            "ward": "Pragati Nagar, Mallikashpur",
            "street": "FWPF+QVC",
            "city": "Balasore",
            "postal_code": null,
            "state": "Odisha",
            "country_code": "IN"
        },
        "images": [
            {
                "about": "All",
                "link": "https://streetviewpixels-pa.googleapis.com/v1/thumbnail?panoid=sz0BQs5ld-yOf4-le-aPJw&cb_client=maps_sv.tactile.gps&w=224&h=298&yaw=171.06244&pitch=0&thumbfov=100"
            },
            {
                "about": "Street View & 360deg",
                "link": "https://streetviewpixels-pa.googleapis.com/v1/thumbnail?panoid=sz0BQs5ld-yOf4-le-aPJw&cb_client=maps_sv.tactile.gps&w=224&h=298&yaw=171.06244&pitch=0&thumbfov=100"
            }
        ],
        "link": "https://www.google.com/maps/place/%E0%A6%AC%E0%A6%BF%E0%A6%A8%E0%A7%8D%E0%A6%A8%E0%A6%BE%E0%A6%AC%E0%A6%BE%E0%A6%87%E0%A6%A6+%E0%A6%89%E0%A6%A4%E0%A7%8D%E0%A6%A4%E0%A6%B0%E0%A6%AA%E0%A6%BE%E0%A7%9C%E0%A6%BE+%E0%A6%9C%E0%A6%BE%E0%A6%AE%E0%A7%87+%E0%A6%AE%E0%A6%B8%E0%A6%9C%E0%A6%BF%E0%A6%A6/data=!4m7!3m6!1s0x3a1cf51bea35d103:0x50674c39f1b24632!8m2!3d21.4869254!4d86.9246557!16s%2Fg%2F11h3x4zctg!19sChIJA9E16hv1HDoRMkay8TlMZ1A?authuser=0&hl=en&rclk=1",
        "coordinates": {
            "latitude": 21.4869254,
            "longitude": 86.9246557
        }
    }
]