[
    {
        "name": "TNTJ Eidgah(Eid Mussallah)",
        "main_category": "Mosque",
        "address": "QPMJ+95V TNTJ Eidgah(Eid Mussallah), Anna Nagar, Ambur Plantation R F, Ambur, Tamil Nadu 635802",
        "detailed_address": {
            "ward": "Anna Nagar, Ambur Plantation R F",
            "street": "QPMJ+95V",
            "city": "Ambur",
            "postal_code": "635802",
            "state": "Tamil Nadu",
            "country_code": "IN"
        },
        "images": [
            {
                "about": "All",
                "link": "https://lh5.googleusercontent.com/p/AF1QipOSHAKmZ-Ir2Eswo-nXdM-iQSU-Kg9g5kMlNy_M=w397-h298-k-no"
            }
        ],
        "link": "https://www.google.com/maps/place/TNTJ+Eidgah%28Eid+Mussallah%29/data=!4m7!3m6!1s0x3bad08dc9cd446d1:0xe40756a0024f2bb6!8m2!3d12.7834802!4d78.7304236!16s%2Fg%2F11dztq4pr3!19sChIJ0UbUnNwIrTsRtitPAqBWB-Q?authuser=0&hl=en&rclk=1",
        "coordinates": {
            "latitude": 12.7834802,
            "longitude": 78.7304236
        }
    },
    {
        "name": "Masjid E Rasheedh (TNTJ Bazaar Branch)",
        "main_category": "Mosque",
        "address": "QPQ7+28P Masjid E Rasheedh (TNTJ Bazaar Branch), Krishnapuram, Ambur, Tamil Nadu 635802",
        "detailed_address": {
            "ward": "Krishnapuram",
            "street": "QPQ7+28P",
            "city": "Ambur",
            "postal_code": "635802",
            "state": "Tamil Nadu",
            "country_code": "IN"
        },
        "images": [
            {
                "about": "All",
                "link": "https://lh5.googleusercontent.com/p/AF1QipPtqcaWlHOyG_0ZxbnZXHILSoQ_rI5sMSjslSEJ=w529-h298-k-no"
            }
        ],
        "link": "https://www.google.com/maps/place/Masjid+E+Rasheedh+%28TNTJ+Bazaar+Branch%29/data=!4m7!3m6!1s0x3bad094ba499626f:0xfed2b5439de8bbb7!8m2!3d12.7875798!4d78.7133131!16s%2Fg%2F11hdxbrb4v!19sChIJb2KZpEsJrTsRt7vonUO10v4?authuser=0&hl=en&rclk=1",
        "coordinates": {
            "latitude": 12.7875798,
            "longitude": 78.7133131
        }
    },
    {
        "name": "MASJID E UMAR ZULAIQA",
        "main_category": "Mosque",
        "address": "MASJID E UMAR ZULAIQA, No. 329/3, Tower Road, 2nd Cross, street, Thutipet, Ambur, Tamil Nadu 635811",
        "detailed_address": {
            "ward": "Thutipet",
            "street": "No. 329/3, Tower Road, 2nd Cross, street",
            "city": "Ambur",
            "postal_code": "635811",
            "state": "Tamil Nadu",
            "country_code": "IN"
        },
        "images": [
            {
                "about": "All",
                "link": "https://lh5.googleusercontent.com/p/AF1QipNokI1P9q0FOKJ_lW_p19_GYs7bbV3Y7XDkcckQ=w476-h298-k-no"
            },
            {
                "about": "By owner",
                "link": "https://lh5.googleusercontent.com/p/AF1QipP84ARHPkG5ARxaU6S0JQfazyAQsXycbTHsR4dT=w298-h298-k-no"
            }
        ],
        "link": "https://www.google.com/maps/place/MASJID+E+UMAR+ZULAIQA/data=!4m7!3m6!1s0x3bad093defe8c75b:0x864c7944449d568a!8m2!3d12.8052881!4d78.7073862!16s%2Fg%2F11s5fp7kw0!19sChIJW8fo7z0JrTsRiladRER5TIY?authuser=0&hl=en&rclk=1",
        "coordinates": {
            "latitude": 12.8052881,
            "longitude": 78.7073862
        }
    },
    {
        "name": "Jamia Masjid - Big mosque(brry msjd)VANIYAMBADI",
        "main_category": "Mosque",
        "address": "Jamia Masjid - Big mosque(brry msjd)VANIYAMBADI, 146, Mottu Kollai W St, Ambur - Vaniyambadi Rd, Jalal Pet, Mootukollai, Tamil Nadu 635802",
        "detailed_address": {
            "ward": "Jalal Pet, Mootukollai",
            "street": "146, Mottu Kollai W St, Ambur - Vaniyambadi Rd",
            "city": "Ambur",
            "postal_code": "635802",
            "state": "Tamil Nadu",
            "country_code": "IN"
        },
        "images": [
            {
                "about": "All",
                "link": "https://lh5.googleusercontent.com/p/AF1QipMGhAoin8CryuWpnOMdChpQZZbhmkXrBCp4gWWY=w224-h398-k-no"
            },
            {
                "about": "Videos",
                "link": "https://lh5.googleusercontent.com/p/AF1QipO1hhGh6jG99vPjV8MQyVEbOuLiJcFVJw4PcooU=w229-h298-k-no"
            }
        ],
        "link": "https://www.google.com/maps/place/Jamia+Masjid+-+Big+mosque%28%D8%A8%DA%91%DB%8C+%D9%85%D8%B3%D8%AC%D8%AF%29VANIYAMBADI%E2%80%AD/data=!4m7!3m6!1s0x3bad08fd5ac61341:0x3f7d13f23121c0cc!8m2!3d12.7913807!4d78.7122425!16s%2Fg%2F1tgjjqtp!19sChIJQRPGWv0IrTsRzMAhMfITfT8?authuser=0&hl=en&rclk=1",
        "coordinates": {
            "latitude": 12.7913807,
            "longitude": 78.7122425
        }
    },
    {
        "name": "MASJID-E-HASHIM msjd hshm",
        "main_category": "Mosque",
        "address": "MASJID-E-HASHIM msjd hshm, Masjid-e, Hashim Road, Vaatimanai, Ambur, Tamil Nadu 635802",
        "detailed_address": {
            "ward": "Vaatimanai",
            "street": "Masjid-e, Hashim Road",
            "city": "Ambur",
            "postal_code": "635802",
            "state": "Tamil Nadu",
            "country_code": "IN"
        },
        "images": [
            {
                "about": "All",
                "link": "https://lh5.googleusercontent.com/p/AF1QipPIsdl2wFfcI7QpUA7HdzUQKkNn9QhhYC4mm-Vy=w224-h298-k-no"
            }
        ],
        "link": "https://www.google.com/maps/place/MASJID-E-HASHIM+%D9%85%D8%B3%D8%AC%D8%AF+%DB%81%D8%A7%D8%B4%D9%85%E2%80%AD/data=!4m7!3m6!1s0x3bad091dc77062b7:0xe9c284cb25abcb7a!8m2!3d12.7933314!4d78.7169672!16s%2Fg%2F124yc0pv7!19sChIJt2Jwxx0JrTsResurJcuEwuk?authuser=0&hl=en&rclk=1",
        "coordinates": {
            "latitude": 12.7933314,
            "longitude": 78.7169672
        }
    },
    {
        "name": "Neelifield Masjid (msjd nyly khhyt)",
        "main_category": "Mosque",
        "address": "Neelifield Masjid (msjd nyly khhyt), neeli fild mosque, VA Kareem Rd, Flower bazar, Ambur, Tamil Nadu 635802",
        "detailed_address": {
            "ward": "Flower bazar",
            "street": "neeli fild mosque, VA Kareem Rd",
            "city": "Ambur",
            "postal_code": "635802",
            "state": "Tamil Nadu",
            "country_code": "IN"
        },
        "images": [
            {
                "about": "All",
                "link": "https://lh5.googleusercontent.com/p/AF1QipMUUVNU7bQd52SJF8gYgBW4vQa-6yO97vGXaSk=w397-h298-k-no"
            },
            {
                "about": "Dome",
                "link": "https://lh5.googleusercontent.com/p/AF1QipP5VgNxXQwK-kdapsZlTzjW81MlWI6yupKTuGna=w529-h298-k-no"
            },
            {
                "about": "Videos",
                "link": "https://lh5.googleusercontent.com/p/AF1QipOBylmDJ-Nrof_EPsBlRSPYIoHFgsK09cjd4oRA=w397-h298-k-no"
            }
        ],
        "link": "https://www.google.com/maps/place/Neelifield+Masjid+%28%D9%85%D8%B3%D8%AC%D8%AF+%D9%86%DB%8C%D9%84%DB%8C+%DA%A9%DA%BE%DB%8C%D8%AA%29%E2%80%AD/data=!4m7!3m6!1s0x3bad08e1442dcdc5:0x17a088c400229970!8m2!3d12.7873985!4d78.7199841!16s%2Fg%2F11cjhc9pdh!19sChIJxc0tROEIrTsRcJkiAMSIoBc?authuser=0&hl=en&rclk=1",
        "coordinates": {
            "latitude": 12.7873985,
            "longitude": 78.71998409999999
        }
    },
    {
        "name": "Choti Masjid Shadi Mahal",
        "main_category": "Mosque",
        "address": "QPQ6+JMR Choti Masjid Shadi Mahal, Sunnambukalai, Mootukollai, Ambur, Tamil Nadu 635802",
        "detailed_address": {
            "ward": "Sunnambukalai, Mootukollai",
            "street": "QPQ6+JMR",
            "city": "Ambur",
            "postal_code": "635802",
            "state": "Tamil Nadu",
            "country_code": "IN"
        },
        "images": [
            {
                "about": "All",
                "link": "https://lh5.googleusercontent.com/p/AF1QipMy0e1tjGW6BSaDATP6LBOPTdRF0saW21ElGkoG=w529-h298-k-no"
            }
        ],
        "link": "https://www.google.com/maps/place/Choti+Masjid+Shadi+Mahal/data=!4m7!3m6!1s0x3bad08fd1d0bf9af:0x451ced24b1c229ae!8m2!3d12.7891216!4d78.7116368!16s%2Fg%2F124syx83p!19sChIJr_kLHf0IrTsRrinCsSTtHEU?authuser=0&hl=en&rclk=1",
        "coordinates": {
            "latitude": 12.7891216,
            "longitude": 78.7116368
        }
    },
    {
        "name": "Masjid-E-Mohideen Pura",
        "main_category": "Mosque",
        "address": "QPM8+QRM Masjid-E-Mohideen Pura, Flower bazar, Ambur, Tamil Nadu 635802",
        "detailed_address": {
            "ward": "Flower bazar",
            "street": "QPM8+QRM",
            "city": "Ambur",
            "postal_code": "635802",
            "state": "Tamil Nadu",
            "country_code": "IN"
        },
        "images": [
            {
                "about": "All",
                "link": "https://lh5.googleusercontent.com/p/AF1QipNm8ug9esMEDo9Llk6B9_cc2rGubiUIEyLrvMJZ=w397-h298-k-no"
            },
            {
                "about": "Latest",
                "link": "https://lh5.googleusercontent.com/p/AF1QipPzpXSF6c35Xiz81ilZFhmsLQy_tKW1-am_ZwEy=w224-h404-k-no"
            }
        ],
        "link": "https://www.google.com/maps/place/Masjid-E-Mohideen+Pura/data=!4m7!3m6!1s0x3bad08e45ae61ce5:0x766d8269af247751!8m2!3d12.7844689!4d78.717044!16s%2Fg%2F11cnc5k1qq!19sChIJ5RzmWuQIrTsRUXckr2mCbXY?authuser=0&hl=en&rclk=1",
        "coordinates": {
            "latitude": 12.7844689,
            "longitude": 78.717044
        }
    },
    {
        "name": "Noorullahpet Mosque",
        "main_category": "Mosque",
        "address": "QPR8+MGP Noorullahpet Mosque, Karumbur Patel St, Noorullahpet, Naganadi, Ambur, Tamil Nadu 635802",
        "detailed_address": {
            "ward": "Noorullahpet, Naganadi",
            "street": "QPR8+MGP, Karumbur Patel St",
            "city": "Ambur",
            "postal_code": "635802",
            "state": "Tamil Nadu",
            "country_code": "IN"
        },
        "images": [
            {
                "about": "All",
                "link": "https://lh5.googleusercontent.com/p/AF1QipPLK6Z5D8m2K13BU7-Rw7LpSxMCQJtcRLHlyKMG=w397-h298-k-no"
            },
            {
                "about": "Dome",
                "link": "https://lh5.googleusercontent.com/p/AF1QipPEGjQN6r3fePT9GK0zxNnvhtQDf972hFox2sXN=w298-h298-k-no"
            }
        ],
        "link": "https://www.google.com/maps/place/Noorullahpet+Mosque/data=!4m7!3m6!1s0x3bad08e2873483d1:0x21f62a479903c926!8m2!3d12.7917245!4d78.7163329!16s%2Fg%2F1tlmls5t!19sChIJ0YM0h-IIrTsRJskDmUcq9iE?authuser=0&hl=en&rclk=1",
        "coordinates": {
            "latitude": 12.791724499999999,
            "longitude": 78.7163329
        }
    },
    {
        "name": "Kangerthakiya Mosque",
        "main_category": "Mosque",
        "address": "Kangerthakiya Mosque, Devalapuram, Ambur, Tamil Nadu 635802",
        "detailed_address": {
            "ward": "Devalapuram",
            "street": null,
            "city": "Ambur",
            "postal_code": "635802",
            "state": "Tamil Nadu",
            "country_code": "IN"
        },
        "images": [
            {
                "about": "All",
                "link": "https://lh5.googleusercontent.com/p/AF1QipNy-Xx8AxTQQYObKeEFSN8yh9ekXy2YJ96VuwdF=w224-h397-k-no"
            }
        ],
        "link": "https://www.google.com/maps/place/Kangerthakiya+Mosque/data=!4m7!3m6!1s0x3bad08fcf15d5ee1:0x3e50c7d8617e501!8m2!3d12.787985!4d78.7112065!16s%2Fg%2F1tf5zqtc!19sChIJ4V5d8fwIrTsRAeUXhn0M5QM?authuser=0&hl=en&rclk=1",
        "coordinates": {
            "latitude": 12.787984999999999,
            "longitude": 78.7112065
        }
    },
    {
        "name": "Masjid-e-Baitul Mukarram (Phool Baagh Masjid)",
        "main_category": "Mosque",
        "address": "Masjid-e-Baitul Mukarram (Phool Baagh Masjid), Flower Garden, Naganadi, Ambur, Tamil Nadu 635802",
        "detailed_address": {
            "ward": "Naganadi",
            "street": "Flower Garden",
            "city": "Ambur",
            "postal_code": "635802",
            "state": "Tamil Nadu",
            "country_code": "IN"
        },
        "images": [
            {
                "about": "All",
                "link": "https://lh5.googleusercontent.com/p/AF1QipOWYbM3J5CnofjTUvUwO0oNXLUPi8xiD8WlmQ_j=w224-h298-k-no"
            },
            {
                "about": "Dome",
                "link": "https://lh5.googleusercontent.com/p/AF1QipOWYbM3J5CnofjTUvUwO0oNXLUPi8xiD8WlmQ_j=w224-h298-k-no"
            }
        ],
        "link": "https://www.google.com/maps/place/Masjid-e-Baitul+Mukarram+%28Phool+Baagh+Masjid%29/data=!4m7!3m6!1s0x3bad08e0e4329cff:0x44321ac640437a91!8m2!3d12.7885737!4d78.7229456!16s%2Fg%2F124yg_jl3!19sChIJ_5wy5OAIrTsRkXpDQMYaMkQ?authuser=0&hl=en&rclk=1",
        "coordinates": {
            "latitude": 12.788573699999999,
            "longitude": 78.7229456
        }
    },
    {
        "name": "Masjid-E-Showkath Ali",
        "main_category": "Mosque",
        "address": "Masjid-E-Showkath Ali, 4, Barnakar 2nd St, Naganadi, Ambur, Tamil Nadu 635802",
        "detailed_address": {
            "ward": "Naganadi",
            "street": "4, Barnakar 2nd St",
            "city": "Ambur",
            "postal_code": "635802",
            "state": "Tamil Nadu",
            "country_code": "IN"
        },
        "images": [
            {
                "about": "All",
                "link": "https://lh5.googleusercontent.com/p/AF1QipNpiBFB32yen1Lz0mUh948W5heL8wYzsNZvdLT8=w397-h298-k-no"
            }
        ],
        "link": "https://www.google.com/maps/place/Masjid-E-Showkath+Ali/data=!4m7!3m6!1s0x3bad08e1add8c89d:0x2f5d554ea6fc403f!8m2!3d12.790068!4d78.7218022!16s%2Fg%2F124srn0j4!19sChIJncjYreEIrTsRP0D8pk5VXS8?authuser=0&hl=en&rclk=1",
        "coordinates": {
            "latitude": 12.790068,
            "longitude": 78.7218022
        }
    },
    {
        "name": "Sandapet Masjid",
        "main_category": "Mosque",
        "address": "QPQ8+4X3 Sandapet Masjid, Nethaji Rd, Flower bazar, Ambur, Tamil Nadu 635802",
        "detailed_address": {
            "ward": "Flower bazar",
            "street": "QPQ8+4X3, Nethaji Rd",
            "city": "Ambur",
            "postal_code": "635802",
            "state": "Tamil Nadu",
            "country_code": "IN"
        },
        "images": [
            {
                "about": "All",
                "link": "https://lh5.googleusercontent.com/p/AF1QipNMubySAloxrw60l-lnZAx6N3yeTrYX8n0F8umg=w224-h298-k-no"
            },
            {
                "about": "Dome",
                "link": "https://lh5.googleusercontent.com/p/AF1QipNMubySAloxrw60l-lnZAx6N3yeTrYX8n0F8umg=w224-h298-k-no"
            }
        ],
        "link": "https://www.google.com/maps/place/Sandapet+Masjid/data=!4m7!3m6!1s0x3bad08e3969b680b:0x8a2a8feec4cec04f!8m2!3d12.7877503!4d78.7174259!16s%2Fg%2F1tglxdyz!19sChIJC2ibluMIrTsRT8DOxO6PKoo?authuser=0&hl=en&rclk=1",
        "coordinates": {
            "latitude": 12.787750299999999,
            "longitude": 78.7174259
        }
    },
    {
        "name": "Masjid -E-Ameen",
        "main_category": "Mosque",
        "address": "Masjid -E-Ameen, Eidgah Back side,, Ambur, Tamil Nadu 635802",
        "detailed_address": {
            "ward": "Ambedkar Nagar",
            "street": "Eidgah Back side,",
            "city": "Ambur, Labbaimankuppam",
            "postal_code": "635802",
            "state": "Tamil Nadu",
            "country_code": "IN"
        },
        "images": [
            {
                "about": "All",
                "link": "https://lh5.googleusercontent.com/p/AF1QipO1BnFPzg9MAUR09KkZPms59UBJ29rgI1IUl85m=w527-h298-k-no"
            },
            {
                "about": "By owner",
                "link": "https://lh5.googleusercontent.com/p/AF1QipOxh7FU9fJdZ7ACRUqL4unE1SBtGcSgRICndEGQ=w628-h298-k-no"
            }
        ],
        "link": "https://www.google.com/maps/place/Masjid+-E-Ameen/data=!4m7!3m6!1s0x3bad090190b9b521:0x4311583aac76c3f2!8m2!3d12.793728!4d78.7069254!16s%2Fg%2F11cs4jb1t6!19sChIJIbW5kAEJrTsR8sN2rDpYEUM?authuser=0&hl=en&rclk=1",
        "coordinates": {
            "latitude": 12.793728,
            "longitude": 78.7069254
        }
    },
    {
        "name": "MASJID -E-AQSA",
        "main_category": "Mosque",
        "address": "MASJID -E-AQSA, Judge Manai, Vaatimanai, Ambur, Tamil Nadu 635802",
        "detailed_address": {
            "ward": "Vaatimanai",
            "street": "Judge Manai",
            "city": "Ambur",
            "postal_code": "635802",
            "state": "Tamil Nadu",
            "country_code": "IN"
        },
        "images": [
            {
                "about": "All",
                "link": "https://lh5.googleusercontent.com/p/AF1QipOgPeoUp9jXRgUzBdxG90f46gHTaqTi328kL_MS=w397-h298-k-no"
            },
            {
                "about": "Videos",
                "link": "https://lh5.googleusercontent.com/p/AF1QipMqmzNnaHoAKyriLK6FhSbFUYnp3h3PXIMI0icP=w541-h298-k-no"
            }
        ],
        "link": "https://www.google.com/maps/place/MASJID+-E-AQSA/data=!4m7!3m6!1s0x3bad091cc0ae2dc3:0x380785431fa28bf6!8m2!3d12.7962213!4d78.7147031!16s%2Fg%2F11cjnnkdgs!19sChIJwy2uwBwJrTsR9ouiH0OFBzg?authuser=0&hl=en&rclk=1",
        "coordinates": {
            "latitude": 12.7962213,
            "longitude": 78.7147031
        }
    },
    {
        "name": "Fathima Masjid",
        "main_category": "Mosque",
        "address": "QPV7+CP2 Fathima Masjid, 2nd St, Jalal Pet, Vaatimanai, Ambur, Tamil Nadu 635802",
        "detailed_address": {
            "ward": "Jalal Pet, Vaatimanai",
            "street": "QPV7+CP2, 2nd St",
            "city": "Ambur",
            "postal_code": "635802",
            "state": "Tamil Nadu",
            "country_code": "IN"
        },
        "images": [
            {
                "about": "All",
                "link": "https://lh5.googleusercontent.com/p/AF1QipOpvQNsxgaE7mDp2KEN150Es9x4mIuqsMdNC82k=w224-h298-k-no"
            }
        ],
        "link": "https://www.google.com/maps/place/Fathima+Masjid/data=!4m7!3m6!1s0x3bad091d3792662d:0x4a384073748bc4b7!8m2!3d12.7935162!4d78.7142676!16s%2Fg%2F1tfvrd6w!19sChIJLWaSNx0JrTsRt8SLdHNAOEo?authuser=0&hl=en&rclk=1",
        "coordinates": {
            "latitude": 12.7935162,
            "longitude": 78.7142676
        }
    },
    {
        "name": "Masjid- E- Abrar",
        "main_category": "Mosque",
        "address": "Masjid- E- Abrar, Tableeghi Markaz, Anna Nagar, Ambur Plantation R F, Ambur, Tamil Nadu 635802",
        "detailed_address": {
            "ward": "Anna Nagar, Ambur Plantation R F",
            "street": "Tableeghi Markaz",
            "city": "Ambur",
            "postal_code": "635802",
            "state": "Tamil Nadu",
            "country_code": "IN"
        },
        "images": [
            {
                "about": "All",
                "link": "https://lh5.googleusercontent.com/p/AF1QipN5wYm5dcJrLlAuj8HGuWxqp47wTWjtLI8krF32=w529-h298-k-no"
            },
            {
                "about": "Dome",
                "link": "https://lh5.googleusercontent.com/p/AF1QipPV0riNSyDrnUmZO5dli7YU1x2b8JO8hsjPcAbD=w224-h298-k-no"
            }
        ],
        "link": "https://www.google.com/maps/place/Masjid-+E-+Abrar/data=!4m7!3m6!1s0x3bad08dc300eb043:0xbc2cada6439cbcbc!8m2!3d12.7861172!4d78.7285372!16s%2Fg%2F11f50s3y9c!19sChIJQ7AOMNwIrTsRvLycQ6atLLw?authuser=0&hl=en&rclk=1",
        "coordinates": {
            "latitude": 12.7861172,
            "longitude": 78.72853719999999
        }
    },
    {
        "name": "Choti Masjid",
        "main_category": "Mosque",
        "address": "QPR7+222 Choti Masjid, Eidgah Rd, Mootukollai, Ambur, Tamil Nadu 635802",
        "detailed_address": {
            "ward": "Mootukollai",
            "street": "QPR7+222, Eidgah Rd",
            "city": "Ambur",
            "postal_code": "635802",
            "state": "Tamil Nadu",
            "country_code": "IN"
        },
        "images": [
            {
                "about": "All",
                "link": "https://lh5.googleusercontent.com/p/AF1QipOWtAkBYbVpOgExDUuJYKciy5Yvn247zbRqJgR-=w660-h298-k-no"
            }
        ],
        "link": "https://www.google.com/maps/place/Choti+Masjid/data=!4m7!3m6!1s0x3bad08fd3c7a8a1f:0x7463abc6582353ec!8m2!3d12.7900174!4d78.7125114!16s%2Fg%2F11g8kq_w9r!19sChIJH4p6PP0IrTsR7FMjWMarY3Q?authuser=0&hl=en&rclk=1",
        "coordinates": {
            "latitude": 12.7900174,
            "longitude": 78.7125114
        }
    },
    {
        "name": "Makka Masjid",
        "main_category": "Mosque",
        "address": "QPRG+7VV Makka Masjid, NH 46, Anna Nagar, Ambur Plantation R F, Ambur, Tamil Nadu 635802",
        "detailed_address": {
            "ward": "Anna Nagar, Ambur Plantation R F",
            "street": "QPRG+7VV, NH 46",
            "city": "Ambur",
            "postal_code": "635802",
            "state": "Tamil Nadu",
            "country_code": "IN"
        },
        "images": [
            {
                "about": "All",
                "link": "https://lh5.googleusercontent.com/p/AF1QipPR6mQJsLb3dqQmIDoXeOww8tmYpJj3mqdgtnVS=w396-h298-k-no"
            },
            {
                "about": "Street View & 360deg",
                "link": "https://streetviewpixels-pa.googleapis.com/v1/thumbnail?panoid=cHOI1tBuUnOmEzWbEZWYtg&cb_client=maps_sv.tactile.gps&w=224&h=298&yaw=113.81429&pitch=0&thumbfov=100"
            }
        ],
        "link": "https://www.google.com/maps/place/Makka+Masjid/data=!4m7!3m6!1s0x3bad08df9e710fe5:0xdd529e7097f7a162!8m2!3d12.7907434!4d78.7271767!16s%2Fg%2F11b7jgy9pk!19sChIJ5Q9xnt8IrTsRYqH3l3CeUt0?authuser=0&hl=en&rclk=1",
        "coordinates": {
            "latitude": 12.7907434,
            "longitude": 78.7271767
        }
    },
    {
        "name": "Masjid E Inaam ul Hasan",
        "main_category": "Mosque",
        "address": "Ward No -12, Masjid E Inaam ul Hasan, Water Tank Street MK Kollai, Ambur Plantation R F, Ambur, Tamil Nadu 635802",
        "detailed_address": {
            "ward": "Ambur Plantation R F",
            "street": "Ward No -12, Water Tank Street MK Kollai",
            "city": "Ambur",
            "postal_code": "635802",
            "state": "Tamil Nadu",
            "country_code": "IN"
        },
        "images": [
            {
                "about": "All",
                "link": "https://lh5.googleusercontent.com/p/AF1QipPICgA8LGyjn-GS5crKmdHVMyI6AwiqdaDi957w=w224-h398-k-no"
            },
            {
                "about": "Videos",
                "link": "https://lh5.googleusercontent.com/p/AF1QipP-snbXYecp-Tg8eAkas6c8sqaDHiATo2jbb6F6=w224-h398-k-no"
            }
        ],
        "link": "https://www.google.com/maps/place/Masjid+E+Inaam+ul+Hasan/data=!4m7!3m6!1s0x3bad08e006a264af:0x47787b32f4f3bfbe!8m2!3d12.7928982!4d78.7249219!16s%2Fg%2F11f0kntfwz!19sChIJr2SiBuAIrTsRvr_z9DJ7eEc?authuser=0&hl=en&rclk=1",
        "coordinates": {
            "latitude": 12.7928982,
            "longitude": 78.7249219
        }
    },
    {
        "name": "Masjid-E-Nimra",
        "main_category": "Mosque",
        "address": "QP72+953 Masjid-E-Nimra, Solur, Kammakrishnapalli, Ambur, Tamil Nadu 635802",
        "detailed_address": {
            "ward": "Solur",
            "street": "QP72+953",
            "city": "Kammakrishnapalli, Ambur",
            "postal_code": "635802",
            "state": "Tamil Nadu",
            "country_code": "IN"
        },
        "images": [
            {
                "about": "All",
                "link": "https://lh5.googleusercontent.com/p/AF1QipPR-X8AGF92T7f20dcKe7KX0PCopo5WqNFBRS3-=w224-h298-k-no"
            }
        ],
        "link": "https://www.google.com/maps/place/Masjid-E-Nimra/data=!4m7!3m6!1s0x3bad08622987ef17:0x6844a1de3d36fac6!8m2!3d12.7633759!4d78.7004277!16s%2Fg%2F11cn8ytbfw!19sChIJF--HKWIIrTsRxvo2Pd6hRGg?authuser=0&hl=en&rclk=1",
        "coordinates": {
            "latitude": 12.7633759,
            "longitude": 78.70042769999999
        }
    },
    {
        "name": "Masjid-e-Taqwa msjd tqw",
        "main_category": "Mosque",
        "address": "QPM8+CWF Masjid-e-Taqwa msjd tqw, Umar Road, Flower bazar, Ambur, Tamil Nadu 635802",
        "detailed_address": {
            "ward": "Flower bazar",
            "street": "QPM8+CWF, Umar Road",
            "city": "Ambur",
            "postal_code": "635802",
            "state": "Tamil Nadu",
            "country_code": "IN"
        },
        "images": [
            {
                "about": "All",
                "link": "https://lh5.googleusercontent.com/p/AF1QipMTdlN0O75fvMxLebsyfZ_ksB0zvyDP-DcVtnF8=w397-h298-k-no"
            },
            {
                "about": "Videos",
                "link": "https://lh5.googleusercontent.com/p/AF1QipNlPScRCL1VlG33Dxu_foF5fIqvivAoimd5QAnI=w529-h298-k-no"
            }
        ],
        "link": "https://www.google.com/maps/place/Masjid-e-Taqwa+%D9%85%D8%B3%D8%AC%D8%AF+%D8%AA%D9%82%D9%88%D8%A7%E2%80%AD/data=!4m7!3m6!1s0x3bad08e5af60b533:0xd30211fc5d7abf0e!8m2!3d12.7835514!4d78.7172952!16s%2Fg%2F1tg2j31b!19sChIJM7Vgr-UIrTsRDr96XfwRAtM?authuser=0&hl=en&rclk=1",
        "coordinates": {
            "latitude": 12.783551399999999,
            "longitude": 78.7172952
        }
    },
    {
        "name": "Small Mosque",
        "main_category": "Mosque",
        "address": "Small Mosque, Eidgah Rd, Mootukollai, Ambur, Tamil Nadu 635802",
        "detailed_address": {
            "ward": "Mootukollai",
            "street": "Small Mosque, Eidgah Rd",
            "city": "Ambur",
            "postal_code": "635802",
            "state": "Tamil Nadu",
            "country_code": "IN"
        },
        "images": [
            {
                "about": "All",
                "link": "https://lh5.googleusercontent.com/p/AF1QipOwnj5XLG3WAVFK_CTt2Nw6BTKwBAkKED2bE-a6=w224-h298-k-no"
            }
        ],
        "link": "https://www.google.com/maps/place/Small+Mosque/data=!4m7!3m6!1s0x3bad08fd3c8683c7:0x1d0ab4af456f48cc!8m2!3d12.7899563!4d78.7125134!16s%2Fg%2F11g6hrjmzx!19sChIJx4OGPP0IrTsRzEhvRa-0Ch0?authuser=0&hl=en&rclk=1",
        "coordinates": {
            "latitude": 12.7899563,
            "longitude": 78.71251339999999
        }
    },
    {
        "name": "Chowk Masjid",
        "main_category": "Mosque",
        "address": "Chowk Masjid, Street, Gangapuram, Naganadi, Ambur, Tamil Nadu 635802",
        "detailed_address": {
            "ward": "Gangapuram, Naganadi",
            "street": "Chowk Masjid, Street",
            "city": "Ambur",
            "postal_code": "635802",
            "state": "Tamil Nadu",
            "country_code": "IN"
        },
        "images": [
            {
                "about": "All",
                "link": "https://lh5.googleusercontent.com/p/AF1QipPj0we_Gn-PJWkvp6tIaCPCVXucFqtWyypg6xWm=w528-h298-k-no"
            },
            {
                "about": "Videos",
                "link": "https://lh5.googleusercontent.com/p/AF1QipNLOtDXq2tXHkfdUT6JPWC6RS1--UzOjoJuLg55=w224-h398-k-no"
            }
        ],
        "link": "https://www.google.com/maps/place/Chowk+Masjid/data=!4m7!3m6!1s0x3bad09b1e0e1b1b7:0xeb8a163b217f63f3!8m2!3d12.7895972!4d78.7154905!16s%2Fg%2F11h1kn7z1w!19sChIJt7Hh4LEJrTsR82N_ITsWius?authuser=0&hl=en&rclk=1",
        "coordinates": {
            "latitude": 12.7895972,
            "longitude": 78.7154905
        }
    },
    {
        "name": "Masjid-E-Noor",
        "main_category": "Mosque",
        "address": "QPHF+2W9 Masjid-E-Noor, Gandhi Nagar, Ambur Plantation R F, Ambur, Tamil Nadu 635802",
        "detailed_address": {
            "ward": "Gandhi Nagar, Ambur Plantation R F",
            "street": "QPHF+2W9",
            "city": "Ambur",
            "postal_code": "635802",
            "state": "Tamil Nadu",
            "country_code": "IN"
        },
        "images": [
            {
                "about": "All",
                "link": "https://lh5.googleusercontent.com/p/AF1QipOF-O4E8AaG489gthwYbI1JbyPRKQwdEeAlC7tv=w224-h298-k-no"
            },
            {
                "about": "Videos",
                "link": "https://lh5.googleusercontent.com/p/AF1QipOIpVTdxQmX54AZBLw4BYMCxQr7x5kCkr1bOFp5=w224-h389-k-no"
            }
        ],
        "link": "https://www.google.com/maps/place/Masjid-E-Noor/data=!4m7!3m6!1s0x3bad08e9d816e90d:0x4f9434cb3cbd3c94!8m2!3d12.7775381!4d78.7248741!16s%2Fg%2F11dfknzs9d!19sChIJDekW2OkIrTsRlDy9PMs0lE8?authuser=0&hl=en&rclk=1",
        "coordinates": {
            "latitude": 12.7775381,
            "longitude": 78.7248741
        }
    },
    {
        "name": "Masjid e Hazrath Ali",
        "main_category": "Mosque",
        "address": "QPPC+5C6 Masjid e Hazrath Ali, Habibia Road, Flower bazar, Ambur, Tamil Nadu 635802",
        "detailed_address": {
            "ward": "Flower bazar",
            "street": "QPPC+5C6, Habibia Road",
            "city": "Ambur",
            "postal_code": "635802",
            "state": "Tamil Nadu",
            "country_code": "IN"
        },
        "images": [
            {
                "about": "All",
                "link": "https://lh5.googleusercontent.com/p/AF1QipNy5URK0LOAbfctGgxAz8GZ9icc1LvI0PzgkHVI=w224-h298-k-no"
            }
        ],
        "link": "https://www.google.com/maps/place/Masjid+e+Hazrath+Ali/data=!4m7!3m6!1s0x3bad08e6c17a6ff1:0x2801a9495615f398!8m2!3d12.7854207!4d78.721008!16s%2Fg%2F12qfky5rd!19sChIJ8W96weYIrTsRmPMVVkmpASg?authuser=0&hl=en&rclk=1",
        "coordinates": {
            "latitude": 12.7854207,
            "longitude": 78.721008
        }
    },
    {
        "name": "Masjid E Nazeer",
        "main_category": "Mosque",
        "address": "RPM7+MW4 Masjid E Nazeer, Qaide Millath, Nariyambut, Ambur, Tamil Nadu 635808",
        "detailed_address": {
            "ward": null,
            "street": "RPM7+MW4, Qaide Millath, Nariyambut, Ambur",
            "city": null,
            "postal_code": "635808",
            "state": "Tamil Nadu",
            "country_code": "IN"
        },
        "images": [
            {
                "about": "All",
                "link": "https://lh5.googleusercontent.com/p/AF1QipO0ZiD-ZcJbZfmOwZiaOJIrhkAPpRiDndjD-6o3=w394-h298-k-no"
            },
            {
                "about": "Dome",
                "link": "https://lh5.googleusercontent.com/p/AF1QipO0ZiD-ZcJbZfmOwZiaOJIrhkAPpRiDndjD-6o3=w394-h298-k-no"
            }
        ],
        "link": "https://www.google.com/maps/place/Masjid+E+Nazeer/data=!4m7!3m6!1s0x3bad0963217c028f:0x1c7375e3dc6962bb!8m2!3d12.8341441!4d78.7148244!16s%2Fg%2F11c45nyfmj!19sChIJjwJ8IWMJrTsRu2Jp3ON1cxw?authuser=0&hl=en&rclk=1",
        "coordinates": {
            "latitude": 12.8341441,
            "longitude": 78.7148244
        }
    },
    {
        "name": "Masjid E Mohibun Nisa",
        "main_category": "Mosque",
        "address": "QP84+78G Masjid E Mohibun Nisa, Mumbai Hwy, Opp. KAR Polytechnic College, Solur, Ambur, Tamil Nadu 635802",
        "detailed_address": {
            "ward": "Solur",
            "street": "QP84+78G, Mumbai Hwy, Opp. KAR Polytechnic College",
            "city": "Ambur",
            "postal_code": "635802",
            "state": "Tamil Nadu",
            "country_code": "IN"
        },
        "images": [
            {
                "about": "All",
                "link": "https://lh5.googleusercontent.com/p/AF1QipOP60RwFhQT6dCk87rgcSTQGtVgLhspqKjyXbWz=w272-h298-k-no"
            },
            {
                "about": "Dome",
                "link": "https://lh5.googleusercontent.com/p/AF1QipP6F8PEb_7ByjfK52KWg1yMu-9MlhMk2f9YViiG=w397-h298-k-no"
            },
            {
                "about": "Street View & 360deg",
                "link": "https://streetviewpixels-pa.googleapis.com/v1/thumbnail?panoid=xFrHfwZyVjNoUFyNnlKK4g&cb_client=maps_sv.tactile.gps&w=224&h=298&yaw=301.31076&pitch=0&thumbfov=100"
            }
        ],
        "link": "https://www.google.com/maps/place/Masjid+E+Mohibun+Nisa/data=!4m7!3m6!1s0x3bad088ba5955665:0x487c80a43270f85f!8m2!3d12.765698!4d78.7058205!16s%2Fg%2F124s_qw3n!19sChIJZVaVpYsIrTsRX_hwMqSAfEg?authuser=0&hl=en&rclk=1",
        "coordinates": {
            "latitude": 12.765697999999999,
            "longitude": 78.7058205
        }
    },
    {
        "name": "Masjid E Shukoor",
        "main_category": "Mosque",
        "address": "QPPF+M6G Masjid E Shukoor, Gandhi Nagar, Ambur Plantation R F, Ambur, Tamil Nadu 635802",
        "detailed_address": {
            "ward": "Gandhi Nagar, Ambur Plantation R F",
            "street": "QPPF+M6G",
            "city": "Ambur",
            "postal_code": "635802",
            "state": "Tamil Nadu",
            "country_code": "IN"
        },
        "images": [
            {
                "about": "All",
                "link": "https://lh5.googleusercontent.com/p/AF1QipPGbQ9CizKT6CtJngp90SDupPM4de_oCyMVo9hA=w224-h298-k-no"
            },
            {
                "about": "Street View & 360deg",
                "link": "https://streetviewpixels-pa.googleapis.com/v1/thumbnail?panoid=Wvr2yETqRDksdwhnAYNDoA&cb_client=maps_sv.tactile.gps&w=224&h=298&yaw=94.91405&pitch=0&thumbfov=100"
            }
        ],
        "link": "https://www.google.com/maps/place/Masjid+E+Shukoor/data=!4m7!3m6!1s0x3bad08e7335acd5d:0x24bb05ded2caf178!8m2!3d12.7866788!4d78.7230904!16s%2Fg%2F11b6ht4mt6!19sChIJXc1aM-cIrTsRePHK0t4FuyQ?authuser=0&hl=en&rclk=1",
        "coordinates": {
            "latitude": 12.786678799999999,
            "longitude": 78.72309039999999
        }
    },
    {
        "name": "Bilal Mosque",
        "main_category": "Mosque",
        "address": "Bilal Mosque, 3/2, 3rd Street, K.M. Nagar, Anna Nagar, pudumanai, Ambur, Tamil Nadu 625802",
        "detailed_address": {
            "ward": "K.M. Nagar, Anna Nagar, pudumanai",
            "street": "3/2, 3rd Street",
            "city": "Ambur",
            "postal_code": "625802",
            "state": "Tamil Nadu",
            "country_code": "IN"
        },
        "images": [
            {
                "about": "All",
                "link": "https://lh5.googleusercontent.com/p/AF1QipOr2gPVwlMN3TWT13nP_-thC3T21IdNwBjHEcZv=w529-h298-k-no"
            }
        ],
        "link": "https://www.google.com/maps/place/Bilal+Mosque/data=!4m7!3m6!1s0x3bad08de65ec0901:0x7beddaee4945fa95!8m2!3d12.7879684!4d78.7270945!16s%2Fg%2F11f3bn9x82!19sChIJAQnsZd4IrTsRlfpFSe7a7Xs?authuser=0&hl=en&rclk=1",
        "coordinates": {
            "latitude": 12.787968399999999,
            "longitude": 78.72709449999999
        }
    },
    {
        "name": "MASJID -E- NAYEEM",
        "main_category": "Mosque",
        "address": "QPMJ+95V MASJID -E- NAYEEM, Anna Nagar, Ambur Plantation R F, Ambur, Tamil Nadu 635802",
        "detailed_address": {
            "ward": "Anna Nagar, Ambur Plantation R F",
            "street": "QPMJ+95V",
            "city": "Ambur",
            "postal_code": "635802",
            "state": "Tamil Nadu",
            "country_code": "IN"
        },
        "images": [
            {
                "about": "All",
                "link": "https://lh5.googleusercontent.com/p/AF1QipO69YGwdtrEo1oCN6avz8Y2ytT2lihcGNjsqFpx=w397-h298-k-no"
            },
            {
                "about": "Videos",
                "link": "https://lh5.googleusercontent.com/p/AF1QipPR41LaIf67KSdav7DaYaGZE7e38AkYtJ7lapgP=w224-h398-k-no"
            }
        ],
        "link": "https://www.google.com/maps/place/MASJID+-E-+NAYEEM/data=!4m7!3m6!1s0x3bad09074e9deea5:0xa8e2b17a17535ec8!8m2!3d12.7834695!4d78.7305137!16s%2Fg%2F11sf6lmynw!19sChIJpe6dTgcJrTsRyF5TF3qx4qg?authuser=0&hl=en&rclk=1",
        "coordinates": {
            "latitude": 12.783469499999999,
            "longitude": 78.7305137
        }
    },
    {
        "name": "MASJIDE MOHAMMADE",
        "main_category": "Mosque",
        "address": "QPW6+4PQ MASJIDE MOHAMMADE, Mootukollai, Ambur, Tamil Nadu 635802",
        "detailed_address": {
            "ward": "Mootukollai",
            "street": "QPW6+4PQ",
            "city": "Ambur",
            "postal_code": "635802",
            "state": "Tamil Nadu",
            "country_code": "IN"
        },
        "images": [
            {
                "about": "All",
                "link": "https://lh5.googleusercontent.com/p/AF1QipM25HEQ2np99_ilLok9OpbAOGwj-45Bu2WSVVef=w224-h398-k-no"
            }
        ],
        "link": "https://www.google.com/maps/place/MASJIDE+MOHAMMADE/data=!4m7!3m6!1s0x3bad0903198ce7cf:0x577b856ae3f51dc4!8m2!3d12.7953388!4d78.7118669!16s%2Fg%2F11cmr08by2!19sChIJz-eMGQMJrTsRxB3142qFe1c?authuser=0&hl=en&rclk=1",
        "coordinates": {
            "latitude": 12.7953388,
            "longitude": 78.71186689999999
        }
    },
    {
        "name": "Baqhibillah Masjid",
        "main_category": "Mosque",
        "address": "QPQC+R9V Baqhibillah Masjid, Naganadi, Ambur, Tamil Nadu 635802",
        "detailed_address": {
            "ward": "Naganadi",
            "street": "QPQC+R9V",
            "city": "Ambur",
            "postal_code": "635802",
            "state": "Tamil Nadu",
            "country_code": "IN"
        },
        "images": [],
        "link": "https://www.google.com/maps/place/Baqhibillah+Masjid/data=!4m7!3m6!1s0x3bad08e1a0e3658f:0xcfdda7a6e951056!8m2!3d12.7896127!4d78.7209238!16s%2Fg%2F11csqfhwyz!19sChIJj2XjoOEIrTsRVhCVbnra_Qw?authuser=0&hl=en&rclk=1",
        "coordinates": {
            "latitude": 12.7896127,
            "longitude": 78.7209238
        }
    },
    {
        "name": "Masjide Habeeb Ambur",
        "main_category": "Mosque",
        "address": "QPX6+2X8 Masjide Habeeb Ambur, Vaatimanai, Ambur, Tamil Nadu 635802",
        "detailed_address": {
            "ward": "Vaatimanai",
            "street": "QPX6+2X8",
            "city": "Ambur",
            "postal_code": "635802",
            "state": "Tamil Nadu",
            "country_code": "IN"
        },
        "images": [
            {
                "about": "All",
                "link": "https://lh5.googleusercontent.com/p/AF1QipPd2YVvHPX6H_3c6RhbLdkepGiVgGp361bsLLOx=w224-h335-k-no"
            },
            {
                "about": "Dome",
                "link": "https://lh5.googleusercontent.com/p/AF1QipMchM0vPY-9OmaylEpXC0pkEVFYowtGHLuSqvOz=w254-h298-k-no"
            }
        ],
        "link": "https://www.google.com/maps/place/Masjide+Habeeb+Ambur/data=!4m7!3m6!1s0x3bad09035f7b1ca9:0xb8401d8c8fd83f53!8m2!3d12.7975398!4d78.7124398!16s%2Fg%2F11bw5m6z3x!19sChIJqRx7XwMJrTsRUz_Yj4wdQLg?authuser=0&hl=en&rclk=1",
        "coordinates": {
            "latitude": 12.7975398,
            "longitude": 78.7124398
        }
    },
    {
        "name": "TNTJ rettttittooppu msjit",
        "main_category": "Mosque",
        "address": "QPHF+233 TNTJ rettttittooppu msjit, 6th Street, Gandhi Nagar, Ambur Plantation R F, Ambur, Tamil Nadu 635802",
        "detailed_address": {
            "ward": "Gandhi Nagar, Ambur Plantation R F",
            "street": "QPHF+233, 6th Street",
            "city": "Ambur",
            "postal_code": "635802",
            "state": "Tamil Nadu",
            "country_code": "IN"
        },
        "images": [
            {
                "about": "All",
                "link": "https://lh5.googleusercontent.com/p/AF1QipN2PPHKzi-FWFWkW-n3G04bG4HfFmUD_lgllH_-=w224-h298-k-no"
            }
        ],
        "link": "https://www.google.com/maps/place/TNTJ+%E0%AE%B0%E0%AF%86%E0%AE%9F%E0%AF%8D%E0%AE%9F%E0%AE%BF%E0%AE%A4%E0%AF%8D%E0%AE%A4%E0%AF%8B%E0%AE%AA%E0%AF%8D%E0%AE%AA%E0%AF%81+%E0%AE%AE%E0%AE%B8%E0%AF%8D%E0%AE%9C%E0%AE%BF%E0%AE%A4%E0%AF%8D/data=!4m7!3m6!1s0x3bad08e9af9acc85:0x38bd6d9311a40475!8m2!3d12.7775235!4d78.7226873!16s%2Fg%2F11dyz4ctwd!19sChIJhcyar-kIrTsRdQSkEZNtvTg?authuser=0&hl=en&rclk=1",
        "coordinates": {
            "latitude": 12.7775235,
            "longitude": 78.72268729999999
        }
    },
    {
        "name": "Masjid-E-Usmaniya",
        "main_category": "Mosque",
        "address": "QP32+VP6 Masjid-E-Usmaniya, gandhinagar Road, Periyankuppam, Ambur, Tamil Nadu 635814",
        "detailed_address": {
            "ward": "Periyankuppam",
            "street": "QP32+VP6, gandhinagar Road",
            "city": "Ambur",
            "postal_code": "635814",
            "state": "Tamil Nadu",
            "country_code": "IN"
        },
        "images": [
            {
                "about": "All",
                "link": "https://lh5.googleusercontent.com/p/AF1QipOoklTYuV1IU0zXGZOmlmGzGyPj9MSkLpLygjNN=w529-h298-k-no"
            }
        ],
        "link": "https://www.google.com/maps/place/Masjid-E-Usmaniya/data=!4m7!3m6!1s0x3bad087d8276c543:0xcb142db9830a37da!8m2!3d12.7546716!4d78.7017505!16s%2Fg%2F11hbqdfgpt!19sChIJQ8V2gn0IrTsR2jcKg7ktFMs?authuser=0&hl=en&rclk=1",
        "coordinates": {
            "latitude": 12.7546716,
            "longitude": 78.7017505
        }
    },
    {
        "name": "MASJID E SHAHIN",
        "main_category": "Mosque",
        "address": "QPWJ+FG7 MASJID E SHAHIN, Ambur Plantation R F, Ambur, Tamil Nadu 635802",
        "detailed_address": {
            "ward": "Ambur Plantation R F",
            "street": "QPWJ+FG7",
            "city": "Ambur",
            "postal_code": "635802",
            "state": "Tamil Nadu",
            "country_code": "IN"
        },
        "images": [
            {
                "about": "All",
                "link": "https://lh5.googleusercontent.com/p/AF1QipMxiV-vHUxmAm7V_AkR_oIhk48o_40HR6Ue1Hg5=w224-h398-k-no"
            },
            {
                "about": "Dome",
                "link": "https://lh5.googleusercontent.com/p/AF1QipMPX0PtQ6KPte9336USXPgJLwlqL64zeQLz__Ah=w224-h398-k-no"
            },
            {
                "about": "Street View & 360deg",
                "link": "https://streetviewpixels-pa.googleapis.com/v1/thumbnail?panoid=akmGBdWwTDpw6p00EEgMNw&cb_client=maps_sv.tactile.gps&w=224&h=298&yaw=109.15388&pitch=0&thumbfov=100"
            }
        ],
        "link": "https://www.google.com/maps/place/MASJID+E+SHAHIN/data=!4m7!3m6!1s0x3bad09672027d42d:0xacf23b0cd849d202!8m2!3d12.7961638!4d78.731309!16s%2Fg%2F11fl5nj26l!19sChIJLdQnIGcJrTsRAtJJ2Aw78qw?authuser=0&hl=en&rclk=1",
        "coordinates": {
            "latitude": 12.796163799999999,
            "longitude": 78.731309
        }
    },
    {
        "name": "Khadarya Masjid LM",
        "main_category": "Mosque",
        "address": "QPR4+G65 Khadarya Masjid LM, Ambedkar Nagar, Ambur, Labbaimankuppam, Tamil Nadu 635802",
        "detailed_address": {
            "ward": "Ambedkar Nagar",
            "street": "QPR4+G65",
            "city": "Ambur, Labbaimankuppam",
            "postal_code": "635802",
            "state": "Tamil Nadu",
            "country_code": "IN"
        },
        "images": [
            {
                "about": "All",
                "link": "https://lh5.googleusercontent.com/p/AF1QipNt02aTFJJ6cv4S05_EHKhTAUzEoz0qJQ0hF84O=w397-h298-k-no"
            }
        ],
        "link": "https://www.google.com/maps/place/Khadarya+Masjid+LM/data=!4m7!3m6!1s0x3bad099da382295d:0x8c9e340f21e108c4!8m2!3d12.7912697!4d78.7056218!16s%2Fg%2F11gzqn_sqt!19sChIJXSmCo50JrTsRxAjhIQ80now?authuser=0&hl=en&rclk=1",
        "coordinates": {
            "latitude": 12.791269699999999,
            "longitude": 78.7056218
        }
    },
    {
        "name": "Masjid-E-Zahida",
        "main_category": "Mosque",
        "address": "QPHF+F47 Masjid-E-Zahida, 6th Street, K.M. Nagar, Gandhi Nagar, Ambur Plantation R F, Ambur, Tamil Nadu 635802",
        "detailed_address": {
            "ward": "K.M. Nagar, Gandhi Nagar, Ambur Plantation R F",
            "street": "QPHF+F47, 6th Street",
            "city": "Ambur",
            "postal_code": "635802",
            "state": "Tamil Nadu",
            "country_code": "IN"
        },
        "images": [
            {
                "about": "All",
                "link": "https://lh5.googleusercontent.com/p/AF1QipPwlB6vhNalZ7X7Bv8mEYiaA1NdJHF65VzrKWq0=w529-h298-k-no"
            }
        ],
        "link": "https://www.google.com/maps/place/Masjid-E-Zahida/data=!4m7!3m6!1s0x3bad08e851c2b709:0xe7a6db21827129da!8m2!3d12.7786587!4d78.7227987!16s%2Fg%2F11cs0b3qf7!19sChIJCbfCUegIrTsR2ilxgiHbpuc?authuser=0&hl=en&rclk=1",
        "coordinates": {
            "latitude": 12.7786587,
            "longitude": 78.7227987
        }
    },
    {
        "name": "Masjid-E-Hadi",
        "main_category": "Mosque",
        "address": "QPG5+4GQ Masjid-E-Hadi, Sanan Kuppam, Ambur, Tamil Nadu 635802",
        "detailed_address": {
            "ward": "Sanan Kuppam",
            "street": "QPG5+4GQ",
            "city": "Ambur",
            "postal_code": "635802",
            "state": "Tamil Nadu",
            "country_code": "IN"
        },
        "images": [
            {
                "about": "All",
                "link": "https://lh5.googleusercontent.com/p/AF1QipOsekQIMWOatOiMcJ6rgX_GvSHsFD3WoJQ6hlEz=w224-h398-k-no"
            }
        ],
        "link": "https://www.google.com/maps/place/Masjid-E-Hadi/data=!4m7!3m6!1s0x3bad08f15b6db785:0xe0a273c8983b9583!8m2!3d12.7753438!4d78.7088575!16s%2Fg%2F11dxb16gyx!19sChIJhbdtW_EIrTsRg5U7mMhzouA?authuser=0&hl=en&rclk=1",
        "coordinates": {
            "latitude": 12.7753438,
            "longitude": 78.7088575
        }
    },
    {
        "name": "Masjide Irfana",
        "main_category": "Mosque",
        "address": "QPR4+HQF Masjide Irfana, Ambedkar Nagar, Ambur, Labbaimankuppam, Tamil Nadu 635802",
        "detailed_address": {
            "ward": "Ambedkar Nagar",
            "street": "QPR4+HQF",
            "city": "Ambur, Labbaimankuppam",
            "postal_code": "635802",
            "state": "Tamil Nadu",
            "country_code": "IN"
        },
        "images": [
            {
                "about": "All",
                "link": "https://lh5.googleusercontent.com/p/AF1QipOdGxmmTF5Lj-ajt4m3BsCgtYmLrgOJhF8vmcsW=w224-h298-k-no"
            }
        ],
        "link": "https://www.google.com/maps/place/Masjide+Irfana/data=!4m7!3m6!1s0x3bad09b10be9350d:0x404db2d9265e471f!8m2!3d12.7914254!4d78.7069228!16s%2Fg%2F11gh6yscl0!19sChIJDTXpC7EJrTsRH0deJtmyTUA?authuser=0&hl=en&rclk=1",
        "coordinates": {
            "latitude": 12.7914254,
            "longitude": 78.7069228
        }
    },
    {
        "name": "Masjid-e-Rafeequl Uloom",
        "main_category": "Mosque",
        "address": "QPRG+XRH Masjid-e-Rafeequl Uloom, Ambur Plantation R F, Ambur, Tamil Nadu 635802",
        "detailed_address": {
            "ward": "Ambur Plantation R F",
            "street": "QPRG+XRH",
            "city": "Ambur",
            "postal_code": "635802",
            "state": "Tamil Nadu",
            "country_code": "IN"
        },
        "images": [
            {
                "about": "All",
                "link": "https://streetviewpixels-pa.googleapis.com/v1/thumbnail?panoid=1pPcD1hvzJiowXMrS-9oZw&cb_client=maps_sv.tactile.gps&w=224&h=298&yaw=306.90768&pitch=0&thumbfov=100"
            },
            {
                "about": "Street View & 360deg",
                "link": "https://streetviewpixels-pa.googleapis.com/v1/thumbnail?panoid=1pPcD1hvzJiowXMrS-9oZw&cb_client=maps_sv.tactile.gps&w=224&h=298&yaw=306.90768&pitch=0&thumbfov=100"
            }
        ],
        "link": "https://www.google.com/maps/place/Masjid-%C3%A9-Rafeequl+Uloom/data=!4m7!3m6!1s0x3bad09c143e4439b:0x64a1b3ca4bea8d1c!8m2!3d12.7924402!4d78.7271167!16s%2Fg%2F11gxm_76gb!19sChIJm0PkQ8EJrTsRHI3qS8qzoWQ?authuser=0&hl=en&rclk=1",
        "coordinates": {
            "latitude": 12.7924402,
            "longitude": 78.7271167
        }
    },
    {
        "name": "Ayesha Masjd",
        "main_category": "Mosque",
        "address": "QPMH+5QF Ayesha Masjd, Anna Nagar, Ambur Plantation R F, Ambur, Tamil Nadu 635802",
        "detailed_address": {
            "ward": "Anna Nagar, Ambur Plantation R F",
            "street": "QPMH+5QF",
            "city": "Ambur",
            "postal_code": "635802",
            "state": "Tamil Nadu",
            "country_code": "IN"
        },
        "images": [
            {
                "about": "All",
                "link": "https://lh5.googleusercontent.com/p/AF1QipOZYFgcn1B9_GvTU0TcfBSl0ao47EiLksD9101t=w224-h298-k-no"
            },
            {
                "about": "Videos",
                "link": "https://lh5.googleusercontent.com/p/AF1QipMCot2mAS2TXVdgLjbFIbdj6qTHw48Jyc3GrDCC=w224-h398-k-no"
            }
        ],
        "link": "https://www.google.com/maps/place/Ayesha+Masjd/data=!4m7!3m6!1s0x3bad097ed2bd6407:0x80fe98fe690605b5!8m2!3d12.7829384!4d78.7294067!16s%2Fg%2F11h2mptb9v!19sChIJB2S90n4JrTsRtQUGaf6Y_oA?authuser=0&hl=en&rclk=1",
        "coordinates": {
            "latitude": 12.782938399999999,
            "longitude": 78.7294067
        }
    },
    {
        "name": "Masjid E Ameen",
        "main_category": "Mosque",
        "address": "Masjid E Ameen, Ambur,, Naganadi, Ambur, Tamil Nadu 635802",
        "detailed_address": {
            "ward": "Gangapuram, Naganadi",
            "street": "Ambur,",
            "city": "Ambur",
            "postal_code": "635802",
            "state": "Tamil Nadu",
            "country_code": "IN"
        },
        "images": [],
        "link": "https://www.google.com/maps/place/Masjid+E+Ameen/data=!4m7!3m6!1s0x3bad08e25f2907d1:0xdf78cecbf9cd0a66!8m2!3d12.7903613!4d78.7166084!16s%2Fg%2F11c1vrn0ch!19sChIJ0QcpX-IIrTsRZgrN-cvOeN8?authuser=0&hl=en&rclk=1",
        "coordinates": {
            "latitude": 12.790361299999999,
            "longitude": 78.7166084
        }
    },
    {
        "name": "Masjid Aqeela msjd `qlyh",
        "main_category": "Mosque",
        "address": "QPRR+JCC Masjid Aqeela msjd `qlyh, Ambur Plantation R F, Ambur, Tamil Nadu 635802",
        "detailed_address": {
            "ward": "Ambur Plantation R F",
            "street": "QPRR+JCC",
            "city": "Ambur",
            "postal_code": null,
            "state": "Tamil Nadu",
            "country_code": "IN"
        },
        "images": [
            {
                "about": "All",
                "link": "https://lh5.googleusercontent.com/p/AF1QipM0NOygoY2928ZYUw6xgDoC0L-D5Im9PXdBR9jM=w224-h298-k-no"
            }
        ],
        "link": "https://www.google.com/maps/place/Masjid+Aqeela+%D9%85%D8%B3%D8%AC%D8%AF+%D8%B9%D9%82%D9%84%DB%8C%DB%81%E2%80%AD/data=!4m7!3m6!1s0x3bad09ec58240571:0x682bc7540b4d4107!8m2!3d12.7915732!4d78.7410311!16s%2Fg%2F11k4nf95y8!19sChIJcQUkWOwJrTsRB0FNC1THK2g?authuser=0&hl=en&rclk=1",
        "coordinates": {
            "latitude": 12.7915732,
            "longitude": 78.7410311
        }
    },
    {
        "name": "Masjid e Aqsa",
        "main_category": "Mosque",
        "address": "QPX9+P8G Masjid e Aqsa, Ahmedi Nagar, Ambur, Tamil Nadu 635802",
        "detailed_address": {
            "ward": "Ahmedi Nagar",
            "street": "QPX9+P8G",
            "city": "Ambur",
            "postal_code": "635802",
            "state": "Tamil Nadu",
            "country_code": "IN"
        },
        "images": [],
        "link": "https://www.google.com/maps/place/Masjid+e+Aqsa/data=!4m7!3m6!1s0x3bad091bc2694499:0x3979a1eb95caa0f4!8m2!3d12.7993202!4d78.7183285!16s%2Fg%2F124st4vkd!19sChIJmURpwhsJrTsR9KDKleuheTk?authuser=0&hl=en&rclk=1",
        "coordinates": {
            "latitude": 12.799320199999999,
            "longitude": 78.7183285
        }
    },
    {
        "name": "MASJIDE TUBA",
        "main_category": "Mosque",
        "address": "QPQF+7WQ MASJIDE TUBA, Anna Nagar, Ambur, Tamil Nadu",
        "detailed_address": {
            "ward": "Anna Nagar, Ambur Plantation R F",
            "street": "QPQF+7WQ, Anna Nagar",
            "city": "Ambur",
            "postal_code": null,
            "state": "Tamil Nadu",
            "country_code": "IN"
        },
        "images": [],
        "link": "https://www.google.com/maps/place/MASJIDE+TUBA/data=!4m7!3m6!1s0x3bad08e0a02030f9:0x4b8132316d36d10a!8m2!3d12.7882005!4d78.7248548!16s%2Fg%2F11cmsj5xqp!19sChIJ-TAgoOAIrTsRCtE2bTEygUs?authuser=0&hl=en&rclk=1",
        "coordinates": {
            "latitude": 12.7882005,
            "longitude": 78.7248548
        }
    },
    {
        "name": "Masjid Noor Us Salaam",
        "main_category": "Mosque",
        "address": "RP95+PWR Masjid Noor Us Salaam, Thutipet, Ambur, Tamil Nadu 635808",
        "detailed_address": {
            "ward": "Thutipet",
            "street": "RP95+PWR",
            "city": "Ambur",
            "postal_code": "635808",
            "state": "Tamil Nadu",
            "country_code": "IN"
        },
        "images": [
            {
                "about": "All",
                "link": "https://lh5.googleusercontent.com/p/AF1QipOD1O5DeUmFze__XRZzObt9Eib9s-zobnq0kSKw=w224-h298-k-no"
            },
            {
                "about": "Dome",
                "link": "https://lh5.googleusercontent.com/p/AF1QipPfIr-FDqylV76I23NagZvMNz1S4soU6eY5apBf=w224-h298-k-no"
            }
        ],
        "link": "https://www.google.com/maps/place/Masjid+Noor+Us+Salaam/data=!4m7!3m6!1s0x3bad0973c4baf09b:0xfbc16a8beb6ad1a3!8m2!3d12.8193506!4d78.7097635!16s%2Fg%2F11hc_804n1!19sChIJm_C6xHMJrTsRo9Fq64tqwfs?authuser=0&hl=en&rclk=1",
        "coordinates": {
            "latitude": 12.8193506,
            "longitude": 78.7097635
        }
    },
    {
        "name": "Haneef Masjid",
        "main_category": "Mosque",
        "address": "Haneef Masjid, 635802, Panneer Selvam Nagar, Anna Nagar, Ambur Plantation R F, Ambur, Tamil Nadu 635802",
        "detailed_address": {
            "ward": "Panneer Selvam Nagar, Anna Nagar, Ambur Plantation R F",
            "street": "635802",
            "city": "Ambur",
            "postal_code": "635802",
            "state": "Tamil Nadu",
            "country_code": "IN"
        },
        "images": [],
        "link": "https://www.google.com/maps/place/Haneef+Masjid/data=!4m7!3m6!1s0x3bad08de53c7188d:0x8b896ebee74a7dd2!8m2!3d12.7893826!4d78.7273044!16s%2Fg%2F11f75kpnf9!19sChIJjRjHU94IrTsR0n1K575uiYs?authuser=0&hl=en&rclk=1",
        "coordinates": {
            "latitude": 12.7893826,
            "longitude": 78.7273044
        }
    },
    {
        "name": "MASJID-E-SHAMS",
        "main_category": "Mosque",
        "address": "MASJID-E-SHAMS, MASJID-E, SHAMS BABY COLONY, Rahman Nagar, KASPA-B, Ambur, Tamil Nadu 635802",
        "detailed_address": {
            "ward": "Rahman Nagar, KASPA-B",
            "street": "MASJID-E, SHAMS BABY COLONY",
            "city": "Ambur",
            "postal_code": "635802",
            "state": "Tamil Nadu",
            "country_code": "IN"
        },
        "images": [],
        "link": "https://www.google.com/maps/place/MASJID-E-SHAMS/data=!4m7!3m6!1s0x3bad09ba7b9d4249:0xa6007518f034e49a!8m2!3d12.7925531!4d78.7198888!16s%2Fg%2F11s0xmnsdp!19sChIJSUKde7oJrTsRmuQ08Bh1AKY?authuser=0&hl=en&rclk=1",
        "coordinates": {
            "latitude": 12.7925531,
            "longitude": 78.71988879999999
        }
    },
    {
        "name": "AKBARI MASJID",
        "main_category": "Mosque",
        "address": "QPJC+VW3 AKBARI MASJID, College Rd, Gandhi Nagar, Ambur Plantation R F, Ambur, Tamil Nadu 635802",
        "detailed_address": {
            "ward": "Gandhi Nagar, Ambur Plantation R F",
            "street": "QPJC+VW3, College Rd",
            "city": "Ambur",
            "postal_code": "635802",
            "state": "Tamil Nadu",
            "country_code": "IN"
        },
        "images": [
            {
                "about": "All",
                "link": "https://lh5.googleusercontent.com/p/AF1QipM60SUsqm05Od1qKr8QOnaa3Y7a3O_zpPry6HXc=w224-h398-k-no"
            },
            {
                "about": "Dome",
                "link": "https://lh5.googleusercontent.com/p/AF1QipM60SUsqm05Od1qKr8QOnaa3Y7a3O_zpPry6HXc=w224-h398-k-no"
            }
        ],
        "link": "https://www.google.com/maps/place/AKBARI+MASJID/data=!4m7!3m6!1s0x3bad093eb3e85099:0xd07f75bb7f8de07e!8m2!3d12.7821251!4d78.7223013!16s%2Fg%2F11h18w3xbc!19sChIJmVDosz4JrTsRfuCNf7t1f9A?authuser=0&hl=en&rclk=1",
        "coordinates": {
            "latitude": 12.7821251,
            "longitude": 78.7223013
        }
    },
    {
        "name": "Mohammed Pura Masjid",
        "main_category": "Mosque",
        "address": "QPP9+7GX Mohammed Pura Masjid, Mohammed Pura, Flower bazar, Ambur, Tamil Nadu 635802",
        "detailed_address": {
            "ward": "Mohammed Pura, Flower bazar",
            "street": "QPP9+7GX",
            "city": "Ambur",
            "postal_code": "635802",
            "state": "Tamil Nadu",
            "country_code": "IN"
        },
        "images": [],
        "link": "https://www.google.com/maps/place/Mohammed+Pura+Masjid/data=!4m7!3m6!1s0x3bad09d44bc0b5d1:0x1aa9cf5feed73cc8!8m2!3d12.7857398!4d78.7188458!16s%2Fg%2F11rzfyc541!19sChIJ0bXAS9QJrTsRyDzX7l_PqRo?authuser=0&hl=en&rclk=1",
        "coordinates": {
            "latitude": 12.7857398,
            "longitude": 78.7188458
        }
    },
    {
        "name": "Masjid E Khathijahtul Kubra",
        "main_category": "Mosque",
        "address": "RP46+3J8 Masjid E Khathijahtul Kubra, Ambur Bypass Rd, Thutipet, Periavarikam, Ambur, Tamil Nadu 635811",
        "detailed_address": {
            "ward": "Thutipet",
            "street": "RP46+3J8, Ambur Bypass Rd",
            "city": "Periavarikam, Ambur",
            "postal_code": "635811",
            "state": "Tamil Nadu",
            "country_code": "IN"
        },
        "images": [],
        "link": "https://www.google.com/maps/place/Masjid+E+Khathijahtul+Kubra/data=!4m7!3m6!1s0x3bad096f9912d21f:0xacbcd5c5197b4f04!8m2!3d12.8051645!4d78.7115926!16s%2Fg%2F11h4fjy3xk!19sChIJH9ISmW8JrTsRBE97GcXVvKw?authuser=0&hl=en&rclk=1",
        "coordinates": {
            "latitude": 12.8051645,
            "longitude": 78.7115926
        }
    },
    {
        "name": "Masjd e suraiya",
        "main_category": "Mosque",
        "address": "QPRF+354 Masjd e suraiya, Naganadi, Ambur, Tamil Nadu 635802",
        "detailed_address": {
            "ward": "Naganadi",
            "street": "QPRF+354",
            "city": "Ambur",
            "postal_code": "635802",
            "state": "Tamil Nadu",
            "country_code": "IN"
        },
        "images": [
            {
                "about": "All",
                "link": "https://lh5.googleusercontent.com/p/AF1QipN6McMdGVOSTmFn4PvglDQxwMnuv8jYs5xesq5d=w529-h298-k-no"
            }
        ],
        "link": "https://www.google.com/maps/place/Masjd+e+suraiya/data=!4m7!3m6!1s0x3bad0902384902dd:0x757907bddccb53c8!8m2!3d12.7901426!4d78.722957!16s%2Fg%2F11t71n6bs0!19sChIJ3QJJOAIJrTsRyFPL3L0HeXU?authuser=0&hl=en&rclk=1",
        "coordinates": {
            "latitude": 12.7901426,
            "longitude": 78.722957
        }
    },
    {
        "name": "Masjid-E-Khaleelullah",
        "main_category": "Mosque",
        "address": "QPPJ+6R7 Masjid-E-Khaleelullah, Anna Nagar, Ambur Plantation R F, Ambur, Tamil Nadu 635802",
        "detailed_address": {
            "ward": "Anna Nagar, Ambur Plantation R F",
            "street": "QPPJ+6R7",
            "city": "Ambur",
            "postal_code": "635802",
            "state": "Tamil Nadu",
            "country_code": "IN"
        },
        "images": [],
        "link": "https://www.google.com/maps/place/Masjid-E-Khaleelullah/data=!4m7!3m6!1s0x3bad098b1b3bf9bf:0xf32ee12749b3e484!8m2!3d12.7855411!4d78.7320336!16s%2Fg%2F11fpsbr6h7!19sChIJv_k7G4sJrTsRhOSzSSfhLvM?authuser=0&hl=en&rclk=1",
        "coordinates": {
            "latitude": 12.7855411,
            "longitude": 78.7320336
        }
    },
    {
        "name": "Masjid-E-Mamoor",
        "main_category": "Mosque",
        "address": "QPGJ+57P Masjid-E-Mamoor, Asnambattu, Road Kambikollai, Ambur Plantation R F, Ambur, Tamil Nadu 635802",
        "detailed_address": {
            "ward": "Gandhi Nagar, Ambur Plantation R F",
            "street": "QPGJ+57P, Asnambattu, Road Kambikollai",
            "city": "Ambur",
            "postal_code": "635802",
            "state": "Tamil Nadu",
            "country_code": "IN"
        },
        "images": [
            {
                "about": "All",
                "link": "https://lh5.googleusercontent.com/p/AF1QipNDx_cmiXMdu4iwQIA5-kVJ7aNEkKBKMx-blS2k=w613-h298-k-no"
            }
        ],
        "link": "https://www.google.com/maps/place/Masjid-E-Mamoor/data=!4m7!3m6!1s0x3bad09d65c16df51:0x9a7a23e888a697ba!8m2!3d12.7754533!4d78.7307142!16s%2Fg%2F11qh2v4gm1!19sChIJUd8WXNYJrTsRupemiOgjepo?authuser=0&hl=en&rclk=1",
        "coordinates": {
            "latitude": 12.775453299999999,
            "longitude": 78.7307142
        }
    },
    {
        "name": "Masjid E Iliyas",
        "main_category": "Mosque",
        "address": "Masjid E Iliyas, Tyub nahar Reddy Thope, 6th Street, Gandhi Nagar, Ambur Plantation R F, Ambur, Tamil Nadu 635802",
        "detailed_address": {
            "ward": "Gandhi Nagar, Ambur Plantation R F",
            "street": "Tyub nahar Reddy Thope, 6th Street",
            "city": "Ambur",
            "postal_code": null,
            "state": "Tamil Nadu",
            "country_code": "IN"
        },
        "images": [],
        "link": "https://www.google.com/maps/place/Masjid+E+Iliyas/data=!4m7!3m6!1s0x3bad09023c8df825:0x5bfcff68a55ad1b4!8m2!3d12.7792807!4d78.7245813!16s%2Fg%2F11px91tn2w!19sChIJJfiNPAIJrTsRtNFapWj__Fs?authuser=0&hl=en&rclk=1",
        "coordinates": {
            "latitude": 12.7792807,
            "longitude": 78.7245813
        }
    },
    {
        "name": "Masjid E Farooq",
        "main_category": "Mosque",
        "address": "Masjid E Farooq, 2, Old Vaniyambadi Rd, Sunnambukalai, Krishnapuram, Ambur, Tamil Nadu 635802",
        "detailed_address": {
            "ward": "Sunnambukalai, Krishnapuram",
            "street": "2, Old Vaniyambadi Rd",
            "city": "Ambur",
            "postal_code": "635802",
            "state": "Tamil Nadu",
            "country_code": "IN"
        },
        "images": [
            {
                "about": "All",
                "link": "https://lh5.googleusercontent.com/p/AF1QipNrpXWjS67PptzOvMzkJA9Eio91fynV3zazBicl=w224-h298-k-no"
            }
        ],
        "link": "https://www.google.com/maps/place/Masjid+E+Farooq/data=!4m7!3m6!1s0x3bad090e9a1ceb93:0xcd4d45e8ee0ee862!8m2!3d12.7882899!4d78.7110789!16s%2Fg%2F11scnw4nf8!19sChIJk-scmg4JrTsRYugO7uhFTc0?authuser=0&hl=en&rclk=1",
        "coordinates": {
            "latitude": 12.788289899999999,
            "longitude": 78.71107889999999
        }
    },
    {
        "name": "MASJID-E-SHAMS",
        "main_category": "Mosque",
        "address": "QPPJ+86R MASJID-E-SHAMS, Anna Nagar, Ambur Plantation R F, Ambur, Tamil Nadu 635802",
        "detailed_address": {
            "ward": "Anna Nagar, Ambur Plantation R F",
            "street": "QPPJ+86R",
            "city": "Ambur",
            "postal_code": "635802",
            "state": "Tamil Nadu",
            "country_code": "IN"
        },
        "images": [],
        "link": "https://www.google.com/maps/place/MASJID-E-SHAMS/data=!4m7!3m6!1s0x3bad09a0da4b9379:0xee2408131d1e4425!8m2!3d12.785851!4d78.7305097!16s%2Fg%2F11rtmmnlv1!19sChIJeZNL2qAJrTsRJUQeHRMIJO4?authuser=0&hl=en&rclk=1",
        "coordinates": {
            "latitude": 12.785851,
            "longitude": 78.7305097
        }
    },
    {
        "name": "Khaderpet Masjid",
        "main_category": "Mosque",
        "address": "QPQ9+V73 Khaderpet Masjid, Neelikollai Mosque Street, Noorullahpet, Naganadi, Ambur, Tamil Nadu 635802",
        "detailed_address": {
            "ward": "Noorullahpet, Naganadi",
            "street": "QPQ9+V73, Neelikollai Mosque Street",
            "city": "Ambur",
            "postal_code": "635802",
            "state": "Tamil Nadu",
            "country_code": "IN"
        },
        "images": [
            {
                "about": "All",
                "link": "https://lh5.googleusercontent.com/p/AF1QipPMRnargXCCtYdW8Qw5wn53PcVBW12xR56UINNq=w224-h398-k-no"
            },
            {
                "about": "Latest",
                "link": "https://lh5.googleusercontent.com/p/AF1QipMRzVGHCXKiA7UgeX2mRV-OXMiv1jtmkbDiSGtB=w224-h398-k-no"
            }
        ],
        "link": "https://www.google.com/maps/place/Khaderpet+Masjid/data=!4m7!3m6!1s0x3bad08e234055555:0xb1c9b86be42f68de!8m2!3d12.7896463!4d78.7181703!16s%2Fg%2F11txmzkt8n!19sChIJVVUFNOIIrTsR3mgv5Gu4ybE?authuser=0&hl=en&rclk=1",
        "coordinates": {
            "latitude": 12.7896463,
            "longitude": 78.7181703
        }
    },
    {
        "name": "Quba Mosque",
        "main_category": "Mosque",
        "address": "Quba Mosque, Main road, Vaatimanai, Ambur, Tamil Nadu 635802",
        "detailed_address": {
            "ward": "Vaatimanai",
            "street": "Quba Mosque, Main road",
            "city": "Ambur",
            "postal_code": "635802",
            "state": "Tamil Nadu",
            "country_code": "IN"
        },
        "images": [],
        "link": "https://www.google.com/maps/place/Quba+Mosque/data=!4m7!3m6!1s0x3bad09a7aed871df:0x6e5041bc4dc852db!8m2!3d12.7954053!4d78.7166712!16s%2Fg%2F11k9hc5nfy!19sChIJ33HYrqcJrTsR21LITbxBUG4?authuser=0&hl=en&rclk=1",
        "coordinates": {
            "latitude": 12.795405299999999,
            "longitude": 78.7166712
        }
    },
    {
        "name": "Ayyubi Mosque",
        "main_category": "Mosque",
        "address": "QPPM+XRC Ayyubi Mosque, Anna Nagar, Ambur Plantation R F, Ambur, Tamil Nadu 635802",
        "detailed_address": {
            "ward": "Anna Nagar, Ambur Plantation R F",
            "street": "QPPM+XRC",
            "city": "Ambur",
            "postal_code": "635802",
            "state": "Tamil Nadu",
            "country_code": "IN"
        },
        "images": [
            {
                "about": "All",
                "link": "https://lh5.googleusercontent.com/p/AF1QipPXbUz59iq-Qk-ahUIv3mAwPuJg-Lr_yexBlZQU=w224-h398-k-no"
            },
            {
                "about": "Videos",
                "link": "https://lh5.googleusercontent.com/p/AF1QipPXbUz59iq-Qk-ahUIv3mAwPuJg-Lr_yexBlZQU=w224-h398-k-no"
            }
        ],
        "link": "https://www.google.com/maps/place/Ayyubi+Mosque/data=!4m7!3m6!1s0x3bad090769c988af:0xbd1d9fb5efb4a27b!8m2!3d12.7874277!4d78.7345252!16s%2Fg%2F11j0ztcm2b!19sChIJr4jJaQcJrTsRe6K077WfHb0?authuser=0&hl=en&rclk=1",
        "coordinates": {
            "latitude": 12.7874277,
            "longitude": 78.7345252
        }
    },
    {
        "name": "Masjid E Shameemunnisa",
        "main_category": "Mosque",
        "address": "QPV3+72R Masjid E Shameemunnisa, Thutipet, Ambur, Labbaimankuppam, Tamil Nadu 635802",
        "detailed_address": {
            "ward": "Thutipet",
            "street": "QPV3+72R",
            "city": "Ambur, Labbaimankuppam",
            "postal_code": "635802",
            "state": "Tamil Nadu",
            "country_code": "IN"
        },
        "images": [],
        "link": "https://www.google.com/maps/place/Masjid+E+Shameemunnisa/data=!4m7!3m6!1s0x3bad09e24a6589a1:0xdc1e5123f556edf5!8m2!3d12.7932322!4d78.7025022!16s%2Fg%2F11v13xx0rw!19sChIJoYllSuIJrTsR9e1W9SNRHtw?authuser=0&hl=en&rclk=1",
        "coordinates": {
            "latitude": 12.7932322,
            "longitude": 78.7025022
        }
    },
    {
        "name": "Thowheed Markaz",
        "main_category": "Mosque",
        "address": "QPHF+23W Thowheed Markaz, 6th Street, Gandhi Nagar, Ambur Plantation R F, Ambur, Tamil Nadu 635802",
        "detailed_address": {
            "ward": "Gandhi Nagar, Ambur Plantation R F",
            "street": "QPHF+23W, 6th Street",
            "city": "Ambur",
            "postal_code": "635802",
            "state": "Tamil Nadu",
            "country_code": "IN"
        },
        "images": [
            {
                "about": "All",
                "link": "https://lh5.googleusercontent.com/p/AF1QipOpA5354e2kBjhtmKqKLisy9bhsBeQCL5tGqE8=w224-h298-k-no"
            }
        ],
        "link": "https://www.google.com/maps/place/Thowheed+Markaz/data=!4m7!3m6!1s0x3bad08e9af99fbb1:0x1f40cdd8e888d039!8m2!3d12.7776122!4d78.7226914!16s%2Fg%2F11dyzck76s!19sChIJsfuZr-kIrTsROdCI6NjNQB8?authuser=0&hl=en&rclk=1",
        "coordinates": {
            "latitude": 12.7776122,
            "longitude": 78.7226914
        }
    },
    {
        "name": "Masjid-E-Ishaque",
        "main_category": "Mosque",
        "address": "QPRH+H8 Masjid-E-Ishaque, Anna Nagar, Ambur Plantation R F, Ambur, Tamil Nadu 635802",
        "detailed_address": {
            "ward": "Anna Nagar, Ambur Plantation R F",
            "street": "QPRH+H8",
            "city": "Ambur",
            "postal_code": null,
            "state": "Tamil Nadu",
            "country_code": "IN"
        },
        "images": [],
        "link": "https://www.google.com/maps/place/Masjid-E-Ishaque/data=!4m7!3m6!1s0x3bad095924651ef7:0xe130cbb7ec3e080e!8m2!3d12.7914298!4d78.7283346!16s%2Fg%2F11swt_9w1d!19sChIJ9x5lJFkJrTsRDgg-7LfLMOE?authuser=0&hl=en&rclk=1",
        "coordinates": {
            "latitude": 12.7914298,
            "longitude": 78.7283346
        }
    },
    {
        "name": "Masjid E Umar umr msjit",
        "main_category": "Mosque",
        "address": "QPVJ+5HP Masjid E Umar umr msjit, 2nd Tharvazhi Rd, Anna Nagar, Ambur Plantation R F, Ambur, Tamil Nadu 635802",
        "detailed_address": {
            "ward": "Anna Nagar, Ambur Plantation R F",
            "street": "QPVJ+5HP, 2nd Tharvazhi Rd",
            "city": "Ambur",
            "postal_code": "635802",
            "state": "Tamil Nadu",
            "country_code": "IN"
        },
        "images": [],
        "link": "https://www.google.com/maps/place/Masjid+E+Umar+%E0%AE%89%E0%AE%AE%E0%AE%B0%E0%AF%8D+%E0%AE%AE%E0%AE%B8%E0%AF%8D%E0%AE%9C%E0%AE%BF%E0%AE%A4%E0%AF%8D/data=!4m7!3m6!1s0x3bad0954f94e9803:0x3dd0efa70e6b4752!8m2!3d12.7929608!4d78.7314478!16s%2Fg%2F11q9r_r120!19sChIJA5hO-VQJrTsRUkdrDqfv0D0?authuser=0&hl=en&rclk=1",
        "coordinates": {
            "latitude": 12.7929608,
            "longitude": 78.7314478
        }
    },
    {
        "name": "Masjid-e-Rehman",
        "main_category": "Mosque",
        "address": "QPR9+8JW Masjid-e-Rehman, BB Street, Rahman Nagar, Vaniymbadi, Ambur, Tamil Nadu 635802",
        "detailed_address": {
            "ward": "Rahman Nagar, Vaniymbadi",
            "street": "QPR9+8JW, BB Street",
            "city": "Ambur",
            "postal_code": "635802",
            "state": "Tamil Nadu",
            "country_code": "IN"
        },
        "images": [],
        "link": "https://www.google.com/maps/place/Masjid-e-Rehman/data=!4m7!3m6!1s0x3bad08e21f76aaab:0xea103a48bdb88c11!8m2!3d12.7908573!4d78.7190783!16s%2Fg%2F11txmz8_cp!19sChIJq6p2H-IIrTsREYy4vUg6EOo?authuser=0&hl=en&rclk=1",
        "coordinates": {
            "latitude": 12.790857299999999,
            "longitude": 78.71907829999999
        }
    },
    {
        "name": "New Bethlahem Mosque",
        "main_category": "Mosque",
        "address": "QPHF+6XR New Bethlahem Mosque, Gandhi Nagar, Ambur Plantation R F, Ambur, Tamil Nadu 635802",
        "detailed_address": {
            "ward": "Gandhi Nagar, Ambur Plantation R F",
            "street": "QPHF+6XR",
            "city": "Ambur",
            "postal_code": "635802",
            "state": "Tamil Nadu",
            "country_code": "IN"
        },
        "images": [],
        "link": "https://www.google.com/maps/place/New+Bethlahem+Mosque/data=!4m7!3m6!1s0x3bad08e9d59bffff:0x8c14d55a2c8468a1!8m2!3d12.7781059!4d78.7248805!16s%2Fg%2F11sscsbw_1!19sChIJ__-b1ekIrTsRoWiELFrVFIw?authuser=0&hl=en&rclk=1",
        "coordinates": {
            "latitude": 12.7781059,
            "longitude": 78.7248805
        }
    },
    {
        "name": "SIDDIQABAD MASJID",
        "main_category": "Mosque",
        "address": "QPR8+4JX SIDDIQABAD MASJID, Gangapuram, SIDDIQABAD, Ambur, Tamil Nadu 635802",
        "detailed_address": {
            "ward": "Gangapuram, SIDDIQABAD",
            "street": "QPR8+4JX",
            "city": "Ambur",
            "postal_code": null,
            "state": "Tamil Nadu",
            "country_code": "IN"
        },
        "images": [],
        "link": "https://www.google.com/maps/place/SIDDIQABAD+MASJID/data=!4m7!3m6!1s0x3bad091d196a2489:0x49a8e584be02092e!8m2!3d12.7903613!4d78.7166084!16s%2Fg%2F11h6nkh9yf!19sChIJiSRqGR0JrTsRLgkCvoTlqEk?authuser=0&hl=en&rclk=1",
        "coordinates": {
            "latitude": 12.790361299999999,
            "longitude": 78.7166084
        }
    },
    {
        "name": "aampuur",
        "main_category": "Mosque",
        "address": "QPJ9+339 aampuur, Gandhi Nagar, Ambur Plantation R F, Ambur, Tamil Nadu 635802",
        "detailed_address": {
            "ward": "Gandhi Nagar, Ambur Plantation R F",
            "street": "QPJ9+339",
            "city": "Ambur",
            "postal_code": null,
            "state": "Tamil Nadu",
            "country_code": "IN"
        },
        "images": [
            {
                "about": "All",
                "link": "https://streetviewpixels-pa.googleapis.com/v1/thumbnail?panoid=81tCHGn5aylqZgSgesGagQ&cb_client=maps_sv.tactile.gps&w=224&h=298&yaw=338.70886&pitch=0&thumbfov=100"
            },
            {
                "about": "Street View & 360deg",
                "link": "https://streetviewpixels-pa.googleapis.com/v1/thumbnail?panoid=81tCHGn5aylqZgSgesGagQ&cb_client=maps_sv.tactile.gps&w=224&h=298&yaw=338.70886&pitch=0&thumbfov=100"
            }
        ],
        "link": "https://www.google.com/maps/place/%E0%AE%86%E0%AE%AE%E0%AF%8D%E0%AE%AA%E0%AF%82%E0%AE%B0%E0%AF%8D/data=!4m7!3m6!1s0x3bad0929fc713f0b:0x959d003cabc0de16!8m2!3d12.7801672!4d78.7177271!16s%2Fg%2F11khzbvytd!19sChIJCz9x_CkJrTsRFt7AqzwAnZU?authuser=0&hl=en&rclk=1",
        "coordinates": {
            "latitude": 12.7801672,
            "longitude": 78.71772709999999
        }
    },
    {
        "name": "mSTfy msjd",
        "main_category": "Mosque",
        "address": "RP2M+996 mSTfy msjd, MC Rd, Naganadi, Ambur, Somalapuram, Tamil Nadu 635802",
        "detailed_address": {
            "ward": "Naganadi",
            "street": "RP2M+996, MC Rd",
            "city": "Ambur, Somalapuram",
            "postal_code": null,
            "state": "Tamil Nadu",
            "country_code": "IN"
        },
        "images": [
            {
                "about": "All",
                "link": "https://streetviewpixels-pa.googleapis.com/v1/thumbnail?panoid=S6CGQl_5IkJ0sqxGa0Qh5Q&cb_client=maps_sv.tactile.gps&w=224&h=298&yaw=298.98544&pitch=0&thumbfov=100"
            },
            {
                "about": "Street View & 360deg",
                "link": "https://streetviewpixels-pa.googleapis.com/v1/thumbnail?panoid=S6CGQl_5IkJ0sqxGa0Qh5Q&cb_client=maps_sv.tactile.gps&w=224&h=298&yaw=298.98544&pitch=0&thumbfov=100"
            }
        ],
        "link": "https://www.google.com/maps/place/%D9%85%D8%B5%D8%B7%D9%81%DB%92+%D9%85%D8%B3%D8%AC%D8%AF%E2%80%AD/data=!4m7!3m6!1s0x3bad0940fab915d1:0x5019f191c41e4ccb!8m2!3d12.8009114!4d78.7333818!16s%2Fg%2F11stjtqyf2!19sChIJ0RW5-kAJrTsRy0wexJHxGVA?authuser=0&hl=en&rclk=1",
        "coordinates": {
            "latitude": 12.800911399999999,
            "longitude": 78.73338179999999
        }
    }
]