[
    {
        "name": "kuttii shriif aur msjid",
        "main_category": "Religious destination",
        "address": "XJJW+7MX kuttii shriif aur msjid, Teonthar, Madhya Pradesh 486223",
        "detailed_address": {
            "ward": null,
            "street": "XJJW+7MX",
            "city": "Teonthar",
            "postal_code": "486223",
            "state": "Madhya Pradesh",
            "country_code": "IN"
        },
        "images": [
            {
                "about": "All",
                "link": "https://lh5.googleusercontent.com/p/AF1QipMi4QC0RegOPm3v4VMnXw52smWn2Dxr3ylt-Dgr=w397-h298-k-no"
            }
        ],
        "link": "https://www.google.com/maps/place/%E0%A4%95%E0%A5%81%E0%A4%9F%E0%A5%80+%E0%A4%B6%E0%A4%B0%E0%A5%80%E0%A5%9E+%E0%A4%94%E0%A4%B0+%E0%A4%AE%E0%A4%B8%E0%A5%8D%E0%A4%9C%E0%A4%BF%E0%A4%A6/data=!4m7!3m6!1s0x39851972957f3701:0xaf35da34b6d5c15d!8m2!3d24.9807284!4d81.6467468!16s%2Fg%2F11gt5wtt8t!19sChIJATd_lXIZhTkRXcHVtjTaNa8?authuser=0&hl=en&rclk=1",
        "coordinates": {
            "latitude": 24.9807284,
            "longitude": 81.6467468
        }
    },
    {
        "name": "nmaaze iidgaah tyoNthr",
        "main_category": "Mosque",
        "address": "XJJV+2VC nmaaze iidgaah tyoNthr, Teonthar, Madhya Pradesh 486223",
        "detailed_address": {
            "ward": null,
            "street": "XJJV+2VC",
            "city": "Teonthar",
            "postal_code": "486223",
            "state": "Madhya Pradesh",
            "country_code": "IN"
        },
        "images": [
            {
                "about": "All",
                "link": "https://streetviewpixels-pa.googleapis.com/v1/thumbnail?panoid=IegOqTfQVVv9lvtCZueRjQ&cb_client=maps_sv.tactile.gps&w=224&h=298&yaw=233.21405&pitch=0&thumbfov=100"
            },
            {
                "about": "Street View & 360deg",
                "link": "https://streetviewpixels-pa.googleapis.com/v1/thumbnail?panoid=IegOqTfQVVv9lvtCZueRjQ&cb_client=maps_sv.tactile.gps&w=224&h=298&yaw=233.21405&pitch=0&thumbfov=100"
            }
        ],
        "link": "https://www.google.com/maps/place/%E0%A4%A8%E0%A4%AE%E0%A4%BE%E0%A5%9B%E0%A5%87+%E0%A4%88%E0%A4%A6%E0%A4%97%E0%A4%BE%E0%A4%B9+%E0%A4%A4%E0%A5%8D%E0%A4%AF%E0%A5%8B%E0%A4%82%E0%A4%A5%E0%A4%B0/data=!4m7!3m6!1s0x3985198d9e70e849:0xbd0fccf6fcfd7ef3!8m2!3d24.9800518!4d81.6446551!16s%2Fg%2F11gzfx5c98!19sChIJSehwno0ZhTkR8379_PbMD70?authuser=0&hl=en&rclk=1",
        "coordinates": {
            "latitude": 24.9800518,
            "longitude": 81.6446551
        }
    },
    {
        "name": "chottii mszid",
        "main_category": "Mosque",
        "address": "XJJV+83C chottii mszid, Teonthar Main Market Rd, Teonthar, Madhya Pradesh 486223",
        "detailed_address": {
            "ward": null,
            "street": "XJJV+83C, Teonthar Main Market Rd",
            "city": "Teonthar",
            "postal_code": "486223",
            "state": "Madhya Pradesh",
            "country_code": "IN"
        },
        "images": [
            {
                "about": "All",
                "link": "https://streetviewpixels-pa.googleapis.com/v1/thumbnail?panoid=NoHXhXbRt7urQdoskSnRaA&cb_client=maps_sv.tactile.gps&w=224&h=298&yaw=355.16196&pitch=0&thumbfov=100"
            },
            {
                "about": "Street View & 360deg",
                "link": "https://streetviewpixels-pa.googleapis.com/v1/thumbnail?panoid=NoHXhXbRt7urQdoskSnRaA&cb_client=maps_sv.tactile.gps&w=224&h=298&yaw=355.16196&pitch=0&thumbfov=100"
            }
        ],
        "link": "https://www.google.com/maps/place/%E0%A4%9B%E0%A5%8B%E0%A4%9F%E0%A5%80+%E0%A4%AE%E0%A4%B8%E0%A5%8D%E0%A5%9B%E0%A4%BF%E0%A4%A6/data=!4m7!3m6!1s0x398519e6d77a2e75:0x23b7003c0339fe71!8m2!3d24.9808224!4d81.6426347!16s%2Fg%2F11fgdg3gl4!19sChIJdS561-YZhTkRcf45AzwAtyM?authuser=0&hl=en&rclk=1",
        "coordinates": {
            "latitude": 24.980822399999997,
            "longitude": 81.6426347
        }
    },
    {
        "name": "Masjid abu baker",
        "main_category": "Mosque",
        "address": "XJHR+R52 Masjid abu baker, Teonthar, Madhya Pradesh 486223",
        "detailed_address": {
            "ward": null,
            "street": "XJHR+R52",
            "city": "Teonthar",
            "postal_code": "486223",
            "state": "Madhya Pradesh",
            "country_code": "IN"
        },
        "images": [],
        "link": "https://www.google.com/maps/place/Masjid+abu+baker/data=!4m7!3m6!1s0x3985197d2b56c66d:0x158c0222e4333d35!8m2!3d24.9794704!4d81.640389!16s%2Fg%2F11krhlxfl5!19sChIJbcZWK30ZhTkRNT0z5CICjBU?authuser=0&hl=en&rclk=1",
        "coordinates": {
            "latitude": 24.9794704,
            "longitude": 81.640389
        }
    }
]