[
    {
        "name": "Dargah Hazrat Haji Hafiz Sufi Azmatullah Sahab(AULIYA SUNNI JAMA MASJID)",
        "main_category": "Mosque",
        "address": "QRRM+W3G Dargah Hazrat Haji Hafiz Sufi Azmatullah Sahab(AULIYA SUNNI JAMA MASJID), Sahawar, Uttar Pradesh 207245",
        "detailed_address": {
            "ward": null,
            "street": "QRRM+W3G",
            "city": "Sahawar",
            "postal_code": "207245",
            "state": "Uttar Pradesh",
            "country_code": "IN"
        },
        "images": [
            {
                "about": "All",
                "link": "https://lh5.googleusercontent.com/p/AF1QipOssIYZk6NdDTELXxcdDlLMLpsWXEDsZeKXIvh6=w224-h498-k-no"
            },
            {
                "about": "Dome",
                "link": "https://lh5.googleusercontent.com/p/AF1QipM_MrJEbjo8JaF57wSgPtEJYaG0zxmQ53qkDQPe=w224-h496-k-no"
            }
        ],
        "link": "https://www.google.com/maps/place/Dargah+Hazrat+Haji+Hafiz+Sufi+Azmatullah+Sahab%28AULIYA+SUNNI+JAMA+MASJID%29/data=!4m7!3m6!1s0x397519d6ace139ed:0x51e82e2c0e5930f4!8m2!3d27.7923059!4d78.8327009!16s%2Fg%2F11c5xpdxtb!19sChIJ7TnhrNYZdTkR9DBZDiwu6FE?authuser=0&hl=en&rclk=1",
        "coordinates": {
            "latitude": 27.7923059,
            "longitude": 78.83270089999999
        }
    },
    {
        "name": "Qazi Masjid",
        "main_category": "Mosque",
        "address": "QRVM+M5P Qazi Masjid, Sahawar, Uttar Pradesh 207245",
        "detailed_address": {
            "ward": null,
            "street": "QRVM+M5P",
            "city": "Sahawar",
            "postal_code": "207245",
            "state": "Uttar Pradesh",
            "country_code": "IN"
        },
        "images": [],
        "link": "https://www.google.com/maps/place/Qazi+Masjid/data=!4m7!3m6!1s0x397519d474a04607:0xa6436b4a13f4edf1!8m2!3d27.7942109!4d78.8329567!16s%2Fg%2F11bxd7vz_j!19sChIJB0agdNQZdTkR8e30E0prQ6Y?authuser=0&hl=en&rclk=1",
        "coordinates": {
            "latitude": 27.7942109,
            "longitude": 78.8329567
        }
    },
    {
        "name": "Jama Masjid",
        "main_category": "Mosque",
        "address": "QRWJ+GXX Jama Masjid, Sahawar, Uttar Pradesh 207245",
        "detailed_address": {
            "ward": null,
            "street": "QRWJ+GXX",
            "city": "Sahawar",
            "postal_code": "207245",
            "state": "Uttar Pradesh",
            "country_code": "IN"
        },
        "images": [
            {
                "about": "All",
                "link": "https://lh5.googleusercontent.com/p/AF1QipPzEB0XCKH9Klg3KRjFAkR9rfQj48o55q_My97J=w224-h298-k-no"
            },
            {
                "about": "Dome",
                "link": "https://lh5.googleusercontent.com/p/AF1QipOG-VUPUR71OcXd7sku-aSbQSgvGunul5NL9suT=w224-h398-k-no"
            },
            {
                "about": "Videos",
                "link": "https://lh5.googleusercontent.com/p/AF1QipNFC98pQ5rVDIXJtGF7te-SJJdERtx42YvEP1tx=w224-h395-k-no"
            }
        ],
        "link": "https://www.google.com/maps/place/Jama+Masjid/data=!4m7!3m6!1s0x397519d36301a045:0xca612f8c8a7062dd!8m2!3d27.796366!4d78.832475!16s%2Fg%2F11d_bgt9gv!19sChIJRaABY9MZdTkR3WJwiowvYco?authuser=0&hl=en&rclk=1",
        "coordinates": {
            "latitude": 27.796366,
            "longitude": 78.832475
        }
    },
    {
        "name": "Khwaza Masjid",
        "main_category": "Mosque",
        "address": "QRVJ+CJP Khwaza Masjid, Sahawar, Uttar Pradesh 207245",
        "detailed_address": {
            "ward": null,
            "street": "QRVJ+CJP",
            "city": "Sahawar",
            "postal_code": "207245",
            "state": "Uttar Pradesh",
            "country_code": "IN"
        },
        "images": [
            {
                "about": "All",
                "link": "https://lh5.googleusercontent.com/p/AF1QipOrakVliE12qeffIhjw7C-YNq-usV_JpvGt9bjl=w224-h353-k-no"
            },
            {
                "about": "Dome",
                "link": "https://lh5.googleusercontent.com/p/AF1QipPlD33QKc7XU0ajGKv8kmN_YQ4PBtHgEzMOdAO1=w397-h298-k-no"
            },
            {
                "about": "Street View & 360deg",
                "link": "https://streetviewpixels-pa.googleapis.com/v1/thumbnail?panoid=f_pzTm4ww3UKud5OxyDMhg&cb_client=maps_sv.tactile.gps&w=224&h=298&yaw=180.64903&pitch=0&thumbfov=100"
            }
        ],
        "link": "https://www.google.com/maps/place/Khwaza+Masjid/data=!4m7!3m6!1s0x397519d3eeaf27f7:0xe9e2e66ec80834bd!8m2!3d27.7935794!4d78.831573!16s%2Fg%2F11csb0x5fs!19sChIJ9yev7tMZdTkRvTQIyG7m4uk?authuser=0&hl=en&rclk=1",
        "coordinates": {
            "latitude": 27.7935794,
            "longitude": 78.83157299999999
        }
    },
    {
        "name": "Ansari mosque",
        "main_category": "Mosque",
        "address": "QRVM+CRR Ansari mosque, Sahawar, Uttar Pradesh 207245",
        "detailed_address": {
            "ward": null,
            "street": "QRVM+CRR",
            "city": "Sahawar",
            "postal_code": "207245",
            "state": "Uttar Pradesh",
            "country_code": "IN"
        },
        "images": [
            {
                "about": "All",
                "link": "https://lh5.googleusercontent.com/p/AF1QipPivYrHdBLhkM_GFn60dIDAIYRvxUdEjrUW_lz1=w224-h398-k-no"
            },
            {
                "about": "Street View & 360deg",
                "link": "https://streetviewpixels-pa.googleapis.com/v1/thumbnail?panoid=txWD19x6Y5MNAWVKemWvuA&cb_client=maps_sv.tactile.gps&w=224&h=298&yaw=292.69302&pitch=0&thumbfov=100"
            },
            {
                "about": "Videos",
                "link": "https://lh5.googleusercontent.com/p/AF1QipPivYrHdBLhkM_GFn60dIDAIYRvxUdEjrUW_lz1=w224-h398-k-no"
            }
        ],
        "link": "https://www.google.com/maps/place/Ansari+mosque/data=!4m7!3m6!1s0x397519d43b3f2a35:0xb2862411e5a33bec!8m2!3d27.793616!4d78.8345088!16s%2Fg%2F11bzq35d7n!19sChIJNSo_O9QZdTkR7Duj5REkhrI?authuser=0&hl=en&rclk=1",
        "coordinates": {
            "latitude": 27.793616,
            "longitude": 78.8345088
        }
    },
    {
        "name": "Moti Masjid",
        "main_category": "Mosque",
        "address": "QRWM+XMC Moti Masjid, Sahawar, Uttar Pradesh 207245",
        "detailed_address": {
            "ward": null,
            "street": "QRWM+XMC",
            "city": "Sahawar",
            "postal_code": "207245",
            "state": "Uttar Pradesh",
            "country_code": "IN"
        },
        "images": [
            {
                "about": "All",
                "link": "https://lh5.googleusercontent.com/p/AF1QipOlfrJiSS2ox65h1D13h5XIWNGd69fIobXL-jpk=w224-h482-k-no"
            },
            {
                "about": "Videos",
                "link": "https://lh5.googleusercontent.com/p/AF1QipOAH28JuJF0M2riIJTGB1vLJ5Ek4ZSAN-2vtrhc=w224-h398-k-no"
            }
        ],
        "link": "https://www.google.com/maps/place/Moti+Masjid/data=!4m7!3m6!1s0x3975190eeefe1c19:0x239c8230de999810!8m2!3d27.7974427!4d78.8341371!16s%2Fg%2F11hdpc0cxl!19sChIJGRz-7g4ZdTkREJiZ3jCCnCM?authuser=0&hl=en&rclk=1",
        "coordinates": {
            "latitude": 27.797442699999998,
            "longitude": 78.83413709999999
        }
    },
    {
        "name": "Mujawran Masjid",
        "main_category": "Mosque",
        "address": "QRWM+358 Mujawran Masjid, Sahawar Rd, Sahawar, Uttar Pradesh 207245",
        "detailed_address": {
            "ward": null,
            "street": "QRWM+358, Sahawar Rd",
            "city": "Sahawar",
            "postal_code": "207245",
            "state": "Uttar Pradesh",
            "country_code": "IN"
        },
        "images": [],
        "link": "https://www.google.com/maps/place/Mujawran+Masjid/data=!4m7!3m6!1s0x39751940984d7c2d:0x218b8829a347654c!8m2!3d27.795162!4d78.8329661!16s%2Fg%2F11lgdmq82p!19sChIJLXxNmEAZdTkRTGVHoymIiyE?authuser=0&hl=en&rclk=1",
        "coordinates": {
            "latitude": 27.795161999999998,
            "longitude": 78.8329661
        }
    }
]