[
    {
        "name": "Masjid-E-Bilal",
        "main_category": "Mosque",
        "address": "PH99+3WV Masjid-E-Bilal, Teacher Colony, Millat Colony, Khamgaon, Maharashtra 444303",
        "detailed_address": {
            "ward": "Teacher Colony, Millat Colony",
            "street": "PH99+3WV",
            "city": "Khamgaon",
            "postal_code": "444303",
            "state": "Maharashtra",
            "country_code": "IN"
        },
        "images": [
            {
                "about": "All",
                "link": "https://lh5.googleusercontent.com/p/AF1QipNDQ6HgndptpEKGP-PspKzB26o5a_BJwqDdCKFR=w224-h298-k-no"
            },
            {
                "about": "Street View & 360deg",
                "link": "https://streetviewpixels-pa.googleapis.com/v1/thumbnail?panoid=Od2j4Ks0VvpaGul6n6S7TQ&cb_client=maps_sv.tactile.gps&w=224&h=298&yaw=156.68648&pitch=0&thumbfov=100"
            }
        ],
        "link": "https://www.google.com/maps/place/Masjid-E-Bilal/data=!4m7!3m6!1s0x3bd750c2cd7e0881:0x9888d23df02cb2ae!8m2!3d20.7177315!4d76.5697828!16s%2Fg%2F1pp2tldqn!19sChIJgQh-zcJQ1zsRrrIs8D3SiJg?authuser=0&hl=en&rclk=1",
        "coordinates": {
            "latitude": 20.7177315,
            "longitude": 76.5697828
        }
    },
    {
        "name": "Dawoodi Bohra Masjid",
        "main_category": "Mosque",
        "address": "PH38+XP5 Dawoodi Bohra Masjid, Lakkad Ganj, Khamgaon, Maharashtra 444303",
        "detailed_address": {
            "ward": "Lakkad Ganj",
            "street": "PH38+XP5",
            "city": "Khamgaon",
            "postal_code": "444303",
            "state": "Maharashtra",
            "country_code": "IN"
        },
        "images": [
            {
                "about": "All",
                "link": "https://streetviewpixels-pa.googleapis.com/v1/thumbnail?panoid=wbb4Qu_FEArtrnhecjNC0A&cb_client=maps_sv.tactile.gps&w=224&h=298&yaw=235.23767&pitch=0&thumbfov=100"
            },
            {
                "about": "Street View & 360deg",
                "link": "https://lh5.googleusercontent.com/p/AF1QipMeMX6xw2hdlhWj8db1i_aSrE3Fxey7w19V0g6i=w224-h298-k-no-pi-0-ya43.999992-ro-0-fo100"
            }
        ],
        "link": "https://www.google.com/maps/place/Dawoodi+Bohra+Masjid/data=!4m7!3m6!1s0x3bd75120b009af3b:0x4af152824c1a8129!8m2!3d20.7048955!4d76.566875!16s%2Fg%2F1tfjjl8w!19sChIJO68JsCBR1zsRKYEaTIJS8Uo?authuser=0&hl=en&rclk=1",
        "coordinates": {
            "latitude": 20.7048955,
            "longitude": 76.566875
        }
    },
    {
        "name": "Madina Masjid msjd",
        "main_category": "Mosque",
        "address": "QMVW+73H Madina Masjid msjd, Bazar File, Shegaon, Maharashtra 444203",
        "detailed_address": {
            "ward": null,
            "street": "QMVW+73H, Bazar File",
            "city": "Shegaon",
            "postal_code": "444203",
            "state": "Maharashtra",
            "country_code": "IN"
        },
        "images": [
            {
                "about": "All",
                "link": "https://lh5.googleusercontent.com/p/AF1QipMNfFB4HOwy767bvH5-RvCcgnfUu1V95BCTLVq-=w224-h298-k-no"
            },
            {
                "about": "Street View & 360deg",
                "link": "https://streetviewpixels-pa.googleapis.com/v1/thumbnail?panoid=4LpZKcnJp_zIge6e_RBrIg&cb_client=maps_sv.tactile.gps&w=224&h=298&yaw=308.4263&pitch=0&thumbfov=100"
            },
            {
                "about": "Videos",
                "link": "https://lh5.googleusercontent.com/p/AF1QipMrzstSEta72P69j4FF5SJw1tTEvO4hsPJiofU=w224-h398-k-no"
            }
        ],
        "link": "https://www.google.com/maps/place/Madina+Masjid+%D9%85%D8%B3%D8%AC%D8%AF%E2%80%AD/data=!4m7!3m6!1s0x3bd745a469d5ba75:0xe10f7a0b2cd33c12!8m2!3d20.7931976!4d76.6952255!16s%2Fg%2F1pp2ty3fd!19sChIJdbrVaaRF1zsREjzTLAt6D-E?authuser=0&hl=en&rclk=1",
        "coordinates": {
            "latitude": 20.7931976,
            "longitude": 76.69522549999999
        }
    },
    {
        "name": "InaMul Hasan Masjid Barde Plot Khamgaon",
        "main_category": "Mosque",
        "address": "MHW8+C5P InaMul Hasan Masjid Barde Plot Khamgaon, Barde Plot, Khamgaon, Maharashtra 444303",
        "detailed_address": {
            "ward": "Barde Plot",
            "street": "MHW8+C5P",
            "city": "Khamgaon",
            "postal_code": "444303",
            "state": "Maharashtra",
            "country_code": "IN"
        },
        "images": [
            {
                "about": "All",
                "link": "https://lh5.googleusercontent.com/p/AF1QipMM3T8X4G07ZzfMLFPlmp873oBaCeyaO0X8_o_k=w529-h298-k-no"
            },
            {
                "about": "Street View & 360deg",
                "link": "https://streetviewpixels-pa.googleapis.com/v1/thumbnail?panoid=of812Wczyzq92eVFd1uPqQ&cb_client=maps_sv.tactile.gps&w=224&h=298&yaw=29.853483&pitch=0&thumbfov=100"
            }
        ],
        "link": "https://www.google.com/maps/place/InaMul+Hasan+Masjid+Barde+Plot+Khamgaon/data=!4m7!3m6!1s0x3bd751248fffffff:0x717dbaf4537978ef!8m2!3d20.6960817!4d76.5654398!16s%2Fg%2F11dxd0gdps!19sChIJ____jyRR1zsR73h5U_S6fXE?authuser=0&hl=en&rclk=1",
        "coordinates": {
            "latitude": 20.6960817,
            "longitude": 76.5654398
        }
    },
    {
        "name": "Markaz Masjid",
        "main_category": "Mosque",
        "address": "PCFM+8VQ Markaz Masjid, Pimpalgaon Raja, Maharashtra 444306",
        "detailed_address": {
            "ward": null,
            "street": "PCFM+8VQ",
            "city": "Pimpalgaon Raja",
            "postal_code": "444306",
            "state": "Maharashtra",
            "country_code": "IN"
        },
        "images": [
            {
                "about": "All",
                "link": "https://lh5.googleusercontent.com/p/AF1QipNfAUV909tu8RX9S3jGHpBexh1FnkqdWvM77tZc=w529-h298-k-no"
            }
        ],
        "link": "https://www.google.com/maps/place/Markaz+Masjid/data=!4m7!3m6!1s0x3bd9fd40c73bd811:0x29617f6ed54aea69!8m2!3d20.7233489!4d76.4347292!16s%2Fg%2F11c5g8cp6d!19sChIJEdg7x0D92TsRaepK1W5_YSk?authuser=0&hl=en&rclk=1",
        "coordinates": {
            "latitude": 20.723348899999998,
            "longitude": 76.43472919999999
        }
    },
    {
        "name": "nearMasjid Gulzar Gulzarpura",
        "main_category": "Mosque",
        "address": "PCGQ+P3V nearMasjid Gulzar Gulzarpura, Pimpalgaon Raja, Maharashtra 444306",
        "detailed_address": {
            "ward": null,
            "street": "PCGQ+P3V",
            "city": "Pimpalgaon Raja",
            "postal_code": "444306",
            "state": "Maharashtra",
            "country_code": "IN"
        },
        "images": [
            {
                "about": "All",
                "link": "https://lh5.googleusercontent.com/p/AF1QipMwN7TGzR_qgjmvcxlyKQ9nUmCyLZykGAcbYoJu=w224-h298-k-no"
            }
        ],
        "link": "https://www.google.com/maps/place/nearMasjid+Gulzar+Gulzarpura/data=!4m7!3m6!1s0x3bd9fd468d776751:0xd8d76aa5087a9d9b!8m2!3d20.7268547!4d76.4376726!16s%2Fg%2F11c61jd550!19sChIJUWd3jUb92TsRm516CKVq19g?authuser=0&hl=en&rclk=1",
        "coordinates": {
            "latitude": 20.7268547,
            "longitude": 76.4376726
        }
    },
    {
        "name": "mrkj msjid jntaa ngr",
        "main_category": "Mosque",
        "address": "MGHX+H32 mrkj msjid jntaa ngr, Unnamed Road, jntaa ngr, bhiim ngr, Mathani, Maharashtra 444303",
        "detailed_address": {
            "ward": "jntaa ngr",
            "street": "MGHX+H32, Unnamed Road",
            "city": "bhiim ngr, Mathani",
            "postal_code": "444303",
            "state": "Maharashtra",
            "country_code": "IN"
        },
        "images": [
            {
                "about": "All",
                "link": "https://lh5.googleusercontent.com/p/AF1QipOZdgghMSJ2KudX8Vcas1mblZVtRXXMK0HSb3kQ=w529-h298-k-no"
            },
            {
                "about": "Videos",
                "link": "https://lh5.googleusercontent.com/p/AF1QipPQceJMPsdpfLj8uxGaMWf57F11QFUXL3mwKAu1=w224-h398-k-no"
            }
        ],
        "link": "https://www.google.com/maps/place/%E0%A4%AE%E0%A4%B0%E0%A4%95%E0%A4%9C+%E0%A4%AE%E0%A4%B8%E0%A5%8D%E0%A4%9C%E0%A4%BF%E0%A4%A6+%E0%A4%9C%E0%A4%A8%E0%A4%A4%E0%A4%BE+%E0%A4%A8%E0%A4%97%E0%A4%B0/data=!4m7!3m6!1s0x3bd757909c77436b:0x6ef1398a7f85bc37!8m2!3d20.6788786!4d76.5476312!16s%2Fg%2F11h4t13j3v!19sChIJa0N3nJBX1zsRN7yFf4o58W4?authuser=0&hl=en&rclk=1",
        "coordinates": {
            "latitude": 20.678878599999997,
            "longitude": 76.5476312
        }
    },
    {
        "name": "Masjid Bilal",
        "main_category": "Mosque",
        "address": "PXHW+3V4 Masjid Bilal, Akola Bazar Rd, Haji Nagar, Millat Colony, Khamgaon, Akola, Maharashtra 444303",
        "detailed_address": {
            "ward": "Haji Nagar, Millat Colony",
            "street": "PXHW+3V4, Akola Bazar Rd",
            "city": "Khamgaon, Akola",
            "postal_code": "444303",
            "state": "Maharashtra",
            "country_code": "IN"
        },
        "images": [
            {
                "about": "All",
                "link": "https://streetviewpixels-pa.googleapis.com/v1/thumbnail?panoid=0k37Zp1cT_ISb_GBPQ9U5g&cb_client=maps_sv.tactile.gps&w=224&h=298&yaw=283.74237&pitch=0&thumbfov=100"
            },
            {
                "about": "Street View & 360deg",
                "link": "https://streetviewpixels-pa.googleapis.com/v1/thumbnail?panoid=0k37Zp1cT_ISb_GBPQ9U5g&cb_client=maps_sv.tactile.gps&w=224&h=298&yaw=283.74237&pitch=0&thumbfov=100"
            }
        ],
        "link": "https://www.google.com/maps/place/Masjid+Bilal/data=!4m7!3m6!1s0x3bd731cf8bad1c07:0xd451c5fcdbdf408d!8m2!3d20.7276464!4d76.9972129!16s%2Fg%2F11fy96kthk!19sChIJBxyti88x1zsRjUDf2_zFUdQ?authuser=0&hl=en&rclk=1",
        "coordinates": {
            "latitude": 20.727646399999998,
            "longitude": 76.9972129
        }
    },
    {
        "name": "msjd d`wt l",
        "main_category": "Mosque",
        "address": "PC8P+X3J msjd d`wt l, Pimpalgaon Raja, Maharashtra 444306",
        "detailed_address": {
            "ward": null,
            "street": "PC8P+X3J",
            "city": "Pimpalgaon Raja",
            "postal_code": "444306",
            "state": "Maharashtra",
            "country_code": "IN"
        },
        "images": [],
        "link": "https://www.google.com/maps/place/%D9%85%D8%B3%D8%AC%D8%AF+%D8%AF%D8%B9%D9%88%D8%AA+%D8%A7%D9%84%EF%B7%B2%E2%80%AD/data=!4m7!3m6!1s0x3bd9fd6a93debc41:0xcd6acb056cbd542c!8m2!3d20.7174612!4d76.4351401!16s%2Fg%2F11c2qzysty!19sChIJQbzek2r92TsRLFS9bAXLas0?authuser=0&hl=en&rclk=1",
        "coordinates": {
            "latitude": 20.7174612,
            "longitude": 76.4351401
        }
    },
    {
        "name": "Dawoodi Bohra Markaz ( Masjid )",
        "main_category": "Mosque",
        "address": "PH2C+MW7 Dawoodi Bohra Markaz ( Masjid ), Sati Fail, Khamgaon, Maharashtra 444303",
        "detailed_address": {
            "ward": "Sati Fail",
            "street": "PH2C+MW7",
            "city": "Khamgaon",
            "postal_code": "444303",
            "state": "Maharashtra",
            "country_code": "IN"
        },
        "images": [],
        "link": "https://www.google.com/maps/place/Dawoodi+Bohra+Markaz+%28+Masjid+%29/data=!4m7!3m6!1s0x3bd7511f5e0a2b31:0x2ef340622e6669e8!8m2!3d20.7016633!4d76.5722915!16s%2Fg%2F11g6_d2fxz!19sChIJMSsKXh9R1zsR6GlmLmJA8y4?authuser=0&hl=en&rclk=1",
        "coordinates": {
            "latitude": 20.7016633,
            "longitude": 76.57229149999999
        }
    },
    {
        "name": "GAUSIYA MASJID(ahlesunnat wal jamaat)",
        "main_category": "Mosque",
        "address": "PH5H+QGJ GAUSIYA MASJID(ahlesunnat wal jamaat), Shankar Nagar, Khamgaon, Maharashtra 444303",
        "detailed_address": {
            "ward": "Shankar Nagar",
            "street": "PH5H+QGJ",
            "city": "Khamgaon",
            "postal_code": "444303",
            "state": "Maharashtra",
            "country_code": "IN"
        },
        "images": [
            {
                "about": "All",
                "link": "https://streetviewpixels-pa.googleapis.com/v1/thumbnail?panoid=J9ksmaJpPLLYwACK8GRtVw&cb_client=maps_sv.tactile.gps&w=224&h=298&yaw=242.47699&pitch=0&thumbfov=100"
            },
            {
                "about": "Street View & 360deg",
                "link": "https://streetviewpixels-pa.googleapis.com/v1/thumbnail?panoid=J9ksmaJpPLLYwACK8GRtVw&cb_client=maps_sv.tactile.gps&w=224&h=298&yaw=242.47699&pitch=0&thumbfov=100"
            }
        ],
        "link": "https://www.google.com/maps/place/GAUSIYA+MASJID%28ahlesunnat+wal+jamaat%29/data=!4m7!3m6!1s0x3bd750e2335cee51:0xd28def4d6ac15a06!8m2!3d20.7094678!4d76.5787666!16s%2Fg%2F11f11pwc03!19sChIJUe5cM-JQ1zsRBlrBak3vjdI?authuser=0&hl=en&rclk=1",
        "coordinates": {
            "latitude": 20.7094678,
            "longitude": 76.5787666
        }
    },
    {
        "name": "Makkah Masjid,",
        "main_category": "Mosque",
        "address": "MHV7+RRV Makkah Masjid,, M. Ali JoherRoad, Barde Plot, Khamgaon, Maharashtra 444303",
        "detailed_address": {
            "ward": "Barde Plot",
            "street": "MHV7+RRV, M. Ali JoherRoad",
            "city": "Khamgaon",
            "postal_code": "444303",
            "state": "Maharashtra",
            "country_code": "IN"
        },
        "images": [
            {
                "about": "All",
                "link": "https://lh5.googleusercontent.com/p/AF1QipN0UHBqmLeJDrARo4uHtt63i2iCuyAJAas7jaSc=w224-h473-k-no"
            },
            {
                "about": "Dome",
                "link": "https://lh5.googleusercontent.com/p/AF1QipMdOLNXNgzZu8AnabLU9bWDgI_c3H-5zNmgGfV1=w397-h298-k-no"
            },
            {
                "about": "Videos",
                "link": "https://lh5.googleusercontent.com/p/AF1QipOKKRfbSsu8HUWx0rsykpxHG8VJPvh0DTRrNdWE=w529-h298-k-no"
            },
            {
                "about": "Street View & 360deg",
                "link": "https://streetviewpixels-pa.googleapis.com/v1/thumbnail?panoid=kIilSiJqoZq4h-LhGtEXmw&cb_client=maps_sv.tactile.gps&w=224&h=298&yaw=143.03189&pitch=0&thumbfov=100"
            }
        ],
        "link": "https://www.google.com/maps/place/Makkah+Masjid,/data=!4m7!3m6!1s0x3bd7517ab5a11e61:0x8588de3fd7f39eca!8m2!3d20.6946176!4d76.5645406!16s%2Fg%2F11g_zfmn4j!19sChIJYR6htXpR1zsRyp7z1z_eiIU?authuser=0&hl=en&rclk=1",
        "coordinates": {
            "latitude": 20.6946176,
            "longitude": 76.5645406
        }
    },
    {
        "name": "Boripura Masjid Ahle Sunnat",
        "main_category": "Mosque",
        "address": "PH46+H7R Boripura Masjid Ahle Sunnat, Gaurakshan Rd, Boripura, Khamgaon, Maharashtra 444303",
        "detailed_address": {
            "ward": "Boripura",
            "street": "PH46+H7R, Gaurakshan Rd",
            "city": "Khamgaon",
            "postal_code": "444303",
            "state": "Maharashtra",
            "country_code": "IN"
        },
        "images": [
            {
                "about": "All",
                "link": "https://lh5.googleusercontent.com/p/AF1QipPpQqJD-vWLF4OFAG6D4oS_6UxFrXXy6ZFb_veV=w224-h299-k-no"
            },
            {
                "about": "Videos",
                "link": "https://lh5.googleusercontent.com/p/AF1QipMx_9d8sw0pTwPxlqrwYu3gwSI8XWZ4Jl3zD_Ax=w224-h398-k-no"
            }
        ],
        "link": "https://www.google.com/maps/place/Boripura+Masjid+Ahle+Sunnat/data=!4m7!3m6!1s0x3bd751e00bba5d55:0x557db9b29040a5e!8m2!3d20.7064816!4d76.5606314!16s%2Fg%2F11fk7rp4sh!19sChIJVV26C-BR1zsRXgoEKZvbVwU?authuser=0&hl=en&rclk=1",
        "coordinates": {
            "latitude": 20.7064816,
            "longitude": 76.56063139999999
        }
    },
    {
        "name": "jama Masjid Khamgaon",
        "main_category": "Mosque",
        "address": "5FMV+G5F jama Masjid Khamgaon, Khamgaon, Maharashtra 431151",
        "detailed_address": {
            "ward": null,
            "street": "5FMV+G5F",
            "city": "Khamgaon",
            "postal_code": "431151",
            "state": "Maharashtra",
            "country_code": "IN"
        },
        "images": [
            {
                "about": "All",
                "link": "https://lh5.googleusercontent.com/p/AF1QipPTrlHz_3CtHPWkJa6fdt42oOVqGzkrTDZvlvz4=w397-h298-k-no"
            }
        ],
        "link": "https://www.google.com/maps/place/jama+Masjid+Khamgaon/data=!4m7!3m6!1s0x3bdbc66f7ef9f835:0x342def24c50ef509!8m2!3d20.183812!4d75.4929319!16s%2Fg%2F11g9vp2vvx!19sChIJNfj5fm_G2zsRCfUOxSTvLTQ?authuser=0&hl=en&rclk=1",
        "coordinates": {
            "latitude": 20.183812,
            "longitude": 75.4929319
        }
    },
    {
        "name": "Raza Masjid",
        "main_category": "Mosque",
        "address": "RFJ6+XFJ Raza Masjid, Taj Nagar, Nandura, Maharashtra 443404",
        "detailed_address": {
            "ward": "Taj Nagar",
            "street": "RFJ6+XFJ",
            "city": "Nandura",
            "postal_code": "443404",
            "state": "Maharashtra",
            "country_code": "IN"
        },
        "images": [
            {
                "about": "All",
                "link": "https://streetviewpixels-pa.googleapis.com/v1/thumbnail?panoid=l2sKb3ED1RPjiIiP6ofH3A&cb_client=maps_sv.tactile.gps&w=224&h=298&yaw=155.16158&pitch=0&thumbfov=100"
            },
            {
                "about": "Street View & 360deg",
                "link": "https://streetviewpixels-pa.googleapis.com/v1/thumbnail?panoid=l2sKb3ED1RPjiIiP6ofH3A&cb_client=maps_sv.tactile.gps&w=224&h=298&yaw=155.16158&pitch=0&thumbfov=100"
            }
        ],
        "link": "https://www.google.com/maps/place/Raza+Masjid/data=!4m7!3m6!1s0x3bd758abef1b8091:0x6686d01a9a777122!8m2!3d20.832472!4d76.4611316!16s%2Fg%2F11xm8nzlb!19sChIJkYAb76tY1zsRInF3mhrQhmY?authuser=0&hl=en&rclk=1",
        "coordinates": {
            "latitude": 20.832472,
            "longitude": 76.4611316
        }
    },
    {
        "name": "Jama masjid",
        "main_category": "Mosque",
        "address": "95V8+88 Jama masjid, Khamgaon, Maharashtra 414502",
        "detailed_address": {
            "ward": null,
            "street": "95V8+88",
            "city": "Khamgaon",
            "postal_code": "414502",
            "state": "Maharashtra",
            "country_code": "IN"
        },
        "images": [
            {
                "about": "All",
                "link": "https://lh5.googleusercontent.com/p/AF1QipO0X_kbk3EE_t4qGX5Sx2fIvMtu75TLAG9PBwI=w224-h473-k-no"
            },
            {
                "about": "Street View & 360deg",
                "link": "https://streetviewpixels-pa.googleapis.com/v1/thumbnail?panoid=wm1NsGOPt0tJqHW0RQrDKQ&cb_client=maps_sv.tactile.gps&w=224&h=298&yaw=56.405018&pitch=0&thumbfov=100"
            }
        ],
        "link": "https://www.google.com/maps/place/Jama+masjid/data=!4m7!3m6!1s0x3bdb692deace2c13:0x20bbcf4a3f0198ef!8m2!3d19.3933532!4d75.165798!16s%2Fg%2F11sl_z_25x!19sChIJEyzO6i1p2zsR75gBP0rPuyA?authuser=0&hl=en&rclk=1",
        "coordinates": {
            "latitude": 19.3933532,
            "longitude": 75.165798
        }
    },
    {
        "name": "Madina Masjid",
        "main_category": "Mosque",
        "address": "FJWC+G54 Madina Masjid, Khamgaon Rd, Lakhanwada, Maharashtra 444303",
        "detailed_address": {
            "ward": null,
            "street": "FJWC+G54, Khamgaon Rd",
            "city": "Lakhanwada",
            "postal_code": "444303",
            "state": "Maharashtra",
            "country_code": "IN"
        },
        "images": [
            {
                "about": "All",
                "link": "https://streetviewpixels-pa.googleapis.com/v1/thumbnail?panoid=VkJzQ_CTguCkKZD3bGgwoA&cb_client=maps_sv.tactile.gps&w=224&h=298&yaw=307.6443&pitch=0&thumbfov=100"
            },
            {
                "about": "Street View & 360deg",
                "link": "https://streetviewpixels-pa.googleapis.com/v1/thumbnail?panoid=VkJzQ_CTguCkKZD3bGgwoA&cb_client=maps_sv.tactile.gps&w=224&h=298&yaw=307.6443&pitch=0&thumbfov=100"
            }
        ],
        "link": "https://www.google.com/maps/place/Madina+Masjid/data=!4m7!3m6!1s0x3bd0adea50906a6f:0x2f4fa0def3b4a498!8m2!3d20.4962567!4d76.6204687!16s%2Fg%2F11gff4zz0p!19sChIJb2qQUOqt0DsRmKS0896gTy8?authuser=0&hl=en&rclk=1",
        "coordinates": {
            "latitude": 20.4962567,
            "longitude": 76.6204687
        }
    },
    {
        "name": "Markaz Masjid",
        "main_category": "Mosque",
        "address": "PH28+XXH Markaz Masjid, Unnamed Road, Shivaji Nager, Khamgaon, Maharashtra 444303",
        "detailed_address": {
            "ward": "Shivaji Nager",
            "street": "PH28+XXH, Unnamed Road",
            "city": "Khamgaon",
            "postal_code": "444303",
            "state": "Maharashtra",
            "country_code": "IN"
        },
        "images": [
            {
                "about": "All",
                "link": "https://lh5.googleusercontent.com/p/AF1QipMwj9oku1lTk_k_IV_vPa4inT77JCieKSTWtwzx=w613-h298-k-no"
            },
            {
                "about": "Street View & 360deg",
                "link": "https://streetviewpixels-pa.googleapis.com/v1/thumbnail?panoid=izHR8cLAcrXHkfmlabZOrw&cb_client=maps_sv.tactile.gps&w=224&h=298&yaw=86.23449&pitch=0&thumbfov=100"
            }
        ],
        "link": "https://www.google.com/maps/place/Markaz+Masjid/data=!4m7!3m6!1s0x3bd7516655c7b8ef:0xcadb8ed4b76eaab6!8m2!3d20.702426!4d76.5674942!16s%2Fg%2F11h2g1f83r!19sChIJ77jHVWZR1zsRtqput9SO28o?authuser=0&hl=en&rclk=1",
        "coordinates": {
            "latitude": 20.702426,
            "longitude": 76.5674942
        }
    },
    {
        "name": "Mr Sajid pop",
        "main_category": "Arts organization",
        "address": "Mr Sajid pop, Zam zam colony chikli road golden bakery Khamgaon Birthday plot Khamgaon, Khamgaon, Maharashtra 444303",
        "detailed_address": {
            "ward": "Nilkanth Nagar",
            "street": "Zam zam colony chikli road golden bakery Khamgaon Birthday plot Khamgaon",
            "city": "Khamgaon",
            "postal_code": "444303",
            "state": "Maharashtra",
            "country_code": "IN"
        },
        "images": [
            {
                "about": "All",
                "link": "https://lh5.googleusercontent.com/p/AF1QipNYUPoJwaixpOVOgOGrrP9wU8CScqb9oKmi6wul=w298-h298-k-no"
            },
            {
                "about": "By owner",
                "link": "https://lh5.googleusercontent.com/p/AF1QipObHo0gAm77SU5BX2uMwmzpO4fBxXFMSvJYr6Oe=w298-h298-k-no"
            }
        ],
        "link": "https://www.google.com/maps/place/Mr+Sajid+pop/data=!4m7!3m6!1s0x3bd7518d7c8d4d07:0x34b8143f6ba8eedf!8m2!3d20.6970131!4d76.5643495!16s%2Fg%2F11s5yh2v6j!19sChIJB02NfI1R1zsR3-6oaz8UuDQ?authuser=0&hl=en&rclk=1",
        "coordinates": {
            "latitude": 20.6970131,
            "longitude": 76.56434949999999
        }
    },
    {
        "name": "TAJ NAGAR",
        "main_category": "Housing society",
        "address": "PH9G+5VM TAJ NAGAR, Taaj Nagar, Khamgaon, Maharashtra 444303",
        "detailed_address": {
            "ward": "Taaj Nagar",
            "street": "PH9G+5VM",
            "city": "Khamgaon",
            "postal_code": "444303",
            "state": "Maharashtra",
            "country_code": "IN"
        },
        "images": [
            {
                "about": "All",
                "link": "https://streetviewpixels-pa.googleapis.com/v1/thumbnail?panoid=yGQTKlMdqb6jOzDAlu_4xg&cb_client=maps_sv.tactile.gps&w=224&h=298&yaw=306.7699&pitch=0&thumbfov=100"
            },
            {
                "about": "Street View & 360deg",
                "link": "https://streetviewpixels-pa.googleapis.com/v1/thumbnail?panoid=yGQTKlMdqb6jOzDAlu_4xg&cb_client=maps_sv.tactile.gps&w=224&h=298&yaw=306.7699&pitch=0&thumbfov=100"
            }
        ],
        "link": "https://www.google.com/maps/place/TAJ+NAGAR/data=!4m7!3m6!1s0x3bd7510efaa49db3:0xbc606e3f7f551368!8m2!3d20.7179572!4d76.5771568!16s%2Fg%2F11t753r74j!19sChIJs52k-g5R1zsRaBNVfz9uYLw?authuser=0&hl=en&rclk=1",
        "coordinates": {
            "latitude": 20.7179572,
            "longitude": 76.5771568
        }
    },
    {
        "name": "Masjid-e-Abubakar",
        "main_category": "Mosque",
        "address": "QMGF+286 Masjid-e-Abubakar, Shegaon Rd, Rokadiya Nagar, Shegaon, Maharashtra 444203",
        "detailed_address": {
            "ward": "Rokadiya Nagar",
            "street": "QMGF+286, Shegaon Rd",
            "city": "Shegaon",
            "postal_code": "444203",
            "state": "Maharashtra",
            "country_code": "IN"
        },
        "images": [
            {
                "about": "All",
                "link": "https://streetviewpixels-pa.googleapis.com/v1/thumbnail?panoid=TtuCW0G3DfXZdavTIjTWSw&cb_client=maps_sv.tactile.gps&w=224&h=298&yaw=257.01822&pitch=0&thumbfov=100"
            },
            {
                "about": "Street View & 360deg",
                "link": "https://streetviewpixels-pa.googleapis.com/v1/thumbnail?panoid=TtuCW0G3DfXZdavTIjTWSw&cb_client=maps_sv.tactile.gps&w=224&h=298&yaw=257.01822&pitch=0&thumbfov=100"
            }
        ],
        "link": "https://www.google.com/maps/place/Masjid-e-Abubakar/data=!4m7!3m6!1s0x3bd7456fa9429951:0xd1cf8e1217a7ffaf!8m2!3d20.7750395!4d76.6732597!16s%2Fg%2F11fxvymr1b!19sChIJUZlCqW9F1zsRr_-nFxKOz9E?authuser=0&hl=en&rclk=1",
        "coordinates": {
            "latitude": 20.7750395,
            "longitude": 76.6732597
        }
    },
    {
        "name": "Nurani Masjid",
        "main_category": "Mosque",
        "address": "5H4F+GQ6 Nurani Masjid, Janephal - Khamgaon Rd, Rahemat Nagar, Mehkar, Maharashtra 443301",
        "detailed_address": {
            "ward": "Rahemat Nagar",
            "street": "5H4F+GQ6, Janephal - Khamgaon Rd",
            "city": "Mehkar",
            "postal_code": "443301",
            "state": "Maharashtra",
            "country_code": "IN"
        },
        "images": [],
        "link": "https://www.google.com/maps/place/Nurani+Masjid/data=!4m7!3m6!1s0x3bd098e7c91b7c23:0xed4749246348c729!8m2!3d20.1562925!4d76.5743927!16s%2Fg%2F11b6__458j!19sChIJI3wbyeeY0DsRKcdIYyRJR-0?authuser=0&hl=en&rclk=1",
        "coordinates": {
            "latitude": 20.1562925,
            "longitude": 76.57439269999999
        }
    },
    {
        "name": "Masjid - E - Garib Nawaz",
        "main_category": "Mosque",
        "address": "PHCF+973 Masjid - E - Garib Nawaz, near Father Banglow, Rehmatullah Colony, Taaj Nagar, Khamgaon, Maharashtra 444303",
        "detailed_address": {
            "ward": "Rehmatullah Colony, Taaj Nagar",
            "street": "PHCF+973, near Father Banglow",
            "city": "Khamgaon",
            "postal_code": "444303",
            "state": "Maharashtra",
            "country_code": "IN"
        },
        "images": [
            {
                "about": "All",
                "link": "https://lh5.googleusercontent.com/p/AF1QipNln3mUSvybHMl7_tvjwTpaCyxlqKmWFMkQoNJt=w529-h298-k-no"
            },
            {
                "about": "Street View & 360deg",
                "link": "https://streetviewpixels-pa.googleapis.com/v1/thumbnail?panoid=fCMz0V4qpdq_XG3WXWGtHA&cb_client=maps_sv.tactile.gps&w=224&h=298&yaw=168.10855&pitch=0&thumbfov=100"
            }
        ],
        "link": "https://www.google.com/maps/place/Masjid+-+E+-+Garib+Nawaz/data=!4m7!3m6!1s0x3bd7518a29ce4577:0xe0e7d63bee7b0b2f!8m2!3d20.7208976!4d76.5731721!16s%2Fg%2F11n5rtbmg5!19sChIJd0XOKYpR1zsRLwt77jvW5-A?authuser=0&hl=en&rclk=1",
        "coordinates": {
            "latitude": 20.7208976,
            "longitude": 76.5731721
        }
    },
    {
        "name": "Phatakpura Masjid Mastan Chowk",
        "main_category": "Mosque",
        "address": "PH38+877 Phatakpura Masjid Mastan Chowk, Dal Fail, Khamgaon, Maharashtra 444303",
        "detailed_address": {
            "ward": "Dal Fail",
            "street": "PH38+877",
            "city": "Khamgaon",
            "postal_code": "444303",
            "state": "Maharashtra",
            "country_code": "IN"
        },
        "images": [
            {
                "about": "All",
                "link": "https://lh5.googleusercontent.com/p/AF1QipOXUZp7IoVCPaajcOnf626xDrwveI1WxRj6TGZH=w662-h298-k-no"
            },
            {
                "about": "Street View & 360deg",
                "link": "https://streetviewpixels-pa.googleapis.com/v1/thumbnail?panoid=Iex5NBdaHl5oRuPo-dSEFA&cb_client=maps_sv.tactile.gps&w=224&h=298&yaw=10.406865&pitch=0&thumbfov=100"
            },
            {
                "about": "Videos",
                "link": "https://lh5.googleusercontent.com/p/AF1QipNhRqamFMXBlUDOf0dwDRbZzrfmb-OpmnTTmPsr=w224-h398-k-no"
            }
        ],
        "link": "https://www.google.com/maps/place/Phatakpura+Masjid+Mastan+Chowk/data=!4m7!3m6!1s0x3bd7511ee60e88b9:0xe6c9f52752a6e257!8m2!3d20.7032835!4d76.5656666!16s%2Fg%2F11txjdckws!19sChIJuYgO5h5R1zsRV-KmUif1yeY?authuser=0&hl=en&rclk=1",
        "coordinates": {
            "latitude": 20.703283499999998,
            "longitude": 76.5656666
        }
    },
    {
        "name": "Madina masjid barde polat Khamgaon",
        "main_category": "Mosque",
        "address": "MHW9+W2J Madina masjid barde polat Khamgaon, Unnamed Road, Barde Plot, Khamgaon, Maharashtra 444303",
        "detailed_address": {
            "ward": "Barde Plot",
            "street": "MHW9+W2J, Unnamed Road",
            "city": "Khamgaon",
            "postal_code": "444303",
            "state": "Maharashtra",
            "country_code": "IN"
        },
        "images": [
            {
                "about": "All",
                "link": "https://streetviewpixels-pa.googleapis.com/v1/thumbnail?panoid=ZZGHEADUy5DUSuCGRznCfA&cb_client=maps_sv.tactile.gps&w=224&h=298&yaw=281.47638&pitch=0&thumbfov=100"
            },
            {
                "about": "Street View & 360deg",
                "link": "https://streetviewpixels-pa.googleapis.com/v1/thumbnail?panoid=ZZGHEADUy5DUSuCGRznCfA&cb_client=maps_sv.tactile.gps&w=224&h=298&yaw=281.47638&pitch=0&thumbfov=100"
            }
        ],
        "link": "https://www.google.com/maps/place/Madina+masjid+barde+polat+Khamgaon/data=!4m7!3m6!1s0x3bd7517a1c4d7b2f:0x79f5e13d906b0d02!8m2!3d20.6973416!4d76.5675121!16s%2Fg%2F11h4qj6_qj!19sChIJL3tNHHpR1zsRAg1rkD3h9Xk?authuser=0&hl=en&rclk=1",
        "coordinates": {
            "latitude": 20.697341599999998,
            "longitude": 76.5675121
        }
    },
    {
        "name": "Garib nawaz masjid chota nandura",
        "main_category": "Mosque",
        "address": "RFH4+7XG Garib nawaz masjid chota nandura, Nandura Khurd, Nandura, Maharashtra 443404",
        "detailed_address": {
            "ward": "Nandura Khurd",
            "street": "RFH4+7XG",
            "city": "Nandura",
            "postal_code": "443404",
            "state": "Maharashtra",
            "country_code": "IN"
        },
        "images": [
            {
                "about": "All",
                "link": "https://lh5.googleusercontent.com/p/AF1QipMPwNGC9zVctxrsThNcbTLqd5bOyh8J26oWX4fT=w224-h398-k-no"
            },
            {
                "about": "Street View & 360deg",
                "link": "https://streetviewpixels-pa.googleapis.com/v1/thumbnail?panoid=sOI3XpHr3qXjN8KOccgiaw&cb_client=maps_sv.tactile.gps&w=224&h=298&yaw=200.7541&pitch=0&thumbfov=100"
            }
        ],
        "link": "https://www.google.com/maps/place/Garib+nawaz+masjid+chota+nandura/data=!4m7!3m6!1s0x3bd7595ca1acb3d9:0x49e88912558809c8!8m2!3d20.8281946!4d76.457451!16s%2Fg%2F11fmzjcy9y!19sChIJ2bOsoVxZ1zsRyAmIVRKJ6Ek?authuser=0&hl=en&rclk=1",
        "coordinates": {
            "latitude": 20.8281946,
            "longitude": 76.45745099999999
        }
    },
    {
        "name": "paththar wali masjid",
        "main_category": "Mosque",
        "address": "PH2C+QWM paththar wali masjid, Sati Fail, Khamgaon, Maharashtra 444303",
        "detailed_address": {
            "ward": "Sati Fail",
            "street": "PH2C+QWM",
            "city": "Khamgaon",
            "postal_code": "444303",
            "state": "Maharashtra",
            "country_code": "IN"
        },
        "images": [
            {
                "about": "All",
                "link": "https://lh5.googleusercontent.com/p/AF1QipP9RKPkvvMIeMspAMjTadDm3TFum0zzP6plwZZR=w224-h398-k-no"
            },
            {
                "about": "Street View & 360deg",
                "link": "https://streetviewpixels-pa.googleapis.com/v1/thumbnail?panoid=YcPR4uVjAYg4QqX65du2nw&cb_client=maps_sv.tactile.gps&w=224&h=298&yaw=295.91577&pitch=0&thumbfov=100"
            }
        ],
        "link": "https://www.google.com/maps/place/paththar+wali+masjid/data=!4m7!3m6!1s0x3bd7514299dce09f:0xba712a04af47d44f!8m2!3d20.7019625!4d76.5722873!16s%2Fg%2F11j10ts_l2!19sChIJn-DcmUJR1zsRT9RHrwQqcbo?authuser=0&hl=en&rclk=1",
        "coordinates": {
            "latitude": 20.7019625,
            "longitude": 76.5722873
        }
    },
    {
        "name": "Haz.Bilal Masjid.",
        "main_category": "Mosque",
        "address": "MHW7+G94 Haz.Bilal Masjid., Bilal Masjid Road, Ashraf Nagar, Khamgaon, Maharashtra 444303",
        "detailed_address": {
            "ward": "Ashraf Nagar, Barde Plot",
            "street": "MHW7+G94, Bilal Masjid Road",
            "city": "Khamgaon",
            "postal_code": "444303",
            "state": "Maharashtra",
            "country_code": "IN"
        },
        "images": [
            {
                "about": "All",
                "link": "https://lh5.googleusercontent.com/p/AF1QipNtBlbwjLqw5UWd_WOcD7054rMfsiJt8nHpa77f=w397-h298-k-no"
            },
            {
                "about": "Dome",
                "link": "https://lh5.googleusercontent.com/p/AF1QipPmV4wIetDiM6_8dFs_qQsmFgiEEpRzQLI_ejRD=w224-h452-k-no"
            },
            {
                "about": "Videos",
                "link": "https://lh5.googleusercontent.com/p/AF1QipPHbIlaOIT4el8EOgEnG40tqlogqQ-wMqvOm3eO=w224-h398-k-no"
            }
        ],
        "link": "https://www.google.com/maps/place/Haz.Bilal+Masjid./data=!4m7!3m6!1s0x3bd7514a1c97269b:0x7c1896715ac54ec1!8m2!3d20.6962511!4d76.5634474!16s%2Fg%2F11fj0n7nbr!19sChIJmyaXHEpR1zsRwU7FWnGWGHw?authuser=0&hl=en&rclk=1",
        "coordinates": {
            "latitude": 20.696251099999998,
            "longitude": 76.5634474
        }
    },
    {
        "name": "Madina Masjid Khamgaon",
        "main_category": "Mosque",
        "address": "5GMC+244 Madina Masjid Khamgaon, madinanagar, Khamgaon, Maharashtra",
        "detailed_address": {
            "ward": null,
            "street": "5GMC+244, madinanagar",
            "city": "Khamgaon",
            "postal_code": null,
            "state": "Maharashtra",
            "country_code": "IN"
        },
        "images": [
            {
                "about": "All",
                "link": "https://streetviewpixels-pa.googleapis.com/v1/thumbnail?panoid=WLiDX5gqkQRvDZr8kFE2sg&cb_client=maps_sv.tactile.gps&w=224&h=298&yaw=151.98975&pitch=0&thumbfov=100"
            },
            {
                "about": "Street View & 360deg",
                "link": "https://streetviewpixels-pa.googleapis.com/v1/thumbnail?panoid=WLiDX5gqkQRvDZr8kFE2sg&cb_client=maps_sv.tactile.gps&w=224&h=298&yaw=151.98975&pitch=0&thumbfov=100"
            }
        ],
        "link": "https://www.google.com/maps/place/Madina+Masjid+Khamgaon/data=!4m7!3m6!1s0x3bdbc6196832bcbd:0xf17deef56e653c97!8m2!3d20.1825186!4d75.5203424!16s%2Fg%2F11d_tjx7sv!19sChIJvbwyaBnG2zsRlzxlbvXuffE?authuser=0&hl=en&rclk=1",
        "coordinates": {
            "latitude": 20.182518599999998,
            "longitude": 75.52034239999999
        }
    },
    {
        "name": "QAMARUN-NISA MASJID KHAMGAON (k'mrun-nisaa msjid khaamgaaNv)(qmrlnsa msjyd khhmgw)",
        "main_category": "Mosque",
        "address": "5GC5+WQ9 QAMARUN-NISA MASJID KHAMGAON (k'mrun-nisaa msjid khaamgaaNv)(qmrlnsa msjyd khhmgw), Khamgaon, Maharashtra 431151",
        "detailed_address": {
            "ward": null,
            "street": "5GC5+WQ9",
            "city": "Khamgaon",
            "postal_code": null,
            "state": "Maharashtra",
            "country_code": "IN"
        },
        "images": [],
        "link": "https://www.google.com/maps/place/QAMARUN-NISA+MASJID+KHAMGAON+%28%E0%A4%95%E0%A4%BC%E0%A4%AE%E0%A4%B0%E0%A5%81%E0%A4%A8-%E0%A4%A8%E0%A4%BF%E0%A4%B8%E0%A4%BE+%E0%A4%AE%E0%A4%B8%E0%A5%8D%E0%A4%9C%E0%A4%BF%E0%A4%A6+%E0%A4%96%E0%A4%BE%E0%A4%AE%E0%A4%97%E0%A4%BE%E0%A4%82%E0%A4%B5%29%28%D9%82%D9%85%D8%B1%D8%A7%D9%84%D9%86%D8%B3%D8%A2%D8%A1+%D9%85%D8%B3%D8%AC%DB%8C%D8%AF+%DA%A9%DA%BE%D8%A7%D9%85%DA%AF%D8%A7%D9%88%29%E2%80%AD/data=!4m7!3m6!1s0x3bdbc721aa5f214d:0x8cd4f123ea6c79a!8m2!3d20.1722899!4d75.5094925!16s%2Fg%2F11ry_7rm0m!19sChIJTSFfqiHH2zsRmsemPhJPzQg?authuser=0&hl=en&rclk=1",
        "coordinates": {
            "latitude": 20.1722899,
            "longitude": 75.5094925
        }
    },
    {
        "name": "Madina Masjid",
        "main_category": "Mosque",
        "address": "FJR9+PHW Madina Masjid, Lakhanwada, Maharashtra 444303",
        "detailed_address": {
            "ward": null,
            "street": "FJR9+PHW",
            "city": "Lakhanwada",
            "postal_code": "444303",
            "state": "Maharashtra",
            "country_code": "IN"
        },
        "images": [],
        "link": "https://www.google.com/maps/place/Madina+Masjid/data=!4m7!3m6!1s0x3bd0ad5b3adf6a29:0x418e412a449e608!8m2!3d20.4918584!4d76.6189508!16s%2Fg%2F11h24qjk_6!19sChIJKWrfOlut0DsRCOZJpBLkGAQ?authuser=0&hl=en&rclk=1",
        "coordinates": {
            "latitude": 20.491858399999998,
            "longitude": 76.6189508
        }
    },
    {
        "name": "Mastan chowk",
        "main_category": "Screen printer",
        "address": "Shop No 1, Mastan chowk, Mastan Chowk, Juna Fail, Dal Fail, Khamgaon, Maharashtra 444303",
        "detailed_address": {
            "ward": "Juna Fail, Dal Fail",
            "street": "Shop No 1, Mastan Chowk",
            "city": "Khamgaon",
            "postal_code": "444303",
            "state": "Maharashtra",
            "country_code": "IN"
        },
        "images": [
            {
                "about": "All",
                "link": "https://lh5.googleusercontent.com/p/AF1QipPsTcAdyCC8DiQe390tmj3tmrmuU5I9GEvfgCIq=w224-h398-k-no"
            },
            {
                "about": "Street View & 360deg",
                "link": "https://streetviewpixels-pa.googleapis.com/v1/thumbnail?panoid=87I4jixAR24WKxBnjQETog&cb_client=maps_sv.tactile.gps&w=224&h=298&yaw=110.25187&pitch=0&thumbfov=100"
            },
            {
                "about": "Videos",
                "link": "https://lh5.googleusercontent.com/p/AF1QipOrZ0tlKK91CcwpEsMnX4TPo6XQhSPKmXxcHgO6=w224-h398-k-no"
            }
        ],
        "link": "https://www.google.com/maps/place/Mastan+chowk/data=!4m7!3m6!1s0x3bd751fd2d6f8579:0xa3bb53591ad648c2!8m2!3d20.702309!4d76.565618!16s%2Fg%2F11kjjgkw_z!19sChIJeYVvLf1R1zsRwkjWGllTu6M?authuser=0&hl=en&rclk=1",
        "coordinates": {
            "latitude": 20.702309,
            "longitude": 76.565618
        }
    },
    {
        "name": "Masjid-e-Shaheen",
        "main_category": "Religious destination",
        "address": "Masjid-e-Shaheen, Shaheen Colony, Shahin Colony, Nandura, Maharashtra 443404",
        "detailed_address": {
            "ward": "Shaheen Colony, Shahin Colony",
            "street": null,
            "city": "Nandura",
            "postal_code": "443404",
            "state": "Maharashtra",
            "country_code": "IN"
        },
        "images": [],
        "link": "https://www.google.com/maps/place/Masjid-e-Shaheen/data=!4m7!3m6!1s0x3bd759f186c49981:0x6a7870000cbe624a!8m2!3d20.8360584!4d76.46869!16s%2Fg%2F11txzpn9l4!19sChIJgZnEhvFZ1zsRSmK-DABweGo?authuser=0&hl=en&rclk=1",
        "coordinates": {
            "latitude": 20.8360584,
            "longitude": 76.46869
        }
    },
    {
        "name": "jaituuniiyaa msjid",
        "main_category": "Mosque",
        "address": "PC9V+RH3 jaituuniiyaa msjid, Pimpalgaon Raja, Maharashtra 444306",
        "detailed_address": {
            "ward": null,
            "street": "PC9V+RH3",
            "city": "Pimpalgaon Raja",
            "postal_code": "444306",
            "state": "Maharashtra",
            "country_code": "IN"
        },
        "images": [
            {
                "about": "All",
                "link": "https://lh5.googleusercontent.com/p/AF1QipO5xlGtLeAk2hiOcmJm1Y8i71y9fBzVReVK3ier=w596-h298-k-no"
            },
            {
                "about": "Street View & 360deg",
                "link": "https://streetviewpixels-pa.googleapis.com/v1/thumbnail?panoid=PjXB7z75LUAq4SCJ717ESg&cb_client=maps_sv.tactile.gps&w=224&h=298&yaw=179.67816&pitch=0&thumbfov=100"
            },
            {
                "about": "Videos",
                "link": "https://lh5.googleusercontent.com/p/AF1QipPXeOK1yPnHiTsaSPAnjOHAJiZa4D5-TCuA9RIv=w529-h298-k-no"
            }
        ],
        "link": "https://www.google.com/maps/place/%E0%A4%9C%E0%A5%88%E0%A4%A4%E0%A5%82%E0%A4%A8%E0%A5%80%E0%A4%AF%E0%A4%BE+%E0%A4%AE%E0%A4%B8%E0%A5%8D%E0%A4%9C%E0%A4%BF%E0%A4%A6/data=!4m7!3m6!1s0x3bd9fd9ae8666c6b:0x9d62551f660a6236!8m2!3d20.7195162!4d76.4439327!16s%2Fg%2F11n0_sxh6f!19sChIJa2xm6Jr92TsRNmIKZh9VYp0?authuser=0&hl=en&rclk=1",
        "coordinates": {
            "latitude": 20.719516199999997,
            "longitude": 76.44393269999999
        }
    },
    {
        "name": "Suvidha Apartment",
        "main_category": "Residents association",
        "address": "Suvidha Apartment, Nandura Rd, in front of Sant Tukaram Sabhagruha, Khate Layout, Madhav Nagar, Khamgaon, Maharashtra 444303",
        "detailed_address": {
            "ward": "Khate Layout, Madhav Nagar",
            "street": "Nandura Rd, in front of Sant Tukaram Sabhagruha",
            "city": "Khamgaon",
            "postal_code": "444303",
            "state": "Maharashtra",
            "country_code": "IN"
        },
        "images": [
            {
                "about": "All",
                "link": "https://streetviewpixels-pa.googleapis.com/v1/thumbnail?panoid=HA4c5EGzosZcNAzFK0qMOw&cb_client=maps_sv.tactile.gps&w=224&h=298&yaw=319.8205&pitch=0&thumbfov=100"
            },
            {
                "about": "Street View & 360deg",
                "link": "https://streetviewpixels-pa.googleapis.com/v1/thumbnail?panoid=HA4c5EGzosZcNAzFK0qMOw&cb_client=maps_sv.tactile.gps&w=224&h=298&yaw=319.8205&pitch=0&thumbfov=100"
            }
        ],
        "link": "https://www.google.com/maps/place/Suvidha+Apartment/data=!4m7!3m6!1s0x3bd750c5cc28e84f:0xf748b6c86fb4f12c!8m2!3d20.7219427!4d76.5629278!16s%2Fg%2F11cs6cn9y4!19sChIJT-gozMVQ1zsRLPG0b8i2SPc?authuser=0&hl=en&rclk=1",
        "coordinates": {
            "latitude": 20.7219427,
            "longitude": 76.5629278
        }
    },
    {
        "name": "Nurmohmmd masjid",
        "main_category": "Mosque",
        "address": "MHV5+GXP Nurmohmmd masjid, Sajanpuri, Khamgaon, Maharashtra 444303",
        "detailed_address": {
            "ward": "Sajanpuri",
            "street": "MHV5+GXP",
            "city": "Khamgaon",
            "postal_code": "444303",
            "state": "Maharashtra",
            "country_code": "IN"
        },
        "images": [
            {
                "about": "All",
                "link": "https://streetviewpixels-pa.googleapis.com/v1/thumbnail?panoid=l0gx0ARJ4h92bfSM_pJOYw&cb_client=maps_sv.tactile.gps&w=224&h=298&yaw=274.10913&pitch=0&thumbfov=100"
            },
            {
                "about": "Street View & 360deg",
                "link": "https://streetviewpixels-pa.googleapis.com/v1/thumbnail?panoid=l0gx0ARJ4h92bfSM_pJOYw&cb_client=maps_sv.tactile.gps&w=224&h=298&yaw=274.10913&pitch=0&thumbfov=100"
            }
        ],
        "link": "https://www.google.com/maps/place/Nurmohmmd+masjid/data=!4m7!3m6!1s0x3bd751a86f62fc37:0xaa669b87397392a!8m2!3d20.6937335!4d76.5599617!16s%2Fg%2F11v3p8f3zj!19sChIJN_xib6hR1zsRKjmXc7hppgo?authuser=0&hl=en&rclk=1",
        "coordinates": {
            "latitude": 20.6937335,
            "longitude": 76.5599617
        }
    },
    {
        "name": "Madina Masjid",
        "main_category": "Mosque",
        "address": "MHV5+8RH Madina Masjid, Unnamed Road, Sajanpuri, Khamgaon, Maharashtra 444303",
        "detailed_address": {
            "ward": "Sajanpuri",
            "street": "MHV5+8RH, Unnamed Road",
            "city": "Khamgaon",
            "postal_code": "444303",
            "state": "Maharashtra",
            "country_code": "IN"
        },
        "images": [],
        "link": "https://www.google.com/maps/place/Madina+Masjid/data=!4m7!3m6!1s0x3bd751583e63ff17:0x5bf77debf6a2dc17!8m2!3d20.693313!4d76.559619!16s%2Fg%2F11h7b5ff5w!19sChIJF_9jPlhR1zsRF9yi9ut991s?authuser=0&hl=en&rclk=1",
        "coordinates": {
            "latitude": 20.693313,
            "longitude": 76.559619
        }
    },
    {
        "name": "Masjide Namra",
        "main_category": "Mosque",
        "address": "MHX7+P6F Masjide Namra, Shaukat colony, Dal Fail, Khamgaon, Maharashtra 444303",
        "detailed_address": {
            "ward": "Pratap Nager, Dal Fail",
            "street": "MHX7+P6F, Shaukat colony",
            "city": "Khamgaon",
            "postal_code": "444303",
            "state": "Maharashtra",
            "country_code": "IN"
        },
        "images": [
            {
                "about": "All",
                "link": "https://streetviewpixels-pa.googleapis.com/v1/thumbnail?panoid=U3HHZ7DkZI2nDqeV7_RdGA&cb_client=maps_sv.tactile.gps&w=224&h=298&yaw=206.48502&pitch=0&thumbfov=100"
            },
            {
                "about": "Street View & 360deg",
                "link": "https://streetviewpixels-pa.googleapis.com/v1/thumbnail?panoid=U3HHZ7DkZI2nDqeV7_RdGA&cb_client=maps_sv.tactile.gps&w=224&h=298&yaw=206.48502&pitch=0&thumbfov=100"
            }
        ],
        "link": "https://www.google.com/maps/place/Masjide+Namra/data=!4m7!3m6!1s0x3bd75108b49015a7:0x34968c5effa2d8e0!8m2!3d20.6993224!4d76.5630545!16s%2Fg%2F11mw4xp0gl!19sChIJpxWQtAhR1zsR4Nii_16MljQ?authuser=0&hl=en&rclk=1",
        "coordinates": {
            "latitude": 20.6993224,
            "longitude": 76.56305449999999
        }
    },
    {
        "name": "Madina masjid gondhanapur",
        "main_category": "Mosque",
        "address": "PH68+JCP Madina masjid gondhanapur, tq, near by water tank, Madhav Nagar, Gondhanapur, Khamgaon, Maharashtra 444303",
        "detailed_address": {
            "ward": "Madhav Nagar",
            "street": "PH68+JCP, tq, near by water tank",
            "city": "Gondhanapur, Khamgaon",
            "postal_code": null,
            "state": "Maharashtra",
            "country_code": "IN"
        },
        "images": [
            {
                "about": "All",
                "link": "https://streetviewpixels-pa.googleapis.com/v1/thumbnail?panoid=LmY3kEOLeXM6K6H-0vAx2w&cb_client=maps_sv.tactile.gps&w=224&h=298&yaw=7.8271217&pitch=0&thumbfov=100"
            },
            {
                "about": "Street View & 360deg",
                "link": "https://streetviewpixels-pa.googleapis.com/v1/thumbnail?panoid=LmY3kEOLeXM6K6H-0vAx2w&cb_client=maps_sv.tactile.gps&w=224&h=298&yaw=7.8271217&pitch=0&thumbfov=100"
            }
        ],
        "link": "https://www.google.com/maps/place/Madina+masjid+gondhanapur/data=!4m7!3m6!1s0x3bd751a8c57bbcfb:0x41fad3abd5e78935!8m2!3d20.7115947!4d76.5660888!16s%2Fg%2F11h4zmg983!19sChIJ-7x7xahR1zsRNYnn1avT-kE?authuser=0&hl=en&rclk=1",
        "coordinates": {
            "latitude": 20.7115947,
            "longitude": 76.5660888
        }
    },
    {
        "name": "Iliyas masjid",
        "main_category": "Mosque",
        "address": "MHV8+RJ4 Iliyas masjid, Barde Plot, Khamgaon, Maharashtra 444303",
        "detailed_address": {
            "ward": "Barde Plot",
            "street": "MHV8+RJ4",
            "city": "Khamgaon",
            "postal_code": "444303",
            "state": "Maharashtra",
            "country_code": "IN"
        },
        "images": [],
        "link": "https://www.google.com/maps/place/Iliyas+masjid/data=!4m7!3m6!1s0x3bd7511995622e11:0x4c83b42bdb2d92dc!8m2!3d20.6945055!4d76.5665749!16s%2Fg%2F11vjr35dvw!19sChIJES5ilRlR1zsR3JIt2yu0g0w?authuser=0&hl=en&rclk=1",
        "coordinates": {
            "latitude": 20.694505499999998,
            "longitude": 76.56657489999999
        }
    },
    {
        "name": "Raza masjid pimpale gaon Raja khamgaon",
        "main_category": "Religious destination",
        "address": "PCCV+2PP Raza masjid pimpale gaon Raja khamgaon, Pimpalgaon Raja, Maharashtra 444306",
        "detailed_address": {
            "ward": null,
            "street": "PCCV+2PP",
            "city": "Pimpalgaon Raja",
            "postal_code": "444306",
            "state": "Maharashtra",
            "country_code": "IN"
        },
        "images": [
            {
                "about": "All",
                "link": "https://lh5.googleusercontent.com/p/AF1QipO8d7g5HG8WS5pTwJcrQKD2DQn5UPaETNHFynNP=w529-h298-k-no"
            },
            {
                "about": "Street View & 360deg",
                "link": "https://streetviewpixels-pa.googleapis.com/v1/thumbnail?panoid=wq5EFksVRv8RU3hx1HnlSg&cb_client=maps_sv.tactile.gps&w=224&h=298&yaw=312.83743&pitch=0&thumbfov=100"
            }
        ],
        "link": "https://www.google.com/maps/place/Raza+masjid+pimpale+gaon+Raja+khamgaon/data=!4m7!3m6!1s0x3bd9fdeb7acdf41f:0x241a1ea59f979bc0!8m2!3d20.7204096!4d76.4443829!16s%2Fg%2F11khqql4kd!19sChIJH_TNeuv92TsRwJuXn6UeGiQ?authuser=0&hl=en&rclk=1",
        "coordinates": {
            "latitude": 20.7204096,
            "longitude": 76.4443829
        }
    },
    {
        "name": "Jama masjid",
        "main_category": "Mosque",
        "address": "RFJ4+GXX Jama masjid, Qureshi Nagar, Nandura, Maharashtra 443404",
        "detailed_address": {
            "ward": "Qureshi Nagar",
            "street": "RFJ4+GXX",
            "city": "Nandura",
            "postal_code": "443404",
            "state": "Maharashtra",
            "country_code": "IN"
        },
        "images": [
            {
                "about": "All",
                "link": "https://streetviewpixels-pa.googleapis.com/v1/thumbnail?panoid=QZxBGXyqqyKTSWF2PUcjRA&cb_client=maps_sv.tactile.gps&w=224&h=298&yaw=188.32817&pitch=0&thumbfov=100"
            },
            {
                "about": "Street View & 360deg",
                "link": "https://streetviewpixels-pa.googleapis.com/v1/thumbnail?panoid=QZxBGXyqqyKTSWF2PUcjRA&cb_client=maps_sv.tactile.gps&w=224&h=298&yaw=188.32817&pitch=0&thumbfov=100"
            }
        ],
        "link": "https://www.google.com/maps/place/Jama+masjid/data=!4m7!3m6!1s0x3bd75998b737ef1f:0x34e908b9659e881!8m2!3d20.8313635!4d76.4574881!16s%2Fg%2F11tx20r1qd!19sChIJH-83t5hZ1zsRgehZlouQTgM?authuser=0&hl=en&rclk=1",
        "coordinates": {
            "latitude": 20.8313635,
            "longitude": 76.45748809999999
        }
    },
    {
        "name": "Dargah Wali Masjid (Markaz Masjid)",
        "main_category": "Mosque",
        "address": "RFM7+P2V Dargah Wali Masjid (Markaz Masjid), Nawabpura, Shivaji Nagar, Nandura, Maharashtra 443404",
        "detailed_address": {
            "ward": "Nawabpura, Shivaji Nagar",
            "street": "RFM7+P2V",
            "city": "Nandura",
            "postal_code": "443404",
            "state": "Maharashtra",
            "country_code": "IN"
        },
        "images": [
            {
                "about": "All",
                "link": "https://lh5.googleusercontent.com/p/AF1QipMj-h6V0LaSGYKRamXGEJvpaYvyO79Lb21vi7Ta=w224-h470-k-no"
            }
        ],
        "link": "https://www.google.com/maps/place/Dargah+Wali+Masjid+%28Markaz+Masjid%29/data=!4m7!3m6!1s0x3bd759852437339d:0xc5644098e0a51aec!8m2!3d20.8344405!4d76.4626648!16s%2Fg%2F11vhcpnb05!19sChIJnTM3JIVZ1zsR7Bql4JhAZMU?authuser=0&hl=en&rclk=1",
        "coordinates": {
            "latitude": 20.8344405,
            "longitude": 76.4626648
        }
    },
    {
        "name": "Qureshi Nagar Masjid",
        "main_category": "Mosque",
        "address": "Qureshi Nagar Masjid, Qureshi Nagar, Nandura, Maharashtra 443404",
        "detailed_address": {
            "ward": "Qureshi Nagar",
            "street": null,
            "city": "Nandura",
            "postal_code": "443404",
            "state": "Maharashtra",
            "country_code": "IN"
        },
        "images": [
            {
                "about": "All",
                "link": "https://lh5.googleusercontent.com/p/AF1QipPgwkZIjr5azfFMXB7ZbTTBTCQ2Fm0HxxjzG2wT=w496-h298-k-no"
            },
            {
                "about": "Street View & 360deg",
                "link": "https://streetviewpixels-pa.googleapis.com/v1/thumbnail?panoid=8uBV8lrdO5aLVpAG2kmq3Q&cb_client=maps_sv.tactile.gps&w=224&h=298&yaw=155.28145&pitch=0&thumbfov=100"
            }
        ],
        "link": "https://www.google.com/maps/place/Qureshi+Nagar+Masjid/data=!4m7!3m6!1s0x3bd75904f015d3bf:0xbd9d35efa28d1da8!8m2!3d20.8306752!4d76.4594783!16s%2Fg%2F11h7b93_fh!19sChIJv9MV8ARZ1zsRqB2Nou81nb0?authuser=0&hl=en&rclk=1",
        "coordinates": {
            "latitude": 20.830675199999998,
            "longitude": 76.4594783
        }
    },
    {
        "name": "Eid-gah",
        "main_category": "Mosque",
        "address": "MGFF+J5Q Eid-gah, Gondhanapur, Maharashtra 444303",
        "detailed_address": {
            "ward": null,
            "street": "MGFF+J5Q",
            "city": "Gondhanapur",
            "postal_code": "444303",
            "state": "Maharashtra",
            "country_code": "IN"
        },
        "images": [],
        "link": "https://www.google.com/maps/place/Eid-gah/data=!4m7!3m6!1s0x3bd757082e3f8933:0x3822d13054a31717!8m2!3d20.6740841!4d76.5229736!16s%2Fg%2F11p0wd5jdx!19sChIJM4k_LghX1zsRFxejVDDRIjg?authuser=0&hl=en&rclk=1",
        "coordinates": {
            "latitude": 20.674084099999998,
            "longitude": 76.5229736
        }
    },
    {
        "name": "Aqsa Colony Masjid",
        "main_category": "Mosque",
        "address": "PH8F+X9P Aqsa Colony Masjid, Sambhaji Maharaj Rd, Azim Azad Nagar, Khamgaon, Maharashtra 444303",
        "detailed_address": {
            "ward": "Azim Azad Nagar",
            "street": "PH8F+X9P, Sambhaji Maharaj Rd",
            "city": "Khamgaon",
            "postal_code": "444303",
            "state": "Maharashtra",
            "country_code": "IN"
        },
        "images": [
            {
                "about": "All",
                "link": "https://lh5.googleusercontent.com/p/AF1QipNV46LG7lvX2EWGGPDYnERfdaKjo70Dv-nBJoIt=w224-h398-k-no"
            }
        ],
        "link": "https://www.google.com/maps/place/Aqsa+Colony+Masjid/data=!4m7!3m6!1s0x3bd75112769d12fd:0xc1814a0788ee96ed!8m2!3d20.7174233!4d76.5735329!16s%2Fg%2F11sspwfy13!19sChIJ_RKddhJR1zsR7ZbuiAdKgcE?authuser=0&hl=en&rclk=1",
        "coordinates": {
            "latitude": 20.7174233,
            "longitude": 76.5735329
        }
    },
    {
        "name": "Patthar wali masjid",
        "main_category": "Mosque",
        "address": "PH78+728 Patthar wali masjid, Shivalay Vihar, Khamgaon, Maharashtra 444303",
        "detailed_address": {
            "ward": "Shivalay Vihar",
            "street": "PH78+728",
            "city": "Khamgaon",
            "postal_code": null,
            "state": "Maharashtra",
            "country_code": "IN"
        },
        "images": [
            {
                "about": "All",
                "link": "https://streetviewpixels-pa.googleapis.com/v1/thumbnail?panoid=_7bMlJpmPGKX106Nn4b-3A&cb_client=maps_sv.tactile.gps&w=224&h=298&yaw=154.56378&pitch=0&thumbfov=100"
            },
            {
                "about": "Street View & 360deg",
                "link": "https://streetviewpixels-pa.googleapis.com/v1/thumbnail?panoid=_7bMlJpmPGKX106Nn4b-3A&cb_client=maps_sv.tactile.gps&w=224&h=298&yaw=154.56378&pitch=0&thumbfov=100"
            }
        ],
        "link": "https://www.google.com/maps/place/Patthar+wali+masjid/data=!4m7!3m6!1s0x3bd751930cbccbe3:0xe26d991b1776ed20!8m2!3d20.7131695!4d76.5650829!16s%2Fg%2F11vbw7b8q4!19sChIJ48u8DJNR1zsRIO12FxuZbeI?authuser=0&hl=en&rclk=1",
        "coordinates": {
            "latitude": 20.7131695,
            "longitude": 76.5650829
        }
    },
    {
        "name": "Juni Masjid Sarafa",
        "main_category": "Mosque",
        "address": "PH78+728 Juni Masjid Sarafa, Shivalay Vihar, Khamgaon, Maharashtra 444303",
        "detailed_address": {
            "ward": "Shivalay Vihar",
            "street": "PH78+728",
            "city": "Khamgaon",
            "postal_code": null,
            "state": "Maharashtra",
            "country_code": "IN"
        },
        "images": [
            {
                "about": "All",
                "link": "https://streetviewpixels-pa.googleapis.com/v1/thumbnail?panoid=_7bMlJpmPGKX106Nn4b-3A&cb_client=maps_sv.tactile.gps&w=224&h=298&yaw=154.56378&pitch=0&thumbfov=100"
            },
            {
                "about": "Street View & 360deg",
                "link": "https://streetviewpixels-pa.googleapis.com/v1/thumbnail?panoid=_7bMlJpmPGKX106Nn4b-3A&cb_client=maps_sv.tactile.gps&w=224&h=298&yaw=154.56378&pitch=0&thumbfov=100"
            }
        ],
        "link": "https://www.google.com/maps/place/Juni+Masjid+Sarafa/data=!4m7!3m6!1s0x3bd75145d522a7c1:0x8d9885c3a6c85bb3!8m2!3d20.7131695!4d76.5650829!16s%2Fg%2F11sszq__r5!19sChIJwaci1UVR1zsRs1vIpsOFmI0?authuser=0&hl=en&rclk=1",
        "coordinates": {
            "latitude": 20.7131695,
            "longitude": 76.5650829
        }
    },
    {
        "name": "Juni Masjid Sarafa",
        "main_category": "Mosque",
        "address": "PH36+MFC Juni Masjid Sarafa, Boripura, Khamgaon, Maharashtra 444303",
        "detailed_address": {
            "ward": "Boripura",
            "street": "PH36+MFC",
            "city": "Khamgaon",
            "postal_code": "444303",
            "state": "Maharashtra",
            "country_code": "IN"
        },
        "images": [
            {
                "about": "All",
                "link": "https://streetviewpixels-pa.googleapis.com/v1/thumbnail?panoid=9n8q6l3SJK3SmfpwCJGfIQ&cb_client=maps_sv.tactile.gps&w=224&h=298&yaw=27.685356&pitch=0&thumbfov=100"
            },
            {
                "about": "Street View & 360deg",
                "link": "https://streetviewpixels-pa.googleapis.com/v1/thumbnail?panoid=9n8q6l3SJK3SmfpwCJGfIQ&cb_client=maps_sv.tactile.gps&w=224&h=298&yaw=27.685356&pitch=0&thumbfov=100"
            }
        ],
        "link": "https://www.google.com/maps/place/Juni+Masjid+Sarafa/data=!4m7!3m6!1s0x3bd7512d5a93b10d:0xc328d5a5fb295370!8m2!3d20.7041939!4d76.5611447!16s%2Fg%2F11ty7dcmks!19sChIJDbGTWi1R1zsRcFMp-6XVKMM?authuser=0&hl=en&rclk=1",
        "coordinates": {
            "latitude": 20.7041939,
            "longitude": 76.5611447
        }
    },
    {
        "name": "taaj ngr msjid",
        "main_category": "Mosque",
        "address": "PH9G+6RF taaj ngr msjid, Taaj Nagar, Khamgaon, Maharashtra 444303",
        "detailed_address": {
            "ward": "Taaj Nagar",
            "street": "PH9G+6RF",
            "city": "Khamgaon",
            "postal_code": "444303",
            "state": "Maharashtra",
            "country_code": "IN"
        },
        "images": [
            {
                "about": "All",
                "link": "https://streetviewpixels-pa.googleapis.com/v1/thumbnail?panoid=yGQTKlMdqb6jOzDAlu_4xg&cb_client=maps_sv.tactile.gps&w=224&h=298&yaw=349.1552&pitch=0&thumbfov=100"
            },
            {
                "about": "Street View & 360deg",
                "link": "https://streetviewpixels-pa.googleapis.com/v1/thumbnail?panoid=yGQTKlMdqb6jOzDAlu_4xg&cb_client=maps_sv.tactile.gps&w=224&h=298&yaw=349.1552&pitch=0&thumbfov=100"
            }
        ],
        "link": "https://www.google.com/maps/place/%E0%A4%A4%E0%A4%BE%E0%A4%9C+%E0%A4%A8%E0%A4%97%E0%A4%B0+%E0%A4%AE%E0%A4%B8%E0%A5%8D%E0%A4%9C%E0%A4%BF%E0%A4%A6/data=!4m7!3m6!1s0x3bd751135c1ca5d3:0x3002c158d1a35f5b!8m2!3d20.7188837!4d76.577124!16s%2Fg%2F11stlk850_!19sChIJ06UcXBNR1zsRW1-j0VjBAjA?authuser=0&hl=en&rclk=1",
        "coordinates": {
            "latitude": 20.7188837,
            "longitude": 76.577124
        }
    },
    {
        "name": "Muslim kabristaan khamgaon",
        "main_category": "Cemetery",
        "address": "MHV9+Q37 Muslim kabristaan khamgaon, Barde Plot, Khamgaon, Maharashtra 444303",
        "detailed_address": {
            "ward": "Barde Plot",
            "street": "MHV9+Q37",
            "city": "Khamgaon",
            "postal_code": "444303",
            "state": "Maharashtra",
            "country_code": "IN"
        },
        "images": [
            {
                "about": "All",
                "link": "https://streetviewpixels-pa.googleapis.com/v1/thumbnail?panoid=NkkMjXmU-ArczSZeztT8kw&cb_client=maps_sv.tactile.gps&w=224&h=298&yaw=231.6843&pitch=0&thumbfov=100"
            },
            {
                "about": "Street View & 360deg",
                "link": "https://streetviewpixels-pa.googleapis.com/v1/thumbnail?panoid=NkkMjXmU-ArczSZeztT8kw&cb_client=maps_sv.tactile.gps&w=224&h=298&yaw=231.6843&pitch=0&thumbfov=100"
            }
        ],
        "link": "https://www.google.com/maps/place/Muslim+kabristaan+khamgaon/data=!4m7!3m6!1s0x3bd751ee27cccbc3:0x6b6e7c34deb1a20f!8m2!3d20.6944051!4d76.5676649!16s%2Fg%2F11qg9sl312!19sChIJw8vMJ-5R1zsRD6Kx3jR8bms?authuser=0&hl=en&rclk=1",
        "coordinates": {
            "latitude": 20.694405099999997,
            "longitude": 76.5676649
        }
    },
    {
        "name": "Husainiya masjid and madrsa",
        "main_category": "Mosque",
        "address": "MHQH+5VQ Husainiya masjid and madrsa, Januna, Khamgaon, Maharashtra 444303",
        "detailed_address": {
            "ward": "Januna",
            "street": "MHQH+5VQ",
            "city": "Khamgaon",
            "postal_code": "444303",
            "state": "Maharashtra",
            "country_code": "IN"
        },
        "images": [],
        "link": "https://www.google.com/maps/place/Husainiya+masjid+and+madrsa/data=!4m7!3m6!1s0x3bd751004e2d1fdb:0x3d0bae15cb06149f!8m2!3d20.6879618!4d76.5797332!16s%2Fg%2F11vm3t0w22!19sChIJ2x8tTgBR1zsRnxQGyxWuCz0?authuser=0&hl=en&rclk=1",
        "coordinates": {
            "latitude": 20.6879618,
            "longitude": 76.57973319999999
        }
    },
    {
        "name": "msjid",
        "main_category": "Mosque",
        "address": "JFWG+4QP msjid, At Post: Rohana, Tal, Dist, Khamgaon, Maharashtra",
        "detailed_address": {
            "ward": null,
            "street": "JFWG+4QP, At Post: Rohana, Tal, Dist",
            "city": "Khamgaon, Rohana",
            "postal_code": null,
            "state": "Maharashtra",
            "country_code": "IN"
        },
        "images": [],
        "link": "https://www.google.com/maps/place/%E0%A4%AE%E0%A4%B8%E0%A5%8D%E0%A4%9C%E0%A4%BF%E0%A4%A6/data=!4m7!3m6!1s0x3bd755f3b7cc81f7:0x67ab8a4d36d4d6bf!8m2!3d20.6453264!4d76.4769412!16s%2Fg%2F11t_vkt31r!19sChIJ94HMt_NV1zsRv9bUNk2Kq2c?authuser=0&hl=en&rclk=1",
        "coordinates": {
            "latitude": 20.6453264,
            "longitude": 76.4769412
        }
    },
    {
        "name": "Phatakpura Masjid Mastan Chowk",
        "main_category": "Mosque",
        "address": "Phatakpura Masjid Mastan Chowk, Mastan, ChowkKhamgaon, Nagapur, Maharashtra 444303",
        "detailed_address": {
            "ward": null,
            "street": "Mastan",
            "city": "ChowkKhamgaon, Nagapur",
            "postal_code": "444303",
            "state": "Maharashtra",
            "country_code": "IN"
        },
        "images": [],
        "link": "https://www.google.com/maps/place/Phatakpura+Masjid+Mastan+Chowk/data=!4m7!3m6!1s0x3bd7530a58775d87:0x7ccecd21f2ef620a!8m2!3d20.6144654!4d76.5950555!16s%2Fg%2F11txjd6n_z!19sChIJh113WApT1zsRCmLv8iHNznw?authuser=0&hl=en&rclk=1",
        "coordinates": {
            "latitude": 20.6144654,
            "longitude": 76.5950555
        }
    },
    {
        "name": "Masjid e AQSA",
        "main_category": "Place of worship",
        "address": "Masjid e AQSA, At Hotel, Royal Palace P, Khamgaon Rd, Patil Nagar, Vyankatesh Nagar, Shegaon, Maharashtra 444203",
        "detailed_address": {
            "ward": "Patil Nagar, Vyankatesh Nagar",
            "street": "At Hotel, Royal Palace P, Khamgaon Rd",
            "city": "Shegaon",
            "postal_code": "444203",
            "state": "Maharashtra",
            "country_code": "IN"
        },
        "images": [
            {
                "about": "All",
                "link": "https://streetviewpixels-pa.googleapis.com/v1/thumbnail?panoid=Tzekumkv57O-RJU54Skbow&cb_client=maps_sv.tactile.gps&w=224&h=298&yaw=228.64809&pitch=0&thumbfov=100"
            },
            {
                "about": "Street View & 360deg",
                "link": "https://streetviewpixels-pa.googleapis.com/v1/thumbnail?panoid=Tzekumkv57O-RJU54Skbow&cb_client=maps_sv.tactile.gps&w=224&h=298&yaw=228.64809&pitch=0&thumbfov=100"
            }
        ],
        "link": "https://www.google.com/maps/place/Masjid+e+AQSA/data=!4m7!3m6!1s0x3bd745c198455f27:0xe495475434b11498!8m2!3d20.7960778!4d76.6864166!16s%2Fg%2F11sk0w2cml!19sChIJJ19FmMFF1zsRmBSxNFRHleQ?authuser=0&hl=en&rclk=1",
        "coordinates": {
            "latitude": 20.7960778,
            "longitude": 76.6864166
        }
    },
    {
        "name": "Makkah Masjid",
        "main_category": "Mosque",
        "address": "Makkah Masjid, Aawar, Maharashtra 444303",
        "detailed_address": {
            "ward": null,
            "street": null,
            "city": "Aawar",
            "postal_code": "444303",
            "state": "Maharashtra",
            "country_code": "IN"
        },
        "images": [
            {
                "about": "All",
                "link": "https://streetviewpixels-pa.googleapis.com/v1/thumbnail?panoid=oLNQ-Moyn8dnmHYgmPSCig&cb_client=maps_sv.tactile.gps&w=224&h=298&yaw=82.70613&pitch=0&thumbfov=100"
            },
            {
                "about": "Street View & 360deg",
                "link": "https://streetviewpixels-pa.googleapis.com/v1/thumbnail?panoid=oLNQ-Moyn8dnmHYgmPSCig&cb_client=maps_sv.tactile.gps&w=224&h=298&yaw=82.70613&pitch=0&thumbfov=100"
            }
        ],
        "link": "https://www.google.com/maps/place/Makkah+Masjid/data=!4m7!3m6!1s0x3bd75375a08dba5b:0x59d68e9ca16963d8!8m2!3d20.6356593!4d76.6242769!16s%2Fg%2F11s9j7yqkc!19sChIJW7qNoHVT1zsR2GNpoZyO1lk?authuser=0&hl=en&rclk=1",
        "coordinates": {
            "latitude": 20.6356593,
            "longitude": 76.6242769
        }
    },
    {
        "name": "Masjd e Ummul Khair",
        "main_category": "Mosque",
        "address": "Masjd e Ummul Khair, Zam zam Nagar, Rokadiya Nagar, Shegaon, Maharashtra 444203",
        "detailed_address": {
            "ward": "Rokadiya Nagar",
            "street": "Zam zam Nagar",
            "city": "Shegaon",
            "postal_code": "444203",
            "state": "Maharashtra",
            "country_code": "IN"
        },
        "images": [
            {
                "about": "All",
                "link": "https://lh5.googleusercontent.com/p/AF1QipNJZzn0iNZocuYADOxcREWZBVwVIijB0fL0ZsY1=w224-h340-k-no"
            },
            {
                "about": "Street View & 360deg",
                "link": "https://streetviewpixels-pa.googleapis.com/v1/thumbnail?panoid=WBK7HqkZAz2iWBXsX1S7Yw&cb_client=maps_sv.tactile.gps&w=224&h=298&yaw=138.64412&pitch=0&thumbfov=100"
            }
        ],
        "link": "https://www.google.com/maps/place/Masjd+e+Ummul+Khair/data=!4m7!3m6!1s0x3bd745e421485169:0xd14e7627c7f55a5!8m2!3d20.7771791!4d76.6773465!16s%2Fg%2F11t3fw192s!19sChIJaVFIIeRF1zsRpVV_fGLnFA0?authuser=0&hl=en&rclk=1",
        "coordinates": {
            "latitude": 20.777179099999998,
            "longitude": 76.6773465
        }
    },
    {
        "name": "MAQQA SUNNI MASJID",
        "main_category": "Mosque",
        "address": "ward no, MAQQA SUNNI MASJID, 5paith mohalla, Lakhanwada, Maharashtra 444303",
        "detailed_address": {
            "ward": "5paith mohalla",
            "street": "ward no",
            "city": "Lakhanwada",
            "postal_code": "444303",
            "state": "Maharashtra",
            "country_code": "IN"
        },
        "images": [
            {
                "about": "All",
                "link": "https://streetviewpixels-pa.googleapis.com/v1/thumbnail?panoid=dBCdlO-UbxclsqPVAKUqDA&cb_client=maps_sv.tactile.gps&w=224&h=298&yaw=228.68925&pitch=0&thumbfov=100"
            },
            {
                "about": "Street View & 360deg",
                "link": "https://streetviewpixels-pa.googleapis.com/v1/thumbnail?panoid=dBCdlO-UbxclsqPVAKUqDA&cb_client=maps_sv.tactile.gps&w=224&h=298&yaw=228.68925&pitch=0&thumbfov=100"
            }
        ],
        "link": "https://www.google.com/maps/place/MAQQA+SUNNI+MASJID/data=!4m7!3m6!1s0x3bd0adb2591ebbc3:0x60049c05efabf98e!8m2!3d20.4952128!4d76.6196097!16s%2Fg%2F11y1g1hc94!19sChIJw7seWbKt0DsRjvmr7wWcBGA?authuser=0&hl=en&rclk=1",
        "coordinates": {
            "latitude": 20.495212799999997,
            "longitude": 76.6196097
        }
    },
    {
        "name": "Nazim Aadhar Center",
        "main_category": "Aadhaar center",
        "address": "PH7C+WW5 Nazim Aadhar Center, Millat Colony, Khamgaon, Maharashtra 444303",
        "detailed_address": {
            "ward": "Millat Colony",
            "street": "PH7C+WW5",
            "city": "Khamgaon",
            "postal_code": "444303",
            "state": "Maharashtra",
            "country_code": "IN"
        },
        "images": [
            {
                "about": "All",
                "link": "https://lh5.googleusercontent.com/p/AF1QipNJbAYHFYf8d8Z-miRGMhaNh5sde9H4y_d0A8nD=w224-h298-k-no"
            },
            {
                "about": "Street View & 360deg",
                "link": "https://streetviewpixels-pa.googleapis.com/v1/thumbnail?panoid=CyKjWoy2FYjX0av4-QyoMg&cb_client=maps_sv.tactile.gps&w=224&h=298&yaw=204.194&pitch=0&thumbfov=100"
            }
        ],
        "link": "https://www.google.com/maps/place/Nazim+Aadhar+Center/data=!4m7!3m6!1s0x3bd7511af9fd2de1:0xd311eb921c514580!8m2!3d20.7147545!4d76.5723487!16s%2Fg%2F11h4zfqs9l!19sChIJ4S39-RpR1zsRgEVRHJLrEdM?authuser=0&hl=en&rclk=1",
        "coordinates": {
            "latitude": 20.714754499999998,
            "longitude": 76.57234869999999
        }
    },
    {
        "name": "Masjid nayghavan",
        "main_category": "Mosque",
        "address": "Masjid nayghavan, Husen Baag, Narsri Rd, Khamgaon, Maharashtra 431151",
        "detailed_address": {
            "ward": null,
            "street": "Husen Baag, Narsri Rd",
            "city": "Khamgaon",
            "postal_code": "431151",
            "state": "Maharashtra",
            "country_code": "IN"
        },
        "images": [
            {
                "about": "All",
                "link": "https://streetviewpixels-pa.googleapis.com/v1/thumbnail?panoid=IB3QUjpRXqMmDO7jafFkNQ&cb_client=maps_sv.tactile.gps&w=224&h=298&yaw=89.37445&pitch=0&thumbfov=100"
            },
            {
                "about": "Street View & 360deg",
                "link": "https://streetviewpixels-pa.googleapis.com/v1/thumbnail?panoid=IB3QUjpRXqMmDO7jafFkNQ&cb_client=maps_sv.tactile.gps&w=224&h=298&yaw=89.37445&pitch=0&thumbfov=100"
            }
        ],
        "link": "https://www.google.com/maps/place/Masjid+nayghavan/data=!4m7!3m6!1s0x3bdbc9e13791f377:0xc9aec5ce2972356b!8m2!3d20.183204!4d75.5282475!16s%2Fg%2F11y1cc2w0f!19sChIJd_ORN-HJ2zsRazVyKc7Frsk?authuser=0&hl=en&rclk=1",
        "coordinates": {
            "latitude": 20.183204,
            "longitude": 75.52824749999999
        }
    },
    {
        "name": "SK 7378",
        "main_category": "Mosque",
        "address": "QMPV+8VG SK 7378, Shegaon, Maharashtra 444203",
        "detailed_address": {
            "ward": null,
            "street": "QMPV+8VG",
            "city": "Shegaon",
            "postal_code": "444203",
            "state": "Maharashtra",
            "country_code": "IN"
        },
        "images": [
            {
                "about": "All",
                "link": "https://streetviewpixels-pa.googleapis.com/v1/thumbnail?panoid=b6MVn8Gjacx9RunrFSvNzA&cb_client=maps_sv.tactile.gps&w=224&h=298&yaw=57.440037&pitch=0&thumbfov=100"
            },
            {
                "about": "Street View & 360deg",
                "link": "https://streetviewpixels-pa.googleapis.com/v1/thumbnail?panoid=b6MVn8Gjacx9RunrFSvNzA&cb_client=maps_sv.tactile.gps&w=224&h=298&yaw=57.440037&pitch=0&thumbfov=100"
            }
        ],
        "link": "https://www.google.com/maps/place/SK+7378/data=!4m7!3m6!1s0x3bd7454f3e52fce3:0xdd9a84afa39009fc!8m2!3d20.7855423!4d76.6945867!16s%2Fg%2F11tc8w17db!19sChIJ4_xSPk9F1zsR_AmQo6-Emt0?authuser=0&hl=en&rclk=1",
        "coordinates": {
            "latitude": 20.7855423,
            "longitude": 76.6945867
        }
    },
    {
        "name": "jaamaa msjid jhoddgaa",
        "main_category": "Mosque",
        "address": "GFG6+7G7 jaamaa msjid jhoddgaa, jaamaa msjid rodd, jhoddgaa khaamgaav, 444303",
        "detailed_address": {
            "ward": null,
            "street": "GFG6+7G7, jaamaa msjid rodd, jhoddgaa khaamgaav",
            "city": "Zodga",
            "postal_code": "444303",
            "state": "Maharashtra",
            "country_code": "IN"
        },
        "images": [],
        "link": "https://www.google.com/maps/place/%E0%A4%9C%E0%A4%BE%E0%A4%AE%E0%A4%BE+%E0%A4%AE%E0%A4%B8%E0%A5%8D%E0%A4%9C%E0%A4%BF%E0%A4%A6+%E0%A4%9D%E0%A5%8B%E0%A4%A1%E0%A4%97%E0%A4%BE/data=!4m7!3m6!1s0x3bd0ab7bea15106f:0x58ace39370f23404!8m2!3d20.5256565!4d76.4613081!16s%2Fg%2F11r25l_pbv!19sChIJbxAV6nur0DsRBDTycJPjrFg?authuser=0&hl=en&rclk=1",
        "coordinates": {
            "latitude": 20.5256565,
            "longitude": 76.4613081
        }
    },
    {
        "name": "Madarsa Saranagar",
        "main_category": "Mosque",
        "address": "RFH9+9H6 Madarsa Saranagar, Nandura Khurd, Nandura, Maharashtra 443404",
        "detailed_address": {
            "ward": "Nandura Khurd",
            "street": "RFH9+9H6",
            "city": "Nandura",
            "postal_code": "443404",
            "state": "Maharashtra",
            "country_code": "IN"
        },
        "images": [
            {
                "about": "All",
                "link": "https://streetviewpixels-pa.googleapis.com/v1/thumbnail?panoid=-mgts0AJF60cJFu2MUyesA&cb_client=maps_sv.tactile.gps&w=224&h=298&yaw=254.81377&pitch=0&thumbfov=100"
            },
            {
                "about": "Street View & 360deg",
                "link": "https://streetviewpixels-pa.googleapis.com/v1/thumbnail?panoid=-mgts0AJF60cJFu2MUyesA&cb_client=maps_sv.tactile.gps&w=224&h=298&yaw=254.81377&pitch=0&thumbfov=100"
            }
        ],
        "link": "https://www.google.com/maps/place/Madarsa+Saranagar/data=!4m7!3m6!1s0x3bd759a44ae3c0c3:0xed8c073d4ae98c50!8m2!3d20.8285506!4d76.4692215!16s%2Fg%2F11sjjm8086!19sChIJw8DjSqRZ1zsRUIzpSj0HjO0?authuser=0&hl=en&rclk=1",
        "coordinates": {
            "latitude": 20.8285506,
            "longitude": 76.4692215
        }
    },
    {
        "name": "Jama Masjid",
        "main_category": "Mosque",
        "address": "GP84+CVH Jama Masjid, Kanchanpur, Maharashtra 444303",
        "detailed_address": {
            "ward": null,
            "street": "GP84+CVH",
            "city": "Kanchanpur",
            "postal_code": "444303",
            "state": "Maharashtra",
            "country_code": "IN"
        },
        "images": [],
        "link": "https://www.google.com/maps/place/Jama+Masjid/data=!4m7!3m6!1s0x3bd0b32e7a6e5ecb:0x232d655ca874c97c!8m2!3d20.5160651!4d76.707237!16s%2Fg%2F11vb9t53fc!19sChIJy15uei6z0DsRfMl0qFxlLSM?authuser=0&hl=en&rclk=1",
        "coordinates": {
            "latitude": 20.5160651,
            "longitude": 76.70723699999999
        }
    },
    {
        "name": "Jama masjid",
        "main_category": "Mosque",
        "address": "VF6J+VGC Jama masjid, Nimgaon, Maharashtra 443404",
        "detailed_address": {
            "ward": null,
            "street": "VF6J+VGC",
            "city": "Nimgaon",
            "postal_code": "443404",
            "state": "Maharashtra",
            "country_code": "IN"
        },
        "images": [
            {
                "about": "All",
                "link": "https://streetviewpixels-pa.googleapis.com/v1/thumbnail?panoid=tTDrt_QPMxjc81Gu1rRiGA&cb_client=maps_sv.tactile.gps&w=224&h=298&yaw=278.62527&pitch=0&thumbfov=100"
            },
            {
                "about": "Street View & 360deg",
                "link": "https://streetviewpixels-pa.googleapis.com/v1/thumbnail?panoid=tTDrt_QPMxjc81Gu1rRiGA&cb_client=maps_sv.tactile.gps&w=224&h=298&yaw=278.62527&pitch=0&thumbfov=100"
            }
        ],
        "link": "https://www.google.com/maps/place/Jama+masjid/data=!4m7!3m6!1s0x3bd75f70e67b4665:0x5d707596642aaa6b!8m2!3d20.862192!4d76.4812726!16s%2Fg%2F11v9n8srdx!19sChIJZUZ75nBf1zsRa6oqZJZ1cF0?authuser=0&hl=en&rclk=1",
        "coordinates": {
            "latitude": 20.862192,
            "longitude": 76.4812726
        }
    },
    {
        "name": "Hazrat Bilal Chawk",
        "main_category": "Historical landmark",
        "address": "PH99+5G3 Hazrat Bilal Chawk, Tayade Colony, Khamgaon, Maharashtra 444303",
        "detailed_address": {
            "ward": "Tayade Colony",
            "street": "PH99+5G3",
            "city": "Khamgaon",
            "postal_code": "444303",
            "state": "Maharashtra",
            "country_code": "IN"
        },
        "images": [
            {
                "about": "All",
                "link": "https://streetviewpixels-pa.googleapis.com/v1/thumbnail?panoid=ojH0JJ4P_YDr4C02JcFsGA&cb_client=maps_sv.tactile.gps&w=224&h=298&yaw=113.98075&pitch=0&thumbfov=100"
            },
            {
                "about": "Street View & 360deg",
                "link": "https://streetviewpixels-pa.googleapis.com/v1/thumbnail?panoid=ojH0JJ4P_YDr4C02JcFsGA&cb_client=maps_sv.tactile.gps&w=224&h=298&yaw=113.98075&pitch=0&thumbfov=100"
            }
        ],
        "link": "https://www.google.com/maps/place/Hazrat+Bilal+Chawk/data=!4m7!3m6!1s0x3bd751dcf184695d:0xec6621f883871c3e!8m2!3d20.7177729!4d76.5686191!16s%2Fg%2F11sspxwfnf!19sChIJXWmE8dxR1zsRPhyHg_ghZuw?authuser=0&hl=en&rclk=1",
        "coordinates": {
            "latitude": 20.7177729,
            "longitude": 76.56861909999999
        }
    },
    {
        "name": "Husainiya masjid",
        "main_category": "Indian Muslim restaurant",
        "address": "MHRH+6MM Husainiya masjid, Januna, Khamgaon, Maharashtra 444303",
        "detailed_address": {
            "ward": "Januna",
            "street": "MHRH+6MM",
            "city": "Khamgaon",
            "postal_code": "444303",
            "state": "Maharashtra",
            "country_code": "IN"
        },
        "images": [],
        "link": "https://www.google.com/maps/place/Husainiya+masjid/data=!4m7!3m6!1s0x3bd751005319ff6d:0x245ba69dba8de1f9!8m2!3d20.6905949!4d76.579165!16s%2Fg%2F11y294sxvc!19sChIJbf8ZUwBR1zsR-eGNup2mWyQ?authuser=0&hl=en&rclk=1",
        "coordinates": {
            "latitude": 20.6905949,
            "longitude": 76.579165
        }
    },
    {
        "name": "Masjid imam qasim",
        "main_category": "School",
        "address": "Masjid imam qasim, Eidgah plot, Sajanpuri, Khamgaon, Maharashtra 444303",
        "detailed_address": {
            "ward": "Sajanpuri",
            "street": "Eidgah plot",
            "city": "Khamgaon",
            "postal_code": "444303",
            "state": "Maharashtra",
            "country_code": "IN"
        },
        "images": [
            {
                "about": "All",
                "link": "https://streetviewpixels-pa.googleapis.com/v1/thumbnail?panoid=pOB90N2nzf7ljEHUofS2aQ&cb_client=maps_sv.tactile.gps&w=224&h=298&yaw=177.67488&pitch=0&thumbfov=100"
            },
            {
                "about": "Street View & 360deg",
                "link": "https://streetviewpixels-pa.googleapis.com/v1/thumbnail?panoid=pOB90N2nzf7ljEHUofS2aQ&cb_client=maps_sv.tactile.gps&w=224&h=298&yaw=177.67488&pitch=0&thumbfov=100"
            }
        ],
        "link": "https://www.google.com/maps/place/Masjid+imam+qasim/data=!4m7!3m6!1s0x3bd751c111507197:0x3743baddb9986b5a!8m2!3d20.6924474!4d76.5614147!16s%2Fg%2F11h5lvnh1t!19sChIJl3FQEcFR1zsRWmuYud26Qzc?authuser=0&hl=en&rclk=1",
        "coordinates": {
            "latitude": 20.6924474,
            "longitude": 76.5614147
        }
    },
    {
        "name": "MASJID IMAM QASIM",
        "main_category": "School",
        "address": "MHQ4+GC3 MASJID IMAM QASIM, Sajanpuri, Khamgaon, Shirasgaon Deshmukh, Maharashtra 444303",
        "detailed_address": {
            "ward": "Sajanpuri",
            "street": "MHQ4+GC3",
            "city": "Khamgaon, Shirasgaon Deshmukh",
            "postal_code": "444303",
            "state": "Maharashtra",
            "country_code": "IN"
        },
        "images": [
            {
                "about": "All",
                "link": "https://streetviewpixels-pa.googleapis.com/v1/thumbnail?panoid=Y6mS8rbW29G0Bfw3jEBy4g&cb_client=maps_sv.tactile.gps&w=224&h=298&yaw=119.4499&pitch=0&thumbfov=100"
            },
            {
                "about": "Street View & 360deg",
                "link": "https://streetviewpixels-pa.googleapis.com/v1/thumbnail?panoid=Y6mS8rbW29G0Bfw3jEBy4g&cb_client=maps_sv.tactile.gps&w=224&h=298&yaw=119.4499&pitch=0&thumbfov=100"
            }
        ],
        "link": "https://www.google.com/maps/place/MASJID+IMAM+QASIM/data=!4m7!3m6!1s0x3bd751b6ac232ae1:0x370e6e02464929a1!8m2!3d20.6887701!4d76.5560481!16s%2Fg%2F11fnp_0nzd!19sChIJ4SojrLZR1zsRoSlJRgJuDjc?authuser=0&hl=en&rclk=1",
        "coordinates": {
            "latitude": 20.6887701,
            "longitude": 76.5560481
        }
    },
    {
        "name": "Iqbal",
        "main_category": "Store",
        "address": "MHV6+2FJ Iqbal, Unnamed Road, Sajanpuri, Khamgaon, Maharashtra 444303",
        "detailed_address": {
            "ward": "Sajanpuri",
            "street": "MHV6+2FJ, Unnamed Road",
            "city": "Khamgaon",
            "postal_code": "444303",
            "state": "Maharashtra",
            "country_code": "IN"
        },
        "images": [
            {
                "about": "All",
                "link": "https://streetviewpixels-pa.googleapis.com/v1/thumbnail?panoid=71y_hq_Nw3vIQHvrx30c1A&cb_client=maps_sv.tactile.gps&w=224&h=298&yaw=128.87688&pitch=0&thumbfov=100"
            },
            {
                "about": "Street View & 360deg",
                "link": "https://streetviewpixels-pa.googleapis.com/v1/thumbnail?panoid=71y_hq_Nw3vIQHvrx30c1A&cb_client=maps_sv.tactile.gps&w=224&h=298&yaw=128.87688&pitch=0&thumbfov=100"
            }
        ],
        "link": "https://www.google.com/maps/place/Iqbal/data=!4m7!3m6!1s0x3bd7518a0c2908bf:0x6ccac8a539401ed7!8m2!3d20.6925774!4d76.5611334!16s%2Fg%2F11ngys3nhg!19sChIJvwgpDIpR1zsR1x5AOaXIymw?authuser=0&hl=en&rclk=1",
        "coordinates": {
            "latitude": 20.692577399999998,
            "longitude": 76.5611334
        }
    },
    {
        "name": "PATHAN CHOWK",
        "main_category": "Apartment complex",
        "address": "PATHAN CHOWK, juna fail, near Markaz Masjid, Shivaji Nager, Khamgaon, Maharashtra 444303",
        "detailed_address": {
            "ward": "Shivaji Nager",
            "street": "juna fail, near Markaz Masjid",
            "city": "Khamgaon",
            "postal_code": "444303",
            "state": "Maharashtra",
            "country_code": "IN"
        },
        "images": [
            {
                "about": "All",
                "link": "https://streetviewpixels-pa.googleapis.com/v1/thumbnail?panoid=JcVqfCCdP0AsGl2gM6KVxQ&cb_client=maps_sv.tactile.gps&w=224&h=298&yaw=58.428345&pitch=0&thumbfov=100"
            },
            {
                "about": "Street View & 360deg",
                "link": "https://streetviewpixels-pa.googleapis.com/v1/thumbnail?panoid=JcVqfCCdP0AsGl2gM6KVxQ&cb_client=maps_sv.tactile.gps&w=224&h=298&yaw=58.428345&pitch=0&thumbfov=100"
            }
        ],
        "link": "https://www.google.com/maps/place/PATHAN+CHOWK/data=!4m7!3m6!1s0x3bd7519624c0ae55:0xfc325f451d584c9f!8m2!3d20.7023514!4d76.567568!16s%2Fg%2F11tmwd2mtv!19sChIJVa7AJJZR1zsRn0xYHUVfMvw?authuser=0&hl=en&rclk=1",
        "coordinates": {
            "latitude": 20.702351399999998,
            "longitude": 76.567568
        }
    },
    {
        "name": "Imran shaikh",
        "main_category": "Store",
        "address": "MHV6+2FJ Imran shaikh, Unnamed Road, Sajanpuri, Khamgaon, Maharashtra 444303",
        "detailed_address": {
            "ward": "Sajanpuri",
            "street": "MHV6+2FJ, Unnamed Road",
            "city": "Khamgaon",
            "postal_code": "444303",
            "state": "Maharashtra",
            "country_code": "IN"
        },
        "images": [
            {
                "about": "All",
                "link": "https://streetviewpixels-pa.googleapis.com/v1/thumbnail?panoid=71y_hq_Nw3vIQHvrx30c1A&cb_client=maps_sv.tactile.gps&w=224&h=298&yaw=128.87688&pitch=0&thumbfov=100"
            },
            {
                "about": "Street View & 360deg",
                "link": "https://streetviewpixels-pa.googleapis.com/v1/thumbnail?panoid=71y_hq_Nw3vIQHvrx30c1A&cb_client=maps_sv.tactile.gps&w=224&h=298&yaw=128.87688&pitch=0&thumbfov=100"
            }
        ],
        "link": "https://www.google.com/maps/place/Imran+shaikh/data=!4m7!3m6!1s0x3bd7512dd3744daf:0x18bebc3099be97eb!8m2!3d20.6925774!4d76.5611334!16s%2Fg%2F11ngysfwpb!19sChIJr0100y1R1zsR65e-mTC8vhg?authuser=0&hl=en&rclk=1",
        "coordinates": {
            "latitude": 20.692577399999998,
            "longitude": 76.5611334
        }
    }
]