[
    {
        "name": "ZAINI (Bohra Masjid)",
        "main_category": "Mosque",
        "address": "ZAINI (Bohra Masjid), 158 &160, Subhash Chowk Rd, Bhavanipet, Maharashtra 425001",
        "detailed_address": {
            "ward": "Shahunagar",
            "street": "158 &160, Subhash Chowk Rd",
            "city": "Bhavanipet, Jalgaon",
            "postal_code": "425001",
            "state": "Maharashtra",
            "country_code": "IN"
        },
        "images": [
            {
                "about": "All",
                "link": "https://lh5.googleusercontent.com/p/AF1QipPGMDcsSrQwaBW5O4DorHDCdTrwioj8rcmL4Ag=w529-h298-k-no"
            },
            {
                "about": "Street View & 360deg",
                "link": "https://streetviewpixels-pa.googleapis.com/v1/thumbnail?panoid=dBPWFN3CSmBWRAuEpBuL0A&cb_client=maps_sv.tactile.gps&w=224&h=298&yaw=100.27807&pitch=0&thumbfov=100"
            }
        ],
        "link": "https://www.google.com/maps/place/ZAINI+%28Bohra+Masjid%29/data=!4m7!3m6!1s0x3bd90fa6c06ecff7:0x3ae4c4e760e07950!8m2!3d21.0128455!4d75.5699898!16s%2Fg%2F1w9x_kp0!19sChIJ989uwKYP2TsRUHngYOfE5Do?authuser=0&hl=en&rclk=1",
        "coordinates": {
            "latitude": 21.012845499999997,
            "longitude": 75.5699898
        }
    },
    {
        "name": "Kgn masjid",
        "main_category": "Mosque",
        "address": "2HH9+H6 Kgn masjid, Shivaji Nagar, Jalgaon, Maharashtra 425002",
        "detailed_address": {
            "ward": "Shivaji Nagar",
            "street": "2HH9+H6",
            "city": "Jalgaon",
            "postal_code": null,
            "state": "Maharashtra",
            "country_code": "IN"
        },
        "images": [],
        "link": "https://www.google.com/maps/place/Kgn+masjid/data=!4m7!3m6!1s0x3bd90fc8ee5940f1:0x5e81cdbfbabf1221!8m2!3d21.0288974!4d75.5681236!16s%2Fg%2F11v0079x7j!19sChIJ8UBZ7sgP2TsRIRK_ur_NgV4?authuser=0&hl=en&rclk=1",
        "coordinates": {
            "latitude": 21.028897399999998,
            "longitude": 75.56812359999999
        }
    },
    {
        "name": "MASJIDE USMANIA JALGAON",
        "main_category": "School",
        "address": "XHGV+2XW MASJIDE USMANIA JALGAON, Supreme Colony Rd, Supreme Colony, Jalgaon, Maharashtra 425003",
        "detailed_address": {
            "ward": "Supreme Colony",
            "street": "XHGV+2XW, Supreme Colony Rd",
            "city": "Jalgaon",
            "postal_code": "425003",
            "state": "Maharashtra",
            "country_code": "IN"
        },
        "images": [
            {
                "about": "All",
                "link": "https://lh5.googleusercontent.com/p/AF1QipOdjwSCxtZnhGWk-j0jrtBqOF0DJ5mLzD2hqAyp=w224-h298-k-no"
            },
            {
                "about": "Street View & 360deg",
                "link": "https://streetviewpixels-pa.googleapis.com/v1/thumbnail?panoid=RWqgHQ330lWy1Yr6f7wrzg&cb_client=maps_sv.tactile.gps&w=224&h=298&yaw=223.96684&pitch=0&thumbfov=100"
            }
        ],
        "link": "https://www.google.com/maps/place/MASJIDE+USMANIA+JALGAON/data=!4m7!3m6!1s0x3bd90e952bdd6e9d:0x500293ffc09506e7!8m2!3d20.9751238!4d75.5949561!16s%2Fg%2F11c5rsfz95!19sChIJnW7dK5UO2TsR5waVwP-TAlA?authuser=0&hl=en&rclk=1",
        "coordinates": {
            "latitude": 20.9751238,
            "longitude": 75.59495609999999
        }
    },
    {
        "name": "Sunni Jama Masjid",
        "main_category": "Mosque",
        "address": "2H8C+3XF Sunni Jama Masjid, Mahatma Gandhi Rd, JDCC Bank Colony, Shahunagar, Jalgaon, Maharashtra 425001",
        "detailed_address": {
            "ward": "JDCC Bank Colony, Shahunagar",
            "street": "2H8C+3XF, Mahatma Gandhi Rd",
            "city": "Jalgaon",
            "postal_code": "425001",
            "state": "Maharashtra",
            "country_code": "IN"
        },
        "images": [
            {
                "about": "All",
                "link": "https://streetviewpixels-pa.googleapis.com/v1/thumbnail?panoid=RbYT2GMsodqc5f02_nYvZg&cb_client=maps_sv.tactile.gps&w=224&h=298&yaw=27.525618&pitch=0&thumbfov=100"
            },
            {
                "about": "Street View & 360deg",
                "link": "https://streetviewpixels-pa.googleapis.com/v1/thumbnail?panoid=RbYT2GMsodqc5f02_nYvZg&cb_client=maps_sv.tactile.gps&w=224&h=298&yaw=27.525618&pitch=0&thumbfov=100"
            }
        ],
        "link": "https://www.google.com/maps/place/Sunni+Jama+Masjid/data=!4m7!3m6!1s0x3bd90f5eb2a2545b:0x9c123b438a049f0b!8m2!3d21.0152163!4d75.5724503!16s%2Fg%2F11ks0gj9_j!19sChIJW1Sisl4P2TsRC58EikM7Epw?authuser=0&hl=en&rclk=1",
        "coordinates": {
            "latitude": 21.0152163,
            "longitude": 75.5724503
        }
    },
    {
        "name": "Police headquarters masjid",
        "main_category": "Mosque",
        "address": "2H37+82P Police headquarters masjid, Bhaskar Market Rd, near police headquarter masjit, Pratap Nagar, Jalgaon, Maharashtra 425001",
        "detailed_address": {
            "ward": "Pratap Nagar",
            "street": "2H37+82P, Bhaskar Market Rd, near police headquarter masjit",
            "city": "Jalgaon",
            "postal_code": "425001",
            "state": "Maharashtra",
            "country_code": "IN"
        },
        "images": [
            {
                "about": "All",
                "link": "https://streetviewpixels-pa.googleapis.com/v1/thumbnail?panoid=0MlvCPuCgU4OqJsC29YSHA&cb_client=maps_sv.tactile.gps&w=224&h=298&yaw=348.9036&pitch=0&thumbfov=100"
            },
            {
                "about": "Street View & 360deg",
                "link": "https://streetviewpixels-pa.googleapis.com/v1/thumbnail?panoid=0MlvCPuCgU4OqJsC29YSHA&cb_client=maps_sv.tactile.gps&w=224&h=298&yaw=348.9036&pitch=0&thumbfov=100"
            }
        ],
        "link": "https://www.google.com/maps/place/Police+headquarters+masjid/data=!4m7!3m6!1s0x3bd90f6a056bb22f:0x19746727463b9c3c!8m2!3d21.0033252!4d75.5625654!16s%2Fg%2F11svj5ddgr!19sChIJL7JrBWoP2TsRPJw7RidndBk?authuser=0&hl=en&rclk=1",
        "coordinates": {
            "latitude": 21.0033252,
            "longitude": 75.5625654
        }
    },
    {
        "name": "Jalgaon Eidgah",
        "main_category": "Mosque",
        "address": "2H4G+27F Jalgaon Eidgah, Salar Nagar Rd, Salar Nagar, Rampeth, Jalgaon, Maharashtra 425001",
        "detailed_address": {
            "ward": "Salar Nagar, Rampeth",
            "street": "2H4G+27F, Salar Nagar Rd",
            "city": "Jalgaon",
            "postal_code": "425001",
            "state": "Maharashtra",
            "country_code": "IN"
        },
        "images": [
            {
                "about": "All",
                "link": "https://lh5.googleusercontent.com/p/AF1QipN7ovBO8RbmJPxZ1i9A2CY9jqMCjGQX9Y7nMFXQ=w224-h498-k-no"
            },
            {
                "about": "Dome",
                "link": "https://lh5.googleusercontent.com/p/AF1QipPVR4tdjc5YaPuj4cZHo9dS02H5MpVupeWju8O3=w665-h298-k-no"
            },
            {
                "about": "Videos",
                "link": "https://lh5.googleusercontent.com/p/AF1QipN3plZ6y47dWzInzi3jIc1U2gnsMCe29mhoRnYx=w529-h298-k-no"
            },
            {
                "about": "Street View & 360deg",
                "link": "https://streetviewpixels-pa.googleapis.com/v1/thumbnail?panoid=S-v-u6_R7vtBITF-2KZ43w&cb_client=maps_sv.tactile.gps&w=224&h=298&yaw=244.6852&pitch=0&thumbfov=100"
            }
        ],
        "link": "https://www.google.com/maps/place/Jalgaon+Eidgah/data=!4m7!3m6!1s0x3bd90fa30e2f29b3:0x2232593531592196!8m2!3d21.0050577!4d75.5756683!16s%2Fg%2F11st8__l05!19sChIJsykvDqMP2TsRliFZMTVZMiI?authuser=0&hl=en&rclk=1",
        "coordinates": {
            "latitude": 21.0050577,
            "longitude": 75.57566829999999
        }
    },
    {
        "name": "SUNNI QADRI MASJID",
        "main_category": "Mosque",
        "address": "2G2H+PVM SUNNI QADRI MASJID, pimprala, Jalgaon, Maharashtra 425001",
        "detailed_address": {
            "ward": "pimprala",
            "street": "2G2H+PVM",
            "city": "Jalgaon",
            "postal_code": "425001",
            "state": "Maharashtra",
            "country_code": "IN"
        },
        "images": [
            {
                "about": "All",
                "link": "https://lh5.googleusercontent.com/p/AF1QipNi1kD9MUeWyeM9qvQsMseVtHQCrWtnKwpTAzQq=w529-h298-k-no"
            }
        ],
        "link": "https://www.google.com/maps/place/SUNNI+QADRI+MASJID/data=!4m7!3m6!1s0x3bd90f1ab55f69cd:0x91cf70e70e656c37!8m2!3d21.001826!4d75.5296869!16s%2Fg%2F11v0bpwbl9!19sChIJzWlftRoP2TsRN2xlDudwz5E?authuser=0&hl=en&rclk=1",
        "coordinates": {
            "latitude": 21.001825999999998,
            "longitude": 75.5296869
        }
    },
    {
        "name": "Jama masjid maherun",
        "main_category": "Mosque",
        "address": "Jama masjid maherun, Mehrun Link Rd, Mehrun, Tambapura, Jalgaon, Maharashtra 425003",
        "detailed_address": {
            "ward": "Mehrun, Tambapura",
            "street": "Mehrun Link Rd",
            "city": "Jalgaon",
            "postal_code": "425003",
            "state": "Maharashtra",
            "country_code": "IN"
        },
        "images": [
            {
                "about": "All",
                "link": "https://lh5.googleusercontent.com/p/AF1QipPMLt_qoIh2XdAZ74X5ckdDKCsT8LIsVdA89NRE=w224-h495-k-no"
            }
        ],
        "link": "https://www.google.com/maps/place/Jama+masjid+maherun/data=!4m7!3m6!1s0x3bd90f003f658bc5:0xc77dbf7e43f0108!8m2!3d20.9951939!4d75.5737341!16s%2Fg%2F11vlvbqczm!19sChIJxYtlPwAP2TsRCAE_5Pfbdww?authuser=0&hl=en&rclk=1",
        "coordinates": {
            "latitude": 20.9951939,
            "longitude": 75.5737341
        }
    },
    {
        "name": "Millat Masjid!",
        "main_category": "Mosque",
        "address": "XHWF+642 Millat Masjid!, Mehrun, Tambapura, Jalgaon, Maharashtra 425001",
        "detailed_address": {
            "ward": "Mehrun, Tambapura",
            "street": "XHWF+642",
            "city": "Jalgaon",
            "postal_code": "425001",
            "state": "Maharashtra",
            "country_code": "IN"
        },
        "images": [],
        "link": "https://www.google.com/maps/place/Millat+Masjid!/data=!4m7!3m6!1s0x3bd90f640a899501:0x6e87adeb4fe52b84!8m2!3d20.9956528!4d75.5723692!16s%2Fg%2F11stz9_gbp!19sChIJAZWJCmQP2TsRhCvlT-uth24?authuser=0&hl=en&rclk=1",
        "coordinates": {
            "latitude": 20.9956528,
            "longitude": 75.5723692
        }
    },
    {
        "name": "Masjid e Ibrahim",
        "main_category": "Mosque",
        "address": "XHR8+9G5 Masjid e Ibrahim, Tambapura, Jalgaon, Maharashtra 425001",
        "detailed_address": {
            "ward": "Tambapura",
            "street": "XHR8+9G5",
            "city": "Jalgaon",
            "postal_code": null,
            "state": "Maharashtra",
            "country_code": "IN"
        },
        "images": [
            {
                "about": "All",
                "link": "https://streetviewpixels-pa.googleapis.com/v1/thumbnail?panoid=bsHGQcUk7q1SaKJ73Hi67Q&cb_client=maps_sv.tactile.gps&w=224&h=298&yaw=108.26775&pitch=0&thumbfov=100"
            },
            {
                "about": "Street View & 360deg",
                "link": "https://streetviewpixels-pa.googleapis.com/v1/thumbnail?panoid=bsHGQcUk7q1SaKJ73Hi67Q&cb_client=maps_sv.tactile.gps&w=224&h=298&yaw=108.26775&pitch=0&thumbfov=100"
            }
        ],
        "link": "https://www.google.com/maps/place/Masjid+e+Ibrahim/data=!4m7!3m6!1s0x3bd90f33eddd6a13:0x7d08c49f7a98c8f6!8m2!3d20.9908801!4d75.5663701!16s%2Fg%2F11v0tn91_2!19sChIJE2rd7TMP2TsR9siYep_ECH0?authuser=0&hl=en&rclk=1",
        "coordinates": {
            "latitude": 20.9908801,
            "longitude": 75.5663701
        }
    },
    {
        "name": "Hajrat Bale miyya Dargah",
        "main_category": "Mosque",
        "address": "2G6M+884 Hajrat Bale miyya Dargah, Bariwada, pimprala, Jalgaon, Maharashtra 425001",
        "detailed_address": {
            "ward": "Bariwada, pimprala",
            "street": "2G6M+884",
            "city": "Jalgaon",
            "postal_code": "425001",
            "state": "Maharashtra",
            "country_code": "IN"
        },
        "images": [
            {
                "about": "All",
                "link": "https://streetviewpixels-pa.googleapis.com/v1/thumbnail?panoid=d4e4dvWrBAOwKS0TRCFviQ&cb_client=maps_sv.tactile.gps&w=224&h=298&yaw=293.58646&pitch=0&thumbfov=100"
            },
            {
                "about": "Street View & 360deg",
                "link": "https://streetviewpixels-pa.googleapis.com/v1/thumbnail?panoid=d4e4dvWrBAOwKS0TRCFviQ&cb_client=maps_sv.tactile.gps&w=224&h=298&yaw=293.58646&pitch=0&thumbfov=100"
            }
        ],
        "link": "https://www.google.com/maps/place/Hajrat+Bale+miyya+Dargah/data=!4m7!3m6!1s0x3bd90fe034d2b719:0xdda752d70a004372!8m2!3d21.010775!4d75.5333357!16s%2Fg%2F11srgqwsgl!19sChIJGbfSNOAP2TsRckMACtdSp90?authuser=0&hl=en&rclk=1",
        "coordinates": {
            "latitude": 21.010775,
            "longitude": 75.5333357
        }
    },
    {
        "name": "Noorani Masjid super super super super super Kirana super Kirana ke Baju",
        "main_category": "Home help",
        "address": "Noorani Masjid super super super super super Kirana super Kirana ke Baju, 4, Datta Colony, Jalgaon, Maharashtra 425001",
        "detailed_address": {
            "ward": "Datta Colony",
            "street": "4",
            "city": "Jalgaon",
            "postal_code": "425001",
            "state": "Maharashtra",
            "country_code": "IN"
        },
        "images": [
            {
                "about": "All",
                "link": "https://lh5.googleusercontent.com/p/AF1QipPIkeWxa4wKa8Iiivg5NEL3HE4DaMG0Y_Rw8Rj_=w224-h398-k-no"
            },
            {
                "about": "Videos",
                "link": "https://lh5.googleusercontent.com/p/AF1QipPIkeWxa4wKa8Iiivg5NEL3HE4DaMG0Y_Rw8Rj_=w224-h398-k-no"
            }
        ],
        "link": "https://www.google.com/maps/place/Noorani+Masjid+super+super+super+super+super+Kirana+super+Kirana+ke+Baju/data=!4m7!3m6!1s0x3bd90ff0ff364ea5:0x928558b0cf091be7!8m2!3d21.0144918!4d75.5570892!16s%2Fg%2F11h9gwvsfc!19sChIJpU42__AP2TsR5xsJz7BYhZI?authuser=0&hl=en&rclk=1",
        "coordinates": {
            "latitude": 21.0144918,
            "longitude": 75.5570892
        }
    },
    {
        "name": "Masjid e Arqam",
        "main_category": "Mosque",
        "address": "2H2F+2JF Masjid e Arqam, Devidas Colony, Jalgaon, Maharashtra 425001",
        "detailed_address": {
            "ward": "Devidas Colony",
            "street": "2H2F+2JF",
            "city": "Jalgaon",
            "postal_code": "425001",
            "state": "Maharashtra",
            "country_code": "IN"
        },
        "images": [],
        "link": "https://www.google.com/maps/place/Masjid+e+Arqam/data=!4m7!3m6!1s0x3bd90f59a6d1c82f:0x5d7f96d6ffb7333b!8m2!3d21.0000709!4d75.5740415!16s%2Fg%2F11vbr2rszw!19sChIJL8jRplkP2TsROzO3_9aWf10?authuser=0&hl=en&rclk=1",
        "coordinates": {
            "latitude": 21.0000709,
            "longitude": 75.57404149999999
        }
    },
    {
        "name": "Jama Masjid Markaz",
        "main_category": "Mosque",
        "address": "2H7F+87P Jama Masjid Markaz, Rampeth, Jalgaon, Maharashtra 425001",
        "detailed_address": {
            "ward": "Rampeth",
            "street": "2H7F+87P",
            "city": "Jalgaon",
            "postal_code": "425001",
            "state": "Maharashtra",
            "country_code": "IN"
        },
        "images": [
            {
                "about": "All",
                "link": "https://streetviewpixels-pa.googleapis.com/v1/thumbnail?panoid=WGSibrvKslnYzaKHxMa4pA&cb_client=maps_sv.tactile.gps&w=224&h=298&yaw=131.26643&pitch=0&thumbfov=100"
            },
            {
                "about": "Street View & 360deg",
                "link": "https://streetviewpixels-pa.googleapis.com/v1/thumbnail?panoid=WGSibrvKslnYzaKHxMa4pA&cb_client=maps_sv.tactile.gps&w=224&h=298&yaw=131.26643&pitch=0&thumbfov=100"
            }
        ],
        "link": "https://www.google.com/maps/place/Jama+Masjid+Markaz/data=!4m7!3m6!1s0x3bd90f3a5f021129:0x251ce96839c7900c!8m2!3d21.0133476!4d75.5732768!16s%2Fg%2F11l1qhhp_0!19sChIJKRECXzoP2TsRDJDHOWjpHCU?authuser=0&hl=en&rclk=1",
        "coordinates": {
            "latitude": 21.0133476,
            "longitude": 75.5732768
        }
    },
    {
        "name": "Jamat e islami Hind jalgaon",
        "main_category": "Place of worship",
        "address": "2H9C+265 Jamat e islami Hind jalgaon, Baliram Peth, Jalgaon, Maharashtra 425001",
        "detailed_address": {
            "ward": "Baliram Peth",
            "street": "2H9C+265",
            "city": "Jalgaon",
            "postal_code": "425001",
            "state": "Maharashtra",
            "country_code": "IN"
        },
        "images": [
            {
                "about": "All",
                "link": "https://streetviewpixels-pa.googleapis.com/v1/thumbnail?panoid=N7CQ2ckHOhoO48PueRR1TQ&cb_client=maps_sv.tactile.gps&w=224&h=298&yaw=253.04333&pitch=0&thumbfov=100"
            },
            {
                "about": "Street View & 360deg",
                "link": "https://streetviewpixels-pa.googleapis.com/v1/thumbnail?panoid=N7CQ2ckHOhoO48PueRR1TQ&cb_client=maps_sv.tactile.gps&w=224&h=298&yaw=253.04333&pitch=0&thumbfov=100"
            }
        ],
        "link": "https://www.google.com/maps/place/Jamat+e+islami+Hind+jalgaon/data=!4m7!3m6!1s0x3bd90f7ee95d95d3:0x4049b52fbc455ff8!8m2!3d21.0175159!4d75.5705998!16s%2Fg%2F11ts2l2f2y!19sChIJ05Vd6X4P2TsR-F9FvC-1SUA?authuser=0&hl=en&rclk=1",
        "coordinates": {
            "latitude": 21.0175159,
            "longitude": 75.5705998
        }
    },
    {
        "name": "Jamia Ayesha Ahelesunnat Aminululoom",
        "main_category": "Religious destination",
        "address": "XHWH+24W Jamia Ayesha Ahelesunnat Aminululoom, Masjid E Raza Rd, Mehrun, Jalgaon, Maharashtra 425003",
        "detailed_address": {
            "ward": "Mehrun",
            "street": "XHWH+24W, Masjid E Raza Rd",
            "city": "Jalgaon",
            "postal_code": "425003",
            "state": "Maharashtra",
            "country_code": "IN"
        },
        "images": [],
        "link": "https://www.google.com/maps/place/Jamia+Ayesha+Ahelesunnat+Aminululoom/data=!4m7!3m6!1s0x3bd90f6bc48b4659:0x8d2ed9eb654641f1!8m2!3d20.9951094!4d75.5778389!16s%2Fg%2F11trkbd46_!19sChIJWUaLxGsP2TsR8UFGZevZLo0?authuser=0&hl=en&rclk=1",
        "coordinates": {
            "latitude": 20.9951094,
            "longitude": 75.5778389
        }
    },
    {
        "name": "plotme badsah ki masjid",
        "main_category": "School",
        "address": "plotme badsah ki masjid, darullaulum anvarull quraan, burhanpurarod, Jalgaon, Maharashtra 425001",
        "detailed_address": {
            "ward": "burhanpurarod",
            "street": "darullaulum anvarull quraan",
            "city": "Jalgaon",
            "postal_code": null,
            "state": "Maharashtra",
            "country_code": "IN"
        },
        "images": [
            {
                "about": "All",
                "link": "https://streetviewpixels-pa.googleapis.com/v1/thumbnail?panoid=KKgf0yhucujdtjlMSbKC8w&cb_client=maps_sv.tactile.gps&w=224&h=298&yaw=236.68752&pitch=0&thumbfov=100"
            },
            {
                "about": "Street View & 360deg",
                "link": "https://streetviewpixels-pa.googleapis.com/v1/thumbnail?panoid=KKgf0yhucujdtjlMSbKC8w&cb_client=maps_sv.tactile.gps&w=224&h=298&yaw=236.68752&pitch=0&thumbfov=100"
            }
        ],
        "link": "https://www.google.com/maps/place/plotme+badsah+ki+masjid/data=!4m7!3m6!1s0x3bd90f056d60c76f:0x9bc51a259175249a!8m2!3d21.0076724!4d75.5626404!16s%2Fg%2F11h4zj_p8w!19sChIJb8dgbQUP2TsRmiR1kSUaxZs?authuser=0&hl=en&rclk=1",
        "coordinates": {
            "latitude": 21.0076724,
            "longitude": 75.56264039999999
        }
    }
]