[
    {
        "name": "Usmani Masjid",
        "main_category": "Mosque",
        "address": "No. 30, Usmani Masjid, A-Block, Mansa Mandir Rd, Naraina Vihar, Block Z, Prem Nagar III, Prem Nagar, Kirari, Delhi, 110086",
        "detailed_address": {
            "ward": "Naraina Vihar, Block Z, Prem Nagar III, Prem Nagar",
            "street": "No. 30, A-Block, Mansa Mandir Rd",
            "city": "Kirari, Delhi",
            "postal_code": "110086",
            "state": "Delhi",
            "country_code": "IN"
        },
        "images": [
            {
                "about": "All",
                "link": "https://lh5.googleusercontent.com/p/AF1QipPKYnXefA804WfN5JQguMBd67qIZPVGQCktrQOi=w397-h298-k-no"
            },
            {
                "about": "Videos",
                "link": "https://lh5.googleusercontent.com/p/AF1QipO7_3tcFWsCT2QC5Shylj0QOyKKIdsKsxxsqWQb=w224-h407-k-no"
            }
        ],
        "link": "https://www.google.com/maps/place/Usmani+Masjid/data=!4m7!3m6!1s0x390d05d5ef56403b:0xeac5310c660fb68b!8m2!3d28.6972017!4d77.0463719!16s%2Fg%2F11bw46tcgs!19sChIJO0BW79UFDTkRi7YPZgwxxeo?authuser=0&hl=en&rclk=1",
        "coordinates": {
            "latitude": 28.697201699999997,
            "longitude": 77.0463719
        }
    },
    {
        "name": "Abbu Baker Al-Siddiq Jama Masjid Mansa Punjab",
        "main_category": "Mosque",
        "address": "Abbu Baker Al-Siddiq Jama Masjid Mansa Punjab, grain market, Kaberistan street near new, Mansa, Punjab 151505",
        "detailed_address": {
            "ward": "Daraka Muhala",
            "street": "grain market, Kaberistan street near new",
            "city": "Mansa",
            "postal_code": "151505",
            "state": "Punjab",
            "country_code": "IN"
        },
        "images": [],
        "link": "https://www.google.com/maps/place/Abbu+Baker+Al-Siddiq+Jama+Masjid+Mansa+Punjab/data=!4m7!3m6!1s0x39111ed5bf6552a9:0x3c920eb3bfd415da!8m2!3d29.9857164!4d75.3896001!16s%2Fg%2F11f3zss4dm!19sChIJqVJlv9UeETkR2hXUv7MOkjw?authuser=0&hl=en&rclk=1",
        "coordinates": {
            "latitude": 29.985716399999998,
            "longitude": 75.3896001
        }
    },
    {
        "name": "mdiinaa msjid Madina Masjid",
        "main_category": "Mosque",
        "address": "X9XV+66R mdiinaa msjid Madina Masjid, Guru Arjun Dev Nagar, Khalsa, Mansa, Punjab 151505",
        "detailed_address": {
            "ward": "Guru Arjun Dev Nagar, Khalsa",
            "street": "X9XV+66R",
            "city": "Mansa",
            "postal_code": "151505",
            "state": "Punjab",
            "country_code": "IN"
        },
        "images": [],
        "link": "https://www.google.com/maps/place/%E0%A8%AE%E0%A8%A6%E0%A9%80%E0%A8%A8%E0%A8%BE+%E0%A8%AE%E0%A8%B8%E0%A8%9C%E0%A8%BF%E0%A8%A6+Madina+Masjid/data=!4m7!3m6!1s0x39111ed95d4f08a1:0x9387590e893ad486!8m2!3d29.9981205!4d75.3930182!16s%2Fg%2F11df63w_sx!19sChIJoQhPXdkeETkRhtQ6iQ5Zh5M?authuser=0&hl=en&rclk=1",
        "coordinates": {
            "latitude": 29.9981205,
            "longitude": 75.3930182
        }
    }
]