[
    {
        "name": "Mohammadi masjid",
        "main_category": "Mosque",
        "address": "VW3H+M3H Mohammadi masjid, Ganj Basoda, Madhya Pradesh 464221",
        "detailed_address": {
            "ward": null,
            "street": "VW3H+M3H",
            "city": "Ganj Basoda",
            "postal_code": "464221",
            "state": "Madhya Pradesh",
            "country_code": "IN"
        },
        "images": [
            {
                "about": "All",
                "link": "https://lh5.googleusercontent.com/p/AF1QipOw5HULiGva4wVNlLmsQsvqQROeIHQF81-mqCHL=w529-h298-k-no"
            },
            {
                "about": "Street View & 360deg",
                "link": "https://streetviewpixels-pa.googleapis.com/v1/thumbnail?panoid=GvCKRKsQqiD7MA5vJXDsNA&cb_client=maps_sv.tactile.gps&w=224&h=298&yaw=27.71915&pitch=0&thumbfov=100"
            }
        ],
        "link": "https://www.google.com/maps/place/Mohammadi+masjid/data=!4m7!3m6!1s0x397bfd557b8b0aaf:0x15b5ea21d2eb3b22!8m2!3d23.8541862!4d77.9277377!16s%2Fg%2F11d_y9jrbg!19sChIJrwqLe1X9ezkRIjvr0iHqtRU?authuser=0&hl=en&rclk=1",
        "coordinates": {
            "latitude": 23.854186199999997,
            "longitude": 77.9277377
        }
    },
    {
        "name": "Masjid",
        "main_category": "Mosque",
        "address": "VW2J+V9F Masjid, Ganj Basoda, Madhya Pradesh 464221",
        "detailed_address": {
            "ward": null,
            "street": "VW2J+V9F",
            "city": "Ganj Basoda",
            "postal_code": "464221",
            "state": "Madhya Pradesh",
            "country_code": "IN"
        },
        "images": [
            {
                "about": "All",
                "link": "https://lh5.googleusercontent.com/p/AF1QipOVt2bkQhl_LGu754NZE7HKNOXfZiy0JE3eY8ME=w529-h298-k-no"
            },
            {
                "about": "Videos",
                "link": "https://lh5.googleusercontent.com/p/AF1QipPebOCYQ0vX1zalnQuDKXAIRKeFOza0HrQw7HoC=w224-h398-k-no"
            }
        ],
        "link": "https://www.google.com/maps/place/Masjid/data=!4m7!3m6!1s0x397957fe6196af45:0x369fe5eb1cf22a63!8m2!3d23.8521876!4d77.9309151!16s%2Fg%2F1hm1rw4xs!19sChIJRa-WYf5XeTkRYyryHOvlnzY?authuser=0&hl=en&rclk=1",
        "coordinates": {
            "latitude": 23.8521876,
            "longitude": 77.93091509999999
        }
    },
    {
        "name": "iidgaah bsod IDGHA BASOUD",
        "main_category": "Mosque",
        "address": "X8PC+X9M iidgaah bsod IDGHA BASOUD, Basaud, Uttar Pradesh 250601",
        "detailed_address": {
            "ward": null,
            "street": "X8PC+X9M",
            "city": "Basaud",
            "postal_code": "250601",
            "state": "Uttar Pradesh",
            "country_code": "IN"
        },
        "images": [],
        "link": "https://www.google.com/maps/place/%E0%A4%88%E0%A4%A6%E0%A4%97%E0%A4%BE%E0%A4%B9+%E0%A4%AC%E0%A4%B8%E0%A5%8B%E0%A4%A6+IDGHA+BASOUD/data=!4m7!3m6!1s0x390c5139b4d462b3:0x1b29ff285ad7203f!8m2!3d28.9874622!4d77.320919!16s%2Fg%2F11nms68tcn!19sChIJs2LUtDlRDDkRPyDXWij_KRs?authuser=0&hl=en&rclk=1",
        "coordinates": {
            "latitude": 28.9874622,
            "longitude": 77.320919
        }
    },
    {
        "name": "Basoda Masjid",
        "main_category": "Mosque",
        "address": "644F+4R Basoda Masjid, Andeli, Madhya Pradesh 464224",
        "detailed_address": {
            "ward": null,
            "street": "644F+4R",
            "city": "Andeli",
            "postal_code": null,
            "state": "Madhya Pradesh",
            "country_code": "IN"
        },
        "images": [],
        "link": "https://www.google.com/maps/place/Basoda+Masjid/data=!4m7!3m6!1s0x39796f18f81ec52f:0x50b15e025fab792b!8m2!3d24.2052982!4d78.1246654!16s%2Fg%2F11s1r__ttf!19sChIJL8Ue-BhveTkRK3mrXwJesVA?authuser=0&hl=en&rclk=1",
        "coordinates": {
            "latitude": 24.205298199999998,
            "longitude": 78.1246654
        }
    }
]