[
    {
        "name": "Mahishaadal Jama Masjid",
        "main_category": "Mosque",
        "address": "5XMH+7G8 Mahishaadal Jama Masjid, Ghagra, West Bengal 721628",
        "detailed_address": {
            "ward": null,
            "street": "5XMH+7G8",
            "city": "Ghagra",
            "postal_code": "721628",
            "state": "West Bengal",
            "country_code": "IN"
        },
        "images": [
            {
                "about": "All",
                "link": "https://lh5.googleusercontent.com/p/AF1QipOc3bMYTorXiryCpPcmpnB-YJ8J0FFoSHzDZsqM=w529-h298-k-no"
            }
        ],
        "link": "https://www.google.com/maps/place/Mahishaadal+Jama+Masjid/data=!4m7!3m6!1s0x3a02ed06961e9607:0x523ba867bfd2f204!8m2!3d22.1831605!4d87.9788172!16s%2Fg%2F11c5bjt2kh!19sChIJB5YelgbtAjoRBPLSv2eoO1I?authuser=0&hl=en&rclk=1",
        "coordinates": {
            "latitude": 22.1831605,
            "longitude": 87.9788172
        }
    },
    {
        "name": "Champi Madhyapalli jama masjid",
        "main_category": "Mosque",
        "address": "5X4R+5P5 Champi Madhyapalli jama masjid, Champi, Mahishadal, West Bengal",
        "detailed_address": {
            "ward": null,
            "street": "5X4R+5P5, Champi",
            "city": "Mahishadal, Kapurda",
            "postal_code": null,
            "state": "West Bengal",
            "country_code": "IN"
        },
        "images": [
            {
                "about": "All",
                "link": "https://lh5.googleusercontent.com/p/AF1QipPL_GzrpqDd1GmTWU0MAuaWdqnvGzqS9u6I670U=w224-h381-k-no"
            },
            {
                "about": "Dome",
                "link": "https://lh5.googleusercontent.com/p/AF1QipNVMhAK2jb9xQ-p2M8RUJtFEF_QiuAVKyJZIMPs=w238-h298-k-no"
            }
        ],
        "link": "https://www.google.com/maps/place/Champi+Madhyapalli+jama+masjid/data=!4m7!3m6!1s0x3a02eda3c3da7853:0xa76d5d791bfbfdb6!8m2!3d22.1553779!4d87.9918547!16s%2Fg%2F11r_q__j57!19sChIJU3jaw6PtAjoRtv37G3ldbac?authuser=0&hl=en&rclk=1",
        "coordinates": {
            "latitude": 22.155377899999998,
            "longitude": 87.99185469999999
        }
    },
    {
        "name": "Mahishadal waktia Masjid",
        "main_category": "Mosque",
        "address": "5XQM+8XG Mahishadal waktia Masjid, Cinema, More, Mahishadal, Garh Kamalpur, West Bengal 721628",
        "detailed_address": {
            "ward": null,
            "street": "5XQM+8XG Cinema, More",
            "city": "Mahishadal, Garh Kamalpur",
            "postal_code": "721628",
            "state": "West Bengal",
            "country_code": "IN"
        },
        "images": [],
        "link": "https://www.google.com/maps/place/Mahishadal+waktia+Masjid/data=!4m7!3m6!1s0x3a02edb132708a2f:0xe890ee901eec0ee6!8m2!3d22.1883211!4d87.9849508!16s%2Fg%2F11ghfspljp!19sChIJL4pwMrHtAjoR5g7sHpDukOg?authuser=0&hl=en&rclk=1",
        "coordinates": {
            "latitude": 22.1883211,
            "longitude": 87.9849508
        }
    },
    {
        "name": "Dakshin Madhyahingli Muslim Palli dkssinn mdhyhiNlii muslim pllii",
        "main_category": "Mosque",
        "address": "5X8J+CGP Dakshin Madhyahingli Muslim Palli dkssinn mdhyhiNlii muslim pllii, Raj-Bari Rd, Mahishadal, Basudebpur, West Bengal 721628",
        "detailed_address": {
            "ward": null,
            "street": "5X8J+CGP, Raj-Bari Rd",
            "city": "Mahishadal, Basudebpur",
            "postal_code": "721628",
            "state": "West Bengal",
            "country_code": "IN"
        },
        "images": [],
        "link": "https://www.google.com/maps/place/Dakshin+Madhyahingli+Muslim+Palli+%E0%A6%A6%E0%A6%95%E0%A7%8D%E0%A6%B7%E0%A6%BF%E0%A6%A3+%E0%A6%AE%E0%A6%A7%E0%A7%8D%E0%A6%AF%E0%A6%B9%E0%A6%BF%E0%A6%82%E0%A6%B2%E0%A7%80+%E0%A6%AE%E0%A7%81%E0%A6%B8%E0%A6%B2%E0%A6%BF%E0%A6%AE+%E0%A6%AA%E0%A6%B2%E0%A7%8D%E0%A6%B2%E0%A7%80/data=!4m7!3m6!1s0x3a02ed45cc58e40d:0x883fd7bf4373ec5c!8m2!3d22.1660989!4d87.9813226!16s%2Fg%2F11rhdxxjxl!19sChIJDeRYzEXtAjoRXOxzQ7_XP4g?authuser=0&hl=en&rclk=1",
        "coordinates": {
            "latitude": 22.166098899999998,
            "longitude": 87.9813226
        }
    },
    {
        "name": "Garkamalpur and jagannathpur jame masjid",
        "main_category": "Mosque",
        "address": "5XMV+262 Garkamalpur and jagannathpur jame masjid, Mahishadal, Garh Kamalpur, West Bengal 721628",
        "detailed_address": {
            "ward": null,
            "street": "5XMV+262",
            "city": "Mahishadal, Garh Kamalpur",
            "postal_code": "721628",
            "state": "West Bengal",
            "country_code": "IN"
        },
        "images": [],
        "link": "https://www.google.com/maps/place/Garkamalpur+and+jagannathpur+jame+masjid/data=!4m7!3m6!1s0x3a02edf2dd88fb8f:0x7fce78a09575b294!8m2!3d22.1825066!4d87.9930012!16s%2Fg%2F11sp7xdtct!19sChIJj_uI3fLtAjoRlLJ1laB4zn8?authuser=0&hl=en&rclk=1",
        "coordinates": {
            "latitude": 22.1825066,
            "longitude": 87.9930012
        }
    },
    {
        "name": "Masjid",
        "main_category": "Mosque",
        "address": "5XJQ+GWW Masjid, Mahishadal, Garh Kamalpur, West Bengal 721628",
        "detailed_address": {
            "ward": null,
            "street": "5XJQ+GWW",
            "city": "Mahishadal, Garh Kamalpur",
            "postal_code": "721628",
            "state": "West Bengal",
            "country_code": "IN"
        },
        "images": [],
        "link": "https://www.google.com/maps/place/Masjid/data=!4m7!3m6!1s0x3a02ed871fbb86c5:0xf151b7f69940aea2!8m2!3d22.1813597!4d87.9898205!16s%2Fg%2F11vbcvkjjp!19sChIJxYa7H4ftAjoRoq5Amfa3UfE?authuser=0&hl=en&rclk=1",
        "coordinates": {
            "latitude": 22.181359699999998,
            "longitude": 87.9898205
        }
    }
]