[
    {
        "name": "Mosque",
        "main_category": "Mosque",
        "address": "FHQ2+HXP Mosque, Main Market Rd, Badi Basti, Pushkar, Rajasthan 305022",
        "detailed_address": {
            "ward": "Badi Basti",
            "street": "FHQ2+HXP, Main Market Rd",
            "city": "Pushkar",
            "postal_code": "305022",
            "state": "Rajasthan",
            "country_code": "IN"
        },
        "images": [
            {
                "about": "All",
                "link": "https://lh5.googleusercontent.com/p/AF1QipNQMeDWWA_7Py3VPOjJp4cNagG5dwy5yKZgw8VV=w529-h298-k-no"
            },
            {
                "about": "Dome",
                "link": "https://lh5.googleusercontent.com/p/AF1QipPSoPYiG76YVhkKzKrkfieDO3J33YZ1ZufiWc4j=w448-h298-k-no"
            }
        ],
        "link": "https://www.google.com/maps/place/Mosque/data=!4m7!3m6!1s0x396bdd2221179c87:0xb7fea8242e23cb2d!8m2!3d26.488961!4d74.5524379!16s%2Fg%2F1tgnq1c1!19sChIJh5wXISLdazkRLcsjLiSo_rc?authuser=0&hl=en&rclk=1",
        "coordinates": {
            "latitude": 26.488961,
            "longitude": 74.5524379
        }
    },
    {
        "name": "Nurani Masjid",
        "main_category": "Mosque",
        "address": "Nurani Masjid, Bus Stand, near Marvad, Badi Basti, Pushkar, Rajasthan 305022",
        "detailed_address": {
            "ward": "Badi Basti",
            "street": "Bus Stand, near Marvad",
            "city": "Pushkar",
            "postal_code": "305022",
            "state": "Rajasthan",
            "country_code": "IN"
        },
        "images": [
            {
                "about": "All",
                "link": "//lh3.googleusercontent.com/VGE0maTbL1FtUp94QX3xWdBE8dNvM7j3juEUBRzc1sGiFb3GBclVz3gxhnjDhpzhhQ=w529-h298-k-no"
            },
            {
                "about": "By owner",
                "link": "https://lh5.googleusercontent.com/p/AF1QipP9oI-3ewYEDmu94qbGTI1VVvnKMYd_oZzfOlY4=w224-h398-k-no"
            },
            {
                "about": "Street View & 360deg",
                "link": "https://streetviewpixels-pa.googleapis.com/v1/thumbnail?panoid=uozBXtqGZkBz1c007eRH-w&cb_client=maps_sv.tactile.gps&w=224&h=298&yaw=328.52563&pitch=0&thumbfov=100"
            }
        ],
        "link": "https://www.google.com/maps/place/Nurani+Masjid/data=!4m7!3m6!1s0x396bdd23e31d4c17:0xb8ce02f4a6060228!8m2!3d26.4922143!4d74.5522551!16s%2Fg%2F11cs264kbj!19sChIJF0wd4yPdazkRKAIGpvQCzrg?authuser=0&hl=en&rclk=1",
        "coordinates": {
            "latitude": 26.4922143,
            "longitude": 74.5522551
        }
    },
    {
        "name": "Juma Masjid",
        "main_category": "Mosque",
        "address": "FHQ3+J22 Juma Masjid, Main Market Rd, Badi Basti, Pushkar, Rajasthan 305022",
        "detailed_address": {
            "ward": "Badi Basti",
            "street": "FHQ3+J22, Main Market Rd",
            "city": "Pushkar",
            "postal_code": "305022",
            "state": "Rajasthan",
            "country_code": "IN"
        },
        "images": [
            {
                "about": "All",
                "link": "https://lh5.googleusercontent.com/p/AF1QipMJjG5KN0cKvNHPAx24gytDdVMqhLXcB8MKKCw7=w224-h298-k-no"
            },
            {
                "about": "Dome",
                "link": "https://lh5.googleusercontent.com/p/AF1QipMVNjP7b36T1yPCSSXss5mu6H0cXFY0ChJ661HX=w397-h298-k-no"
            }
        ],
        "link": "https://www.google.com/maps/place/Juma+Masjid/data=!4m7!3m6!1s0x396bdd2221708f1d:0x35c4bdd34a753fd5!8m2!3d26.4890205!4d74.5525253!16s%2Fg%2F11f1zlc73k!19sChIJHY9wISLdazkR1T91StO9xDU?authuser=0&hl=en&rclk=1",
        "coordinates": {
            "latitude": 26.4890205,
            "longitude": 74.5525253
        }
    },
    {
        "name": "Shahi Jama Masjid",
        "main_category": "Mosque",
        "address": "FHQ2+C9P Shahi Jama Masjid, Badi Basti, Pushkar, Rajasthan 305022",
        "detailed_address": {
            "ward": "Badi Basti",
            "street": "FHQ2+C9P",
            "city": "Pushkar",
            "postal_code": null,
            "state": "Rajasthan",
            "country_code": "IN"
        },
        "images": [],
        "link": "https://www.google.com/maps/place/Shahi+Jama+Masjid/data=!4m7!3m6!1s0x396bddd2c49b4ae1:0xe2952dba1b0dc692!8m2!3d26.4885822!4d74.5509422!16s%2Fg%2F11vkhdjdlm!19sChIJ4UqbxNLdazkRksYNG7otleI?authuser=0&hl=en&rclk=1",
        "coordinates": {
            "latitude": 26.4885822,
            "longitude": 74.5509422
        }
    }
]