[
    {
        "name": "Masjid Abu Bakar",
        "main_category": "Mosque",
        "address": "Masjid Abu Bakar, Sector 80, Kakrala, Uttar Pradesh 201305",
        "detailed_address": {
            "ward": "Block A",
            "street": "Sector 80",
            "city": "Kakrala, Noida",
            "postal_code": "201305",
            "state": "Uttar Pradesh",
            "country_code": "IN"
        },
        "images": [
            {
                "about": "All",
                "link": "https://lh5.googleusercontent.com/p/AF1QipPG99RGm_weuN1ColNulCZ80BYMh8HTwPj6UPNU=w529-h298-k-no"
            }
        ],
        "link": "https://www.google.com/maps/place/Masjid+Abu+Bakar/data=!4m7!3m6!1s0x390cef32efb90e69:0xcc748ff40f2db75f!8m2!3d28.5519093!4d77.4107881!16s%2Fg%2F11dfj97d8c!19sChIJaQ657zLvDDkRX7ctD_SPdMw?authuser=0&hl=en&rclk=1",
        "coordinates": {
            "latitude": 28.5519093,
            "longitude": 77.41078809999999
        }
    },
    {
        "name": "Jama Masjid Kakrala",
        "main_category": "Mosque",
        "address": "Jama Masjid Kakrala, 96, Block A, Kakrala, Noida, Uttar Pradesh 201305",
        "detailed_address": {
            "ward": "Block A, Kakrala",
            "street": "96",
            "city": "Noida",
            "postal_code": "201305",
            "state": "Uttar Pradesh",
            "country_code": "IN"
        },
        "images": [],
        "link": "https://www.google.com/maps/place/Jama+Masjid+Kakrala/data=!4m7!3m6!1s0x390cef32dc7c885b:0x13d6868840ad4457!8m2!3d28.5509421!4d77.4104686!16s%2Fg%2F11g86j2vvs!19sChIJW4h83DLvDDkRV0StQIiG1hM?authuser=0&hl=en&rclk=1",
        "coordinates": {
            "latitude": 28.5509421,
            "longitude": 77.4104686
        }
    },
    {
        "name": "Masjid Ar Raheem-ud-deen, Kakrala. msjd lrHym ldyn. khkhrl",
        "main_category": "Mosque",
        "address": "HC38+J93 Masjid Ar Raheem-ud-deen, Kakrala. msjd lrHym ldyn. khkhrl, Unnamed Road, Kakrala, Noida, Uttar Pradesh 201305",
        "detailed_address": {
            "ward": "Kakrala",
            "street": "HC38+J93, Unnamed Road",
            "city": "Noida",
            "postal_code": "201305",
            "state": "Uttar Pradesh",
            "country_code": "IN"
        },
        "images": [
            {
                "about": "All",
                "link": "https://lh5.googleusercontent.com/p/AF1QipOvh2dxSNi5XnjvSEXT9i5YZXb_NPXVV_HjzA2g=w529-h298-k-no"
            },
            {
                "about": "Dome",
                "link": "https://lh5.googleusercontent.com/p/AF1QipNz5fc8JUtM9fZWLbIfDujwW9GHOZwucRvzIm_r=w529-h298-k-no"
            }
        ],
        "link": "https://www.google.com/maps/place/Masjid+Ar+Raheem-ud-deen,+Kakrala.+%D9%85%D8%B3%D8%AC%D8%AF+%D8%A7%D9%84%D8%B1%D8%AD%DB%8C%D9%85+%D8%A7%D9%84%D8%AF%DB%8C%D9%86%DB%94+%DA%A9%DA%A9%D8%B1%D8%A7%D9%84%D8%A7%E2%80%AD/data=!4m7!3m6!1s0x390cef34fd6befe5:0xcaf288f1d8f36907!8m2!3d28.5540126!4d77.4159215!16s%2Fg%2F11h07z34xj!19sChIJ5e9r_TTvDDkRB2nz2PGI8so?authuser=0&hl=en&rclk=1",
        "coordinates": {
            "latitude": 28.5540126,
            "longitude": 77.4159215
        }
    },
    {
        "name": "Hasan Raza Jama Masjid (Barelvi)",
        "main_category": "Mosque",
        "address": "GCX8+CM7 Hasan Raza Jama Masjid (Barelvi), Kakrala, Noida, Uttar Pradesh 201305",
        "detailed_address": {
            "ward": "Kakrala",
            "street": "GCX8+CM7",
            "city": "Noida",
            "postal_code": "201305",
            "state": "Uttar Pradesh",
            "country_code": "IN"
        },
        "images": [
            {
                "about": "All",
                "link": "https://lh5.googleusercontent.com/p/AF1QipPUjtrZVS_SKQLzvHZO6yt6NOL0cGF4p4fR9cDD=w224-h398-k-no"
            },
            {
                "about": "Street View & 360deg",
                "link": "https://streetviewpixels-pa.googleapis.com/v1/thumbnail?panoid=NlnJ-HHoNDpg2QGXgfZwWg&cb_client=maps_sv.tactile.gps&w=224&h=298&yaw=10.52449&pitch=0&thumbfov=100"
            }
        ],
        "link": "https://www.google.com/maps/place/Hasan+Raza+Jama+Masjid+%28Barelvi%29/data=!4m7!3m6!1s0x390ce9e2188bec3f:0x95acf4f948fed921!8m2!3d28.5485336!4d77.4166796!16s%2Fg%2F11h69wvzt7!19sChIJP-yLGOLpDDkRIdn-SPn0rJU?authuser=0&hl=en&rclk=1",
        "coordinates": {
            "latitude": 28.5485336,
            "longitude": 77.4166796
        }
    },
    {
        "name": "Masjid-Mohammadi Madrasa Islahul Muslimeen Pustapar Kakrala Sector 80 Noida",
        "main_category": "Mosque",
        "address": "HC28+Q3J Masjid-Mohammadi Madrasa Islahul Muslimeen Pustapar Kakrala Sector 80 Noida, Chotpur Rd, Block A, Sector 80, Noida, Uttar Pradesh 201305",
        "detailed_address": {
            "ward": "Block A, Sector 80",
            "street": "HC28+Q3J, Chotpur Rd",
            "city": "Noida",
            "postal_code": "201305",
            "state": "Uttar Pradesh",
            "country_code": "IN"
        },
        "images": [
            {
                "about": "All",
                "link": "https://lh5.googleusercontent.com/p/AF1QipP3_Ug53XK2KEMg6ZSQVKN1jezVNUNlUwYFR9tw=w224-h398-k-no"
            },
            {
                "about": "Street View & 360deg",
                "link": "https://streetviewpixels-pa.googleapis.com/v1/thumbnail?panoid=DENB7e1isK9YzHQVTg_UDA&cb_client=maps_sv.tactile.gps&w=224&h=298&yaw=174.59537&pitch=0&thumbfov=100"
            }
        ],
        "link": "https://www.google.com/maps/place/Masjid-Mohammadi+Madrasa+Islahul+Muslimeen+Pustapar+Kakrala+Sector+80+Noida/data=!4m7!3m6!1s0x390cef87a0169d2d:0x9b90f3558d168731!8m2!3d28.55197!4d77.415147!16s%2Fg%2F11fj3lrmw6!19sChIJLZ0WoIfvDDkRMYcWjVXzkJs?authuser=0&hl=en&rclk=1",
        "coordinates": {
            "latitude": 28.551969999999997,
            "longitude": 77.41514699999999
        }
    },
    {
        "name": "Hasan Raza Jama Masjid (Barelvi)",
        "main_category": "Mosque",
        "address": "Hasan Raza Jama Masjid (Barelvi), phase_2 kakrala khwaspur, Noida, sec. 80",
        "detailed_address": {
            "ward": "Jalpura",
            "street": "phase_2 kakrala khwaspur",
            "city": "Noida, Greater Noida",
            "postal_code": "sec. 80",
            "state": "Uttar Pradesh",
            "country_code": "IN"
        },
        "images": [],
        "link": "https://www.google.com/maps/place/Hasan+Raza+Jama+Masjid+%28Barelvi%29/data=!4m7!3m6!1s0x390ce94eb14b7b3f:0x84815a16733cf3cb!8m2!3d28.5467268!4d77.4251939!16s%2Fg%2F11h64z0k9l!19sChIJP3tLsU7pDDkRy_M8cxZagYQ?authuser=0&hl=en&rclk=1",
        "coordinates": {
            "latitude": 28.5467268,
            "longitude": 77.4251939
        }
    },
    {
        "name": "Sabbir Masjid",
        "main_category": "Mosque",
        "address": "HC3G+MCM Sabbir Masjid, Kakrala, Noida, Bisrakh Jalalpur, Uttar Pradesh 201305",
        "detailed_address": {
            "ward": "Kakrala",
            "street": "HC3G+MCM",
            "city": "Noida, Bisrakh Jalalpur",
            "postal_code": null,
            "state": "Uttar Pradesh",
            "country_code": "IN"
        },
        "images": [
            {
                "about": "All",
                "link": "https://lh5.googleusercontent.com/p/AF1QipMq7AdviB8SA9wk0dkYuGu3YsjTAw_vkbf5pkAK=w529-h298-k-no"
            },
            {
                "about": "Latest",
                "link": "https://lh5.googleusercontent.com/p/AF1QipOc7LAHR9YMYXkSaQ3FzW_QNPze8fTUM_9zrqNh=w529-h298-k-no"
            },
            {
                "about": "Videos",
                "link": "https://lh5.googleusercontent.com/p/AF1QipO3WR0S2pCquP3gYkllAvXC47_9CSAI8Ab3vGqa=w529-h298-k-no"
            }
        ],
        "link": "https://www.google.com/maps/place/Sabbir+Masjid/data=!4m7!3m6!1s0x390cef7f5535e645:0x5054644e52e7d96d!8m2!3d28.5542099!4d77.4260425!16s%2Fg%2F11l6rt1y2f!19sChIJReY1VX_vDDkRbdnnUk5kVFA?authuser=0&hl=en&rclk=1",
        "coordinates": {
            "latitude": 28.5542099,
            "longitude": 77.4260425
        }
    },
    {
        "name": "Jama Masjid Kakrala",
        "main_category": "Mosque",
        "address": "Jama Masjid Kakrala, Kakrala West, Kakrala, Uttar Pradesh 243637",
        "detailed_address": {
            "ward": "Kakrala West",
            "street": null,
            "city": "Kakrala",
            "postal_code": "243637",
            "state": "Uttar Pradesh",
            "country_code": "IN"
        },
        "images": [],
        "link": "https://www.google.com/maps/place/Jama+Masjid+Kakrala/data=!4m7!3m6!1s0x397542b6ee2eaaab:0x941b150060cb9fe3!8m2!3d27.8930396!4d79.1924361!16s%2Fg%2F11sscs4kkk!19sChIJq6ou7rZCdTkR45_LYAAVG5Q?authuser=0&hl=en&rclk=1",
        "coordinates": {
            "latitude": 27.893039599999998,
            "longitude": 79.1924361
        }
    }
]