[
    {
        "name": "Masjid Noori",
        "main_category": "Mosque",
        "address": "V6W5+3MQ Masjid Noori, Bangarmau, Uttar Pradesh 209868",
        "detailed_address": {
            "ward": null,
            "street": "V6W5+3MQ",
            "city": "Bangarmau",
            "postal_code": "209868",
            "state": "Uttar Pradesh",
            "country_code": "IN"
        },
        "images": [
            {
                "about": "All",
                "link": "https://lh5.googleusercontent.com/p/AF1QipMydsxtHbJFofOP-PwgEVU7qqSKsfO99H0Efs6s=w397-h298-k-no"
            },
            {
                "about": "Videos",
                "link": "https://lh5.googleusercontent.com/p/AF1QipO6ansayHfytBcq5qRUywhoY7UH47IIRplaCMwi=w224-h398-k-no"
            }
        ],
        "link": "https://www.google.com/maps/place/Masjid+Noori/data=!4m7!3m6!1s0x399e83c77a6091b1:0x7300936b8cb3b5b6!8m2!3d26.8952165!4d80.2092458!16s%2Fg%2F11b70gg6gw!19sChIJsZFgeseDnjkRtrWzjGuTAHM?authuser=0&hl=en&rclk=1",
        "coordinates": {
            "latitude": 26.8952165,
            "longitude": 80.20924579999999
        }
    },
    {
        "name": "Gulam Mustafa Masjid",
        "main_category": "Place of worship",
        "address": "V6V6+C8F Gulam Mustafa Masjid, gulam mustafa, Bangarmau",
        "detailed_address": {
            "ward": null,
            "street": "V6V6+C8F, gulam mustafa",
            "city": "Bangarmau",
            "postal_code": null,
            "state": "Uttar Pradesh",
            "country_code": "IN"
        },
        "images": [
            {
                "about": "All",
                "link": "https://lh5.googleusercontent.com/p/AF1QipPK3OgUfmjhc6PVwg1e_wqLfD0XkCPVmXy7S7ta=w224-h298-k-no"
            }
        ],
        "link": "https://www.google.com/maps/place/Gulam+Mustafa+Masjid/data=!4m7!3m6!1s0x399e83b86c336b17:0x6e9aeb7bc5370c83!8m2!3d26.8935723!4d80.210787!16s%2Fg%2F11bttcps4k!19sChIJF2szbLiDnjkRgww3xXvrmm4?authuser=0&hl=en&rclk=1",
        "coordinates": {
            "latitude": 26.8935723,
            "longitude": 80.210787
        }
    },
    {
        "name": "Makka Masjid Bangarmau",
        "main_category": "Mosque",
        "address": "V6Q5+V24 Makka Masjid Bangarmau, Bhikhari Pur Kasba, Uttar Pradesh 209868",
        "detailed_address": {
            "ward": null,
            "street": "V6Q5+V24",
            "city": "Bhikhari Pur Kasba",
            "postal_code": "209868",
            "state": "Uttar Pradesh",
            "country_code": "IN"
        },
        "images": [
            {
                "about": "All",
                "link": "https://lh5.googleusercontent.com/p/AF1QipNcOl28beqAuwvM1O4igpwXJsCHlsMuAwwVKz9g=w529-h298-k-no"
            },
            {
                "about": "Street View & 360deg",
                "link": "https://streetviewpixels-pa.googleapis.com/v1/thumbnail?panoid=Lnv2hmmv6oe5LZZ4-5-ZoA&cb_client=maps_sv.tactile.gps&w=224&h=298&yaw=345.1414&pitch=0&thumbfov=100"
            }
        ],
        "link": "https://www.google.com/maps/place/Makka+Masjid+Bangarmau/data=!4m7!3m6!1s0x399e83c85ab2392d:0x2bd73569808287df!8m2!3d26.8896407!4d80.2075633!16s%2Fg%2F11c6cfn5n8!19sChIJLTmyWsiDnjkR34eCgGk11ys?authuser=0&hl=en&rclk=1",
        "coordinates": {
            "latitude": 26.889640699999998,
            "longitude": 80.20756329999999
        }
    },
    {
        "name": "SheeshMahal Masjid Bangarmau",
        "main_category": "Mosque",
        "address": "V6Q4+VFP SheeshMahal Masjid Bangarmau, Bhikhari Pur Kasba, Uttar Pradesh 209868",
        "detailed_address": {
            "ward": null,
            "street": "V6Q4+VFP",
            "city": "Bhikhari Pur Kasba",
            "postal_code": "209868",
            "state": "Uttar Pradesh",
            "country_code": "IN"
        },
        "images": [
            {
                "about": "All",
                "link": "https://lh5.googleusercontent.com/p/AF1QipMpbDProJBpjlRO7EmHWZuJ44lZz7eG8ImpMW2O=w529-h298-k-no"
            },
            {
                "about": "Dome",
                "link": "https://lh5.googleusercontent.com/p/AF1QipM0IiuWmn07MK4ZXT9VF4ogwvUgXgDkEDs_4b2y=w224-h398-k-no"
            },
            {
                "about": "Street View & 360deg",
                "link": "https://streetviewpixels-pa.googleapis.com/v1/thumbnail?panoid=Ni5frT28bpzuXtf1NEh0Jg&cb_client=maps_sv.tactile.gps&w=224&h=298&yaw=326.7419&pitch=0&thumbfov=100"
            }
        ],
        "link": "https://www.google.com/maps/place/SheeshMahal+Masjid+Bangarmau/data=!4m7!3m6!1s0x399e83c8ee70ef7b:0xdd9d6cf27d77a00!8m2!3d26.8897014!4d80.2062128!16s%2Fg%2F11g8794gdt!19sChIJe-9w7siDnjkRAHrXJ8_W2Q0?authuser=0&hl=en&rclk=1",
        "coordinates": {
            "latitude": 26.8897014,
            "longitude": 80.2062128
        }
    },
    {
        "name": "Jama Masjid",
        "main_category": "Mosque",
        "address": "V6Q7+XCX Jama Masjid, Naunihal Ganj, Bhatpuri, Mau, Uttar Pradesh 209868",
        "detailed_address": {
            "ward": "Naunihal Ganj, Bhatpuri",
            "street": "V6Q7+XCX",
            "city": "Mau",
            "postal_code": "209868",
            "state": "Uttar Pradesh",
            "country_code": "IN"
        },
        "images": [
            {
                "about": "All",
                "link": "https://streetviewpixels-pa.googleapis.com/v1/thumbnail?panoid=IKCqjdHRyQamNPxq1YVdRg&cb_client=maps_sv.tactile.gps&w=224&h=298&yaw=279.76764&pitch=0&thumbfov=100"
            },
            {
                "about": "Street View & 360deg",
                "link": "https://streetviewpixels-pa.googleapis.com/v1/thumbnail?panoid=IKCqjdHRyQamNPxq1YVdRg&cb_client=maps_sv.tactile.gps&w=224&h=298&yaw=279.76764&pitch=0&thumbfov=100"
            }
        ],
        "link": "https://www.google.com/maps/place/Jama+Masjid/data=!4m7!3m6!1s0x399e83b710c7dc01:0x79b814b3602fa732!8m2!3d26.8899807!4d80.2136117!16s%2Fg%2F1q67dg2vy!19sChIJAdzHELeDnjkRMqcvYLMUuHk?authuser=0&hl=en&rclk=1",
        "coordinates": {
            "latitude": 26.8899807,
            "longitude": 80.2136117
        }
    },
    {
        "name": "Shaikh Auliya Masjid",
        "main_category": "Mosque",
        "address": "W627+33F Shaikh Auliya Masjid, Bagermao Rural, Uttar Pradesh 209868",
        "detailed_address": {
            "ward": null,
            "street": "W627+33F",
            "city": "Bagermao Rural",
            "postal_code": "209868",
            "state": "Uttar Pradesh",
            "country_code": "IN"
        },
        "images": [
            {
                "about": "All",
                "link": "https://streetviewpixels-pa.googleapis.com/v1/thumbnail?panoid=59yfJyHYfH4hpIRoxrYsQQ&cb_client=maps_sv.tactile.gps&w=224&h=298&yaw=62.242817&pitch=0&thumbfov=100"
            },
            {
                "about": "Street View & 360deg",
                "link": "https://streetviewpixels-pa.googleapis.com/v1/thumbnail?panoid=59yfJyHYfH4hpIRoxrYsQQ&cb_client=maps_sv.tactile.gps&w=224&h=298&yaw=62.242817&pitch=0&thumbfov=100"
            }
        ],
        "link": "https://www.google.com/maps/place/Shaikh+Auliya+Masjid/data=!4m7!3m6!1s0x399e83befd763145:0x1a86aa07f0817735!8m2!3d26.9001962!4d80.2126669!16s%2Fg%2F11f3v08c4n!19sChIJRTF2_b6DnjkRNXeB8Aeqhho?authuser=0&hl=en&rclk=1",
        "coordinates": {
            "latitude": 26.9001962,
            "longitude": 80.2126669
        }
    },
    {
        "name": "Mohammadi Masjid",
        "main_category": "Mosque",
        "address": "V6W5+GV5 Mohammadi Masjid, Bangarmau, Uttar Pradesh 209868",
        "detailed_address": {
            "ward": null,
            "street": "V6W5+GV5",
            "city": "Bangarmau",
            "postal_code": "209868",
            "state": "Uttar Pradesh",
            "country_code": "IN"
        },
        "images": [
            {
                "about": "All",
                "link": "https://lh5.googleusercontent.com/p/AF1QipPeA-dIwsTaSeay3whUjyTMV5h-JVsIojloQD3K=w224-h298-k-no"
            }
        ],
        "link": "https://www.google.com/maps/place/Mohammadi+Masjid/data=!4m7!3m6!1s0x399e83c75feda321:0xd2d15046314c7b5e!8m2!3d26.8962514!4d80.2097252!16s%2Fg%2F11c3s95vxg!19sChIJIaPtX8eDnjkRXntMMUZQ0dI?authuser=0&hl=en&rclk=1",
        "coordinates": {
            "latitude": 26.896251399999997,
            "longitude": 80.2097252
        }
    },
    {
        "name": "New Masjid",
        "main_category": "Mosque",
        "address": "V6Q8+5M5 New Masjid, Unnamed Road, Bangarmau, Mau, Uttar Pradesh 209868",
        "detailed_address": {
            "ward": null,
            "street": "V6Q8+5M5, Unnamed Road",
            "city": "Bangarmau, Mau",
            "postal_code": "209868",
            "state": "Uttar Pradesh",
            "country_code": "IN"
        },
        "images": [],
        "link": "https://www.google.com/maps/place/New+Masjid/data=!4m7!3m6!1s0x399e83b16abbabcf:0x1ae7c766591505b3!8m2!3d26.8878859!4d80.2167424!16s%2Fg%2F11gfg_cxq3!19sChIJz6u7arGDnjkRswUVWWbH5xo?authuser=0&hl=en&rclk=1",
        "coordinates": {
            "latitude": 26.887885899999997,
            "longitude": 80.2167424
        }
    },
    {
        "name": "Resham Masjid",
        "main_category": "Mosque",
        "address": "V6V5+CX3 Resham Masjid, Bangarmau, Uttar Pradesh 209868",
        "detailed_address": {
            "ward": null,
            "street": "V6V5+CX3",
            "city": "Bangarmau",
            "postal_code": "209868",
            "state": "Uttar Pradesh",
            "country_code": "IN"
        },
        "images": [],
        "link": "https://www.google.com/maps/place/Resham+Masjid/data=!4m7!3m6!1s0x399e83b875bd8ddb:0xb2f23d7fef4f89e2!8m2!3d26.8935119!4d80.2099113!16s%2Fg%2F11bxc5z5mr!19sChIJ2429dbiDnjkR4olP73898rI?authuser=0&hl=en&rclk=1",
        "coordinates": {
            "latitude": 26.8935119,
            "longitude": 80.2099113
        }
    },
    {
        "name": "Noori Masjid (Hatiya)",
        "main_category": "Mosque",
        "address": "V6V6+F87 Noori Masjid (Hatiya), gulam mustafa, Bangarmau, Uttar Pradesh 209868",
        "detailed_address": {
            "ward": null,
            "street": "V6V6+F87, gulam mustafa",
            "city": "Bangarmau",
            "postal_code": "209868",
            "state": "Uttar Pradesh",
            "country_code": "IN"
        },
        "images": [
            {
                "about": "All",
                "link": "https://lh5.googleusercontent.com/p/AF1QipOGm-ZY720xZKekK2iTZ-Dnqu5NxDl0YEYsmYRu=w397-h298-k-no"
            },
            {
                "about": "Videos",
                "link": "https://lh5.googleusercontent.com/p/AF1QipO5Mj_l2ZEp0ImtjVw5Ej6qpk0ALFFQ7jPJLnkr=w529-h298-k-no"
            }
        ],
        "link": "https://www.google.com/maps/place/Noori+Masjid+%28Hatiya%29/data=!4m7!3m6!1s0x399e83b86c191185:0xbc0705aac5f9812c!8m2!3d26.8936635!4d80.2107954!16s%2Fg%2F11f542nz7z!19sChIJhREZbLiDnjkRLIH5xaoFB7w?authuser=0&hl=en&rclk=1",
        "coordinates": {
            "latitude": 26.8936635,
            "longitude": 80.2107954
        }
    },
    {
        "name": "Shahi Masjid",
        "main_category": "Mosque",
        "address": "V6P7+W7F Shahi Masjid, Allampur Retwa, Uttar Pradesh 209868",
        "detailed_address": {
            "ward": null,
            "street": "V6P7+W7F",
            "city": "Allampur Retwa",
            "postal_code": "209868",
            "state": "Uttar Pradesh",
            "country_code": "IN"
        },
        "images": [
            {
                "about": "All",
                "link": "https://lh5.googleusercontent.com/p/AF1QipPCA_sFpZ7HTLaMZXmYKMiFhzDr88_NtOxFkfgV=w397-h298-k-no"
            },
            {
                "about": "Dome",
                "link": "https://lh5.googleusercontent.com/p/AF1QipORYUj34zCaxUAQrokmjH76StvqltkB1BoCvsJR=w397-h298-k-no"
            },
            {
                "about": "Street View & 360deg",
                "link": "https://streetviewpixels-pa.googleapis.com/v1/thumbnail?panoid=PW-g2z9GP0-Tcwz3e8pB6w&cb_client=maps_sv.tactile.gps&w=224&h=298&yaw=172.6371&pitch=0&thumbfov=100"
            }
        ],
        "link": "https://www.google.com/maps/place/Shahi+Masjid/data=!4m7!3m6!1s0x399e83b68dd7abd5:0xd0599a1703e8ebca!8m2!3d26.8873119!4d80.2131678!16s%2Fg%2F11f3v31c6v!19sChIJ1avXjbaDnjkRyuvoAxeaWdA?authuser=0&hl=en&rclk=1",
        "coordinates": {
            "latitude": 26.8873119,
            "longitude": 80.2131678
        }
    },
    {
        "name": "Arfi Masjid Ahle Sunnat Wal Jamat",
        "main_category": "Mosque",
        "address": "V6R8+545 Arfi Masjid Ahle Sunnat Wal Jamat, Mau, Uttar Pradesh 209868",
        "detailed_address": {
            "ward": null,
            "street": "V6R8+545",
            "city": "Mau",
            "postal_code": "209868",
            "state": "Uttar Pradesh",
            "country_code": "IN"
        },
        "images": [
            {
                "about": "All",
                "link": "https://lh5.googleusercontent.com/p/AF1QipOIAbd_3YsQ_huW9iRvfk6e15WLfqm3roP17KXv=w224-h398-k-no"
            }
        ],
        "link": "https://www.google.com/maps/place/Arfi+Masjid+Ahle+Sunnat+Wal+Jamat/data=!4m7!3m6!1s0x399e832f8de066e7:0x89a9085ce997c1ab!8m2!3d26.890395!4d80.2153636!16s%2Fg%2F11ls576pz2!19sChIJ52bgjS-DnjkRq8GX6VwIqYk?authuser=0&hl=en&rclk=1",
        "coordinates": {
            "latitude": 26.890394999999998,
            "longitude": 80.2153636
        }
    },
    {
        "name": "Masjid-e-Yasiniya",
        "main_category": "Mosque",
        "address": "V6R5+96X Masjid-e-Yasiniya, Bangarmau, Uttar Pradesh 209868",
        "detailed_address": {
            "ward": null,
            "street": "V6R5+96X",
            "city": "Bangarmau",
            "postal_code": "209868",
            "state": "Uttar Pradesh",
            "country_code": "IN"
        },
        "images": [
            {
                "about": "All",
                "link": "https://lh5.googleusercontent.com/p/AF1QipPq1Oe89ycHns4y_vsSPTd6nxPoGd1YToREOFXR=w224-h398-k-no"
            },
            {
                "about": "Videos",
                "link": "https://lh5.googleusercontent.com/p/AF1QipObX1_axR0Sa-GoPNLhSxWAu8YzXjR3aOQ_92xh=w224-h298-k-no"
            }
        ],
        "link": "https://www.google.com/maps/place/Masjid-e-Yasiniya/data=!4m7!3m6!1s0x399e83d4a5cb7309:0x5b049a741458eca3!8m2!3d26.8909989!4d80.2081149!16s%2Fg%2F11ll4458d1!19sChIJCXPLpdSDnjkRo-xYFHSaBFs?authuser=0&hl=en&rclk=1",
        "coordinates": {
            "latitude": 26.8909989,
            "longitude": 80.2081149
        }
    },
    {
        "name": "Hussaini Masjid Gualm Mustafa",
        "main_category": "Mosque",
        "address": "V6V7+R2P Hussaini Masjid Gualm Mustafa, Bagermao Rural, Uttar Pradesh 209868",
        "detailed_address": {
            "ward": null,
            "street": "V6V7+R2P",
            "city": "Bagermao Rural",
            "postal_code": "209868",
            "state": "Uttar Pradesh",
            "country_code": "IN"
        },
        "images": [],
        "link": "https://www.google.com/maps/place/Hussaini+Masjid+Gualm+Mustafa/data=!4m7!3m6!1s0x399e836f03c45113:0x740f6606c52ebebe!8m2!3d26.8945987!4d80.2125864!16s%2Fg%2F11fb0vvyhn!19sChIJE1HEA2-DnjkRvr4uxQZmD3Q?authuser=0&hl=en&rclk=1",
        "coordinates": {
            "latitude": 26.8945987,
            "longitude": 80.21258639999999
        }
    },
    {
        "name": "bddii msjid",
        "main_category": "Mosque",
        "address": "V6R7+M36 bddii msjid, Naunihal Ganj, jogiikott, Bangarmau, Uttar Pradesh 209868",
        "detailed_address": {
            "ward": "Naunihal Ganj, jogiikott",
            "street": "V6R7+M36",
            "city": "Bangarmau",
            "postal_code": null,
            "state": "Uttar Pradesh",
            "country_code": "IN"
        },
        "images": [
            {
                "about": "All",
                "link": "https://lh5.googleusercontent.com/p/AF1QipMU-AfO8DnumJ1O-YK5DGpxEvxwi-HRM_tIR2cB=w298-h298-k-no"
            }
        ],
        "link": "https://www.google.com/maps/place/%E0%A4%AC%E0%A4%A1%E0%A5%80+%E0%A4%AE%E0%A4%B8%E0%A5%8D%E0%A4%9C%E0%A4%BF%E0%A4%A6/data=!4m7!3m6!1s0x399e8362bf8eec5b:0x75f442cc1764fce7!8m2!3d26.8916643!4d80.212655!16s%2Fg%2F11gm70n0p7!19sChIJW-yOv2KDnjkR5_xkF8xC9HU?authuser=0&hl=en&rclk=1",
        "coordinates": {
            "latitude": 26.8916643,
            "longitude": 80.212655
        }
    },
    {
        "name": "Masjid Muqariyana, Bangarmau",
        "main_category": "Mosque",
        "address": "V6R6+PXJ Masjid Muqariyana, Bangarmau, Naunihal Ganj, Bhatpuri, Bangarmau, Uttar Pradesh 209868",
        "detailed_address": {
            "ward": "Naunihal Ganj, Bhatpuri",
            "street": "V6R6+PXJ",
            "city": "Bangarmau",
            "postal_code": "209868",
            "state": "Uttar Pradesh",
            "country_code": "IN"
        },
        "images": [
            {
                "about": "All",
                "link": "https://streetviewpixels-pa.googleapis.com/v1/thumbnail?panoid=CR-BIVUBD1_aNkE_FpPI0A&cb_client=maps_sv.tactile.gps&w=224&h=298&yaw=235.10426&pitch=0&thumbfov=100"
            },
            {
                "about": "Street View & 360deg",
                "link": "https://streetviewpixels-pa.googleapis.com/v1/thumbnail?panoid=CR-BIVUBD1_aNkE_FpPI0A&cb_client=maps_sv.tactile.gps&w=224&h=298&yaw=235.10426&pitch=0&thumbfov=100"
            }
        ],
        "link": "https://www.google.com/maps/place/Masjid+Muqariyana,+Bangarmau/data=!4m7!3m6!1s0x399e83b76919ba7b:0x7526e958660a2df7!8m2!3d26.8918478!4d80.2123831!16s%2Fg%2F11mtlng7mg!19sChIJe7oZabeDnjkR9y0KZljpJnU?authuser=0&hl=en&rclk=1",
        "coordinates": {
            "latitude": 26.891847799999997,
            "longitude": 80.2123831
        }
    },
    {
        "name": "Sunni masjid bangarmau",
        "main_category": "Mosque",
        "address": "V6R7+2J3 Sunni masjid bangarmau, Bangarmau, Mau, Uttar Pradesh 209868",
        "detailed_address": {
            "ward": null,
            "street": "V6R7+2J3",
            "city": "Bangarmau, Mau",
            "postal_code": null,
            "state": "Uttar Pradesh",
            "country_code": "IN"
        },
        "images": [
            {
                "about": "All",
                "link": "https://streetviewpixels-pa.googleapis.com/v1/thumbnail?panoid=LPNyeMg4VmQUFvwLNqvoaQ&cb_client=maps_sv.tactile.gps&w=224&h=298&yaw=358.82144&pitch=0&thumbfov=100"
            },
            {
                "about": "Street View & 360deg",
                "link": "https://streetviewpixels-pa.googleapis.com/v1/thumbnail?panoid=LPNyeMg4VmQUFvwLNqvoaQ&cb_client=maps_sv.tactile.gps&w=224&h=298&yaw=358.82144&pitch=0&thumbfov=100"
            }
        ],
        "link": "https://www.google.com/maps/place/Sunni+masjid+bangarmau/data=!4m7!3m6!1s0x399e833a850eb1e9:0x745b9db4e2d244c!8m2!3d26.8900187!4d80.2140503!16s%2Fg%2F11kb1_2zqt!19sChIJ6bEOhTqDnjkRTCQtTtu5RQc?authuser=0&hl=en&rclk=1",
        "coordinates": {
            "latitude": 26.8900187,
            "longitude": 80.2140503
        }
    },
    {
        "name": "Nayi Masjid",
        "main_category": "Mosque",
        "address": "V6V5+MGJ Nayi Masjid, Bangarmau, Uttar Pradesh 209868",
        "detailed_address": {
            "ward": null,
            "street": "V6V5+MGJ",
            "city": "Bangarmau",
            "postal_code": "209868",
            "state": "Uttar Pradesh",
            "country_code": "IN"
        },
        "images": [],
        "link": "https://www.google.com/maps/place/Nayi+Masjid/data=!4m7!3m6!1s0x399e835cb81f8e6f:0xf1aca6d8bd5eb34!8m2!3d26.8937579!4d80.2088253!16s%2Fg%2F11smgll2zz!19sChIJb44fuFyDnjkRNOvVi23KGg8?authuser=0&hl=en&rclk=1",
        "coordinates": {
            "latitude": 26.893757899999997,
            "longitude": 80.2088253
        }
    },
    {
        "name": "Abu Baqr Masjid",
        "main_category": "Mosque",
        "address": "Abu Baqr Masjid, 4, SH 38, Naunihal Ganj, Bhatpuri, Bangarmau, Uttar Pradesh 209868",
        "detailed_address": {
            "ward": "Naunihal Ganj, Bhatpuri",
            "street": "4, SH 38",
            "city": "Bangarmau",
            "postal_code": "209868",
            "state": "Uttar Pradesh",
            "country_code": "IN"
        },
        "images": [
            {
                "about": "All",
                "link": "https://streetviewpixels-pa.googleapis.com/v1/thumbnail?panoid=CR-BIVUBD1_aNkE_FpPI0A&cb_client=maps_sv.tactile.gps&w=224&h=298&yaw=276.94376&pitch=0&thumbfov=100"
            },
            {
                "about": "Street View & 360deg",
                "link": "https://streetviewpixels-pa.googleapis.com/v1/thumbnail?panoid=CR-BIVUBD1_aNkE_FpPI0A&cb_client=maps_sv.tactile.gps&w=224&h=298&yaw=276.94376&pitch=0&thumbfov=100"
            }
        ],
        "link": "https://www.google.com/maps/place/Abu+Baqr+Masjid/data=!4m7!3m6!1s0x399e83b82a74330b:0x33cc8d68c2da9d10!8m2!3d26.8920748!4d80.2124423!16s%2Fg%2F11c1xcf6p4!19sChIJCzN0KriDnjkREJ3awmiNzDM?authuser=0&hl=en&rclk=1",
        "coordinates": {
            "latitude": 26.8920748,
            "longitude": 80.21244229999999
        }
    },
    {
        "name": "AHLE SUNNAT MASJID",
        "main_category": "Mosque",
        "address": "V6R7+2J8 AHLE SUNNAT MASJID, MOHALLA GADHI NEAR ALVI COMPLEX, DIST, Bangarmau, Uttar Pradesh 241501",
        "detailed_address": {
            "ward": null,
            "street": "V6R7+2J8, MOHALLA GADHI NEAR ALVI COMPLEX, DIST",
            "city": "Bangarmau, Mau",
            "postal_code": "241501",
            "state": "Uttar Pradesh",
            "country_code": "IN"
        },
        "images": [
            {
                "about": "All",
                "link": "https://streetviewpixels-pa.googleapis.com/v1/thumbnail?panoid=Rkjw1ro8aI4eQPHlv_vmzA&cb_client=maps_sv.tactile.gps&w=224&h=298&yaw=328.6435&pitch=0&thumbfov=100"
            },
            {
                "about": "Street View & 360deg",
                "link": "https://streetviewpixels-pa.googleapis.com/v1/thumbnail?panoid=Rkjw1ro8aI4eQPHlv_vmzA&cb_client=maps_sv.tactile.gps&w=224&h=298&yaw=328.6435&pitch=0&thumbfov=100"
            }
        ],
        "link": "https://www.google.com/maps/place/AHLE+SUNNAT+MASJID/data=!4m7!3m6!1s0x399e83eb54b5131d:0x56ef0b453737dc3!8m2!3d26.8900288!4d80.2140783!16s%2Fg%2F11j3r_5gcw!19sChIJHRO1VOuDnjkRw31zU7TwbgU?authuser=0&hl=en&rclk=1",
        "coordinates": {
            "latitude": 26.8900288,
            "longitude": 80.2140783
        }
    }
]