[
    {
        "name": "Masjid e Khadim",
        "main_category": "Mosque",
        "address": "974W+GHR Masjid e Khadim, Asifabad, Telangana 504293",
        "detailed_address": {
            "ward": null,
            "street": "974W+GHR",
            "city": "Asifabad",
            "postal_code": "504293",
            "state": "Telangana",
            "country_code": "IN"
        },
        "images": [
            {
                "about": "All",
                "link": "https://lh5.googleusercontent.com/p/AF1QipOz8pLzPUsDjuxJMOyuTkDLyfkDNCMUHQyYuuN8=w662-h298-k-no"
            },
            {
                "about": "Street View & 360deg",
                "link": "https://streetviewpixels-pa.googleapis.com/v1/thumbnail?panoid=GzKqGsN0rm0JU9690LJqcA&cb_client=maps_sv.tactile.gps&w=224&h=298&yaw=15.154508&pitch=0&thumbfov=100"
            }
        ],
        "link": "https://www.google.com/maps/place/Masjid+e+Khadim/data=!4m7!3m6!1s0x3bd2ac0487a9f291:0x6fbe7074c3de740b!8m2!3d19.3563518!4d79.2964018!16s%2Fg%2F11cjj61r0q!19sChIJkfKphwSs0jsRC3Tew3Rwvm8?authuser=0&hl=en&rclk=1",
        "coordinates": {
            "latitude": 19.3563518,
            "longitude": 79.2964018
        }
    },
    {
        "name": "Masjid-e-Huda",
        "main_category": "Mosque",
        "address": "Masjid-e-Huda, opp. Bus Stand, Asifabad, Telangana 504293",
        "detailed_address": {
            "ward": null,
            "street": "opp. Bus Stand",
            "city": "Asifabad",
            "postal_code": null,
            "state": "Telangana",
            "country_code": "IN"
        },
        "images": [
            {
                "about": "All",
                "link": "https://lh5.googleusercontent.com/p/AF1QipPllkFQmvTsweg0bOfEhXJVlagxq4BtEDMAy5g=w529-h298-k-no"
            },
            {
                "about": "Street View & 360deg",
                "link": "https://streetviewpixels-pa.googleapis.com/v1/thumbnail?panoid=_CuvXGe43A7IgQ6SDWKBSQ&cb_client=maps_sv.tactile.gps&w=224&h=298&yaw=61.811718&pitch=0&thumbfov=100"
            },
            {
                "about": "Videos",
                "link": "https://lh5.googleusercontent.com/p/AF1QipPjHfE9BFFBuM8ROuaCTwh_TXDYEIgls4moI7Kg=w529-h298-k-no"
            }
        ],
        "link": "https://www.google.com/maps/place/Masjid-e-Huda/data=!4m7!3m6!1s0x3bd2ac1c5f823685:0x442868b52a3ced5e!8m2!3d19.3620003!4d79.2942735!16s%2Fg%2F11bw7cz2mz!19sChIJhTaCXxys0jsRXu08KrVoKEQ?authuser=0&hl=en&rclk=1",
        "coordinates": {
            "latitude": 19.3620003,
            "longitude": 79.2942735
        }
    },
    {
        "name": "Jama Masjid",
        "main_category": "Mosque",
        "address": "Jama Masjid, Bazarwadi,, Asifabad, Telangana 504293",
        "detailed_address": {
            "ward": null,
            "street": "Bazarwadi,",
            "city": "Asifabad",
            "postal_code": "504293",
            "state": "Telangana",
            "country_code": "IN"
        },
        "images": [
            {
                "about": "All",
                "link": "https://lh5.googleusercontent.com/p/AF1QipOefKvSoyJ4NzVqfVBBp4go34_ZpWVTq31GjkFX=w397-h298-k-no"
            },
            {
                "about": "Street View & 360deg",
                "link": "https://streetviewpixels-pa.googleapis.com/v1/thumbnail?panoid=daBZEmKcPEmN5g5rH_iRDw&cb_client=maps_sv.tactile.gps&w=224&h=298&yaw=86.436714&pitch=0&thumbfov=100"
            },
            {
                "about": "Videos",
                "link": "https://lh5.googleusercontent.com/p/AF1QipOLBERgIh1TSKb-CExEFRCtbwt9ExKy-pDVR7is=w541-h298-k-no"
            }
        ],
        "link": "https://www.google.com/maps/place/Jama+Masjid/data=!4m7!3m6!1s0x3bd2aea773cd3d43:0xc60c04b9f21fcf83!8m2!3d19.3622125!4d79.289124!16s%2Fg%2F11bw77yf0r!19sChIJQz3Nc6eu0jsRg88f8rkEDMY?authuser=0&hl=en&rclk=1",
        "coordinates": {
            "latitude": 19.3622125,
            "longitude": 79.289124
        }
    },
    {
        "name": "Jama Masjid",
        "main_category": "Mosque",
        "address": "9WF4+RQQ Jama Masjid, Jainoor, Telangana 504313",
        "detailed_address": {
            "ward": null,
            "street": "9WF4+RQQ",
            "city": "Jainoor",
            "postal_code": "504313",
            "state": "Telangana",
            "country_code": "IN"
        },
        "images": [],
        "link": "https://www.google.com/maps/place/Jama+Masjid/data=!4m7!3m6!1s0x3bd29a35900ac135:0x7391ef599ce08a2c!8m2!3d19.3745916!4d78.9069837!16s%2Fg%2F11f34m3m7b!19sChIJNcEKkDWa0jsRLIrgnFnvkXM?authuser=0&hl=en&rclk=1",
        "coordinates": {
            "latitude": 19.3745916,
            "longitude": 78.9069837
        }
    },
    {
        "name": "Masjid e Sahaba & Madarsa Tahfiz ul Quraan",
        "main_category": "Mosque",
        "address": "Masjid e Sahaba & Madarsa Tahfiz ul Quraan, NAWAZISH NAGAR, Asifabad, Telangana 504293",
        "detailed_address": {
            "ward": null,
            "street": "NAWAZISH NAGAR",
            "city": "Asifabad",
            "postal_code": "504293",
            "state": "Telangana",
            "country_code": "IN"
        },
        "images": [
            {
                "about": "All",
                "link": "https://lh5.googleusercontent.com/p/AF1QipOjDbBcr1dKgvKbSCXPIio4hAtHQjXbX8gzmgA=w529-h298-k-no"
            },
            {
                "about": "Street View & 360deg",
                "link": "https://streetviewpixels-pa.googleapis.com/v1/thumbnail?panoid=e-OkZCuMPdQadTA1_kK14g&cb_client=maps_sv.tactile.gps&w=224&h=298&yaw=357.64154&pitch=0&thumbfov=100"
            },
            {
                "about": "Videos",
                "link": "https://lh5.googleusercontent.com/p/AF1QipPZdAbgyz8r6tDGUrsxm2OSegQSuhSyyQgmBiEl=w224-h407-k-no"
            }
        ],
        "link": "https://www.google.com/maps/place/Masjid+e+Sahaba+%26+Madarsa+Tahfiz+ul+Quraan/data=!4m7!3m6!1s0x3bd2aea7c6631baf:0x62b87d4b00422aba!8m2!3d19.3598125!4d79.2883125!16s%2Fg%2F113dzbrlr!19sChIJrxtjxqeu0jsRuipCAEt9uGI?authuser=0&hl=en&rclk=1",
        "coordinates": {
            "latitude": 19.3598125,
            "longitude": 79.28831249999999
        }
    },
    {
        "name": "JAMA MASJID SULTANGUDA",
        "main_category": "Mosque",
        "address": "C2RR+XGF JAMA MASJID SULTANGUDA, Sultanguda, Kerimeri, Adilabad, Telangana 504313",
        "detailed_address": {
            "ward": "Sultanguda",
            "street": "C2RR+XGF",
            "city": "Kerimeri, Adilabad",
            "postal_code": null,
            "state": "Telangana",
            "country_code": "IN"
        },
        "images": [
            {
                "about": "All",
                "link": "https://lh5.googleusercontent.com/p/AF1QipNFps4SsmuzrBw3TJ9oYHbR_ewSeO3vE5qNl4g0=w397-h298-k-no"
            },
            {
                "about": "Street View & 360deg",
                "link": "https://streetviewpixels-pa.googleapis.com/v1/thumbnail?panoid=Hl57f1REqq8YjaR4hGSEhg&cb_client=maps_sv.tactile.gps&w=224&h=298&yaw=359.35287&pitch=0&thumbfov=100"
            },
            {
                "about": "Videos",
                "link": "https://lh5.googleusercontent.com/p/AF1QipO-JCruQm2Zc9vIPNX3DNFyDq7p7MKHG7YhpHQS=w224-h398-k-no"
            }
        ],
        "link": "https://www.google.com/maps/place/JAMA+MASJID+SULTANGUDA/data=!4m7!3m6!1s0x3bd2bd475cdd2b39:0x2b52fccf2d27bcc0!8m2!3d19.4424339!4d79.0413029!16s%2Fg%2F11d_5drtt9!19sChIJOSvdXEe90jsRwLwnLc_8Uis?authuser=0&hl=en&rclk=1",
        "coordinates": {
            "latitude": 19.442433899999997,
            "longitude": 79.04130289999999
        }
    },
    {
        "name": "Masjid e Noor",
        "main_category": "Mosque",
        "address": "976M+99C Masjid e Noor, Asifabad, Telangana 504293",
        "detailed_address": {
            "ward": null,
            "street": "976M+99C",
            "city": "Asifabad",
            "postal_code": "504293",
            "state": "Telangana",
            "country_code": "IN"
        },
        "images": [
            {
                "about": "All",
                "link": "https://lh5.googleusercontent.com/p/AF1QipN1hb-i6IvrGkVspEtKCuFA5_KQLkIOWcHBGJyz=w397-h298-k-no"
            },
            {
                "about": "Street View & 360deg",
                "link": "https://streetviewpixels-pa.googleapis.com/v1/thumbnail?panoid=P-3-pHWjfO9WK0-AWGlV4Q&cb_client=maps_sv.tactile.gps&w=224&h=298&yaw=246.51863&pitch=0&thumbfov=100"
            }
        ],
        "link": "https://www.google.com/maps/place/Masjid+e+Noor/data=!4m7!3m6!1s0x3bd2aea5cbc568eb:0x5aed9b5568109c20!8m2!3d19.3609381!4d79.283388!16s%2Fg%2F11cjj4r8cv!19sChIJ62jFy6Wu0jsRIJwQaFWb7Vo?authuser=0&hl=en&rclk=1",
        "coordinates": {
            "latitude": 19.3609381,
            "longitude": 79.283388
        }
    },
    {
        "name": "Masjid e Bilala",
        "main_category": "Mosque",
        "address": "Masjid e Bilala, Adilabad-Asifabad Rd, Jainoor, Telangana 504313",
        "detailed_address": {
            "ward": null,
            "street": "Adilabad-Asifabad Rd",
            "city": "Jainoor",
            "postal_code": "504313",
            "state": "Telangana",
            "country_code": "IN"
        },
        "images": [
            {
                "about": "All",
                "link": "https://lh5.googleusercontent.com/p/AF1QipPrT3QJ9RL-Bce0k5QY-aYY3DzEabo_HLhH0fys=w397-h298-k-no"
            },
            {
                "about": "By owner",
                "link": "https://lh5.googleusercontent.com/p/AF1QipN1YKm-SB7UnN3dLhzYBVnoGdFwOK4HsVBJ1o1d=w397-h298-k-no"
            },
            {
                "about": "Street View & 360deg",
                "link": "https://streetviewpixels-pa.googleapis.com/v1/thumbnail?panoid=oXi_1U0A8V0tvjzlrjwiCw&cb_client=maps_sv.tactile.gps&w=224&h=298&yaw=10.859192&pitch=0&thumbfov=100"
            }
        ],
        "link": "https://www.google.com/maps/place/Masjid+e+Bilala/data=!4m7!3m6!1s0x3bd29bb7204a9e0f:0x706dab2553f72b79!8m2!3d19.3750134!4d78.9120455!16s%2Fg%2F11f6qq3rwz!19sChIJD55KILeb0jsReSv3UyWrbXA?authuser=0&hl=en&rclk=1",
        "coordinates": {
            "latitude": 19.3750134,
            "longitude": 78.91204549999999
        }
    },
    {
        "name": "Masjid e Yaseen",
        "main_category": "Mosque",
        "address": "Masjid e Yaseen, opp. Jail, Jankapur, Asifabad, Telangana 504293",
        "detailed_address": {
            "ward": "Jankapur",
            "street": "opp. Jail",
            "city": "Asifabad",
            "postal_code": "504293",
            "state": "Telangana",
            "country_code": "IN"
        },
        "images": [
            {
                "about": "All",
                "link": "https://lh5.googleusercontent.com/p/AF1QipPvhjP33FKfv8RatZHWr9XdIHd4uXHmg45GDQI=w529-h298-k-no"
            },
            {
                "about": "Street View & 360deg",
                "link": "https://streetviewpixels-pa.googleapis.com/v1/thumbnail?panoid=ZhgP5qfY_ilJF4EYAsssvw&cb_client=maps_sv.tactile.gps&w=224&h=298&yaw=23.368435&pitch=0&thumbfov=100"
            },
            {
                "about": "Videos",
                "link": "https://lh5.googleusercontent.com/p/AF1QipNjJNvE20MkQY2QUmt-b_RcAl2wAGxiuvM505E=w529-h298-k-no"
            }
        ],
        "link": "https://www.google.com/maps/place/Masjid+e+Yaseen/data=!4m7!3m6!1s0x3bd2ae9ef5cade0b:0xa80f60e413fdcad2!8m2!3d19.374471!4d79.2873049!16s%2Fg%2F11cjpfh3jq!19sChIJC97K9Z6u0jsR0sr9E-RgD6g?authuser=0&hl=en&rclk=1",
        "coordinates": {
            "latitude": 19.374471,
            "longitude": 79.2873049
        }
    },
    {
        "name": "Wankidi Asifabad",
        "main_category": "Mosque",
        "address": "F8JC+8JX Wankidi Asifabad, Shivakesnagar, Wankidi (Kalan), Telangana 504295",
        "detailed_address": {
            "ward": "Shivakesnagar",
            "street": "F8JC+8JX",
            "city": "Wankidi (Kalan)",
            "postal_code": "504295",
            "state": "Telangana",
            "country_code": "IN"
        },
        "images": [
            {
                "about": "All",
                "link": "https://streetviewpixels-pa.googleapis.com/v1/thumbnail?panoid=BRu8QyBjhcOlAiXsIf-0YQ&cb_client=maps_sv.tactile.gps&w=224&h=298&yaw=242.55244&pitch=0&thumbfov=100"
            },
            {
                "about": "Street View & 360deg",
                "link": "https://streetviewpixels-pa.googleapis.com/v1/thumbnail?panoid=BRu8QyBjhcOlAiXsIf-0YQ&cb_client=maps_sv.tactile.gps&w=224&h=298&yaw=242.55244&pitch=0&thumbfov=100"
            }
        ],
        "link": "https://www.google.com/maps/place/Wankidi+Asifabad/data=!4m7!3m6!1s0x3bd2b3c315900b4b:0x458e3ebaa1a65d9!8m2!3d19.4810568!4d79.3216502!16s%2Fg%2F11sssc97q2!19sChIJSwuQFcOz0jsR2WUaquvjWAQ?authuser=0&hl=en&rclk=1",
        "coordinates": {
            "latitude": 19.481056799999998,
            "longitude": 79.3216502
        }
    },
    {
        "name": "Masjid e umar",
        "main_category": "Mosque",
        "address": "9W95+WC9 Masjid e umar, Jainoor, Telangana 504313",
        "detailed_address": {
            "ward": null,
            "street": "9W95+WC9",
            "city": "Jainoor",
            "postal_code": "504313",
            "state": "Telangana",
            "country_code": "IN"
        },
        "images": [
            {
                "about": "All",
                "link": "https://lh5.googleusercontent.com/p/AF1QipOhk43Dt8DWZ-qd8VCRH9KLa6-1vmaIrU-Gtbgb=w224-h398-k-no"
            },
            {
                "about": "Videos",
                "link": "https://lh5.googleusercontent.com/p/AF1QipP2VgtVhhKBGvocmZLYTj5XvXKopHNd17b5qI4D=w224-h407-k-no"
            }
        ],
        "link": "https://www.google.com/maps/place/Masjid+e+umar/data=!4m7!3m6!1s0x3bd29b093593e477:0xe65cd53a2848ead0!8m2!3d19.3700184!4d78.9089038!16s%2Fg%2F11t27x9_rj!19sChIJd-STNQmb0jsR0OpIKDrVXOY?authuser=0&hl=en&rclk=1",
        "coordinates": {
            "latitude": 19.3700184,
            "longitude": 78.90890379999999
        }
    },
    {
        "name": "Masjid e Rahmania.",
        "main_category": "Mosque",
        "address": "C4PQ+J2F Masjid e Rahmania., Surdhapur, Telangana 504293",
        "detailed_address": {
            "ward": null,
            "street": "C4PQ+J2F",
            "city": "Surdhapur",
            "postal_code": "504293",
            "state": "Telangana",
            "country_code": "IN"
        },
        "images": [
            {
                "about": "All",
                "link": "https://streetviewpixels-pa.googleapis.com/v1/thumbnail?panoid=9mkrc5O-dgFtTVmuDafq_g&cb_client=maps_sv.tactile.gps&w=224&h=298&yaw=225.60399&pitch=0&thumbfov=100"
            },
            {
                "about": "Street View & 360deg",
                "link": "https://streetviewpixels-pa.googleapis.com/v1/thumbnail?panoid=9mkrc5O-dgFtTVmuDafq_g&cb_client=maps_sv.tactile.gps&w=224&h=298&yaw=225.60399&pitch=0&thumbfov=100"
            }
        ],
        "link": "https://www.google.com/maps/place/Masjid+e+Rahmania./data=!4m7!3m6!1s0x3bd2bb9aeef31f5d:0x8ab4045f2e1b1acf!8m2!3d19.4365628!4d79.1375524!16s%2Fg%2F11h171bwhp!19sChIJXR_z7pq70jsRzxobLl8EtIo?authuser=0&hl=en&rclk=1",
        "coordinates": {
            "latitude": 19.4365628,
            "longitude": 79.13755239999999
        }
    },
    {
        "name": "Qadim Masjid Kerameri",
        "main_category": "Mosque",
        "address": "C3R2+M3C Qadim Masjid Kerameri, qadim masjid Road, Kerimeri, Telangana 504313",
        "detailed_address": {
            "ward": null,
            "street": "C3R2+M3C, qadim masjid Road",
            "city": "Kerimeri",
            "postal_code": "504313",
            "state": "Telangana",
            "country_code": "IN"
        },
        "images": [],
        "link": "https://www.google.com/maps/place/Qadim+Masjid+Kerameri/data=!4m7!3m6!1s0x3bd2bdbf2e5be2bf:0xc5f8fbe81b6fc015!8m2!3d19.4416853!4d79.0501381!16s%2Fg%2F11j79mdq_6!19sChIJv-JbLr-90jsRFcBvG-j7-MU?authuser=0&hl=en&rclk=1",
        "coordinates": {
            "latitude": 19.4416853,
            "longitude": 79.0501381
        }
    },
    {
        "name": "Masjid-e-Khadijah",
        "main_category": "Mosque",
        "address": "974R+XWR Masjid-e-Khadijah, Asifabad, Telangana 504293",
        "detailed_address": {
            "ward": null,
            "street": "974R+XWR",
            "city": "Asifabad",
            "postal_code": "504293",
            "state": "Telangana",
            "country_code": "IN"
        },
        "images": [
            {
                "about": "All",
                "link": "https://lh5.googleusercontent.com/p/AF1QipPgR6-V5x67SZQQFfuVhCjBBG1-jRdvv4kAstE0=w224-h398-k-no"
            }
        ],
        "link": "https://www.google.com/maps/place/Masjid-e-Khadijah/data=!4m7!3m6!1s0x3bd2ad43aa7c3d41:0xceb45b62869910bb!8m2!3d19.3574779!4d79.2922524!16s%2Fg%2F11sshd34_9!19sChIJQT18qkOt0jsRuxCZhmJbtM4?authuser=0&hl=en&rclk=1",
        "coordinates": {
            "latitude": 19.3574779,
            "longitude": 79.2922524
        }
    },
    {
        "name": "Pangdi masjid",
        "main_category": "Mosque",
        "address": "9263+5W Pangdi masjid, Seetagondi, Telangana 504313",
        "detailed_address": {
            "ward": null,
            "street": "9263+5W",
            "city": "Seetagondi",
            "postal_code": null,
            "state": "Telangana",
            "country_code": "IN"
        },
        "images": [],
        "link": "https://www.google.com/maps/place/Pangdi+masjid/data=!4m7!3m6!1s0x3bd299407103a9bf:0xc33d1edde125fb60!8m2!3d19.3603172!4d79.0060313!16s%2Fg%2F11s57ytdlj!19sChIJv6kDcUCZ0jsRYPsl4d0ePcM?authuser=0&hl=en&rclk=1",
        "coordinates": {
            "latitude": 19.3603172,
            "longitude": 79.00603129999999
        }
    },
    {
        "name": "Masjid-E-Bilal",
        "main_category": "Mosque",
        "address": "87J6+9HP Masjid-E-Bilal, Thumpalle, Babapur, Telangana 504294",
        "detailed_address": {
            "ward": null,
            "street": "87J6+9HP",
            "city": "Thumpalle, Babapur",
            "postal_code": null,
            "state": "Telangana",
            "country_code": "IN"
        },
        "images": [],
        "link": "https://www.google.com/maps/place/Masjid-E-Bilal/data=!4m7!3m6!1s0x3bd2a948559e9c4b:0xf625909021a2406d!8m2!3d19.3309518!4d79.2614523!16s%2Fg%2F11kjk9fcwg!19sChIJS5yeVUip0jsRbUCiIZCQJfY?authuser=0&hl=en&rclk=1",
        "coordinates": {
            "latitude": 19.330951799999998,
            "longitude": 79.2614523
        }
    },
    {
        "name": "Abbubakar masjid",
        "main_category": "Mosque",
        "address": "9WG5+JJV Abbubakar masjid, Jainoor, Telangana 504313",
        "detailed_address": {
            "ward": null,
            "street": "9WG5+JJV",
            "city": "Jainoor",
            "postal_code": "504313",
            "state": "Telangana",
            "country_code": "IN"
        },
        "images": [],
        "link": "https://www.google.com/maps/place/Abbubakar+masjid/data=!4m7!3m6!1s0x3bd29bab25333f2b:0x3b3f437925c3c48c!8m2!3d19.3766247!4d78.909049!16s%2Fg%2F11rs2wxm5k!19sChIJKz8zJaub0jsRjMTDJXlDPzs?authuser=0&hl=en&rclk=1",
        "coordinates": {
            "latitude": 19.3766247,
            "longitude": 78.909049
        }
    },
    {
        "name": "Jama masjid",
        "main_category": "Mosque",
        "address": "9XX2+F85 Jama masjid, Unnamed Road, Daboli, Telangana 504313",
        "detailed_address": {
            "ward": null,
            "street": "9XX2+F85, Unnamed Road",
            "city": "Daboli",
            "postal_code": "504313",
            "state": "Telangana",
            "country_code": "IN"
        },
        "images": [],
        "link": "https://www.google.com/maps/place/Jama+masjid/data=!4m7!3m6!1s0x3bd29962bbeafef3:0x74b0832244550441!8m2!3d19.3986432!4d78.9508508!16s%2Fg%2F11h4v7zns2!19sChIJ8_7qu2KZ0jsRQQRVRCKDsHQ?authuser=0&hl=en&rclk=1",
        "coordinates": {
            "latitude": 19.3986432,
            "longitude": 78.9508508
        }
    },
    {
        "name": "BILALA MASJID",
        "main_category": "Mosque",
        "address": "9WF5+HJJ BILALA MASJID, Jainoor, Telangana 504313",
        "detailed_address": {
            "ward": null,
            "street": "9WF5+HJJ",
            "city": "Jainoor",
            "postal_code": "504313",
            "state": "Telangana",
            "country_code": "IN"
        },
        "images": [
            {
                "about": "All",
                "link": "https://lh5.googleusercontent.com/p/AF1QipN_PR4-OS9i6-PeL1j_gryG5-yWpH4rFAj4CuL9=w397-h298-k-no"
            }
        ],
        "link": "https://www.google.com/maps/place/BILALA+MASJID/data=!4m7!3m6!1s0x3bd29b2e07edb8d3:0xa2580038ac3fd778!8m2!3d19.3739522!4d78.9090191!16s%2Fg%2F11f77_fyxp!19sChIJ07jtBy6b0jsReNc_rDgAWKI?authuser=0&hl=en&rclk=1",
        "coordinates": {
            "latitude": 19.373952199999998,
            "longitude": 78.9090191
        }
    },
    {
        "name": "Madeena Masjid",
        "main_category": "Mosque",
        "address": "89F9+473 Madeena Masjid, SH1, Khairgaon, Telangana 504292",
        "detailed_address": {
            "ward": null,
            "street": "89F9+473, SH1",
            "city": "Khairgaon",
            "postal_code": null,
            "state": "Telangana",
            "country_code": "IN"
        },
        "images": [
            {
                "about": "All",
                "link": "https://lh5.googleusercontent.com/p/AF1QipOxsjnUwS7wms_Z-_Bx2b2AnI4sT_x-49XRaIw=w397-h298-k-no"
            }
        ],
        "link": "https://www.google.com/maps/place/Madeena+Masjid/data=!4m7!3m6!1s0x3bd2ab55de777551:0xd86d0f49d393c93f!8m2!3d19.3227714!4d79.3681607!16s%2Fg%2F11gwm9j8f5!19sChIJUXV33lWr0jsRP8mT00kPbdg?authuser=0&hl=en&rclk=1",
        "coordinates": {
            "latitude": 19.3227714,
            "longitude": 79.36816069999999
        }
    }
]