[
    {
        "name": "Masjid-e-Sugra Basmat",
        "main_category": "Mosque",
        "address": "8583+2G3 Masjid-e-Sugra Basmat, Muskan Fenction Hall Ke Piche, Kharkhana Road, Aadarsh Colony, Jahagiri, Basmat, Jawala traf babulgaon, Maharashtra 431512",
        "detailed_address": {
            "ward": "Aadarsh Colony, Jahagiri",
            "street": "8583+2G3 Muskan Fenction Hall Ke Piche, Kharkhana Road",
            "city": "Basmat, Jawala traf babulgaon",
            "postal_code": "431512",
            "state": "Maharashtra",
            "country_code": "IN"
        },
        "images": [
            {
                "about": "All",
                "link": "https://streetviewpixels-pa.googleapis.com/v1/thumbnail?panoid=ZX0EHgDMgkv3MtZWM6bQIg&cb_client=maps_sv.tactile.gps&w=224&h=298&yaw=187.9494&pitch=0&thumbfov=100"
            },
            {
                "about": "Street View & 360deg",
                "link": "https://streetviewpixels-pa.googleapis.com/v1/thumbnail?panoid=ZX0EHgDMgkv3MtZWM6bQIg&cb_client=maps_sv.tactile.gps&w=224&h=298&yaw=187.9494&pitch=0&thumbfov=100"
            }
        ],
        "link": "https://www.google.com/maps/place/Masjid-e-Sugra+Basmat/data=!4m7!3m6!1s0x3bd033fc4e0ff01b:0xf343605854ef5f34!8m2!3d19.3150059!4d77.1538058!16s%2Fg%2F11fn9d7nvm!19sChIJG_APTvwz0DsRNF_vVFhgQ_M?authuser=0&hl=en&rclk=1",
        "coordinates": {
            "latitude": 19.3150059,
            "longitude": 77.1538058
        }
    },
    {
        "name": "Masjid",
        "main_category": "Newspaper publisher",
        "address": "85Q5+PCM Masjid, Bhim Nagar, Khajipura, Basmat, Maharashtra 431512",
        "detailed_address": {
            "ward": "Bhim Nagar, Khajipura",
            "street": "85Q5+PCM",
            "city": "Basmat",
            "postal_code": "431512",
            "state": "Maharashtra",
            "country_code": "IN"
        },
        "images": [],
        "link": "https://www.google.com/maps/place/Masjid/data=!4m7!3m6!1s0x3bd033100adb1fb5:0xd099161369eabda3!8m2!3d19.3393375!4d77.1585469!16s%2Fg%2F11sjt93kgh!19sChIJtR_bChAz0DsRo73qaRMWmdA?authuser=0&hl=en&rclk=1",
        "coordinates": {
            "latitude": 19.3393375,
            "longitude": 77.15854689999999
        }
    },
    {
        "name": "JAMA MASJID",
        "main_category": "Mosque",
        "address": "85P5+CW9 JAMA MASJID, Gadi Mohala, Basmat, Maharashtra 431512",
        "detailed_address": {
            "ward": "Gadi Mohala",
            "street": "85P5+CW9",
            "city": "Basmat",
            "postal_code": "431512",
            "state": "Maharashtra",
            "country_code": "IN"
        },
        "images": [
            {
                "about": "All",
                "link": "https://lh5.googleusercontent.com/p/AF1QipP0jeXBn4k89ms3EjkIO9kWfsMYNa_IImFFNBcE=w397-h298-k-no"
            },
            {
                "about": "Dome",
                "link": "https://lh5.googleusercontent.com/p/AF1QipMl7njjSM5c4j7MJWLj3rkOZ0oEeU8uvchmdgZ6=w224-h298-k-no"
            },
            {
                "about": "Videos",
                "link": "https://lh5.googleusercontent.com/p/AF1QipP7UvFEEk_3CMm6CQ1cl-jTeIwYGyzfcDsFPixm=w529-h298-k-no"
            }
        ],
        "link": "https://www.google.com/maps/place/JAMA+MASJID/data=!4m7!3m6!1s0x3bd032f1dc41baf3:0xfd0f8ee59837a047!8m2!3d19.3360338!4d77.1598556!16s%2Fg%2F11g9jdy7vy!19sChIJ87pB3PEy0DsRR6A3mOWOD_0?authuser=0&hl=en&rclk=1",
        "coordinates": {
            "latitude": 19.3360338,
            "longitude": 77.1598556
        }
    },
    {
        "name": "Masjid-e-Abu Hurairah Gulshan Nagar",
        "main_category": "Mosque",
        "address": "8594+HQ8 Masjid-e-Abu Hurairah Gulshan Nagar, Patil Nagar, Basmat, Jawala traf babulgaon, Maharashtra 431512",
        "detailed_address": {
            "ward": "Patil Nagar",
            "street": "8594+HQ8",
            "city": "Basmat, Jawala traf babulgaon",
            "postal_code": "431512",
            "state": "Maharashtra",
            "country_code": "IN"
        },
        "images": [
            {
                "about": "All",
                "link": "https://streetviewpixels-pa.googleapis.com/v1/thumbnail?panoid=YQMUhypmD8LSIDN11ZH5yQ&cb_client=maps_sv.tactile.gps&w=224&h=298&yaw=340.39978&pitch=0&thumbfov=100"
            },
            {
                "about": "Street View & 360deg",
                "link": "https://streetviewpixels-pa.googleapis.com/v1/thumbnail?panoid=YQMUhypmD8LSIDN11ZH5yQ&cb_client=maps_sv.tactile.gps&w=224&h=298&yaw=340.39978&pitch=0&thumbfov=100"
            }
        ],
        "link": "https://www.google.com/maps/place/Masjid-e-Abu+Hurairah+Gulshan+Nagar/data=!4m7!3m6!1s0x3bd0328e87aab563:0x63d8e1b03a10e638!8m2!3d19.3189077!4d77.1569539!16s%2Fg%2F11g88dgn88!19sChIJY7Wqh44y0DsROOYQOrDh2GM?authuser=0&hl=en&rclk=1",
        "coordinates": {
            "latitude": 19.3189077,
            "longitude": 77.15695389999999
        }
    },
    {
        "name": "Nasar shahi Masjid",
        "main_category": "Mosque",
        "address": "85J5+3HG Nasar shahi Masjid, Khajipura, Basmat, Maharashtra 431512",
        "detailed_address": {
            "ward": "Khajipura",
            "street": "85J5+3HG",
            "city": "Basmat",
            "postal_code": "431512",
            "state": "Maharashtra",
            "country_code": "IN"
        },
        "images": [
            {
                "about": "All",
                "link": "https://streetviewpixels-pa.googleapis.com/v1/thumbnail?panoid=1PIeLTTtMXw30xIRz779PQ&cb_client=maps_sv.tactile.gps&w=224&h=298&yaw=96.1537&pitch=0&thumbfov=100"
            },
            {
                "about": "Street View & 360deg",
                "link": "https://streetviewpixels-pa.googleapis.com/v1/thumbnail?panoid=1PIeLTTtMXw30xIRz779PQ&cb_client=maps_sv.tactile.gps&w=224&h=298&yaw=96.1537&pitch=0&thumbfov=100"
            }
        ],
        "link": "https://www.google.com/maps/place/Nasar+shahi+Masjid/data=!4m7!3m6!1s0x3bd032f3775ea405:0x82fad066ddb9655d!8m2!3d19.3301963!4d77.1589479!16s%2Fg%2F1tnmq55l!19sChIJBaRed_My0DsRXWW53WbQ-oI?authuser=0&hl=en&rclk=1",
        "coordinates": {
            "latitude": 19.3301963,
            "longitude": 77.1589479
        }
    },
    {
        "name": "Masjid-e-Benazir Jahan Mangalwara",
        "main_category": "Mosque",
        "address": "Masjid-e-Benazir Jahan Mangalwara, 07, Main Rd, Khajipura, Basmat, Maharashtra 431512",
        "detailed_address": {
            "ward": "Khajipura",
            "street": "07, Main Rd",
            "city": "Basmat",
            "postal_code": "431512",
            "state": "Maharashtra",
            "country_code": "IN"
        },
        "images": [
            {
                "about": "All",
                "link": "https://lh5.googleusercontent.com/p/AF1QipN5pbTizU0pGDZVHrlsfACvHyPv2pfFFWmt9tz9=w224-h497-k-no"
            },
            {
                "about": "Dome",
                "link": "https://lh5.googleusercontent.com/p/AF1QipNoWzYjuzjfxQV--oBGOqDVBbErZ53JnM-ORcaE=w529-h298-k-no"
            },
            {
                "about": "Street View & 360deg",
                "link": "https://streetviewpixels-pa.googleapis.com/v1/thumbnail?panoid=uKBpjSrTQRRaFXQBOA555w&cb_client=maps_sv.tactile.gps&w=224&h=298&yaw=277.09857&pitch=0&thumbfov=100"
            }
        ],
        "link": "https://www.google.com/maps/place/Masjid-e-Benazir+Jahan+Mangalwara/data=!4m7!3m6!1s0x3bd032f2e75da5b3:0xaa194c980ce5b98e!8m2!3d19.3267031!4d77.1575859!16s%2Fg%2F11dd_s9mgf!19sChIJs6Vd5_Iy0DsRjrnlDJhMGao?authuser=0&hl=en&rclk=1",
        "coordinates": {
            "latitude": 19.3267031,
            "longitude": 77.1575859
        }
    },
    {
        "name": "Masjid e Abubakar Siddiq RA",
        "main_category": "Mosque",
        "address": "85J5+729 Masjid e Abubakar Siddiq RA, lain talab, Khajipura, Basmat, Maharashtra 431512",
        "detailed_address": {
            "ward": "Khajipura",
            "street": "85J5+729 lain talab",
            "city": "Basmat",
            "postal_code": null,
            "state": "Maharashtra",
            "country_code": "IN"
        },
        "images": [],
        "link": "https://www.google.com/maps/place/Masjid+e+Abubakar+Siddiq+RA/data=!4m7!3m6!1s0x3bd0336105c66c31:0xe75b5eeed96cfb80!8m2!3d19.33067!4d77.157616!16s%2Fg%2F11jfd7yqt7!19sChIJMWzGBWEz0DsRgPts2e5eW-c?authuser=0&hl=en&rclk=1",
        "coordinates": {
            "latitude": 19.330669999999998,
            "longitude": 77.15761599999999
        }
    },
    {
        "name": "Markaz Hazrat nasar shahid(Rahmatullahi alay",
        "main_category": "Mosque",
        "address": "85H3+2WP Markaz Hazrat nasar shahid(Rahmatullahi alay, Mama Chowk, Basmath, Maharashtra 431512",
        "detailed_address": {
            "ward": "Khajipura",
            "street": "85H3+2WP, Mama Chowk",
            "city": "Basmath, Basmat",
            "postal_code": "431512",
            "state": "Maharashtra",
            "country_code": "IN"
        },
        "images": [
            {
                "about": "All",
                "link": "https://lh5.googleusercontent.com/p/AF1QipPog9Gag6XBveuUGWSFVozcyc6DOSoAgkJpwZlm=w224-h398-k-no"
            },
            {
                "about": "Street View & 360deg",
                "link": "https://streetviewpixels-pa.googleapis.com/v1/thumbnail?panoid=Ag8tUQV1aEYlFL5yO5g1vQ&cb_client=maps_sv.tactile.gps&w=224&h=298&yaw=338.47275&pitch=0&thumbfov=100"
            }
        ],
        "link": "https://www.google.com/maps/place/Markaz+Hazrat+nasar+shahid%28Rahmatullahi+alay/data=!4m7!3m6!1s0x3bd032f370cf938f:0x5c63dd496eaeff07!8m2!3d19.3275858!4d77.1548219!16s%2Fg%2F1hm33nvrt!19sChIJj5PPcPMy0DsRB_-ubkndY1w?authuser=0&hl=en&rclk=1",
        "coordinates": {
            "latitude": 19.327585799999998,
            "longitude": 77.1548219
        }
    },
    {
        "name": "Assar Masjid",
        "main_category": "Mosque",
        "address": "Assar Masjid, Assar Mohalla 07, Main Rd, Basmat, Maharashtra 431512",
        "detailed_address": {
            "ward": "Gadi Mohala, Khajipura",
            "street": "Assar Mohalla 07, Main Rd",
            "city": "Basmat",
            "postal_code": "431512",
            "state": "Maharashtra",
            "country_code": "IN"
        },
        "images": [],
        "link": "https://www.google.com/maps/place/Assar+Masjid/data=!4m7!3m6!1s0x3bd032ee262ea01b:0x969b17e208c64846!8m2!3d19.3335792!4d77.1602225!16s%2Fg%2F11b7j457qm!19sChIJG6AuJu4y0DsRRkjGCOIXm5Y?authuser=0&hl=en&rclk=1",
        "coordinates": {
            "latitude": 19.3335792,
            "longitude": 77.1602225
        }
    },
    {
        "name": "Masjid E Haji Deewan R.A.",
        "main_category": "Mosque",
        "address": "Mohalla E Haaji, Masjid E Haji Deewan R.A., deewan R. A, Gadi Mohala, Khajipura, Basmat, Maharashtra 431512",
        "detailed_address": {
            "ward": "Gadi Mohala, Khajipura",
            "street": "Mohalla E Haaji, deewan R. A",
            "city": "Basmat",
            "postal_code": "431512",
            "state": "Maharashtra",
            "country_code": "IN"
        },
        "images": [
            {
                "about": "All",
                "link": "https://lh5.googleusercontent.com/p/AF1QipOc_GxZBrMi6G4ACc5RaewEaVNO_7wP_wmP2qQv=w416-h298-k-no"
            },
            {
                "about": "Dome",
                "link": "https://lh5.googleusercontent.com/p/AF1QipOc_GxZBrMi6G4ACc5RaewEaVNO_7wP_wmP2qQv=w416-h298-k-no"
            }
        ],
        "link": "https://www.google.com/maps/place/Masjid+E+Haji+Deewan+R.A./data=!4m7!3m6!1s0x3bd032efd2c3b817:0xea4009037f58d724!8m2!3d19.3330118!4d77.1597399!16s%2Fg%2F11d_w5snjw!19sChIJF7jD0u8y0DsRJNdYfwMJQOo?authuser=0&hl=en&rclk=1",
        "coordinates": {
            "latitude": 19.333011799999998,
            "longitude": 77.15973989999999
        }
    },
    {
        "name": "Masjid Umer Farooq Jummaphat Basmat",
        "main_category": "Mosque",
        "address": "85Q6+PF9 Masjid Umer Farooq Jummaphat Basmat, Khajipura, Basmat, Maharashtra 431512",
        "detailed_address": {
            "ward": "Khajipura",
            "street": "85Q6+PF9",
            "city": "Basmat",
            "postal_code": "431512",
            "state": "Maharashtra",
            "country_code": "IN"
        },
        "images": [
            {
                "about": "All",
                "link": "https://lh5.googleusercontent.com/p/AF1QipP8Qco083GuBvcuwlBtbB8GvJ28-7_NyY0Awqij=w429-h298-k-no"
            }
        ],
        "link": "https://www.google.com/maps/place/Masjid+Umer+Farooq+Jummaphat+Basmat/data=!4m7!3m6!1s0x3bd032e53ccfcdaf:0x173a6a10b4411266!8m2!3d19.3392994!4d77.16123!16s%2Fg%2F11f54zcdj0!19sChIJr83PPOUy0DsRZhJBtBBqOhc?authuser=0&hl=en&rclk=1",
        "coordinates": {
            "latitude": 19.339299399999998,
            "longitude": 77.16123
        }
    },
    {
        "name": "Haji Amin Masjid",
        "main_category": "Mosque",
        "address": "Haji Amin Masjid, E-265, Railway Station Road, Brahmin Galli, Khajipura, Basmat, Maharashtra 431512",
        "detailed_address": {
            "ward": "Khajipura",
            "street": "E-265, Railway Station Road, Brahmin Galli",
            "city": "Basmat",
            "postal_code": "431512",
            "state": "Maharashtra",
            "country_code": "IN"
        },
        "images": [
            {
                "about": "All",
                "link": "https://lh5.googleusercontent.com/p/AF1QipP7B1vW5qEao4U76VPSKFkcFVlQbMrIlZRP8iE=w224-h398-k-no"
            },
            {
                "about": "Street View & 360deg",
                "link": "https://streetviewpixels-pa.googleapis.com/v1/thumbnail?panoid=DdBFXvLhLTIhOb43DoJnPQ&cb_client=maps_sv.tactile.gps&w=224&h=298&yaw=45.32364&pitch=0&thumbfov=100"
            },
            {
                "about": "Videos",
                "link": "https://lh5.googleusercontent.com/p/AF1QipP4UXriDFigZmWJXBocDA4f78RfenBW3fmn3THB=w224-h395-k-no"
            }
        ],
        "link": "https://www.google.com/maps/place/Haji+Amin+Masjid/data=!4m7!3m6!1s0x3bd032f1579148b1:0xe169cd744fb1fa74!8m2!3d19.331033!4d77.1548739!16s%2Fg%2F11csqbwsrn!19sChIJsUiRV_Ey0DsRdPqxT3TNaeE?authuser=0&hl=en&rclk=1",
        "coordinates": {
            "latitude": 19.331032999999998,
            "longitude": 77.1548739
        }
    },
    {
        "name": "Masjid Hazrat Bilal",
        "main_category": "Mosque",
        "address": "Masjid Hazrat Bilal, Jumma, Somwar Peth Rd, Khajipura, Basmat, Maharashtra 431512",
        "detailed_address": {
            "ward": "Khajipura",
            "street": "Jumma, Somwar Peth Rd",
            "city": "Basmat",
            "postal_code": "431512",
            "state": "Maharashtra",
            "country_code": "IN"
        },
        "images": [
            {
                "about": "All",
                "link": "https://streetviewpixels-pa.googleapis.com/v1/thumbnail?panoid=ptdfA-iYjzUgH-h7eY8EYA&cb_client=maps_sv.tactile.gps&w=224&h=298&yaw=273.01974&pitch=0&thumbfov=100"
            },
            {
                "about": "Street View & 360deg",
                "link": "https://streetviewpixels-pa.googleapis.com/v1/thumbnail?panoid=ptdfA-iYjzUgH-h7eY8EYA&cb_client=maps_sv.tactile.gps&w=224&h=298&yaw=273.01974&pitch=0&thumbfov=100"
            }
        ],
        "link": "https://www.google.com/maps/place/Masjid+Hazrat+Bilal/data=!4m7!3m6!1s0x3bd032fa836804d7:0x2db486d75b83cb41!8m2!3d19.3372156!4d77.1577713!16s%2Fg%2F11d_d435ws!19sChIJ1wRog_oy0DsRQcuDW9eGtC0?authuser=0&hl=en&rclk=1",
        "coordinates": {
            "latitude": 19.3372156,
            "longitude": 77.1577713
        }
    },
    {
        "name": "Masjid E Pesh Quila",
        "main_category": "Mosque",
        "address": "85P5+2M3 Masjid E Pesh Quila, Gadi Mohala, Basmat, Maharashtra 431512",
        "detailed_address": {
            "ward": "Gadi Mohala",
            "street": "85P5+2M3",
            "city": "Basmat",
            "postal_code": "431512",
            "state": "Maharashtra",
            "country_code": "IN"
        },
        "images": [
            {
                "about": "All",
                "link": "https://lh5.googleusercontent.com/p/AF1QipNi75sAon8ZbqLtp29hBKgVBG9lGTaPJPG-jl7V=w662-h298-k-no"
            },
            {
                "about": "Dome",
                "link": "https://lh5.googleusercontent.com/p/AF1QipM76f4U8NnUH6T0ZKKbkd0Oc15yfOF3epzgEotc=w530-h298-k-no"
            },
            {
                "about": "Street View & 360deg",
                "link": "https://streetviewpixels-pa.googleapis.com/v1/thumbnail?panoid=4a-tr8VLriOcbeEnOVmF-g&cb_client=maps_sv.tactile.gps&w=224&h=298&yaw=357.62366&pitch=0&thumbfov=100"
            }
        ],
        "link": "https://www.google.com/maps/place/Masjid+E+Pesh+Quila/data=!4m7!3m6!1s0x3bd032f03b1b561f:0xfd8020c65f081e6b!8m2!3d19.3350149!4d77.1591681!16s%2Fg%2F11g9g3bp8r!19sChIJH1YbO_Ay0DsRax4IX8YggP0?authuser=0&hl=en&rclk=1",
        "coordinates": {
            "latitude": 19.3350149,
            "longitude": 77.1591681
        }
    },
    {
        "name": "MASJID-E-Tappa Khana",
        "main_category": "Mosque",
        "address": "MASJID-E-Tappa Khana, Jumma, Somwar Peth Rd, Khajipura, Basmat, Maharashtra 431512",
        "detailed_address": {
            "ward": "Khajipura",
            "street": "Jumma, Somwar Peth Rd",
            "city": "Basmat",
            "postal_code": "431512",
            "state": "Maharashtra",
            "country_code": "IN"
        },
        "images": [
            {
                "about": "All",
                "link": "https://lh5.googleusercontent.com/p/AF1QipOetPkHXK6NZtM00dg06Icw_U5UxsaYIewHe9t5=w224-h485-k-no"
            }
        ],
        "link": "https://www.google.com/maps/place/MASJID-E-Tappa+Khana/data=!4m7!3m6!1s0x3bd032faa88aaed5:0xa277df274eaeb9c8!8m2!3d19.3373038!4d77.1593257!16s%2Fg%2F11fxcd3stt!19sChIJ1a6KqPoy0DsRyLmuTiffd6I?authuser=0&hl=en&rclk=1",
        "coordinates": {
            "latitude": 19.3373038,
            "longitude": 77.1593257
        }
    },
    {
        "name": "Chhota Talab Masjid",
        "main_category": "Mosque",
        "address": "Chhota Talab Masjid, Chhota Talab, Khajipura, Basmat, Maharashtra 431512",
        "detailed_address": {
            "ward": "Khajipura",
            "street": "Chhota Talab",
            "city": "Basmat",
            "postal_code": null,
            "state": "Maharashtra",
            "country_code": "IN"
        },
        "images": [
            {
                "about": "All",
                "link": "https://lh5.googleusercontent.com/p/AF1QipMoCFDkb-S3UZR5lDFmY_iw9bWrlrTuJ2W2tzHE=w224-h485-k-no"
            },
            {
                "about": "Street View & 360deg",
                "link": "https://streetviewpixels-pa.googleapis.com/v1/thumbnail?panoid=XX8q-xIvkWFOZFNiPo1e_w&cb_client=maps_sv.tactile.gps&w=224&h=298&yaw=74.855385&pitch=0&thumbfov=100"
            }
        ],
        "link": "https://www.google.com/maps/place/Chhota+Talab+Masjid/data=!4m7!3m6!1s0x3bd033f81b92aead:0x82554c6679dac2ea!8m2!3d19.329287!4d77.1611113!16s%2Fg%2F11fq8_tscr!19sChIJra6SG_gz0DsR6sLaeWZMVYI?authuser=0&hl=en&rclk=1",
        "coordinates": {
            "latitude": 19.329287,
            "longitude": 77.1611113
        }
    },
    {
        "name": "Masjid E Dargah Shareef",
        "main_category": "Mosque",
        "address": "85M5+W5F Masjid E Dargah Shareef, Dargah Mohalla, Basmat, Maharashtra 431512",
        "detailed_address": {
            "ward": "Khajipura",
            "street": "85M5+W5F, Dargah Mohalla",
            "city": "Basmat",
            "postal_code": "431512",
            "state": "Maharashtra",
            "country_code": "IN"
        },
        "images": [
            {
                "about": "All",
                "link": "https://lh5.googleusercontent.com/p/AF1QipNdfCDqyEpErTLgQa-ibykR4cHtJB_EacjViFSG=w224-h398-k-no"
            }
        ],
        "link": "https://www.google.com/maps/place/Masjid+E+Dargah+Shareef/data=!4m7!3m6!1s0x3bd032f0455d53f5:0x7ff888ddec9a8fcb!8m2!3d19.3348247!4d77.1579207!16s%2Fg%2F11g9g27g_g!19sChIJ9VNdRfAy0DsRy4-a7N2I-H8?authuser=0&hl=en&rclk=1",
        "coordinates": {
            "latitude": 19.3348247,
            "longitude": 77.15792069999999
        }
    },
    {
        "name": "Gausiya Masjid",
        "main_category": "Mosque",
        "address": "85H6+PMJ Gausiya Masjid, Chota Talaab,, Basmat, Maharashtra 431512",
        "detailed_address": {
            "ward": "Khajipura",
            "street": "85H6+PMJ, Chota Talaab,",
            "city": "Basmat",
            "postal_code": "431512",
            "state": "Maharashtra",
            "country_code": "IN"
        },
        "images": [
            {
                "about": "All",
                "link": "https://lh5.googleusercontent.com/p/AF1QipOXRwTeigY3mshg5_yOD__UzP7FZr-BI8gamc1A=w662-h298-k-no"
            },
            {
                "about": "Dome",
                "link": "https://lh5.googleusercontent.com/p/AF1QipPcKl277pYXu9494DwxVBeh9A4fDyK_-S7X6pAY=w529-h298-k-no"
            },
            {
                "about": "Videos",
                "link": "https://lh5.googleusercontent.com/p/AF1QipP5TqIzIrM9b_ZqhXjS1_UMg6aKqnQkCTa4HqfR=w224-h398-k-no"
            },
            {
                "about": "Street View & 360deg",
                "link": "https://streetviewpixels-pa.googleapis.com/v1/thumbnail?panoid=OzoPyZvkI0QY-PSPK2wYzw&cb_client=maps_sv.tactile.gps&w=224&h=298&yaw=60.718685&pitch=0&thumbfov=100"
            }
        ],
        "link": "https://www.google.com/maps/place/Gausiya+Masjid/data=!4m7!3m6!1s0x3bd032edbdaaaaab:0x3ac9b649d99e016a!8m2!3d19.3293306!4d77.1616377!16s%2Fg%2F11c61l37sn!19sChIJq6qqve0y0DsRagGe2Um2yTo?authuser=0&hl=en&rclk=1",
        "coordinates": {
            "latitude": 19.3293306,
            "longitude": 77.1616377
        }
    },
    {
        "name": "DARGA HAZRAT BINASHA RAHEMATULLA ALLHE",
        "main_category": "Mosque",
        "address": "85R3+6H5 DARGA HAZRAT BINASHA RAHEMATULLA ALLHE, Unnamed Road, Hayatnagar, Basmat, Maharashtra 431512",
        "detailed_address": {
            "ward": null,
            "street": "85R3+6H5, Unnamed Road",
            "city": "Hayatnagar, Basmat",
            "postal_code": "431512",
            "state": "Maharashtra",
            "country_code": "IN"
        },
        "images": [
            {
                "about": "All",
                "link": "https://lh5.googleusercontent.com/p/AF1QipM_ev7SAa1Lqu4xjjXsvJgshAYplCUm14xbmx97=w397-h298-k-no"
            },
            {
                "about": "Videos",
                "link": "https://lh5.googleusercontent.com/p/AF1QipP_WsbE62Q8YUovwpgPBCbyRdIYDr1PuYuA4AGJ=w541-h298-k-no"
            }
        ],
        "link": "https://www.google.com/maps/place/DARGA+HAZRAT+BINASHA+RAHEMATULLA+ALLHE/data=!4m7!3m6!1s0x3bd033a52e662289:0xd2ca36fbdbe87096!8m2!3d19.3405207!4d77.1539732!16s%2Fg%2F11rs0s1f3c!19sChIJiSJmLqUz0DsRlnDo2_s2ytI?authuser=0&hl=en&rclk=1",
        "coordinates": {
            "latitude": 19.3405207,
            "longitude": 77.1539732
        }
    },
    {
        "name": "Tayba Masjid, Jumma Peth, Basmat",
        "main_category": "Mosque",
        "address": "85Q5+73F Tayba Masjid, Jumma Peth, Basmat, Khajipura, Basmat, Maharashtra 431512",
        "detailed_address": {
            "ward": "Khajipura",
            "street": "85Q5+73F",
            "city": "Basmat",
            "postal_code": "431512",
            "state": "Maharashtra",
            "country_code": "IN"
        },
        "images": [
            {
                "about": "All",
                "link": "https://streetviewpixels-pa.googleapis.com/v1/thumbnail?panoid=JLszAa-EA1jXF_b2VOL-pg&cb_client=maps_sv.tactile.gps&w=224&h=298&yaw=328.4716&pitch=0&thumbfov=100"
            },
            {
                "about": "Street View & 360deg",
                "link": "https://streetviewpixels-pa.googleapis.com/v1/thumbnail?panoid=JLszAa-EA1jXF_b2VOL-pg&cb_client=maps_sv.tactile.gps&w=224&h=298&yaw=328.4716&pitch=0&thumbfov=100"
            }
        ],
        "link": "https://www.google.com/maps/place/Tayba+Masjid,+Jumma+Peth,+Basmat/data=!4m7!3m6!1s0x3bd0338123d86569:0xafab55894ce6097!8m2!3d19.3381998!4d77.1576704!16s%2Fg%2F11m_yy93lj!19sChIJaWXYI4Ez0DsRl2DOlFi1-go?authuser=0&hl=en&rclk=1",
        "coordinates": {
            "latitude": 19.338199799999998,
            "longitude": 77.1576704
        }
    },
    {
        "name": "Masjid-e-Abuhaneefa Basmat",
        "main_category": "Mosque",
        "address": "8583+G89 Masjid-e-Abuhaneefa Basmat, Karkhana Rd, Fiza Colony, Basmat, Jawala traf babulgaon, Maharashtra 431512",
        "detailed_address": {
            "ward": "Fiza Colony",
            "street": "8583+G89, Karkhana Rd",
            "city": "Basmat, Jawala traf babulgaon",
            "postal_code": "431512",
            "state": "Maharashtra",
            "country_code": "IN"
        },
        "images": [
            {
                "about": "All",
                "link": "https://streetviewpixels-pa.googleapis.com/v1/thumbnail?panoid=4p4e8OwMvhxhCDzS0HeKcw&cb_client=maps_sv.tactile.gps&w=224&h=298&yaw=252.43282&pitch=0&thumbfov=100"
            },
            {
                "about": "Street View & 360deg",
                "link": "https://streetviewpixels-pa.googleapis.com/v1/thumbnail?panoid=4p4e8OwMvhxhCDzS0HeKcw&cb_client=maps_sv.tactile.gps&w=224&h=298&yaw=252.43282&pitch=0&thumbfov=100"
            }
        ],
        "link": "https://www.google.com/maps/place/Masjid-e-Abuhaneefa+Basmat/data=!4m7!3m6!1s0x3bd0331212b9c351:0x46c97421a4d865b8!8m2!3d19.3162932!4d77.1533447!16s%2Fg%2F11hdz9qpc1!19sChIJUcO5EhIz0DsRuGXYpCF0yUY?authuser=0&hl=en&rclk=1",
        "coordinates": {
            "latitude": 19.3162932,
            "longitude": 77.15334469999999
        }
    },
    {
        "name": "EIDGAH BASMAT NAGAR",
        "main_category": "Mosque",
        "address": "85Q3+6VQ EIDGAH BASMAT NAGAR, MONDHA MARKET, above SUNIL TRADING COMPANY, Khajipura, Basmat, Maharashtra 431512",
        "detailed_address": {
            "ward": "Khajipura",
            "street": "85Q3+6VQ, MONDHA MARKET, above SUNIL TRADING COMPANY",
            "city": "Basmat",
            "postal_code": "431512",
            "state": "Maharashtra",
            "country_code": "IN"
        },
        "images": [
            {
                "about": "All",
                "link": "https://lh5.googleusercontent.com/p/AF1QipNw2oP2AEvKrU161Adq9_uTi-OAW73BPPO4nDAU=w529-h298-k-no"
            },
            {
                "about": "Street View & 360deg",
                "link": "https://streetviewpixels-pa.googleapis.com/v1/thumbnail?panoid=nIqasoAXlXj_keDSEXMaog&cb_client=maps_sv.tactile.gps&w=224&h=298&yaw=69.95482&pitch=0&thumbfov=100"
            },
            {
                "about": "Videos",
                "link": "https://lh5.googleusercontent.com/p/AF1QipMYB2RPY0HU8oKvs_73BtQC86MrGoaQD65O_ral=w541-h298-k-no"
            }
        ],
        "link": "https://www.google.com/maps/place/EIDGAH+BASMAT+NAGAR/data=!4m7!3m6!1s0x3bd03373333ade75:0x64a3851b968489a8!8m2!3d19.3380985!4d77.1547217!16s%2Fg%2F11ry0jdpjx!19sChIJdd46M3Mz0DsRqImElhuFo2Q?authuser=0&hl=en&rclk=1",
        "coordinates": {
            "latitude": 19.338098499999997,
            "longitude": 77.1547217
        }
    },
    {
        "name": "Masjid hazrat usman gani",
        "main_category": "Mosque",
        "address": "85J7+25J Masjid hazrat usman gani, Madina Chowk, Panchshilnagar, Basmat, Maharashtra 431512",
        "detailed_address": {
            "ward": "Panchshilnagar",
            "street": "85J7+25J Madina Chowk",
            "city": "Basmat",
            "postal_code": "431512",
            "state": "Maharashtra",
            "country_code": "IN"
        },
        "images": [
            {
                "about": "All",
                "link": "https://lh5.googleusercontent.com/p/AF1QipNB03BBn0wALRnODG8KdEJ93OCuuJ_zIzW9qRsI=w529-h298-k-no"
            },
            {
                "about": "Street View & 360deg",
                "link": "https://streetviewpixels-pa.googleapis.com/v1/thumbnail?panoid=wt6K9LzqvwZ-zIwHzvcV8A&cb_client=maps_sv.tactile.gps&w=224&h=298&yaw=110.28585&pitch=0&thumbfov=100"
            }
        ],
        "link": "https://www.google.com/maps/place/Masjid+hazrat+usman+gani/data=!4m7!3m6!1s0x3bd033879e6ee227:0x3bde14f491b39fe4!8m2!3d19.3300917!4d77.1629065!16s%2Fg%2F11pl7lrr3t!19sChIJJ-Junocz0DsR5J-zkfQU3js?authuser=0&hl=en&rclk=1",
        "coordinates": {
            "latitude": 19.3300917,
            "longitude": 77.16290649999999
        }
    },
    {
        "name": "Masjid Gulzare Shah Rah-al.",
        "main_category": "Mosque",
        "address": "85H5+3VM Masjid Gulzare Shah Rah-al., Zenda Chowk Rd, Khajipura, Basmat, Maharashtra 431512",
        "detailed_address": {
            "ward": "Khajipura",
            "street": "85H5+3VM, Zenda Chowk Rd",
            "city": "Basmat",
            "postal_code": "431512",
            "state": "Maharashtra",
            "country_code": "IN"
        },
        "images": [
            {
                "about": "All",
                "link": "https://streetviewpixels-pa.googleapis.com/v1/thumbnail?panoid=YQj4xQdHLCbvwHnLFXYiKg&cb_client=maps_sv.tactile.gps&w=224&h=298&yaw=69.589645&pitch=0&thumbfov=100"
            },
            {
                "about": "Street View & 360deg",
                "link": "https://streetviewpixels-pa.googleapis.com/v1/thumbnail?panoid=YQj4xQdHLCbvwHnLFXYiKg&cb_client=maps_sv.tactile.gps&w=224&h=298&yaw=69.589645&pitch=0&thumbfov=100"
            }
        ],
        "link": "https://www.google.com/maps/place/Masjid+Gulzare+Shah+Rah-al./data=!4m7!3m6!1s0x3bd033c30f8770d1:0x71d5f278eb4f39af!8m2!3d19.3277127!4d77.1596785!16s%2Fg%2F11ghpmckwl!19sChIJ0XCHD8Mz0DsRrzlP63jy1XE?authuser=0&hl=en&rclk=1",
        "coordinates": {
            "latitude": 19.3277127,
            "longitude": 77.1596785
        }
    },
    {
        "name": "Masjid-e-muhammadia(saw)",
        "main_category": "Mosque",
        "address": "8593+98W Masjid-e-muhammadia(saw), Balaji Nagar, Jahagiri, Basmat, Jawala traf babulgaon, Maharashtra 431512",
        "detailed_address": {
            "ward": "Balaji Nagar, Jahagiri",
            "street": "8593+98W",
            "city": "Basmat, Jawala traf babulgaon",
            "postal_code": "431512",
            "state": "Maharashtra",
            "country_code": "IN"
        },
        "images": [
            {
                "about": "All",
                "link": "https://lh5.googleusercontent.com/p/AF1QipOVKaRS9NZ3gyATU_lY_S8FKe295jf6uB-QzksM=w529-h298-k-no"
            },
            {
                "about": "Street View & 360deg",
                "link": "https://streetviewpixels-pa.googleapis.com/v1/thumbnail?panoid=K-fgmFIXFJ6EfbfPtY0ISg&cb_client=maps_sv.tactile.gps&w=224&h=298&yaw=254.37253&pitch=0&thumbfov=100"
            }
        ],
        "link": "https://www.google.com/maps/place/Masjid-e-muhammadia%28saw%29/data=!4m7!3m6!1s0x3bd033aa8dffb78d:0x4110f15ecf55a6de!8m2!3d19.3184761!4d77.1533429!16s%2Fg%2F11rgw_38yx!19sChIJjbf_jaoz0DsR3qZVz17xEEE?authuser=0&hl=en&rclk=1",
        "coordinates": {
            "latitude": 19.318476099999998,
            "longitude": 77.1533429
        }
    },
    {
        "name": "Masjid E Gujri bazar",
        "main_category": "Mosque",
        "address": "85P5+7JR Masjid E Gujri bazar, Gujri Mohalla, Basmat, Maharashtra 431512",
        "detailed_address": {
            "ward": "Khajipura",
            "street": "85P5+7JR, Gujri Mohalla",
            "city": "Basmat",
            "postal_code": "431512",
            "state": "Maharashtra",
            "country_code": "IN"
        },
        "images": [],
        "link": "https://www.google.com/maps/place/Masjid+E+Gujri+bazar/data=!4m7!3m6!1s0x3bd032f0168cf265:0x5e36cbaf7e35d7e!8m2!3d19.3357451!4d77.1590058!16s%2Fg%2F11fxx5nqs0!19sChIJZfKMFvAy0DsRfl3j97ps4wU?authuser=0&hl=en&rclk=1",
        "coordinates": {
            "latitude": 19.3357451,
            "longitude": 77.1590058
        }
    },
    {
        "name": "Haji diwan masjid",
        "main_category": "Mosque",
        "address": "85M6+M69 Haji diwan masjid, Gadi Mohala, Khajipura, Basmat, Maharashtra 431512",
        "detailed_address": {
            "ward": "Gadi Mohala, Khajipura",
            "street": "85M6+M69",
            "city": "Basmat",
            "postal_code": "431512",
            "state": "Maharashtra",
            "country_code": "IN"
        },
        "images": [
            {
                "about": "All",
                "link": "https://streetviewpixels-pa.googleapis.com/v1/thumbnail?panoid=AiuZxSMDHsgIcgulMaWQbw&cb_client=maps_sv.tactile.gps&w=224&h=298&yaw=170.54933&pitch=0&thumbfov=100"
            },
            {
                "about": "Street View & 360deg",
                "link": "https://streetviewpixels-pa.googleapis.com/v1/thumbnail?panoid=AiuZxSMDHsgIcgulMaWQbw&cb_client=maps_sv.tactile.gps&w=224&h=298&yaw=170.54933&pitch=0&thumbfov=100"
            }
        ],
        "link": "https://www.google.com/maps/place/Haji+diwan+masjid/data=!4m7!3m6!1s0x3bd033210a2583e7:0x7f525cb37d84cfd1!8m2!3d19.3341646!4d77.1606187!16s%2Fg%2F11r0xhtl3z!19sChIJ54MlCiEz0DsR0c-EfbNcUn8?authuser=0&hl=en&rclk=1",
        "coordinates": {
            "latitude": 19.334164599999998,
            "longitude": 77.1606187
        }
    },
    {
        "name": "Masjeed Shukur Qureshi",
        "main_category": "Mosque",
        "address": "84GX+XGW Masjeed Shukur Qureshi, Basmat, Maharashtra 431512",
        "detailed_address": {
            "ward": null,
            "street": "84GX+XGW",
            "city": "Basmat",
            "postal_code": "431512",
            "state": "Maharashtra",
            "country_code": "IN"
        },
        "images": [],
        "link": "https://www.google.com/maps/place/Masjeed+Shukur+Qureshi/data=!4m7!3m6!1s0x3bd0332ba382bc9f:0x5c40a19c46975de!8m2!3d19.3274848!4d77.1488282!16s%2Fg%2F11q46mnm49!19sChIJn7yCoysz0DsR3nVpxBkKxAU?authuser=0&hl=en&rclk=1",
        "coordinates": {
            "latitude": 19.3274848,
            "longitude": 77.1488282
        }
    },
    {
        "name": "Masjid e hazrat usman e gani (rz)",
        "main_category": "Mosque",
        "address": "Masjid e hazrat usman e gani (rz), Madina Chowk, Panchshilnagar, Basmat, Maharashtra 431512",
        "detailed_address": {
            "ward": "Panchshilnagar",
            "street": "Madina Chowk",
            "city": "Basmat",
            "postal_code": "431512",
            "state": "Maharashtra",
            "country_code": "IN"
        },
        "images": [],
        "link": "https://www.google.com/maps/place/Masjid+e+hazrat+usman+e+gani+%28rz%29/data=!4m7!3m6!1s0x3bd033e650f66793:0x2800dcfa017922fe!8m2!3d19.3302474!4d77.1635981!16s%2Fg%2F11tp2rr6t6!19sChIJk2f2UOYz0DsR_iJ5AfrcACg?authuser=0&hl=en&rclk=1",
        "coordinates": {
            "latitude": 19.330247399999998,
            "longitude": 77.1635981
        }
    },
    {
        "name": "Masjid gulzar sha",
        "main_category": "Mosque",
        "address": "85H5+J84 Masjid gulzar sha, Khajipura, Basmat, Maharashtra 431512",
        "detailed_address": {
            "ward": "Khajipura",
            "street": "85H5+J84",
            "city": "Basmat",
            "postal_code": "431512",
            "state": "Maharashtra",
            "country_code": "IN"
        },
        "images": [
            {
                "about": "All",
                "link": "https://streetviewpixels-pa.googleapis.com/v1/thumbnail?panoid=s3IF-AIQ4G0kLXlfqu1pyg&cb_client=maps_sv.tactile.gps&w=224&h=298&yaw=244.41791&pitch=0&thumbfov=100"
            },
            {
                "about": "Street View & 360deg",
                "link": "https://streetviewpixels-pa.googleapis.com/v1/thumbnail?panoid=s3IF-AIQ4G0kLXlfqu1pyg&cb_client=maps_sv.tactile.gps&w=224&h=298&yaw=244.41791&pitch=0&thumbfov=100"
            }
        ],
        "link": "https://www.google.com/maps/place/Masjid+gulzar+sha/data=!4m7!3m6!1s0x3bd033b0be84d00f:0x94c74155b64333ac!8m2!3d19.3289588!4d77.1583071!16s%2Fg%2F11smm1nklt!19sChIJD9CEvrAz0DsRrDNDtlVBx5Q?authuser=0&hl=en&rclk=1",
        "coordinates": {
            "latitude": 19.3289588,
            "longitude": 77.1583071
        }
    },
    {
        "name": "Muhammad sahab masjid",
        "main_category": "Mosque",
        "address": "85H2+6VW Muhammad sahab masjid, Khajipura, Basmat, Maharashtra 431512",
        "detailed_address": {
            "ward": "Khajipura",
            "street": "85H2+6VW",
            "city": "Basmat",
            "postal_code": "431512",
            "state": "Maharashtra",
            "country_code": "IN"
        },
        "images": [],
        "link": "https://www.google.com/maps/place/Muhammad+sahab+masjid/data=!4m7!3m6!1s0x3bd033699708d565:0xd8a1738decfceb45!8m2!3d19.3288436!4d77.1522254!16s%2Fg%2F11try2zjkx!19sChIJZdUIl2kz0DsRRev87I1zodg?authuser=0&hl=en&rclk=1",
        "coordinates": {
            "latitude": 19.3288436,
            "longitude": 77.15222539999999
        }
    },
    {
        "name": "Ek kamaan masjid",
        "main_category": "School",
        "address": "85J5+5V3 Ek kamaan masjid, Unnamed Road, Khajipura, Basmat, Maharashtra 431512",
        "detailed_address": {
            "ward": "Khajipura",
            "street": "85J5+5V3, Unnamed Road",
            "city": "Basmat",
            "postal_code": "431512",
            "state": "Maharashtra",
            "country_code": "IN"
        },
        "images": [],
        "link": "https://www.google.com/maps/place/Ek+kamaan+masjid/data=!4m7!3m6!1s0x3bd0338f4398e339:0xacdb7baef23e42ad!8m2!3d19.3303967!4d77.1596614!16s%2Fg%2F11h6fh76y3!19sChIJOeOYQ48z0DsRrUI-8q5726w?authuser=0&hl=en&rclk=1",
        "coordinates": {
            "latitude": 19.330396699999998,
            "longitude": 77.15966139999999
        }
    }
]