[
    {
        "name": "Muragacha Masjid",
        "main_category": "Mosque",
        "address": "Muragacha Masjid, 12 national, Kalyani, West Bengal 741249",
        "detailed_address": {
            "ward": null,
            "street": "12 national",
            "city": "Kalyani, Muragachha",
            "postal_code": "741249",
            "state": "West Bengal",
            "country_code": "IN"
        },
        "images": [
            {
                "about": "All",
                "link": "https://lh5.googleusercontent.com/p/AF1QipO6018IheSqkoUj-tIYyuEiH8EEZSOmjMjsUt0=w397-h298-k-no"
            },
            {
                "about": "By owner",
                "link": "https://lh5.googleusercontent.com/p/AF1QipPQvt0Hvph5FhbBmBeBAh7S6luzX_tgZqmxTws=w531-h298-k-no"
            }
        ],
        "link": "https://www.google.com/maps/place/Muragacha+Masjid/data=!4m7!3m6!1s0x39f8bf47dbda0ca1:0xd6c04fa3b90ff6d6!8m2!3d22.972744!4d88.546539!16s%2Fg%2F11ggqzm8jf!19sChIJoQza20e_-DkR1vYPuaNPwNY?authuser=0&hl=en&rclk=1",
        "coordinates": {
            "latitude": 22.972744,
            "longitude": 88.546539
        }
    },
    {
        "name": "Kalyani Masjid khlyny msjd",
        "main_category": "Mosque",
        "address": "499R+HM9 Kalyani Masjid khlyny msjd, Mahammadpur Kazi, Musahri, Kalyani, Muzaffarpur, Bihar 842002",
        "detailed_address": {
            "ward": "Mahammadpur Kazi, Musahri",
            "street": "499R+HM9, Mahammadpur Kazi, Musahri, Kalyani",
            "city": "Muzaffarpur",
            "postal_code": "842002",
            "state": "Bihar",
            "country_code": "IN"
        },
        "images": [
            {
                "about": "All",
                "link": "https://streetviewpixels-pa.googleapis.com/v1/thumbnail?panoid=NnwUrLiNjXbTfzTjiDXA6Q&cb_client=maps_sv.tactile.gps&w=224&h=298&yaw=200.28903&pitch=0&thumbfov=100"
            },
            {
                "about": "Street View & 360deg",
                "link": "https://streetviewpixels-pa.googleapis.com/v1/thumbnail?panoid=NnwUrLiNjXbTfzTjiDXA6Q&cb_client=maps_sv.tactile.gps&w=224&h=298&yaw=200.28903&pitch=0&thumbfov=100"
            }
        ],
        "link": "https://www.google.com/maps/place/Kalyani+Masjid+%DA%A9%D9%84%DB%8C%D8%A7%D9%86%DB%8C+%D9%85%D8%B3%D8%AC%D8%AF%E2%80%AD/data=!4m7!3m6!1s0x39ed10f983263121:0x552f3b1fdb485d03!8m2!3d26.1189081!4d85.3917396!16s%2Fg%2F11bxds34s7!19sChIJITEmg_kQ7TkRA11I2x87L1U?authuser=0&hl=en&rclk=1",
        "coordinates": {
            "latitude": 26.1189081,
            "longitude": 85.3917396
        }
    },
    {
        "name": "Kalyani Cards",
        "main_category": "Invitation printing service",
        "address": "Shop No, Kalyani Cards, 3856, Chawri Bazar Rd, Manohar Market, Jama Masjid, Old Delhi, New Delhi, Delhi, 110006",
        "detailed_address": {
            "ward": "Manohar Market, Jama Masjid, Old Delhi",
            "street": "Shop No, 3856, Chawri Bazar Rd",
            "city": "New Delhi, Delhi",
            "postal_code": "110006",
            "state": "Delhi",
            "country_code": "IN"
        },
        "images": [
            {
                "about": "All",
                "link": "https://streetviewpixels-pa.googleapis.com/v1/thumbnail?panoid=NEX6aUJrWPWuq3fOyxDY_A&cb_client=maps_sv.tactile.gps&w=224&h=298&yaw=81.27168&pitch=0&thumbfov=100"
            },
            {
                "about": "Street View & 360deg",
                "link": "https://streetviewpixels-pa.googleapis.com/v1/thumbnail?panoid=NEX6aUJrWPWuq3fOyxDY_A&cb_client=maps_sv.tactile.gps&w=224&h=298&yaw=81.27168&pitch=0&thumbfov=100"
            }
        ],
        "link": "https://www.google.com/maps/place/Kalyani+Cards/data=!4m7!3m6!1s0x390cfd967bcf95c3:0xb85398961aa40f4a!8m2!3d28.6503998!4d77.2301572!16s%2Fg%2F1tdm237p!19sChIJw5XPe5b9DDkRSg-kGpaYU7g?authuser=0&hl=en&rclk=1",
        "coordinates": {
            "latitude": 28.6503998,
            "longitude": 77.2301572
        }
    },
    {
        "name": "Noori Masjid",
        "main_category": "Mosque",
        "address": "269V+3J2 Noori Masjid, Kalyani, Madhya Pradesh 475005",
        "detailed_address": {
            "ward": null,
            "street": "269V+3J2",
            "city": "Kalyani",
            "postal_code": null,
            "state": "Madhya Pradesh",
            "country_code": "IN"
        },
        "images": [
            {
                "about": "All",
                "link": "https://lh5.googleusercontent.com/p/AF1QipO5lmlOUvFBgX0BhKmSumDjkItrdt4JQ12o2gOp=w224-h298-k-no"
            }
        ],
        "link": "https://www.google.com/maps/place/Noori+Masjid/data=!4m7!3m6!1s0x3976df8105d633a5:0xb7c35648775a75fe!8m2!3d26.0176331!4d78.2440164!16s%2Fg%2F11f7440y59!19sChIJpTPWBYHfdjkR_nVad0hWw7c?authuser=0&hl=en&rclk=1",
        "coordinates": {
            "latitude": 26.017633099999998,
            "longitude": 78.24401639999999
        }
    },
    {
        "name": "Ebadullah masjid",
        "main_category": "Mosque",
        "address": "Ebadullah masjid, 783, Unnao - Hardoi Rd, Daroga Bagh, Civil Lines, Kalyani, Unnao, Uttar Pradesh 209801",
        "detailed_address": {
            "ward": "Daroga Bagh, Civil Lines, Kalyani",
            "street": "783, Unnao - Hardoi Rd",
            "city": "Unnao",
            "postal_code": "209801",
            "state": "Uttar Pradesh",
            "country_code": "IN"
        },
        "images": [
            {
                "about": "All",
                "link": "https://lh5.googleusercontent.com/p/AF1QipNiLhyImQcXB1LY-5mKMwFEE0U2mwzoJpHgqSNf=w529-h298-k-no"
            },
            {
                "about": "Street View & 360deg",
                "link": "https://streetviewpixels-pa.googleapis.com/v1/thumbnail?panoid=tasOA1A5EJvMs_qGrIMrqw&cb_client=maps_sv.tactile.gps&w=224&h=298&yaw=224.21677&pitch=0&thumbfov=100"
            }
        ],
        "link": "https://www.google.com/maps/place/Ebadullah+masjid/data=!4m7!3m6!1s0x399c15c600833127:0xa52e3982b4c4a197!8m2!3d26.5548334!4d80.488052!16s%2Fg%2F11f0k_dj7g!19sChIJJzGDAMYVnDkRl6HEtII5LqU?authuser=0&hl=en&rclk=1",
        "coordinates": {
            "latitude": 26.5548334,
            "longitude": 80.488052
        }
    },
    {
        "name": "Masjid-e-kalyani",
        "main_category": "Mosque",
        "address": "62F3+FVR Masjid-e-kalyani, Kalyani Rd, Lingareddipet, Kalyani, Telangana 503122",
        "detailed_address": {
            "ward": null,
            "street": "62F3+FVR, Kalyani Rd",
            "city": "Lingareddipet, Kalyani",
            "postal_code": "503122",
            "state": "Telangana",
            "country_code": "IN"
        },
        "images": [
            {
                "about": "All",
                "link": "https://lh5.googleusercontent.com/p/AF1QipOjwzVsNb9Uv-s0bC7MXJ9LOorLapYz3_zZkuXm=w395-h298-k-no"
            },
            {
                "about": "Dome",
                "link": "https://lh5.googleusercontent.com/p/AF1QipOFBmJHTpSQ8uO09a4FX_JiwAr_vNZC7VlGiQaI=w397-h298-k-no"
            },
            {
                "about": "Street View & 360deg",
                "link": "https://streetviewpixels-pa.googleapis.com/v1/thumbnail?panoid=mFAfr88KLsjSt_RoGbZo6Q&cb_client=maps_sv.tactile.gps&w=224&h=298&yaw=84.641556&pitch=0&thumbfov=100"
            }
        ],
        "link": "https://www.google.com/maps/place/Masjid-e-kalyani/data=!4m7!3m6!1s0x3bcc2610519c1ddf:0x16895bc90f8b07fb!8m2!3d18.2237262!4d78.004638!16s%2Fg%2F11cly7p44x!19sChIJ3x2cURAmzDsR-weLD8lbiRY?authuser=0&hl=en&rclk=1",
        "coordinates": {
            "latitude": 18.223726199999998,
            "longitude": 78.004638
        }
    },
    {
        "name": "Jama Masjid Kalyanichak",
        "main_category": "Mosque",
        "address": "249F+XQP Jama Masjid Kalyanichak, Kalyani Chak, Uttar Pradesh 232103",
        "detailed_address": {
            "ward": null,
            "street": "249F+XQP",
            "city": "Kalyani Chak",
            "postal_code": "232103",
            "state": "Uttar Pradesh",
            "country_code": "IN"
        },
        "images": [
            {
                "about": "All",
                "link": "https://lh5.googleusercontent.com/p/AF1QipO8deAD5jWbNl5QsH-cyuqHv39xv6gNoY3qh6Yz=w529-h298-k-no"
            }
        ],
        "link": "https://www.google.com/maps/place/Jama+Masjid+Kalyanichak/data=!4m7!3m6!1s0x398e456574031b93:0x3812eb30000b80b3!8m2!3d25.0199607!4d83.124461!16s%2Fg%2F11hz_3p740!19sChIJkxsDdGVFjjkRs4ALADDrEjg?authuser=0&hl=en&rclk=1",
        "coordinates": {
            "latitude": 25.0199607,
            "longitude": 83.124461
        }
    },
    {
        "name": "Chand mari masjid",
        "main_category": "Mosque",
        "address": "HF6P+6G8 Chand mari masjid, Unnao - Hardoi Rd, Civil Lines, Kalyani, Unnao, Uttar Pradesh 209801",
        "detailed_address": {
            "ward": "Civil Lines, Kalyani",
            "street": "HF6P+6G8, Unnao - Hardoi Rd",
            "city": "Unnao",
            "postal_code": "209801",
            "state": "Uttar Pradesh",
            "country_code": "IN"
        },
        "images": [
            {
                "about": "All",
                "link": "https://streetviewpixels-pa.googleapis.com/v1/thumbnail?panoid=tJOd4KpV0M9TbRi1gelQ2w&cb_client=maps_sv.tactile.gps&w=224&h=298&yaw=257.3836&pitch=0&thumbfov=100"
            },
            {
                "about": "Street View & 360deg",
                "link": "https://streetviewpixels-pa.googleapis.com/v1/thumbnail?panoid=tJOd4KpV0M9TbRi1gelQ2w&cb_client=maps_sv.tactile.gps&w=224&h=298&yaw=257.3836&pitch=0&thumbfov=100"
            }
        ],
        "link": "https://www.google.com/maps/place/Chand+mari+masjid/data=!4m7!3m6!1s0x399c1558c7ef9b49:0x4fd735574b85c121!8m2!3d26.560528!4d80.486338!16s%2Fg%2F11nft03flz!19sChIJSZvvx1gVnDkRIcGFS1c1108?authuser=0&hl=en&rclk=1",
        "coordinates": {
            "latitude": 26.560527999999998,
            "longitude": 80.48633799999999
        }
    },
    {
        "name": "Arfia Masjid (khurram wali)",
        "main_category": "Mosque",
        "address": "HF5P+MFR Arfia Masjid (khurram wali), kabba khera, Civil Lines, Kalyani, Unnao, Uttar Pradesh 209801",
        "detailed_address": {
            "ward": "kabba khera, Civil Lines, Kalyani",
            "street": "HF5P+MFR",
            "city": "Unnao",
            "postal_code": "209801",
            "state": "Uttar Pradesh",
            "country_code": "IN"
        },
        "images": [],
        "link": "https://www.google.com/maps/place/Arfia+Masjid+%28khurram+wali%29/data=!4m7!3m6!1s0x399c1572c2862f51:0x9d61b5d969364946!8m2!3d26.5592437!4d80.4861312!16s%2Fg%2F11ng149c99!19sChIJUS-GwnIVnDkRRkk2adm1YZ0?authuser=0&hl=en&rclk=1",
        "coordinates": {
            "latitude": 26.5592437,
            "longitude": 80.4861312
        }
    },
    {
        "name": "Kalyani jama masjid",
        "main_category": "Mosque",
        "address": "98PM+VFC Kalyani jama masjid, Kalyani, Kushkari, West Bengal 733125",
        "detailed_address": {
            "ward": null,
            "street": "98PM+VFC",
            "city": "Kalyani, Kushkari",
            "postal_code": "733125",
            "state": "West Bengal",
            "country_code": "IN"
        },
        "images": [
            {
                "about": "All",
                "link": "https://lh5.googleusercontent.com/p/AF1QipNa0Bs3fpyaGqaOVT3sDInSkl6A0NzbZ4sLy_07=w224-h398-k-no"
            }
        ],
        "link": "https://www.google.com/maps/place/Kalyani+jama+masjid/data=!4m7!3m6!1s0x39fb3b6f2a849c63:0xb558ec2939356fcf!8m2!3d25.3861864!4d88.3331563!16s%2Fg%2F11v5bkl4b0!19sChIJY5yEKm87-zkRz281OSnsWLU?authuser=0&hl=en&rclk=1",
        "coordinates": {
            "latitude": 25.3861864,
            "longitude": 88.3331563
        }
    }
]