[
    {
        "name": "Dawoodi Bohra Masjid Dhanera",
        "main_category": "Mosque",
        "address": "G26F+8M6 Dawoodi Bohra Masjid Dhanera, Dhanera, Gujarat 385310",
        "detailed_address": {
            "ward": null,
            "street": "G26F+8M6",
            "city": "Dhanera",
            "postal_code": "385310",
            "state": "Gujarat",
            "country_code": "IN"
        },
        "images": [
            {
                "about": "All",
                "link": "https://lh5.googleusercontent.com/p/AF1QipP3NT0zV_0xVMF7oiS3p0Ct9NjE7zm1BjTvvCxi=w224-h497-k-no"
            }
        ],
        "link": "https://www.google.com/maps/place/Dawoodi+Bohra+Masjid+Dhanera/data=!4m7!3m6!1s0x395cab9f43ca561d:0xb1d105e226e4fab4!8m2!3d24.5107797!4d72.024141!16s%2Fg%2F11cs3bjjkq!19sChIJHVbKQ5-rXDkRtPrkJuIF0bE?authuser=0&hl=en&rclk=1",
        "coordinates": {
            "latitude": 24.5107797,
            "longitude": 72.024141
        }
    },
    {
        "name": "Jumma masjid dhanera",
        "main_category": "Mosque",
        "address": "G25F+VC9 Jumma masjid dhanera, Dhanera, Gujarat 385310",
        "detailed_address": {
            "ward": null,
            "street": "G25F+VC9",
            "city": "Dhanera",
            "postal_code": "385310",
            "state": "Gujarat",
            "country_code": "IN"
        },
        "images": [],
        "link": "https://www.google.com/maps/place/Jumma+masjid+dhanera/data=!4m7!3m6!1s0x395cab9ab84fcac9:0x64a375ba8bd99873!8m2!3d24.5096681!4d72.0236092!16s%2Fg%2F11h60932r0!19sChIJycpPuJqrXDkRc5jZi7p1o2Q?authuser=0&hl=en&rclk=1",
        "coordinates": {
            "latitude": 24.5096681,
            "longitude": 72.0236092
        }
    },
    {
        "name": "MASJID-A-SUKUN(SOCITY) MASJID,DHANERA",
        "main_category": "Mosque",
        "address": "G24C+39J MASJID-A-SUKUN(SOCITY) MASJID,DHANERA, Dhanera, Gujarat 385310",
        "detailed_address": {
            "ward": null,
            "street": "G24C+39J",
            "city": "Dhanera",
            "postal_code": "385310",
            "state": "Gujarat",
            "country_code": "IN"
        },
        "images": [],
        "link": "https://www.google.com/maps/place/MASJID-A-SUKUN%28SOCITY%29+MASJID,DHANERA/data=!4m7!3m6!1s0x395cab8e7556b727:0x9c2067e402aafa89!8m2!3d24.5052186!4d72.0208972!16s%2Fg%2F11h0ykyk4d!19sChIJJ7dWdY6rXDkRifqqAuRnIJw?authuser=0&hl=en&rclk=1",
        "coordinates": {
            "latitude": 24.5052186,
            "longitude": 72.0208972
        }
    },
    {
        "name": "AKBARI MASJID(MADRESS)",
        "main_category": "Mosque",
        "address": "G24F+38X AKBARI MASJID(MADRESS), Dhanera, Gujarat 385310",
        "detailed_address": {
            "ward": null,
            "street": "G24F+38X",
            "city": "Dhanera",
            "postal_code": "385310",
            "state": "Gujarat",
            "country_code": "IN"
        },
        "images": [],
        "link": "https://www.google.com/maps/place/AKBARI+MASJID%28MADRESS%29/data=!4m7!3m6!1s0x395cab9a5aad4dfd:0x36a7d122659f886b!8m2!3d24.505243!4d72.0233631!16s%2Fg%2F11fkq_km5s!19sChIJ_U2tWpqrXDkRa4ifZSLRpzY?authuser=0&hl=en&rclk=1",
        "coordinates": {
            "latitude": 24.505243,
            "longitude": 72.0233631
        }
    }
]