[
    {
        "name": "mlkhnh jm` msjd",
        "main_category": "Mosque",
        "address": "82XM+9VF mlkhnh jm` msjd, Malikana Rd, Taregana, Bihar 804452",
        "detailed_address": {
            "ward": null,
            "street": "82XM+9VF, Malikana Rd",
            "city": "Taregana",
            "postal_code": "804452",
            "state": "Bihar",
            "country_code": "IN"
        },
        "images": [],
        "link": "https://www.google.com/maps/place/%D9%85%D8%A7%D9%84%DA%A9%D8%A7%D9%86%DB%81+%D8%AC%D8%A7%D9%85%D8%B9+%D9%85%D8%B3%D8%AC%D8%AF%E2%80%AD/data=!4m7!3m6!1s0x39f2b19ca756de3f:0x5b3309d37999d3c9!8m2!3d25.348428!4d85.0346839!16s%2Fg%2F11c553pzfb!19sChIJP95Wp5yx8jkRydOZedMJM1s?authuser=0&hl=en&rclk=1",
        "coordinates": {
            "latitude": 25.348428,
            "longitude": 85.03468389999999
        }
    },
    {
        "name": "Jama Masjid RahmatGanj",
        "main_category": "Mosque",
        "address": "923P+QG8 Jama Masjid RahmatGanj, Taregna Station, Jama Masjid Rd, Rahmat Ganj, Patna, Bihar 804452",
        "detailed_address": {
            "ward": "Rahmat Ganj",
            "street": "923P+QG8, Taregna Station, Jama Masjid Rd",
            "city": "Patna, Kumahartoli",
            "postal_code": "804452",
            "state": "Bihar",
            "country_code": "IN"
        },
        "images": [
            {
                "about": "All",
                "link": "https://lh5.googleusercontent.com/p/AF1QipOicPQzP9TE7X_NffmI2OkJBCDV6YslIEC_vQf9=w530-h298-k-no"
            },
            {
                "about": "Dome",
                "link": "https://lh5.googleusercontent.com/p/AF1QipMLk7mYt6vhjJ7Qr3Tot0C19r0XBWB7KcqouhUh=w447-h298-k-no"
            }
        ],
        "link": "https://www.google.com/maps/place/Jama+Masjid+RahmatGanj/data=!4m7!3m6!1s0x39f2b1907ff61003:0x58645e2d98ab1dee!8m2!3d25.3544116!4d85.0363287!16s%2Fg%2F11b7ysg92y!19sChIJAxD2f5Cx8jkR7h2rmC1eZFg?authuser=0&hl=en&rclk=1",
        "coordinates": {
            "latitude": 25.3544116,
            "longitude": 85.0363287
        }
    },
    {
        "name": "KashmirGanj Masjid",
        "main_category": "Mosque",
        "address": "924M+R4G KashmirGanj Masjid, Masaurhi, Bihar 804452",
        "detailed_address": {
            "ward": null,
            "street": "924M+R4G",
            "city": "Masaurhi",
            "postal_code": "804452",
            "state": "Bihar",
            "country_code": "IN"
        },
        "images": [
            {
                "about": "All",
                "link": "https://lh5.googleusercontent.com/p/AF1QipNnrLPvSLgr1ZgXCvXhaAgu6-MHDjOPpoyJY_qY=w528-h298-k-no"
            },
            {
                "about": "Videos",
                "link": "https://lh5.googleusercontent.com/p/AF1QipMyZirIpJ5-umCvQ3qdRohDg0fqEsft8omZsKnE=w224-h398-k-no"
            }
        ],
        "link": "https://www.google.com/maps/place/KashmirGanj+Masjid/data=!4m7!3m6!1s0x39f2b18fcc623c7b:0xf5f2888cc2a24cae!8m2!3d25.3570558!4d85.0328225!16s%2Fg%2F11ggrllfx4!19sChIJezxizI-x8jkRrkyiwoyI8vU?authuser=0&hl=en&rclk=1",
        "coordinates": {
            "latitude": 25.357055799999998,
            "longitude": 85.0328225
        }
    },
    {
        "name": "Bhakhra Masjid",
        "main_category": "Mosque",
        "address": "92F2+G2C Bhakhra Masjid, Bhakhra, Masaurhi, Bihar 804453",
        "detailed_address": {
            "ward": null,
            "street": "92F2+G2C, Bhakhra",
            "city": "Masaurhi, Bhadaura",
            "postal_code": "804453",
            "state": "Bihar",
            "country_code": "IN"
        },
        "images": [],
        "link": "https://www.google.com/maps/place/Bhakhra+Masjid/data=!4m7!3m6!1s0x39f2b3857fc3e269:0xb586a3824391f4bf!8m2!3d25.3738107!4d85.0000239!16s%2Fg%2F11gzs3rr7v!19sChIJaeLDf4Wz8jkRv_SRQ4KjhrU?authuser=0&hl=en&rclk=1",
        "coordinates": {
            "latitude": 25.3738107,
            "longitude": 85.0000239
        }
    },
    {
        "name": "Masjid",
        "main_category": "Religious destination",
        "address": "925Q+JGJ Masjid, Masaurhi, Bihar 804452",
        "detailed_address": {
            "ward": null,
            "street": "925Q+JGJ",
            "city": "Masaurhi",
            "postal_code": "804452",
            "state": "Bihar",
            "country_code": "IN"
        },
        "images": [],
        "link": "https://www.google.com/maps/place/Masjid/data=!4m7!3m6!1s0x39f2b1914a554943:0x9d6ba7111e87ef68!8m2!3d25.3590986!4d85.038772!16s%2Fg%2F11f4tzl7ch!19sChIJQ0lVSpGx8jkRaO-HHhGna50?authuser=0&hl=en&rclk=1",
        "coordinates": {
            "latitude": 25.3590986,
            "longitude": 85.038772
        }
    },
    {
        "name": "Masjid",
        "main_category": "Mosque",
        "address": "82JG+JHM Masjid, Unnamed Road, Tineri, Chhotki Masaurhi, Bihar 804454",
        "detailed_address": {
            "ward": null,
            "street": "82JG+JHM, Unnamed Road",
            "city": "Tineri, Chhotki Masaurhi",
            "postal_code": "804454",
            "state": "Bihar",
            "country_code": "IN"
        },
        "images": [
            {
                "about": "All",
                "link": "https://lh5.googleusercontent.com/p/AF1QipNZCt_wSV6n8k7YqTwFc_V3nNq1TEhc-mBHO-nI=w397-h298-k-no"
            }
        ],
        "link": "https://www.google.com/maps/place/Masjid/data=!4m7!3m6!1s0x39f2b1bfeed36a9b:0xb3a577080740f66e!8m2!3d25.3315764!4d85.0264211!16s%2Fg%2F11jk8rggj7!19sChIJm2rT7r-x8jkRbvZABwh3pbM?authuser=0&hl=en&rclk=1",
        "coordinates": {
            "latitude": 25.3315764,
            "longitude": 85.0264211
        }
    },
    {
        "name": "`ydgh prny bzr purani bazar eidgah",
        "main_category": "Mosque",
        "address": "922H+595 `ydgh prny bzr purani bazar eidgah, Dih Masaurhi Rd, Taregana, Masaurhi, Bihar 804452",
        "detailed_address": {
            "ward": null,
            "street": "922H+595, Dih Masaurhi Rd",
            "city": "Taregana, Masaurhi",
            "postal_code": "804452",
            "state": "Bihar",
            "country_code": "IN"
        },
        "images": [
            {
                "about": "All",
                "link": "https://lh5.googleusercontent.com/p/AF1QipP5XCbSVynX3OGghE-gqTuh7yRstqrmmLWCqR9g=w224-h398-k-no"
            },
            {
                "about": "Street View & 360deg",
                "link": "https://streetviewpixels-pa.googleapis.com/v1/thumbnail?panoid=vhZhDpy7gzPpkX7Nz3sp5w&cb_client=maps_sv.tactile.gps&w=224&h=298&yaw=275.4812&pitch=0&thumbfov=100"
            },
            {
                "about": "Videos",
                "link": "https://lh5.googleusercontent.com/p/AF1QipNznxdESQ8VS6kB91_MbmUKlpKWIEVXqyTGdH2K=w224-h398-k-no"
            }
        ],
        "link": "https://www.google.com/maps/place/%D8%B9%DB%8C%D8%AF%DA%AF%D8%A7%DB%81+%D9%BE%D8%B1%D8%A7%D9%86%DB%8C+%D8%A8%D8%A7%D8%B2%D8%A7%D8%B1+purani+bazar+eidgah%E2%80%AD/data=!4m7!3m6!1s0x39f2b11853802069:0x1fc36beb4043e654!8m2!3d25.3503839!4d85.0284736!16s%2Fg%2F11fszhfvwq!19sChIJaSCAUxix8jkRVOZDQOtrwx8?authuser=0&hl=en&rclk=1",
        "coordinates": {
            "latitude": 25.350383899999997,
            "longitude": 85.0284736
        }
    },
    {
        "name": "Jamia sautul Quran, hussainabad,malikana",
        "main_category": "Mosque",
        "address": "82XP+79H Jamia sautul Quran, hussainabad,malikana, Vidhayak Rd, Taregana, Bihar 804452",
        "detailed_address": {
            "ward": null,
            "street": "82XP+79H, Vidhayak Rd",
            "city": "Taregana",
            "postal_code": "804452",
            "state": "Bihar",
            "country_code": "IN"
        },
        "images": [
            {
                "about": "All",
                "link": "https://lh5.googleusercontent.com/p/AF1QipMy-mFLxDE9te67bNVMZjpuz1o4xgV-WK7bu2r2=w662-h298-k-no"
            },
            {
                "about": "Videos",
                "link": "https://lh5.googleusercontent.com/p/AF1QipM6xYOWA9bzCplSg37R85e2H649kEFkpxDS6lL5=w529-h298-k-no"
            }
        ],
        "link": "https://www.google.com/maps/place/Jamia+sautul+Quran,+hussainabad,malikana/data=!4m7!3m6!1s0x39f2b119fddd7735:0x903e586e8eb0e8d1!8m2!3d25.3483235!4d85.0360168!16s%2Fg%2F11t40t__wv!19sChIJNXfd_Rmx8jkR0eiwjm5YPpA?authuser=0&hl=en&rclk=1",
        "coordinates": {
            "latitude": 25.3483235,
            "longitude": 85.0360168
        }
    },
    {
        "name": "Madrsa Jamia Madinatul Uloom",
        "main_category": "Mosque",
        "address": "922H+69P Madrsa Jamia Madinatul Uloom, Masaurhi, Bihar 804452",
        "detailed_address": {
            "ward": null,
            "street": "922H+69P",
            "city": "Masaurhi",
            "postal_code": "804452",
            "state": "Bihar",
            "country_code": "IN"
        },
        "images": [
            {
                "about": "All",
                "link": "https://streetviewpixels-pa.googleapis.com/v1/thumbnail?panoid=DBXpsDUgjspEgS-utkStHg&cb_client=maps_sv.tactile.gps&w=224&h=298&yaw=235.59181&pitch=0&thumbfov=100"
            },
            {
                "about": "Street View & 360deg",
                "link": "https://streetviewpixels-pa.googleapis.com/v1/thumbnail?panoid=DBXpsDUgjspEgS-utkStHg&cb_client=maps_sv.tactile.gps&w=224&h=298&yaw=235.59181&pitch=0&thumbfov=100"
            }
        ],
        "link": "https://www.google.com/maps/place/Madrsa+Jamia+Madinatul+Uloom/data=!4m7!3m6!1s0x39f2b1558847e2c1:0x9b8581ee6072d021!8m2!3d25.3506111!4d85.0285618!16s%2Fg%2F11st83yggz!19sChIJweJHiFWx8jkRIdByYO6BhZs?authuser=0&hl=en&rclk=1",
        "coordinates": {
            "latitude": 25.3506111,
            "longitude": 85.02856179999999
        }
    },
    {
        "name": "Jama Masjid",
        "main_category": "Mosque",
        "address": "82R9+R9X Jama Masjid, Dih Masaurhi Rd, Taregana, Jatti Chak, Bihar 804454",
        "detailed_address": {
            "ward": null,
            "street": "82R9+R9X, Dih Masaurhi Rd",
            "city": "Taregana, Jatti Chak",
            "postal_code": null,
            "state": "Bihar",
            "country_code": "IN"
        },
        "images": [
            {
                "about": "All",
                "link": "https://streetviewpixels-pa.googleapis.com/v1/thumbnail?panoid=UNflHYxBIOmSbOkDvvOQtg&cb_client=maps_sv.tactile.gps&w=224&h=298&yaw=7.0520086&pitch=0&thumbfov=100"
            },
            {
                "about": "Street View & 360deg",
                "link": "https://streetviewpixels-pa.googleapis.com/v1/thumbnail?panoid=UNflHYxBIOmSbOkDvvOQtg&cb_client=maps_sv.tactile.gps&w=224&h=298&yaw=7.0520086&pitch=0&thumbfov=100"
            }
        ],
        "link": "https://www.google.com/maps/place/Jama+Masjid/data=!4m7!3m6!1s0x39f2b3c93ef84d37:0xefde19a0f63dbaff!8m2!3d25.3421203!4d85.0184809!16s%2Fg%2F11tsxnc6g4!19sChIJN034Psmz8jkR_7o99qAZ3u8?authuser=0&hl=en&rclk=1",
        "coordinates": {
            "latitude": 25.342120299999998,
            "longitude": 85.0184809
        }
    },
    {
        "name": "Ashraf ganj masjid",
        "main_category": "Mosque",
        "address": "9345+7W6 Ashraf ganj masjid, Ashraf ganj, Masaurhi, Barni, Bihar 804452",
        "detailed_address": {
            "ward": "Ashraf ganj",
            "street": "9345+7W6",
            "city": "Masaurhi, Barni",
            "postal_code": "804452",
            "state": "Bihar",
            "country_code": "IN"
        },
        "images": [
            {
                "about": "All",
                "link": "https://lh5.googleusercontent.com/p/AF1QipOlRudGuRMFhmMdeRD56GaWsjFJ4d8eKApSfOJk=w397-h298-k-no"
            }
        ],
        "link": "https://www.google.com/maps/place/Ashraf+ganj+masjid/data=!4m7!3m6!1s0x39f2b1601875db2f:0x39bbcfbc163704a1!8m2!3d25.35567!4d85.0597801!16s%2Fg%2F11v3_tcpn8!19sChIJL9t1GGCx8jkRoQQ3FrzPuzk?authuser=0&hl=en&rclk=1",
        "coordinates": {
            "latitude": 25.35567,
            "longitude": 85.0597801
        }
    },
    {
        "name": "Meersurahia Masjid",
        "main_category": "Education center",
        "address": "922J+GCH Meersurahia Masjid, Masaurhi, Bihar 804452",
        "detailed_address": {
            "ward": null,
            "street": "922J+GCH",
            "city": "Masaurhi",
            "postal_code": "804452",
            "state": "Bihar",
            "country_code": "IN"
        },
        "images": [],
        "link": "https://www.google.com/maps/place/Meersurahia+Masjid/data=!4m7!3m6!1s0x39f2b17691e7d46f:0x7f21b74e2056e88e!8m2!3d25.3513196!4d85.0311068!16s%2Fg%2F11vc2x3rlz!19sChIJb9TnkXax8jkRjuhWIE63IX8?authuser=0&hl=en&rclk=1",
        "coordinates": {
            "latitude": 25.3513196,
            "longitude": 85.03110679999999
        }
    },
    {
        "name": "AL SHAFIR GHARIB NAWAZ MASJID",
        "main_category": "Mosque",
        "address": "AL SHAFIR GHARIB NAWAZ MASJID, Bihar state, Masaurhi, Bakarpur, Bihar 804452",
        "detailed_address": {
            "ward": null,
            "street": "Bihar state",
            "city": "Masaurhi, Bakarpur",
            "postal_code": "804452",
            "state": "Bihar",
            "country_code": "IN"
        },
        "images": [
            {
                "about": "All",
                "link": "https://streetviewpixels-pa.googleapis.com/v1/thumbnail?panoid=QYrzEjteZN8SthRy37LP0w&cb_client=maps_sv.tactile.gps&w=224&h=298&yaw=204.0681&pitch=0&thumbfov=100"
            },
            {
                "about": "Street View & 360deg",
                "link": "https://streetviewpixels-pa.googleapis.com/v1/thumbnail?panoid=QYrzEjteZN8SthRy37LP0w&cb_client=maps_sv.tactile.gps&w=224&h=298&yaw=204.0681&pitch=0&thumbfov=100"
            }
        ],
        "link": "https://www.google.com/maps/place/AL+SHAFIR+GHARIB+NAWAZ+MASJID/data=!4m7!3m6!1s0x39f2af2d88434f0d:0x1f6405f7ed9639fe!8m2!3d25.4636916!4d85.0920743!16s%2Fg%2F11jpshxp0n!19sChIJDU9DiC2v8jkR_jmW7fcFZB8?authuser=0&hl=en&rclk=1",
        "coordinates": {
            "latitude": 25.463691599999997,
            "longitude": 85.0920743
        }
    }
]