[
    {
        "name": "Madina Masjid",
        "main_category": "Mosque",
        "address": "Madina Masjid, Mudkhed, Maharashtra 431806",
        "detailed_address": {
            "ward": null,
            "street": null,
            "city": "Mudkhed",
            "postal_code": "431806",
            "state": "Maharashtra",
            "country_code": "IN"
        },
        "images": [
            {
                "about": "All",
                "link": "https://lh5.googleusercontent.com/p/AF1QipPgS0FCkHJNSSmqw197esIxAz1hzkgbsXV7oCts=w397-h298-k-no"
            },
            {
                "about": "Videos",
                "link": "https://lh5.googleusercontent.com/p/AF1QipNMb257mJj5i400VsIzhxIV3ra4XaAxdksSF7Y=w224-h398-k-no"
            }
        ],
        "link": "https://www.google.com/maps/place/Madina+Masjid/data=!4m7!3m6!1s0x3bd1df7bc5a625e3:0x90ea22c655bae9f8!8m2!3d19.1475038!4d77.5094172!16s%2Fg%2F11dym1tc8f!19sChIJ4yWmxXvf0TsR-Om6VcYi6pA?authuser=0&hl=en&rclk=1",
        "coordinates": {
            "latitude": 19.1475038,
            "longitude": 77.5094172
        }
    },
    {
        "name": "Jama Masjid",
        "main_category": "Mosque",
        "address": "5G43+QH9 Jama Masjid, Mudkhed, Maharashtra 431806",
        "detailed_address": {
            "ward": null,
            "street": "5G43+QH9",
            "city": "Mudkhed",
            "postal_code": "431806",
            "state": "Maharashtra",
            "country_code": "IN"
        },
        "images": [
            {
                "about": "All",
                "link": "https://lh5.googleusercontent.com/p/AF1QipNldOH1n45uJxgrE_oeIpIJZ0-2c5TbevJiwFy5=w529-h298-k-no"
            },
            {
                "about": "Dome",
                "link": "https://lh5.googleusercontent.com/p/AF1QipMsgR1PwZLC41Trvy_e5EN8YAl-9dC9IwYdjLAj=w286-h298-k-no"
            },
            {
                "about": "Street View & 360deg",
                "link": "https://lh5.googleusercontent.com/p/AF1QipOthAYSQyr3jWH5jNGgqIAj5fHOYTjuFCKM6hPH=w224-h298-k-no-pi-0-ya177.99998-ro-0-fo100"
            }
        ],
        "link": "https://www.google.com/maps/place/Jama+Masjid/data=!4m7!3m6!1s0x3bd1df6dfd210de5:0xde301be1b1925d56!8m2!3d19.1569198!4d77.5039691!16s%2Fg%2F1tfhy17_!19sChIJ5Q0h_W3f0TsRVl2SseEbMN4?authuser=0&hl=en&rclk=1",
        "coordinates": {
            "latitude": 19.1569198,
            "longitude": 77.50396909999999
        }
    },
    {
        "name": "Masjid E Maarsa H Umar Bin Khattab",
        "main_category": "Mosque",
        "address": "5G28+JJ6 Masjid E Maarsa H Umar Bin Khattab, Mudkhed, Maharashtra 431806",
        "detailed_address": {
            "ward": null,
            "street": "5G28+JJ6",
            "city": "Mudkhed",
            "postal_code": "431806",
            "state": "Maharashtra",
            "country_code": "IN"
        },
        "images": [
            {
                "about": "All",
                "link": "https://lh5.googleusercontent.com/p/AF1QipPok9PvAKvQ5_HtaXEA8LshbViONGA3ad8VOnEE=w529-h298-k-no"
            },
            {
                "about": "Latest",
                "link": "https://streetviewpixels-pa.googleapis.com/v1/thumbnail?panoid=O83YAEphT144FTxgVJ8l5A&cb_client=maps_sv.tactile.gps&w=224&h=298&yaw=55.43165&pitch=0&thumbfov=100"
            },
            {
                "about": "Dome",
                "link": "https://lh5.googleusercontent.com/p/AF1QipPPY4lFx0Dkio90a3SPX-Rw7I6BvGNe4wZ1S5U1=w529-h298-k-no"
            },
            {
                "about": "Street View & 360deg",
                "link": "https://streetviewpixels-pa.googleapis.com/v1/thumbnail?panoid=O83YAEphT144FTxgVJ8l5A&cb_client=maps_sv.tactile.gps&w=224&h=298&yaw=55.43165&pitch=0&thumbfov=100"
            }
        ],
        "link": "https://www.google.com/maps/place/Masjid+E+Maarsa+H+Umar+Bin+Khattab/data=!4m7!3m6!1s0x3bd1df82ac65e805:0x82bd8dfef6eefb10!8m2!3d19.1515387!4d77.5165027!16s%2Fg%2F11fz5b4gq2!19sChIJBehlrILf0TsREPvu9v6NvYI?authuser=0&hl=en&rclk=1",
        "coordinates": {
            "latitude": 19.1515387,
            "longitude": 77.51650269999999
        }
    },
    {
        "name": "Raza masjid",
        "main_category": "Mosque",
        "address": "5G43+5GQ Raza masjid, Sathe Nagar, Mudkhed, Maharashtra 431806",
        "detailed_address": {
            "ward": "Sathe Nagar",
            "street": "5G43+5GQ",
            "city": "Mudkhed",
            "postal_code": "431806",
            "state": "Maharashtra",
            "country_code": "IN"
        },
        "images": [
            {
                "about": "All",
                "link": "https://lh5.googleusercontent.com/p/AF1QipO-1p55ZrnPKyg0iOznOxzUSGqg_VC-B-CY_NW_=w224-h398-k-no"
            }
        ],
        "link": "https://www.google.com/maps/place/Raza+masjid/data=!4m7!3m6!1s0x3bd1df292e801093:0x43531d01f16f76f!8m2!3d19.1554557!4d77.5039656!16s%2Fg%2F11s7mn6z6p!19sChIJkxCALinf0TsRb_cWH9AxNQQ?authuser=0&hl=en&rclk=1",
        "coordinates": {
            "latitude": 19.155455699999997,
            "longitude": 77.5039656
        }
    },
    {
        "name": "Hazrat Khalid bin Walid Darul Uloom",
        "main_category": "Mosque",
        "address": "5G43+VXJ Hazrat Khalid bin Walid Darul Uloom, Mudkhed, Maharashtra 431806",
        "detailed_address": {
            "ward": null,
            "street": "5G43+VXJ",
            "city": "Mudkhed",
            "postal_code": "431806",
            "state": "Maharashtra",
            "country_code": "IN"
        },
        "images": [],
        "link": "https://www.google.com/maps/place/Hazrat+Khalid+bin+Walid+Darul+Uloom/data=!4m7!3m6!1s0x3bd1df450a74fea3:0xb1880d4297bc433d!8m2!3d19.1572112!4d77.5048837!16s%2Fg%2F11jwt1yvdk!19sChIJo_50CkXf0TsRPUO8l0INiLE?authuser=0&hl=en&rclk=1",
        "coordinates": {
            "latitude": 19.1572112,
            "longitude": 77.5048837
        }
    },
    {
        "name": "Masjid e Ayesha Islampura",
        "main_category": "Place of worship",
        "address": "5G43+654 Masjid e Ayesha Islampura, Mudkhed, Maharashtra 431806",
        "detailed_address": {
            "ward": null,
            "street": "5G43+654",
            "city": "Mudkhed",
            "postal_code": "431806",
            "state": "Maharashtra",
            "country_code": "IN"
        },
        "images": [],
        "link": "https://www.google.com/maps/place/Masjid+e+Ayesha+Islampura/data=!4m7!3m6!1s0x3bd1df670fd896bf:0xae13a1bc673d34c5!8m2!3d19.1555062!4d77.5029641!16s%2Fg%2F11h_jqrc84!19sChIJv5bYD2ff0TsRxTQ9Z7yhE64?authuser=0&hl=en&rclk=1",
        "coordinates": {
            "latitude": 19.155506199999998,
            "longitude": 77.5029641
        }
    },
    {
        "name": "Dargah. drgh",
        "main_category": "Mosque",
        "address": "5G53+4JV Dargah. drgh, Unnamed Road, Mudkhed, Maharashtra 431806",
        "detailed_address": {
            "ward": null,
            "street": "5G53+4JV, Unnamed Road",
            "city": "Mudkhed",
            "postal_code": "431806",
            "state": "Maharashtra",
            "country_code": "IN"
        },
        "images": [],
        "link": "https://www.google.com/maps/place/Dargah.+%D8%AF%D8%B1%DA%AF%D8%A7%DB%81%E2%80%AD/data=!4m7!3m6!1s0x3bd1df9d8e8dc287:0xc271036783f23406!8m2!3d19.1578711!4d77.504033!16s%2Fg%2F11mv4l0rbh!19sChIJh8KNjp3f0TsRBjTyg2cDccI?authuser=0&hl=en&rclk=1",
        "coordinates": {
            "latitude": 19.157871099999998,
            "longitude": 77.50403299999999
        }
    },
    {
        "name": "Eidgah Maidan",
        "main_category": "Mosque",
        "address": "5G23+83V Eidgah Maidan, `yd gh, Maharashtra 431806",
        "detailed_address": {
            "ward": null,
            "street": "5G23+83V",
            "city": "`yd gh",
            "postal_code": "431806",
            "state": "Maharashtra",
            "country_code": "IN"
        },
        "images": [],
        "link": "https://www.google.com/maps/place/Eidgah+Maidan/data=!4m7!3m6!1s0x3bd1dfaf044c1ff7:0xdf15897ae85988d8!8m2!3d19.1508683!4d77.5026823!16s%2Fg%2F11t58s6s61!19sChIJ9x9MBK_f0TsR2IhZ6HqJFd8?authuser=0&hl=en&rclk=1",
        "coordinates": {
            "latitude": 19.1508683,
            "longitude": 77.5026823
        }
    }
]