[
    {
        "name": "Jamamasjidmanihargothanakpur",
        "main_category": "Mosque",
        "address": "3444+XGW Jamamasjidmanihargothanakpur, Manihargoth Rd, Tanakpur, Uttarakhand 262309",
        "detailed_address": {
            "ward": null,
            "street": "3444+XGW, Manihargoth Rd",
            "city": "Tanakpur",
            "postal_code": "262309",
            "state": "Uttarakhand",
            "country_code": "IN"
        },
        "images": [
            {
                "about": "All",
                "link": "https://lh5.googleusercontent.com/p/AF1QipM4LR6VfGRTVi6x7SICoIknxGHKEACJ9Nl28Trh=w224-h407-k-no"
            },
            {
                "about": "Videos",
                "link": "https://lh5.googleusercontent.com/p/AF1QipN7-Y4e5EradeX3a0RIoEr8HR1eHzYkVI-y2IOq=w224-h407-k-no"
            }
        ],
        "link": "https://www.google.com/maps/place/Jamamasjidmanihargothanakpur/data=!4m7!3m6!1s0x39a101a6e657a8a9:0xa4d84248a5059370!8m2!3d29.0574992!4d80.1063247!16s%2Fg%2F11q3vs05px!19sChIJqahX5qYBoTkRcJMFpUhC2KQ?authuser=0&hl=en&rclk=1",
        "coordinates": {
            "latitude": 29.0574992,
            "longitude": 80.1063247
        }
    },
    {
        "name": "Sammer communication",
        "main_category": "Store",
        "address": "3455+R2J Sammer communication, Mochai, Tanakpur, Uttarakhand 262309",
        "detailed_address": {
            "ward": null,
            "street": "3455+R2J",
            "city": "Mochai, Tanakpur",
            "postal_code": "262309",
            "state": "Uttarakhand",
            "country_code": "IN"
        },
        "images": [
            {
                "about": "All",
                "link": "https://lh5.googleusercontent.com/p/AF1QipOPyde2se-uggDBXNPXGgDoefwcuPcisHTChBcX=w529-h298-k-no"
            },
            {
                "about": "Inside",
                "link": "https://lh5.googleusercontent.com/p/AF1QipPv15QUoBP8pY8dDrD6qBGlgHG5OaaGGhQ91RGt=w529-h298-k-no"
            }
        ],
        "link": "https://www.google.com/maps/place/Sammer+communication/data=!4m7!3m6!1s0x39a101e306232639:0x832b75f93b33ec43!8m2!3d29.060245!4d80.1081767!16s%2Fg%2F11rk59cfcn!19sChIJOSYjBuMBoTkRQ-wzO_l1K4M?authuser=0&hl=en&rclk=1",
        "coordinates": {
            "latitude": 29.060245,
            "longitude": 80.1081767
        }
    },
    {
        "name": "Jama masjid manihargot",
        "main_category": "School",
        "address": "3444+XGW Jama masjid manihargot, Manihargoth Rd, Tanakpur, Uttarakhand 262309",
        "detailed_address": {
            "ward": null,
            "street": "3444+XGW, Manihargoth Rd",
            "city": "Tanakpur",
            "postal_code": "262309",
            "state": "Uttarakhand",
            "country_code": "IN"
        },
        "images": [],
        "link": "https://www.google.com/maps/place/Jama+masjid+manihargot/data=!4m7!3m6!1s0x39a10114f2d04735:0xd5888479c1e713a1!8m2!3d29.0574987!4d80.1063413!16s%2Fg%2F11v1bl6h7_!19sChIJNUfQ8hQBoTkRoRPnwXmEiNU?authuser=0&hl=en&rclk=1",
        "coordinates": {
            "latitude": 29.0574987,
            "longitude": 80.1063413
        }
    },
    {
        "name": "Jama Masjid Khatima ( jm` msjd khhttym)",
        "main_category": "Housing complex",
        "address": "WXCC+FQF Jama Masjid Khatima ( jm` msjd khhttym), Khatima - Tanakpur Rd, Khatima, Uttarakhand 262308",
        "detailed_address": {
            "ward": null,
            "street": "WXCC+FQF, Khatima - Tanakpur Rd",
            "city": "Khatima",
            "postal_code": "262308",
            "state": "Uttarakhand",
            "country_code": "IN"
        },
        "images": [
            {
                "about": "All",
                "link": "https://streetviewpixels-pa.googleapis.com/v1/thumbnail?panoid=ZcEbagrB4mAry9IU3FMCJw&cb_client=maps_sv.tactile.gps&w=224&h=298&yaw=152.38345&pitch=0&thumbfov=100"
            },
            {
                "about": "Street View & 360deg",
                "link": "https://streetviewpixels-pa.googleapis.com/v1/thumbnail?panoid=ZcEbagrB4mAry9IU3FMCJw&cb_client=maps_sv.tactile.gps&w=224&h=298&yaw=152.38345&pitch=0&thumbfov=100"
            }
        ],
        "link": "https://www.google.com/maps/place/Jama+Masjid+Khatima+%28+%D8%AC%D8%A7%D9%85%D8%B9+%D9%85%D8%B3%D8%AC%D8%AF+%DA%A9%DA%BE%D9%B9%DB%8C%D9%85%D8%A7%29%E2%80%AD/data=!4m7!3m6!1s0x39a0515b9a7b8a05:0xf96553a47f79d461!8m2!3d28.9211891!4d79.971917!16s%2Fg%2F11vbbhyyfs!19sChIJBYp7mltRoDkRYdR5f6RTZfk?authuser=0&hl=en&rclk=1",
        "coordinates": {
            "latitude": 28.9211891,
            "longitude": 79.97191699999999
        }
    }
]