[
    {
        "name": "Rajgir mosque(rjgyr msjd)",
        "main_category": "Mosque",
        "address": "2CHC+MRX Rajgir mosque(rjgyr msjd), Tulsi Gali, Dangi Tola, Rajgir, Bihar 803116",
        "detailed_address": {
            "ward": "Dangi Tola",
            "street": "2CHC+MRX, Tulsi Gali",
            "city": "Rajgir",
            "postal_code": "803116",
            "state": "Bihar",
            "country_code": "IN"
        },
        "images": [
            {
                "about": "All",
                "link": "https://lh5.googleusercontent.com/p/AF1QipOJWOf2ldg2F3cDEOR--0u3pUVuOOdI-eFgsGmU=w397-h298-k-no"
            },
            {
                "about": "Dome",
                "link": "https://lh5.googleusercontent.com/p/AF1QipOQlgx6jwaTlfEEcZlMLgB0fdtk8QgKlE9sYyLQ=w224-h298-k-no"
            }
        ],
        "link": "https://www.google.com/maps/place/Rajgir+mosque%28%D8%B1%D8%A7%D8%AC%DA%AF%DB%8C%D8%B1+%D9%85%D8%B3%D8%AC%D8%AF%29%E2%80%AD/data=!4m7!3m6!1s0x39f2ef8e7db5e28f:0xa6b8c46dee0471eb!8m2!3d25.0292474!4d85.4220955!16s%2Fg%2F11m_yh5wj0!19sChIJj-K1fY7v8jkR63EE7m3EuKY?authuser=0&hl=en&rclk=1",
        "coordinates": {
            "latitude": 25.0292474,
            "longitude": 85.4220955
        }
    },
    {
        "name": "Khizar Mosque",
        "main_category": "Mosque",
        "address": "2C8F+F8M Khizar Mosque, Nimal, Rajgir, Bihar 803121",
        "detailed_address": {
            "ward": "Nimal",
            "street": "2C8F+F8M",
            "city": "Rajgir",
            "postal_code": "803121",
            "state": "Bihar",
            "country_code": "IN"
        },
        "images": [
            {
                "about": "All",
                "link": "https://lh5.googleusercontent.com/p/AF1QipPceMiP1P1MssihfphFc68vLo0D3Aq1cJGAXVQD=w224-h398-k-no"
            },
            {
                "about": "Dome",
                "link": "https://lh5.googleusercontent.com/p/AF1QipPceMiP1P1MssihfphFc68vLo0D3Aq1cJGAXVQD=w224-h398-k-no"
            },
            {
                "about": "Street View & 360deg",
                "link": "https://streetviewpixels-pa.googleapis.com/v1/thumbnail?panoid=oixa-wegimjE-9osY26FAg&cb_client=maps_sv.tactile.gps&w=224&h=298&yaw=110.51572&pitch=0&thumbfov=100"
            }
        ],
        "link": "https://www.google.com/maps/place/Khizar+Mosque/data=!4m7!3m6!1s0x39f2e55bc252235d:0x8d1abbc5f89a1a59!8m2!3d25.0162216!4d85.4233002!16s%2Fg%2F11f0kt4_bx!19sChIJXSNSwlvl8jkRWRqa-MW7Go0?authuser=0&hl=en&rclk=1",
        "coordinates": {
            "latitude": 25.016221599999998,
            "longitude": 85.4233002
        }
    },
    {
        "name": "Shuttari Masjid",
        "main_category": "Mosque",
        "address": "2CH9+RF7 Shuttari Masjid, Badi Milki, Dangi Tola, Rajgir, Bihar 803116",
        "detailed_address": {
            "ward": "Dangi Tola",
            "street": "2CH9+RF7 Badi Milki",
            "city": "Rajgir",
            "postal_code": "803116",
            "state": "Bihar",
            "country_code": "IN"
        },
        "images": [
            {
                "about": "All",
                "link": "https://lh5.googleusercontent.com/p/AF1QipPOqn7sRwDsZfsuSb39T7zSDfLPhhgNFICWZh_y=w224-h496-k-no"
            }
        ],
        "link": "https://www.google.com/maps/place/Shuttari+Masjid/data=!4m7!3m6!1s0x39f2ef32134d728b:0xf78857cb12473ea5!8m2!3d25.0295336!4d85.4186656!16s%2Fg%2F11p5zh2g2z!19sChIJi3JNEzLv8jkRpT5HEstXiPc?authuser=0&hl=en&rclk=1",
        "coordinates": {
            "latitude": 25.0295336,
            "longitude": 85.4186656
        }
    },
    {
        "name": "Majar",
        "main_category": "Mosque",
        "address": "2C8C+HXH Majar, Nimal, Rajgir, Bihar 803121",
        "detailed_address": {
            "ward": "Nimal",
            "street": "2C8C+HXH",
            "city": "Rajgir",
            "postal_code": "803121",
            "state": "Bihar",
            "country_code": "IN"
        },
        "images": [
            {
                "about": "All",
                "link": "https://lh5.googleusercontent.com/p/AF1QipOmBUtRT2-sGrNgFtqsfInpzgLNeJUKa4z9jcqt=w644-h298-k-no"
            },
            {
                "about": "Dome",
                "link": "https://lh5.googleusercontent.com/p/AF1QipPjYya3WQ72Z8X148u4ZappWH7g9aFg1pguHI14=w644-h298-k-no"
            },
            {
                "about": "Street View & 360deg",
                "link": "https://streetviewpixels-pa.googleapis.com/v1/thumbnail?panoid=0qMkT9Pp3HLLZRgWiizoGg&cb_client=maps_sv.tactile.gps&w=224&h=298&yaw=56.291508&pitch=0&thumbfov=100"
            }
        ],
        "link": "https://www.google.com/maps/place/Majar/data=!4m7!3m6!1s0x39f2e58c51ceeaa5:0x44c88d0402f9916c!8m2!3d25.0165926!4d85.4223687!16s%2Fg%2F11jszv4n1r!19sChIJperOUYzl8jkRbJH5AgSNyEQ?authuser=0&hl=en&rclk=1",
        "coordinates": {
            "latitude": 25.0165926,
            "longitude": 85.42236869999999
        }
    },
    {
        "name": "Masjid",
        "main_category": "Mosque",
        "address": "2CG9+PW6 Masjid, Purvi Bharat Rd, Dangi Tola, Rajgir, Bihar 803116",
        "detailed_address": {
            "ward": "Dangi Tola",
            "street": "2CG9+PW6, Purvi Bharat Rd",
            "city": "Rajgir",
            "postal_code": "803116",
            "state": "Bihar",
            "country_code": "IN"
        },
        "images": [],
        "link": "https://www.google.com/maps/place/Masjid/data=!4m7!3m6!1s0x39f2ef4bf6c75707:0x78955d6c9786eac5!8m2!3d25.0267888!4d85.419753!16s%2Fg%2F11vbs586xd!19sChIJB1fH9kvv8jkRxeqGl2xdlXg?authuser=0&hl=en&rclk=1",
        "coordinates": {
            "latitude": 25.0267888,
            "longitude": 85.419753
        }
    }
]