[
    {
        "name": "Badi Masjid",
        "main_category": "Mosque",
        "address": "Badi Masjid, Ghalla Mandi Mirzaganj, Malihabad, Uttar Pradesh 226102",
        "detailed_address": {
            "ward": null,
            "street": "Ghalla Mandi Mirzaganj",
            "city": "Malihabad",
            "postal_code": "226102",
            "state": "Uttar Pradesh",
            "country_code": "IN"
        },
        "images": [
            {
                "about": "All",
                "link": "https://lh5.googleusercontent.com/p/AF1QipPcqGg0ympe8UUNE1m_MxQWkArMZfV4VQSPLBLj=w224-h373-k-no"
            },
            {
                "about": "Dome",
                "link": "https://lh5.googleusercontent.com/p/AF1QipNiwXpbkotI7tKHb2NdzD1QKybnqE7zTN-recFQ=w397-h298-k-no"
            }
        ],
        "link": "https://www.google.com/maps/place/Badi+Masjid/data=!4m7!3m6!1s0x399ea971aec4f1cd:0x8360b51114bf8412!8m2!3d26.922788!4d80.7079475!16s%2Fg%2F11clfv7c51!19sChIJzfHErnGpnjkREoS_FBG1YIM?authuser=0&hl=en&rclk=1",
        "coordinates": {
            "latitude": 26.922787999999997,
            "longitude": 80.7079475
        }
    },
    {
        "name": "Khanjar Wali Takia Masjid",
        "main_category": "Mosque",
        "address": "435/85, Khanjar Wali Takia Masjid, 435/85, Malihabad Rd, Karim Ganj, Lucknow, Uttar Pradesh 226003",
        "detailed_address": {
            "ward": "Karim Ganj",
            "street": "435/85, 435/85, Malihabad Rd",
            "city": "Lucknow",
            "postal_code": "226003",
            "state": "Uttar Pradesh",
            "country_code": "IN"
        },
        "images": [
            {
                "about": "All",
                "link": "https://lh5.googleusercontent.com/p/AF1QipMhA2BZNZLum18C8psRygE-eskvqhyEnEcpmcCb=w397-h298-k-no"
            },
            {
                "about": "Street View & 360deg",
                "link": "https://streetviewpixels-pa.googleapis.com/v1/thumbnail?panoid=3TycKgfFgk6G1jEci2Wakg&cb_client=maps_sv.tactile.gps&w=224&h=298&yaw=87.046684&pitch=0&thumbfov=100"
            },
            {
                "about": "Videos",
                "link": "https://lh5.googleusercontent.com/p/AF1QipM462Ah7kP0m-VHOwYsordU25dramU2_EQFAL44=w224-h398-k-no"
            }
        ],
        "link": "https://www.google.com/maps/place/Khanjar+Wali+Takia+Masjid/data=!4m7!3m6!1s0x399bfe1bb945fe8b:0x3a78daeaa2542b68!8m2!3d26.8710615!4d80.8835276!16s%2Fg%2F11dxkzbsrz!19sChIJi_5FuRv-mzkRaCtUouraeDo?authuser=0&hl=en&rclk=1",
        "coordinates": {
            "latitude": 26.8710615,
            "longitude": 80.8835276
        }
    },
    {
        "name": "Masjid dularmau",
        "main_category": "Mosque",
        "address": "VMXX+8GR Masjid dularmau, Dular Mau, Uttar Pradesh 226102",
        "detailed_address": {
            "ward": null,
            "street": "VMXX+8GR",
            "city": "Dular Mau",
            "postal_code": "226102",
            "state": "Uttar Pradesh",
            "country_code": "IN"
        },
        "images": [
            {
                "about": "All",
                "link": "https://lh5.googleusercontent.com/p/AF1QipNfjiTu91C2duAzaN6zSDcgg4fOmOaPwXMBsK7X=w224-h298-k-no"
            }
        ],
        "link": "https://www.google.com/maps/place/Masjid+dularmau/data=!4m7!3m6!1s0x399ea947feb739f9:0x933d275a8280cb3e!8m2!3d26.8983651!4d80.6987714!16s%2Fg%2F11fj5gp18j!19sChIJ-Tm3_kepnjkRPsuAglonPZM?authuser=0&hl=en&rclk=1",
        "coordinates": {
            "latitude": 26.8983651,
            "longitude": 80.6987714
        }
    },
    {
        "name": "Badi Masjid (jm` msjd)",
        "main_category": "Mosque",
        "address": "WQMC+QXV Badi Masjid (jm` msjd), Kasmandikala, Uttar Pradesh 226102",
        "detailed_address": {
            "ward": null,
            "street": "WQMC+QXV",
            "city": "Kasmandikala",
            "postal_code": "226102",
            "state": "Uttar Pradesh",
            "country_code": "IN"
        },
        "images": [
            {
                "about": "All",
                "link": "https://lh5.googleusercontent.com/p/AF1QipOad4P6UM6Vmbe0XE0xj-q1VTwqwboaIlkTEEa7=w397-h298-k-no"
            }
        ],
        "link": "https://www.google.com/maps/place/Badi+Masjid+%28%D8%AC%D8%A7%D9%85%D8%B9+%D9%85%D8%B3%D8%AC%D8%AF%29%E2%80%AD/data=!4m7!3m6!1s0x399eab28089a8149:0x59650d7149366d24!8m2!3d26.9344983!4d80.7724242!16s%2Fg%2F11f64hjl08!19sChIJSYGaCCirnjkRJG02SXENZVk?authuser=0&hl=en&rclk=1",
        "coordinates": {
            "latitude": 26.934498299999998,
            "longitude": 80.7724242
        }
    },
    {
        "name": "MASJID E MEHFOOZ",
        "main_category": "Mosque",
        "address": "WPVP+8CP MASJID E MEHFOOZ, Hamira Pur, Uttar Pradesh 226102",
        "detailed_address": {
            "ward": null,
            "street": "WPVP+8CP",
            "city": "Hamira Pur",
            "postal_code": "226102",
            "state": "Uttar Pradesh",
            "country_code": "IN"
        },
        "images": [
            {
                "about": "All",
                "link": "https://lh5.googleusercontent.com/p/AF1QipOlq4qqbvdDa_JAgyT-P-_EJa9Zjfmw87wnxAuH=w224-h449-k-no"
            },
            {
                "about": "Videos",
                "link": "https://lh5.googleusercontent.com/p/AF1QipMHxGWQqIBMnNMS3SZQYxl7beQlSK5bsxtSsibV=w224-h398-k-no"
            }
        ],
        "link": "https://www.google.com/maps/place/MASJID+E+MEHFOOZ/data=!4m7!3m6!1s0x399eabb9292a8bff:0x917a6ad45acac5!8m2!3d26.9433315!4d80.7360886!16s%2Fg%2F11gyln2hjt!19sChIJ_4sqKbmrnjkRxcpa1Gp6kQA?authuser=0&hl=en&rclk=1",
        "coordinates": {
            "latitude": 26.9433315,
            "longitude": 80.7360886
        }
    },
    {
        "name": "Jama Masjid",
        "main_category": "Mosque",
        "address": "Jama Masjid, Chaudhrana, Malihabad, Uttar Pradesh 226102",
        "detailed_address": {
            "ward": "Chaudhrana",
            "street": null,
            "city": "Malihabad",
            "postal_code": "226102",
            "state": "Uttar Pradesh",
            "country_code": "IN"
        },
        "images": [
            {
                "about": "All",
                "link": "https://lh5.googleusercontent.com/p/AF1QipPrl9GAW8Mgk3HqxPf3VVMKR-95a9FPHUg2dUI=w224-h298-k-no"
            }
        ],
        "link": "https://www.google.com/maps/place/Jama+Masjid/data=!4m7!3m6!1s0x399ea977a541d987:0x21e6080c5c9995fd!8m2!3d26.9162234!4d80.7083278!16s%2Fg%2F11df7jvk4v!19sChIJh9lBpXepnjkR_ZWZXAwI5iE?authuser=0&hl=en&rclk=1",
        "coordinates": {
            "latitude": 26.9162234,
            "longitude": 80.70832779999999
        }
    },
    {
        "name": "Mahboob Masjid",
        "main_category": "Mosque",
        "address": "XP56+W6M Mahboob Masjid, Tiraha - Sandi Road, Malihabad, Kasmandi Khurd, Uttar Pradesh 226102",
        "detailed_address": {
            "ward": null,
            "street": "XP56+W6M, Tiraha - Sandi Road, Malihabad",
            "city": "Kasmandi Khurd",
            "postal_code": "226102",
            "state": "Uttar Pradesh",
            "country_code": "IN"
        },
        "images": [
            {
                "about": "All",
                "link": "https://lh5.googleusercontent.com/p/AF1QipPpZ6Y2o7s-PTOq2kaGbjG5EV18H7VcapXnhwoE=w224-h398-k-no"
            },
            {
                "about": "Videos",
                "link": "https://lh5.googleusercontent.com/p/AF1QipOwjCvG0Y3hCS37_zElOt5cwyljNww3j2Scqjc=w224-h398-k-no"
            }
        ],
        "link": "https://www.google.com/maps/place/Mahboob+Masjid/data=!4m7!3m6!1s0x399ea952a655562d:0x8395afd92ddd7bd6!8m2!3d26.9598457!4d80.7105586!16s%2Fg%2F11c2j_ps2z!19sChIJLVZVplKpnjkR1nvdLdmvlYM?authuser=0&hl=en&rclk=1",
        "coordinates": {
            "latitude": 26.9598457,
            "longitude": 80.7105586
        }
    },
    {
        "name": "Qadyani Masjid",
        "main_category": "Mosque",
        "address": "WP5H+2QG Qadyani Masjid, Bari, Barhi Garhi, Uttar Pradesh 226102",
        "detailed_address": {
            "ward": null,
            "street": "WP5H+2QG",
            "city": "Bari, Barhi Garhi",
            "postal_code": null,
            "state": "Uttar Pradesh",
            "country_code": "IN"
        },
        "images": [
            {
                "about": "All",
                "link": "https://lh5.googleusercontent.com/p/AF1QipP4CEOg9TUrV7PyjeQnwoxQDOEuCPayiAejHIGf=w529-h298-k-no"
            }
        ],
        "link": "https://www.google.com/maps/place/Qadyani+Masjid/data=!4m7!3m6!1s0x399eab2a89fd533d:0x1eb531df18b267b2!8m2!3d26.9075743!4d80.7294568!16s%2Fg%2F11fhtl618z!19sChIJPVP9iSqrnjkRsmeyGN8xtR4?authuser=0&hl=en&rclk=1",
        "coordinates": {
            "latitude": 26.9075743,
            "longitude": 80.7294568
        }
    },
    {
        "name": "masjid Huzaifa",
        "main_category": "Mosque",
        "address": "WP33+7MM masjid Huzaifa, Kewalhar, Malihabad Rd, Bakhtiyar Nagar, Uttar Pradesh 226102",
        "detailed_address": {
            "ward": null,
            "street": "WP33+7MM, Kewalhar, Malihabad Rd",
            "city": "Bakhtiyar Nagar",
            "postal_code": "226102",
            "state": "Uttar Pradesh",
            "country_code": "IN"
        },
        "images": [
            {
                "about": "All",
                "link": "https://lh5.googleusercontent.com/p/AF1QipPP3CMdtBiGTmgAZBjFOWZJrXKzTdjQ7k3IIjDy=w397-h298-k-no"
            }
        ],
        "link": "https://www.google.com/maps/place/masjid+Huzaifa/data=!4m7!3m6!1s0x399ea9691414c663:0xbfedf2b378b86e49!8m2!3d26.9032204!4d80.704167!16s%2Fg%2F11g_zmy_md!19sChIJY8YUFGmpnjkRSW64eLPy7b8?authuser=0&hl=en&rclk=1",
        "coordinates": {
            "latitude": 26.9032204,
            "longitude": 80.704167
        }
    },
    {
        "name": "Sahilmau Masjid",
        "main_category": "Mosque",
        "address": "WQ32+MM7 Sahilmau Masjid, Sahilamau, Uttar Pradesh 226102",
        "detailed_address": {
            "ward": null,
            "street": "WQ32+MM7",
            "city": "Sahilamau",
            "postal_code": "226102",
            "state": "Uttar Pradesh",
            "country_code": "IN"
        },
        "images": [
            {
                "about": "All",
                "link": "https://streetviewpixels-pa.googleapis.com/v1/thumbnail?panoid=WiWzKZ8Do6JbTWqERt_pyg&cb_client=maps_sv.tactile.gps&w=224&h=298&yaw=193.36105&pitch=0&thumbfov=100"
            },
            {
                "about": "Street View & 360deg",
                "link": "https://streetviewpixels-pa.googleapis.com/v1/thumbnail?panoid=WiWzKZ8Do6JbTWqERt_pyg&cb_client=maps_sv.tactile.gps&w=224&h=298&yaw=193.36105&pitch=0&thumbfov=100"
            }
        ],
        "link": "https://www.google.com/maps/place/Sahilmau+Masjid/data=!4m7!3m6!1s0x399eabbd2b3bebcd:0xc2c37b793c53ba36!8m2!3d26.9041648!4d80.7516639!16s%2Fg%2F11ghs47p20!19sChIJzes7K72rnjkRNrpTPHl7w8I?authuser=0&hl=en&rclk=1",
        "coordinates": {
            "latitude": 26.9041648,
            "longitude": 80.7516639
        }
    },
    {
        "name": "Jama mosque",
        "main_category": "Mosque",
        "address": "WPWP+5R6 Jama mosque, Hamira Pur, Uttar Pradesh 226102",
        "detailed_address": {
            "ward": null,
            "street": "WPWP+5R6",
            "city": "Hamira Pur",
            "postal_code": "226102",
            "state": "Uttar Pradesh",
            "country_code": "IN"
        },
        "images": [
            {
                "about": "All",
                "link": "https://lh5.googleusercontent.com/p/AF1QipOP2pX20cqQCn90MLYj3qV6AUh10Pk3L3v46_15=w396-h298-k-no"
            },
            {
                "about": "Dome",
                "link": "https://lh5.googleusercontent.com/p/AF1QipNyUw-Q4RKOrwiLW80XKrIqD-FXLa3I3Hg3wI-M=w396-h298-k-no"
            },
            {
                "about": "Videos",
                "link": "https://lh5.googleusercontent.com/p/AF1QipNoigYGuXOu40jEtaE389bK7LEPCXuUsZ2jiDOY=w224-h398-k-no"
            }
        ],
        "link": "https://www.google.com/maps/place/Jama+mosque/data=!4m7!3m6!1s0x399eab74cd78a333:0x256ddcd8bfc6247!8m2!3d26.9454147!4d80.7370304!16s%2Fg%2F11qh897d67!19sChIJM6N4zXSrnjkRR2L8i83dVgI?authuser=0&hl=en&rclk=1",
        "coordinates": {
            "latitude": 26.945414699999997,
            "longitude": 80.7370304
        }
    },
    {
        "name": "Masjid Nawab Sahab",
        "main_category": "Mosque",
        "address": "WPC6+Q7P Masjid Nawab Sahab, Unnamed Road, Malihabad, Uttar Pradesh 226102",
        "detailed_address": {
            "ward": null,
            "street": "WPC6+Q7P, Unnamed Road",
            "city": "Malihabad",
            "postal_code": "226102",
            "state": "Uttar Pradesh",
            "country_code": "IN"
        },
        "images": [],
        "link": "https://www.google.com/maps/place/Masjid+Nawab+Sahab/data=!4m7!3m6!1s0x399ea97c486dc779:0x19d18b41ffe7cbaf!8m2!3d26.9219659!4d80.7106904!16s%2Fg%2F11h7rz05bw!19sChIJecdtSHypnjkRr8vn_0GL0Rk?authuser=0&hl=en&rclk=1",
        "coordinates": {
            "latitude": 26.9219659,
            "longitude": 80.71069039999999
        }
    },
    {
        "name": "Masjid lalQabar",
        "main_category": "Mosque",
        "address": "WP64+F9Q Masjid lalQabar, Malihabad, Uttar Pradesh 226102",
        "detailed_address": {
            "ward": null,
            "street": "WP64+F9Q",
            "city": "Malihabad",
            "postal_code": "226102",
            "state": "Uttar Pradesh",
            "country_code": "IN"
        },
        "images": [
            {
                "about": "All",
                "link": "https://lh5.googleusercontent.com/p/AF1QipOX7Kw0DIXZBWgDlJLt8VLuOdj5_9h1xA8knqCd=w373-h298-k-no"
            }
        ],
        "link": "https://www.google.com/maps/place/Masjid+lalQabar/data=!4m7!3m6!1s0x399ea962b24c41c5:0x85cce818fce96196!8m2!3d26.9112092!4d80.7059825!16s%2Fg%2F11h3cd358c!19sChIJxUFMsmKpnjkRlmHp_BjozIU?authuser=0&hl=en&rclk=1",
        "coordinates": {
            "latitude": 26.9112092,
            "longitude": 80.70598249999999
        }
    },
    {
        "name": "Masjid jugyana",
        "main_category": "Mosque",
        "address": "WP56+V3P Masjid jugyana, Malihabad, Uttar Pradesh 226102",
        "detailed_address": {
            "ward": null,
            "street": "WP56+V3P",
            "city": "Malihabad",
            "postal_code": "226102",
            "state": "Uttar Pradesh",
            "country_code": "IN"
        },
        "images": [
            {
                "about": "All",
                "link": "https://lh5.googleusercontent.com/p/AF1QipN6E_d-aSB7Bgy_NuUyFauUhpm0Lp_sofvwnxTi=w224-h398-k-no"
            },
            {
                "about": "Street View & 360deg",
                "link": "https://streetviewpixels-pa.googleapis.com/v1/thumbnail?panoid=RCH_502BgRQdx_xqkajKlw&cb_client=maps_sv.tactile.gps&w=224&h=298&yaw=327.0153&pitch=0&thumbfov=100"
            }
        ],
        "link": "https://www.google.com/maps/place/Masjid+jugyana/data=!4m7!3m6!1s0x399ea949e9134e35:0x5a64e2d4a0dd55f1!8m2!3d26.9097202!4d80.710207!16s%2Fg%2F11g_x7_83l!19sChIJNU4T6UmpnjkR8VXdoNTiZFo?authuser=0&hl=en&rclk=1",
        "coordinates": {
            "latitude": 26.9097202,
            "longitude": 80.710207
        }
    },
    {
        "name": "masjid bazariya",
        "main_category": "Mosque",
        "address": "WP64+CWP masjid bazariya, bazariya, Chaudhrana Rd, Malihabad, Uttar Pradesh 226102",
        "detailed_address": {
            "ward": null,
            "street": "WP64+CWP, bazariya, Chaudhrana Rd",
            "city": "Malihabad",
            "postal_code": "226102",
            "state": "Uttar Pradesh",
            "country_code": "IN"
        },
        "images": [
            {
                "about": "All",
                "link": "https://lh5.googleusercontent.com/p/AF1QipMkSfX6KcVhp0ioqui6kyFy73RHzHO1JNF6r-FE=w224-h298-k-no"
            }
        ],
        "link": "https://www.google.com/maps/place/masjid+bazariya/data=!4m7!3m6!1s0x399ea92e71d2522d:0xa63ae97c758d605e!8m2!3d26.9110955!4d80.7073404!16s%2Fg%2F11h2ckmp8d!19sChIJLVLScS6pnjkRXmCNdXzpOqY?authuser=0&hl=en&rclk=1",
        "coordinates": {
            "latitude": 26.9110955,
            "longitude": 80.70734039999999
        }
    },
    {
        "name": "Madina Masjid",
        "main_category": "Mosque",
        "address": "WP84+RXF Madina Masjid, Chaudhrana, Dilawar Nagar, Malihabad, Uttar Pradesh 226102",
        "detailed_address": {
            "ward": "Chaudhrana, Dilawar Nagar",
            "street": "WP84+RXF",
            "city": "Malihabad",
            "postal_code": "226102",
            "state": "Uttar Pradesh",
            "country_code": "IN"
        },
        "images": [
            {
                "about": "All",
                "link": "https://lh5.googleusercontent.com/p/AF1QipOSWh8hz6QEggBHPj_d5RMzj6kGDItGRsUIMJRX=w224-h336-k-no"
            },
            {
                "about": "Dome",
                "link": "https://lh5.googleusercontent.com/p/AF1QipOSWh8hz6QEggBHPj_d5RMzj6kGDItGRsUIMJRX=w224-h336-k-no"
            }
        ],
        "link": "https://www.google.com/maps/place/Madina+Masjid/data=!4m7!3m6!1s0x399ea976fe5c6c6f:0x3769fe8e70d36889!8m2!3d26.9170666!4d80.7074224!16s%2Fg%2F11dfkp8n6q!19sChIJb2xc_napnjkRiWjTcI7-aTc?authuser=0&hl=en&rclk=1",
        "coordinates": {
            "latitude": 26.9170666,
            "longitude": 80.7074224
        }
    },
    {
        "name": "Masjid garhi",
        "main_category": "Mosque",
        "address": "WP73+P33 Masjid garhi, Malihabad, Uttar Pradesh 226102",
        "detailed_address": {
            "ward": null,
            "street": "WP73+P33",
            "city": "Malihabad",
            "postal_code": "226102",
            "state": "Uttar Pradesh",
            "country_code": "IN"
        },
        "images": [],
        "link": "https://www.google.com/maps/place/Masjid+garhi/data=!4m7!3m6!1s0x399ea9de7e6825f5:0x8d33d3da8c1ebc30!8m2!3d26.9142563!4d80.702674!16s%2Fg%2F11j7j081mf!19sChIJ9SVoft6pnjkRMLwejNrTM40?authuser=0&hl=en&rclk=1",
        "coordinates": {
            "latitude": 26.914256299999998,
            "longitude": 80.702674
        }
    },
    {
        "name": "Ek minar masjid",
        "main_category": "Mosque",
        "address": "WP75+H2J Ek minar masjid, Malihabad, Uttar Pradesh 226102",
        "detailed_address": {
            "ward": null,
            "street": "WP75+H2J",
            "city": "Malihabad",
            "postal_code": "226102",
            "state": "Uttar Pradesh",
            "country_code": "IN"
        },
        "images": [],
        "link": "https://www.google.com/maps/place/Ek+minar+masjid/data=!4m7!3m6!1s0x399ea9d7125015bd:0xe260b4d10268134e!8m2!3d26.9139672!4d80.7075167!16s%2Fg%2F11frrv6dn_!19sChIJvRVQEtepnjkRThNoAtG0YOI?authuser=0&hl=en&rclk=1",
        "coordinates": {
            "latitude": 26.9139672,
            "longitude": 80.7075167
        }
    },
    {
        "name": "masjid khabab",
        "main_category": "Mosque",
        "address": "masjid khabab, KEWALHAR, Malihabad, Bakhtiyar Nagar, Uttar Pradesh 226102",
        "detailed_address": {
            "ward": null,
            "street": "KEWALHAR",
            "city": "Malihabad, Bakhtiyar Nagar",
            "postal_code": "226102",
            "state": "Uttar Pradesh",
            "country_code": "IN"
        },
        "images": [],
        "link": "https://www.google.com/maps/place/masjid+khabab/data=!4m7!3m6!1s0x399ea90fb4769513:0xd9c0a63d303e42f9!8m2!3d26.9008168!4d80.702844!16s%2Fg%2F11h22jf47j!19sChIJE5V2tA-pnjkR-UI-MD2mwNk?authuser=0&hl=en&rclk=1",
        "coordinates": {
            "latitude": 26.900816799999998,
            "longitude": 80.702844
        }
    },
    {
        "name": "Eid gha-e-aam",
        "main_category": "Mosque",
        "address": "WM7W+JJR Eid gha-e-aam, Unnamed Road, Uttar Pradesh 226102",
        "detailed_address": {
            "ward": null,
            "street": "WM7W+JJR, Unnamed Road",
            "city": "Bhausa",
            "postal_code": "226102",
            "state": "Uttar Pradesh",
            "country_code": "IN"
        },
        "images": [],
        "link": "https://www.google.com/maps/place/Eid+gha-e-aam/data=!4m7!3m6!1s0x399ea952f77be725:0x65214b8c32988b25!8m2!3d26.9141089!4d80.696521!16s%2Fg%2F11h7xxhpdf!19sChIJJed791KpnjkRJYuYMoxLIWU?authuser=0&hl=en&rclk=1",
        "coordinates": {
            "latitude": 26.9141089,
            "longitude": 80.69652099999999
        }
    },
    {
        "name": "Markaz Masjid Malihabad",
        "main_category": "Mosque",
        "address": "WPF6+8M8 Markaz Masjid Malihabad, Malihabad, Uttar Pradesh 226102",
        "detailed_address": {
            "ward": null,
            "street": "WPF6+8M8",
            "city": "Malihabad",
            "postal_code": "226102",
            "state": "Uttar Pradesh",
            "country_code": "IN"
        },
        "images": [
            {
                "about": "All",
                "link": "https://lh5.googleusercontent.com/p/AF1QipM8HdWJdxQdJ5x_lxRdr9HAcyZqOlzzYw69xo_r=w224-h398-k-no"
            },
            {
                "about": "Videos",
                "link": "https://lh5.googleusercontent.com/p/AF1QipO-zQ9AxQ4JT22dVw4mmODi6YKAy8NyRiMOE8zg=w224-h398-k-no"
            }
        ],
        "link": "https://www.google.com/maps/place/Markaz+Masjid+Malihabad/data=!4m7!3m6!1s0x399ea97a8b56fb11:0x135f9c82901e5820!8m2!3d26.9232761!4d80.7117087!16s%2Fg%2F11gblfnqvr!19sChIJEftWi3qpnjkRIFgekIKcXxM?authuser=0&hl=en&rclk=1",
        "coordinates": {
            "latitude": 26.9232761,
            "longitude": 80.7117087
        }
    },
    {
        "name": "Nav Shaheed Masjid",
        "main_category": "Mosque",
        "address": "WP84+3RM Nav Shaheed Masjid, Chaudhrana Rd, near Pani ki Tanki, Malihabad, Uttar Pradesh 226102",
        "detailed_address": {
            "ward": null,
            "street": "WP84+3RM, Chaudhrana Rd, near Pani ki Tanki",
            "city": "Malihabad",
            "postal_code": "226102",
            "state": "Uttar Pradesh",
            "country_code": "IN"
        },
        "images": [],
        "link": "https://www.google.com/maps/place/Nav+Shaheed+Masjid/data=!4m7!3m6!1s0x399ea9f778b4d40b:0x19dcb5161b7f3aba!8m2!3d26.9152204!4d80.7070524!16s%2Fg%2F11tbw2p3hp!19sChIJC9S0ePepnjkRujp_Gxa13Bk?authuser=0&hl=en&rclk=1",
        "coordinates": {
            "latitude": 26.9152204,
            "longitude": 80.7070524
        }
    },
    {
        "name": "Masjid saudagar",
        "main_category": "Mosque",
        "address": "WP72+Q3X Masjid saudagar, Unnamed Road, Malihabad, Uttar Pradesh 226102",
        "detailed_address": {
            "ward": null,
            "street": "WP72+Q3X, Unnamed Road",
            "city": "Malihabad",
            "postal_code": "226102",
            "state": "Uttar Pradesh",
            "country_code": "IN"
        },
        "images": [
            {
                "about": "All",
                "link": "https://lh5.googleusercontent.com/p/AF1QipMXnONr9lOEiC-uPtbYiKcqnlUbZIecGZctGHRU=w224-h398-k-no"
            },
            {
                "about": "Videos",
                "link": "https://lh5.googleusercontent.com/p/AF1QipMXnONr9lOEiC-uPtbYiKcqnlUbZIecGZctGHRU=w224-h398-k-no"
            }
        ],
        "link": "https://www.google.com/maps/place/Masjid+saudagar/data=!4m7!3m6!1s0x399ea9cd84d6999b:0xa56f880a7726e57e!8m2!3d26.9144943!4d80.7002241!16s%2Fg%2F11fnz1chjg!19sChIJm5nWhM2pnjkRfuUmdwqIb6U?authuser=0&hl=en&rclk=1",
        "coordinates": {
            "latitude": 26.914494299999998,
            "longitude": 80.7002241
        }
    },
    {
        "name": "Masjid Kumedaan sahab",
        "main_category": "Mosque",
        "address": "WPC6+PM7 Masjid Kumedaan sahab, Unnamed Road, Malihabad, Uttar Pradesh 226102",
        "detailed_address": {
            "ward": null,
            "street": "WPC6+PM7, Unnamed Road",
            "city": "Malihabad",
            "postal_code": "226102",
            "state": "Uttar Pradesh",
            "country_code": "IN"
        },
        "images": [
            {
                "about": "All",
                "link": "https://lh5.googleusercontent.com/p/AF1QipMk27hr23iS9BVoJp0mr1FVzz7v8HkLGZB9-T8e=w529-h298-k-no"
            }
        ],
        "link": "https://www.google.com/maps/place/Masjid+Kumedaan+sahab/data=!4m7!3m6!1s0x399ea970e949803f:0x228dea6066d1139!8m2!3d26.9217982!4d80.711674!16s%2Fg%2F11j00jc3j5!19sChIJP4BJ6XCpnjkRORFtBqbeKAI?authuser=0&hl=en&rclk=1",
        "coordinates": {
            "latitude": 26.921798199999998,
            "longitude": 80.711674
        }
    },
    {
        "name": "new masjid",
        "main_category": "Mosque",
        "address": "new masjid, KEWALHAR, Malihabad, Uttar Pradesh 226102",
        "detailed_address": {
            "ward": null,
            "street": "KEWALHAR",
            "city": "Malihabad",
            "postal_code": "226102",
            "state": "Uttar Pradesh",
            "country_code": "IN"
        },
        "images": [
            {
                "about": "All",
                "link": "https://lh5.googleusercontent.com/p/AF1QipN_2oVCNte2Xp8uciRHXgy41oLxJpAiMKQe-Ma8=w224-h298-k-no"
            }
        ],
        "link": "https://www.google.com/maps/place/new+masjid/data=!4m7!3m6!1s0x399ea914b58a0dd9:0x22bae0ca0c514053!8m2!3d26.902789!4d80.7020853!16s%2Fg%2F11fhzfs_tf!19sChIJ2Q2KtRSpnjkRU0BRDMrguiI?authuser=0&hl=en&rclk=1",
        "coordinates": {
            "latitude": 26.902789,
            "longitude": 80.7020853
        }
    },
    {
        "name": "Masjid mujasa",
        "main_category": "Mosque",
        "address": "WPCF+8XF Masjid mujasa, Mujasa, Malihabad, Bhujasa, Uttar Pradesh 226102",
        "detailed_address": {
            "ward": "Mujasa",
            "street": "WPCF+8XF",
            "city": "Malihabad, Bhujasa",
            "postal_code": null,
            "state": "Uttar Pradesh",
            "country_code": "IN"
        },
        "images": [
            {
                "about": "All",
                "link": "https://lh5.googleusercontent.com/p/AF1QipPfyln3qnL1eL6FVofaF5bJgy5wKOOSJJE2pFAj=w224-h298-k-no"
            }
        ],
        "link": "https://www.google.com/maps/place/Masjid+mujasa/data=!4m7!3m6!1s0x399eab785d21633d:0x5f53cfc3d6b44f67!8m2!3d26.920806!4d80.7249112!16s%2Fg%2F11s5p743ld!19sChIJPWMhXXirnjkRZ0-01sPPU18?authuser=0&hl=en&rclk=1",
        "coordinates": {
            "latitude": 26.920806,
            "longitude": 80.7249112
        }
    },
    {
        "name": "Masjid Ameer Hamza",
        "main_category": "Mosque",
        "address": "Masjid Ameer Hamza, WP5M+M7G, Mahmoodnagar,Malihabad, Uttar Pradesh 226102",
        "detailed_address": {
            "ward": null,
            "street": "WP5M+M7G, Mahmoodnagar,Malihabad",
            "city": "Barhi Garhi",
            "postal_code": "226102",
            "state": "Uttar Pradesh",
            "country_code": "IN"
        },
        "images": [
            {
                "about": "All",
                "link": "https://lh5.googleusercontent.com/p/AF1QipOK_v5XOFBdQRBqPz9wg54N7kqnlLNbEIxzzCv-=w397-h298-k-no"
            }
        ],
        "link": "https://www.google.com/maps/place/Masjid+Ameer+Hamza/data=!4m7!3m6!1s0x399eaba08d6974af:0x690cea6ed5a18f8a!8m2!3d26.9091875!4d80.7332031!16s%2Fg%2F11ptnk83gy!19sChIJr3RpjaCrnjkRio-h1W7qDGk?authuser=0&hl=en&rclk=1",
        "coordinates": {
            "latitude": 26.909187499999998,
            "longitude": 80.7332031
        }
    },
    {
        "name": "Masjid-e-ayesha",
        "main_category": "Mosque",
        "address": "WQ33+X83 Masjid-e-ayesha, Sahilamau, Uttar Pradesh 226102",
        "detailed_address": {
            "ward": null,
            "street": "WQ33+X83",
            "city": "Sahilamau",
            "postal_code": "226102",
            "state": "Uttar Pradesh",
            "country_code": "IN"
        },
        "images": [
            {
                "about": "All",
                "link": "https://streetviewpixels-pa.googleapis.com/v1/thumbnail?panoid=FpSZ7sYLVJN4rJyp5VwErQ&cb_client=maps_sv.tactile.gps&w=224&h=298&yaw=246.30151&pitch=0&thumbfov=100"
            },
            {
                "about": "Street View & 360deg",
                "link": "https://streetviewpixels-pa.googleapis.com/v1/thumbnail?panoid=FpSZ7sYLVJN4rJyp5VwErQ&cb_client=maps_sv.tactile.gps&w=224&h=298&yaw=246.30151&pitch=0&thumbfov=100"
            }
        ],
        "link": "https://www.google.com/maps/place/Masjid-e-ayesha/data=!4m7!3m6!1s0x399eab5839f06e69:0x41c927106d8f2431!8m2!3d26.9048828!4d80.753303!16s%2Fg%2F11h53yffwx!19sChIJaW7wOVirnjkRMSSPbRAnyUE?authuser=0&hl=en&rclk=1",
        "coordinates": {
            "latitude": 26.9048828,
            "longitude": 80.753303
        }
    },
    {
        "name": "Masjid Pachchu Qalighar",
        "main_category": "Mosque",
        "address": "WPC5+9VJ Masjid Pachchu Qalighar, Malihabad, Uttar Pradesh 226102",
        "detailed_address": {
            "ward": null,
            "street": "WPC5+9VJ",
            "city": "Malihabad",
            "postal_code": "226102",
            "state": "Uttar Pradesh",
            "country_code": "IN"
        },
        "images": [],
        "link": "https://www.google.com/maps/place/Masjid+Pachchu+Qalighar/data=!4m7!3m6!1s0x399ea942ef92ebc7:0xfe1999ff4b3c5461!8m2!3d26.9210389!4d80.7097352!16s%2Fg%2F11rq8n8lsl!19sChIJx-uS70KpnjkRYVQ8S_-ZGf4?authuser=0&hl=en&rclk=1",
        "coordinates": {
            "latitude": 26.9210389,
            "longitude": 80.7097352
        }
    },
    {
        "name": "masjid mithu shah",
        "main_category": "Mosque",
        "address": "WP65+VQH masjid mithu shah, Malihabad, Uttar Pradesh 226102",
        "detailed_address": {
            "ward": null,
            "street": "WP65+VQH",
            "city": "Malihabad",
            "postal_code": "226102",
            "state": "Uttar Pradesh",
            "country_code": "IN"
        },
        "images": [
            {
                "about": "All",
                "link": "https://lh5.googleusercontent.com/p/AF1QipNX8pugK2Klj2Bgb9kkGGLtTuw7JIu7L_V0njst=w541-h298-k-no"
            },
            {
                "about": "Videos",
                "link": "https://lh5.googleusercontent.com/p/AF1QipNX8pugK2Klj2Bgb9kkGGLtTuw7JIu7L_V0njst=w541-h298-k-no"
            }
        ],
        "link": "https://www.google.com/maps/place/masjid+mithu+shah/data=!4m7!3m6!1s0x399ea9d20ca059db:0x288d2e156044d804!8m2!3d26.912184!4d80.7094841!16s%2Fg%2F11fktz6hkj!19sChIJ21mgDNKpnjkRBNhEYBUujSg?authuser=0&hl=en&rclk=1",
        "coordinates": {
            "latitude": 26.912184,
            "longitude": 80.7094841
        }
    },
    {
        "name": "Khinni Wali Masjid",
        "main_category": "Mosque",
        "address": "WP75+PPR Khinni Wali Masjid, Chaudhrana, Malihabad, Uttar Pradesh 226102",
        "detailed_address": {
            "ward": "Chaudhrana",
            "street": "WP75+PPR",
            "city": "Malihabad",
            "postal_code": "226102",
            "state": "Uttar Pradesh",
            "country_code": "IN"
        },
        "images": [],
        "link": "https://www.google.com/maps/place/Khinni+Wali+Masjid/data=!4m7!3m6!1s0x399ea92e9929c84f:0xf09052e603f93f88!8m2!3d26.9143502!4d80.7092579!16s%2Fg%2F11tbw2ktlj!19sChIJT8gpmS6pnjkRiD_5A-ZSkPA?authuser=0&hl=en&rclk=1",
        "coordinates": {
            "latitude": 26.914350199999998,
            "longitude": 80.7092579
        }
    },
    {
        "name": "Masjid Zainab Bagh",
        "main_category": "Mosque",
        "address": "Masjid Zainab Bagh, jainab bagh market, nai sadakRoad, Malihabad, Uttar Pradesh 226102",
        "detailed_address": {
            "ward": null,
            "street": "jainab bagh market, nai sadakRoad",
            "city": "Malihabad",
            "postal_code": "226102",
            "state": "Uttar Pradesh",
            "country_code": "IN"
        },
        "images": [],
        "link": "https://www.google.com/maps/place/Masjid+Zainab+Bagh/data=!4m7!3m6!1s0x399ea9ba4755fc3b:0x2230d0fce3b4683!8m2!3d26.9260025!4d80.7113704!16s%2Fg%2F11nfvgxb6p!19sChIJO_xVR7qpnjkRg0Y7zg8NIwI?authuser=0&hl=en&rclk=1",
        "coordinates": {
            "latitude": 26.9260025,
            "longitude": 80.71137039999999
        }
    },
    {
        "name": "Mohammadi masjid",
        "main_category": "Housing society",
        "address": "WP65+MV3 Mohammadi masjid, Malihabad, Uttar Pradesh 226102",
        "detailed_address": {
            "ward": null,
            "street": "WP65+MV3",
            "city": "Malihabad",
            "postal_code": "226102",
            "state": "Uttar Pradesh",
            "country_code": "IN"
        },
        "images": [],
        "link": "https://www.google.com/maps/place/Mohammadi+masjid/data=!4m7!3m6!1s0x399ea9405bf2315f:0x5539e751cbeb0330!8m2!3d26.9120838!4d80.7105863!16s%2Fg%2F11l1p309nb!19sChIJXzHyW0CpnjkRMAPry1HnOVU?authuser=0&hl=en&rclk=1",
        "coordinates": {
            "latitude": 26.912083799999998,
            "longitude": 80.7105863
        }
    },
    {
        "name": "Eidgah Masjid",
        "main_category": "Mosque",
        "address": "WM7W+QC3 Eidgah Masjid, Unnamed Road, Malihabad, Garhi Sajar Khan, Uttar Pradesh 226102",
        "detailed_address": {
            "ward": null,
            "street": "WM7W+QC3, Unnamed Road",
            "city": "Malihabad, Garhi Sajar Khan",
            "postal_code": "226102",
            "state": "Uttar Pradesh",
            "country_code": "IN"
        },
        "images": [],
        "link": "https://www.google.com/maps/place/Eidgah+Masjid/data=!4m7!3m6!1s0x399ea94ef675a825:0x92b98eae654ee0ac!8m2!3d26.9143917!4d80.6960613!16s%2Fg%2F11j03w1m__!19sChIJJah19k6pnjkRrOBOZa6OuZI?authuser=0&hl=en&rclk=1",
        "coordinates": {
            "latitude": 26.9143917,
            "longitude": 80.6960613
        }
    },
    {
        "name": "Masjid",
        "main_category": "Mosque",
        "address": "VPW6+J4G Masjid, Malihabad, Bakhtiyar Nagar, Uttar Pradesh 226102",
        "detailed_address": {
            "ward": null,
            "street": "VPW6+J4G",
            "city": "Malihabad, Bakhtiyar Nagar",
            "postal_code": "226102",
            "state": "Uttar Pradesh",
            "country_code": "IN"
        },
        "images": [
            {
                "about": "All",
                "link": "https://lh5.googleusercontent.com/p/AF1QipNlZMg0l5G0uYJbFAnf9GGZ5LuUMKIQZTFkfV0k=w529-h298-k-no"
            },
            {
                "about": "Dome",
                "link": "https://lh5.googleusercontent.com/p/AF1QipMjKDZ_cuY5iOmJgKISrGMHk9co5nQfOlyf3bgx=w529-h298-k-no"
            },
            {
                "about": "Videos",
                "link": "https://lh5.googleusercontent.com/p/AF1QipPRCG3_8M1fst5IPYW0GrfetMxvpMYrBYihnjAg=w224-h407-k-no"
            }
        ],
        "link": "https://www.google.com/maps/place/Masjid/data=!4m7!3m6!1s0x399ea93df0035947:0x1f3906e575b45a1a!8m2!3d26.8965578!4d80.71033!16s%2Fg%2F11tgd4n9n3!19sChIJR1kD8D2pnjkRGlq0deUGOR8?authuser=0&hl=en&rclk=1",
        "coordinates": {
            "latitude": 26.8965578,
            "longitude": 80.71033
        }
    },
    {
        "name": "Usmaniya (masjid)",
        "main_category": "Religious destination",
        "address": "WQJF+5V3 Usmaniya (masjid), Kasmandi kalan, Malihabad, Uttar Pradesh 226002",
        "detailed_address": {
            "ward": "Kasmandi kalan",
            "street": "WQJF+5V3",
            "city": "Malihabad",
            "postal_code": "226002",
            "state": "Uttar Pradesh",
            "country_code": "IN"
        },
        "images": [],
        "link": "https://www.google.com/maps/place/Usmaniya+%28masjid%29/data=!4m7!3m6!1s0x399eab6cc8a4c899:0x4edbb5b61dd0e22e!8m2!3d26.9303983!4d80.7746828!16s%2Fg%2F11t5b1rmb4!19sChIJmcikyGyrnjkRLuLQHba1204?authuser=0&hl=en&rclk=1",
        "coordinates": {
            "latitude": 26.9303983,
            "longitude": 80.7746828
        }
    },
    {
        "name": "Chaudhrana Qabristan",
        "main_category": "Religious destination",
        "address": "WP95+668 Chaudhrana Qabristan, Khwaja Wali Masjid Rd, Malihabad, Uttar Pradesh 226102",
        "detailed_address": {
            "ward": null,
            "street": "WP95+668, Khwaja Wali Masjid Rd",
            "city": "Malihabad",
            "postal_code": "226102",
            "state": "Uttar Pradesh",
            "country_code": "IN"
        },
        "images": [],
        "link": "https://www.google.com/maps/place/Chaudhrana+Qabristan/data=!4m7!3m6!1s0x399ea96b46aa0373:0x3853ff887deb974!8m2!3d26.9180279!4d80.7080783!16s%2Fg%2F11tbw27sn5!19sChIJcwOqRmupnjkRdLneh_g_hQM?authuser=0&hl=en&rclk=1",
        "coordinates": {
            "latitude": 26.9180279,
            "longitude": 80.7080783
        }
    },
    {
        "name": "MASJID-E-AQSA",
        "main_category": "Mosque",
        "address": "XH2R+JX5 MASJID-E-AQSA, daulatpur, Malihabad",
        "detailed_address": {
            "ward": null,
            "street": "XH2R+JX5, daulatpur",
            "city": "Malihabad, Daulatpur",
            "postal_code": null,
            "state": "Uttar Pradesh",
            "country_code": "IN"
        },
        "images": [],
        "link": "https://www.google.com/maps/place/MASJID-E-AQSA/data=!4m7!3m6!1s0x399ea70594d31875:0x3e29bc6b2994579b!8m2!3d26.9515031!4d80.5924718!16s%2Fg%2F11h91c8k5g!19sChIJdRjTlAWnnjkRm1eUKWu8KT4?authuser=0&hl=en&rclk=1",
        "coordinates": {
            "latitude": 26.9515031,
            "longitude": 80.5924718
        }
    },
    {
        "name": "Masjid e salauddin",
        "main_category": "Mosque",
        "address": "WPM3+8FM Masjid e salauddin, Tondan Marg, opp. dank banglow, sandila, Sarava, Uttar Pradesh 226102",
        "detailed_address": {
            "ward": null,
            "street": "WPM3+8FM, Tondan Marg, opp. dank banglow",
            "city": "sandila, Sarava",
            "postal_code": null,
            "state": "Uttar Pradesh",
            "country_code": "IN"
        },
        "images": [],
        "link": "https://www.google.com/maps/place/Masjid+e+salauddin/data=!4m7!3m6!1s0x399ea95237694ab3:0x981d41113d64fd78!8m2!3d26.9333376!4d80.7036597!16s%2Fg%2F11ryhn2wgx!19sChIJs0ppN1KpnjkReP1kPRFBHZg?authuser=0&hl=en&rclk=1",
        "coordinates": {
            "latitude": 26.933337599999998,
            "longitude": 80.7036597
        }
    },
    {
        "name": "Raja mobile repayaring center ek minaara masjid",
        "main_category": "Mobile caterer",
        "address": "Raja mobile repayaring center ek minaara masjid, rod 9044113382, Ek minaara masjid, Mohan - Malihabad Rd",
        "detailed_address": {
            "ward": "Dilawar Nagar",
            "street": "rod 9044113382, Ek minaara masjid, Mohan - Malihabad Rd",
            "city": "Malihabad",
            "postal_code": null,
            "state": "Uttar Pradesh",
            "country_code": "IN"
        },
        "images": [],
        "link": "https://www.google.com/maps/place/Raja+mobile+repayaring+center+ek+minaara+masjid/data=!4m7!3m6!1s0x399ea9d0abe8eb25:0xf1f9895e6467b51b!8m2!3d26.916818!4d80.7075809!16s%2Fg%2F11h_z7my59!19sChIJJevoq9CpnjkRG7VnZF6J-fE?authuser=0&hl=en&rclk=1",
        "coordinates": {
            "latitude": 26.916818,
            "longitude": 80.7075809
        }
    }
]