[
    {
        "name": "Masjid E Fatima",
        "main_category": "Mosque",
        "address": "XQFQ+424 Masjid E Fatima, Risod, Maharashtra 444506",
        "detailed_address": {
            "ward": null,
            "street": "XQFQ+424",
            "city": "Risod",
            "postal_code": "444506",
            "state": "Maharashtra",
            "country_code": "IN"
        },
        "images": [
            {
                "about": "All",
                "link": "https://lh5.googleusercontent.com/p/AF1QipOq1mGzdcjdYAEPfULexT5aaB8UAQsJJNx5-0zJ=w224-h298-k-no"
            },
            {
                "about": "Street View & 360deg",
                "link": "https://streetviewpixels-pa.googleapis.com/v1/thumbnail?panoid=9eTTuXn4XMRorJh1_83dxg&cb_client=maps_sv.tactile.gps&w=224&h=298&yaw=146.38374&pitch=0&thumbfov=100"
            }
        ],
        "link": "https://www.google.com/maps/place/Masjid+E+Fatima/data=!4m7!3m6!1s0x3bd08cfdb181730d:0xaeb262149cda8a94!8m2!3d19.9727523!4d76.7875829!16s%2Fg%2F11clhqz7tj!19sChIJDXOBsf2M0DsRlIranBRisq4?authuser=0&hl=en&rclk=1",
        "coordinates": {
            "latitude": 19.9727523,
            "longitude": 76.78758289999999
        }
    },
    {
        "name": "Garib Nawaz Masjid. (Aahele Sunnat))",
        "main_category": "Mosque",
        "address": "XQHM+PXF Garib Nawaz Masjid. (Aahele Sunnat)), Garib Nawaz Masjid, Loni Phata, Risod, Maharashtra 444506",
        "detailed_address": {
            "ward": "Loni Phata",
            "street": "XQHM+PXF, Garib Nawaz Masjid",
            "city": "Risod",
            "postal_code": "444506",
            "state": "Maharashtra",
            "country_code": "IN"
        },
        "images": [
            {
                "about": "All",
                "link": "https://lh5.googleusercontent.com/p/AF1QipM1K29fpWNBTlxwNjgQuia504gzd-nD94vVOKEs=w529-h298-k-no"
            },
            {
                "about": "Street View & 360deg",
                "link": "https://streetviewpixels-pa.googleapis.com/v1/thumbnail?panoid=3x5mAXZtQnSCLZV4pPUfZw&cb_client=maps_sv.tactile.gps&w=224&h=298&yaw=317.82593&pitch=0&thumbfov=100"
            }
        ],
        "link": "https://www.google.com/maps/place/Garib+Nawaz+Masjid.+%28Aahele+Sunnat%29%29/data=!4m7!3m6!1s0x3bd08d01662dd52b:0x9fe38f106b8781f8!8m2!3d19.9793229!4d76.7849134!16s%2Fg%2F11f3jt8hpt!19sChIJK9UtZgGN0DsR-IGHaxCP458?authuser=0&hl=en&rclk=1",
        "coordinates": {
            "latitude": 19.9793229,
            "longitude": 76.7849134
        }
    },
    {
        "name": "Markaz Masjid",
        "main_category": "Mosque",
        "address": "XQFP+793 Markaz Masjid, Mominpura, Risod, Maharashtra 444506",
        "detailed_address": {
            "ward": "Mominpura",
            "street": "XQFP+793",
            "city": "Risod",
            "postal_code": "444506",
            "state": "Maharashtra",
            "country_code": "IN"
        },
        "images": [
            {
                "about": "All",
                "link": "https://streetviewpixels-pa.googleapis.com/v1/thumbnail?panoid=6wPTNPYzEUl16hwK14KdyA&cb_client=maps_sv.tactile.gps&w=224&h=298&yaw=128.6926&pitch=0&thumbfov=100"
            },
            {
                "about": "Street View & 360deg",
                "link": "https://streetviewpixels-pa.googleapis.com/v1/thumbnail?panoid=6wPTNPYzEUl16hwK14KdyA&cb_client=maps_sv.tactile.gps&w=224&h=298&yaw=128.6926&pitch=0&thumbfov=100"
            }
        ],
        "link": "https://www.google.com/maps/place/Markaz+Masjid/data=!4m7!3m6!1s0x3bd08cfdd984bc59:0xb9cd1185d338bf18!8m2!3d19.9731292!4d76.7859069!16s%2Fg%2F11clhqqljp!19sChIJWbyE2f2M0DsRGL8404URzbk?authuser=0&hl=en&rclk=1",
        "coordinates": {
            "latitude": 19.9731292,
            "longitude": 76.7859069
        }
    },
    {
        "name": "Jama Masjid",
        "main_category": "Mosque",
        "address": "RVF8+729 Jama Masjid, Risod Shengaon Main Rd, Kolasa, Maharashtra 431542",
        "detailed_address": {
            "ward": null,
            "street": "RVF8+729, Risod Shengaon Main Rd",
            "city": "Kolasa",
            "postal_code": "431542",
            "state": "Maharashtra",
            "country_code": "IN"
        },
        "images": [
            {
                "about": "All",
                "link": "https://lh5.googleusercontent.com/p/AF1QipOFERMypD4aO3OOAmQa9t5z1vu-lxSgVRF-iaOp=w224-h398-k-no"
            },
            {
                "about": "Street View & 360deg",
                "link": "https://streetviewpixels-pa.googleapis.com/v1/thumbnail?panoid=7lCXl9SRFRqFuy8O_eecBg&cb_client=maps_sv.tactile.gps&w=224&h=298&yaw=231.74892&pitch=0&thumbfov=100"
            }
        ],
        "link": "https://www.google.com/maps/place/Jama+Masjid/data=!4m7!3m6!1s0x3bd05f995e912377:0xd037d697ab7eef2a!8m2!3d19.8231648!4d76.8651061!16s%2Fg%2F11fy57clty!19sChIJdyORXplf0DsRKu9-q5fWN9A?authuser=0&hl=en&rclk=1",
        "coordinates": {
            "latitude": 19.8231648,
            "longitude": 76.86510609999999
        }
    },
    {
        "name": "( Aahele Sunnat ) MADINA MASJID",
        "main_category": "Mosque",
        "address": "XQFP+VF6 ( Aahele Sunnat ) MADINA MASJID, Mominpura, Risod, Maharashtra 444506",
        "detailed_address": {
            "ward": "Mominpura",
            "street": "XQFP+VF6",
            "city": "Risod",
            "postal_code": "444506",
            "state": "Maharashtra",
            "country_code": "IN"
        },
        "images": [
            {
                "about": "All",
                "link": "https://lh5.googleusercontent.com/p/AF1QipM2EdKk9tQAZJm9y-chEq0T0-zI4pGVBQqJXaEZ=w224-h398-k-no"
            },
            {
                "about": "Street View & 360deg",
                "link": "https://streetviewpixels-pa.googleapis.com/v1/thumbnail?panoid=v4fAjg5VGIU0v7cfSm-0Rg&cb_client=maps_sv.tactile.gps&w=224&h=298&yaw=165.62729&pitch=0&thumbfov=100"
            }
        ],
        "link": "https://www.google.com/maps/place/%28+Aahele+Sunnat+%29+MADINA+MASJID/data=!4m7!3m6!1s0x3bd08df59ae9eb21:0x8b6bd54c0e799a37!8m2!3d19.9746571!4d76.7861364!16s%2Fg%2F11j7c6fbnj!19sChIJIevpmvWN0DsRN5p5DkzVa4s?authuser=0&hl=en&rclk=1",
        "coordinates": {
            "latitude": 19.974657099999998,
            "longitude": 76.78613639999999
        }
    },
    {
        "name": "Noorani Masjid",
        "main_category": "Mosque",
        "address": "XQHH+7C9 Noorani Masjid, Washim, Risod, Maharashtra 444505",
        "detailed_address": {
            "ward": null,
            "street": "XQHH+7C9",
            "city": "Washim, Risod",
            "postal_code": "444505",
            "state": "Maharashtra",
            "country_code": "IN"
        },
        "images": [
            {
                "about": "All",
                "link": "https://streetviewpixels-pa.googleapis.com/v1/thumbnail?panoid=qVMIhXucS_sIr3MC5QVx2A&cb_client=maps_sv.tactile.gps&w=224&h=298&yaw=19.135006&pitch=0&thumbfov=100"
            },
            {
                "about": "Street View & 360deg",
                "link": "https://streetviewpixels-pa.googleapis.com/v1/thumbnail?panoid=qVMIhXucS_sIr3MC5QVx2A&cb_client=maps_sv.tactile.gps&w=224&h=298&yaw=19.135006&pitch=0&thumbfov=100"
            }
        ],
        "link": "https://www.google.com/maps/place/Noorani+Masjid/data=!4m7!3m6!1s0x3bd08daa6650f9a1:0xe25dcbe5b6f953dc!8m2!3d19.9781502!4d76.778605!16s%2Fg%2F11h9y39rr0!19sChIJoflQZqqN0DsR3FP5tuXLXeI?authuser=0&hl=en&rclk=1",
        "coordinates": {
            "latitude": 19.978150199999998,
            "longitude": 76.778605
        }
    },
    {
        "name": "Jama Masjid",
        "main_category": "Mosque",
        "address": "XQFJ+HGJ Jama Masjid, Risod, Maharashtra 444506",
        "detailed_address": {
            "ward": null,
            "street": "XQFJ+HGJ",
            "city": "Risod",
            "postal_code": "444506",
            "state": "Maharashtra",
            "country_code": "IN"
        },
        "images": [
            {
                "about": "All",
                "link": "https://streetviewpixels-pa.googleapis.com/v1/thumbnail?panoid=HJaBT81sSBV0y99dHADVQg&cb_client=maps_sv.tactile.gps&w=224&h=298&yaw=286.34644&pitch=0&thumbfov=100"
            },
            {
                "about": "Street View & 360deg",
                "link": "https://streetviewpixels-pa.googleapis.com/v1/thumbnail?panoid=HJaBT81sSBV0y99dHADVQg&cb_client=maps_sv.tactile.gps&w=224&h=298&yaw=286.34644&pitch=0&thumbfov=100"
            }
        ],
        "link": "https://www.google.com/maps/place/Jama+Masjid/data=!4m7!3m6!1s0x3bd08cffe9cbec07:0x4779f1c751f780e!8m2!3d19.9739633!4d76.7812665!16s%2Fg%2F11dfj374vs!19sChIJB-zL6f-M0DsRDngfdRyfdwQ?authuser=0&hl=en&rclk=1",
        "coordinates": {
            "latitude": 19.973963299999998,
            "longitude": 76.7812665
        }
    },
    {
        "name": "Masjid-e- Aisha",
        "main_category": "Mosque",
        "address": "Masjid-e- Aisha, At Gulbawadi Risod Dist, Risod - Washim Rd, Risod, Maharashtra 444506",
        "detailed_address": {
            "ward": null,
            "street": "At Gulbawadi Risod Dist, Risod - Washim Rd",
            "city": "Risod",
            "postal_code": "444506",
            "state": "Maharashtra",
            "country_code": "IN"
        },
        "images": [],
        "link": "https://www.google.com/maps/place/Masjid-e-+Aisha/data=!4m7!3m6!1s0x3bd08d266dfbbef1:0x9940ea390feec6a6!8m2!3d19.9711128!4d76.7834073!16s%2Fg%2F11h0zj5p_y!19sChIJ8b77bSaN0DsRpsbuDznqQJk?authuser=0&hl=en&rclk=1",
        "coordinates": {
            "latitude": 19.9711128,
            "longitude": 76.7834073
        }
    },
    {
        "name": "CHISHTIYA MASJID cishtiyaa msjid RISOD",
        "main_category": "Mosque",
        "address": "XQHF+XCH CHISHTIYA MASJID cishtiyaa msjid RISOD, Risod, Maharashtra 444506",
        "detailed_address": {
            "ward": null,
            "street": "XQHF+XCH",
            "city": "Risod",
            "postal_code": null,
            "state": "Maharashtra",
            "country_code": "IN"
        },
        "images": [
            {
                "about": "All",
                "link": "https://streetviewpixels-pa.googleapis.com/v1/thumbnail?panoid=Sok-e7jEpFd4xnlNdf0kxQ&cb_client=maps_sv.tactile.gps&w=224&h=298&yaw=281.5142&pitch=0&thumbfov=100"
            },
            {
                "about": "Street View & 360deg",
                "link": "https://streetviewpixels-pa.googleapis.com/v1/thumbnail?panoid=Sok-e7jEpFd4xnlNdf0kxQ&cb_client=maps_sv.tactile.gps&w=224&h=298&yaw=281.5142&pitch=0&thumbfov=100"
            }
        ],
        "link": "https://www.google.com/maps/place/CHISHTIYA+MASJID+%E0%A4%9A%E0%A4%BF%E0%A4%B6%E0%A5%8D%E0%A4%A4%E0%A4%BF%E0%A4%AF%E0%A4%BE+%E0%A4%AE%E0%A4%B8%E0%A5%8D%E0%A4%9C%E0%A4%BF%E0%A4%A6+RISOD/data=!4m7!3m6!1s0x3bd08df7facabd95:0xd857b48db6f4d2f5!8m2!3d19.9799319!4d76.7736015!16s%2Fg%2F11tj0grwq0!19sChIJlb3K-veN0DsR9dL0to20V9g?authuser=0&hl=en&rclk=1",
        "coordinates": {
            "latitude": 19.9799319,
            "longitude": 76.7736015
        }
    },
    {
        "name": "JAMA MASJID",
        "main_category": "Mosque",
        "address": "JAMA MASJID, jama masjid chowk, Risod, Maharashtra 444506",
        "detailed_address": {
            "ward": null,
            "street": "jama masjid chowk",
            "city": "Risod",
            "postal_code": null,
            "state": "Maharashtra",
            "country_code": "IN"
        },
        "images": [],
        "link": "https://www.google.com/maps/place/JAMA+MASJID/data=!4m7!3m6!1s0x3bd08d919c4cb71d:0x5c66acf461cf332e!8m2!3d19.9779237!4d76.7826249!16s%2Fg%2F11hyl3gc2t!19sChIJHbdMnJGN0DsRLjPPYfSsZlw?authuser=0&hl=en&rclk=1",
        "coordinates": {
            "latitude": 19.977923699999998,
            "longitude": 76.7826249
        }
    }
]