[
    {
        "name": "Noor Masjid",
        "main_category": "Mosque",
        "address": "3G9V+9PH Noor Masjid, Ponnur, Andhra Pradesh 522124",
        "detailed_address": {
            "ward": null,
            "street": "3G9V+9PH",
            "city": "Ponnur",
            "postal_code": "522124",
            "state": "Andhra Pradesh",
            "country_code": "IN"
        },
        "images": [
            {
                "about": "All",
                "link": "https://lh5.googleusercontent.com/p/AF1QipMAg8Y5Ml1IjwxjBtDFjuc_fceAi1HY0vhmaXj2=w448-h298-k-no"
            },
            {
                "about": "Street View & 360deg",
                "link": "https://streetviewpixels-pa.googleapis.com/v1/thumbnail?panoid=OcJFLl0fCPdUjJUAc_PwBw&cb_client=maps_sv.tactile.gps&w=224&h=298&yaw=139.50739&pitch=0&thumbfov=100"
            }
        ],
        "link": "https://www.google.com/maps/place/Noor+Masjid/data=!4m7!3m6!1s0x3a4a11602f00e607:0x60cff5ad80b16724!8m2!3d16.0684445!4d80.5443576!16s%2Fg%2F12hlwx5rh!19sChIJB-YAL2ARSjoRJGexgK31z2A?authuser=0&hl=en&rclk=1",
        "coordinates": {
            "latitude": 16.0684445,
            "longitude": 80.5443576
        }
    },
    {
        "name": "Makkah Masjid (Markaz)",
        "main_category": "Mosque",
        "address": "3G9W+GHQ Makkah Masjid (Markaz), Ponnur, Andhra Pradesh 522124",
        "detailed_address": {
            "ward": null,
            "street": "3G9W+GHQ",
            "city": "Ponnur",
            "postal_code": "522124",
            "state": "Andhra Pradesh",
            "country_code": "IN"
        },
        "images": [
            {
                "about": "All",
                "link": "https://lh5.googleusercontent.com/p/AF1QipOLy_VJVdCH_6bWN34Zlv2mz5dlEMUi_7jykFJe=w397-h298-k-no"
            }
        ],
        "link": "https://www.google.com/maps/place/Makkah+Masjid+%28Markaz%29/data=!4m7!3m6!1s0x3a4a116055b7addf:0xb07abc6f32cc0c7!8m2!3d16.0688359!4d80.5464832!16s%2Fg%2F11c6dzbcx3!19sChIJ3623VWARSjoRx8As88arBws?authuser=0&hl=en&rclk=1",
        "coordinates": {
            "latitude": 16.0688359,
            "longitude": 80.5464832
        }
    },
    {
        "name": "Masjid-e-Noorani",
        "main_category": "Mosque",
        "address": "3GCV+6Q6 Masjid-e-Noorani, Ponnur, Andhra Pradesh 522124",
        "detailed_address": {
            "ward": null,
            "street": "3GCV+6Q6",
            "city": "Ponnur",
            "postal_code": "522124",
            "state": "Andhra Pradesh",
            "country_code": "IN"
        },
        "images": [
            {
                "about": "All",
                "link": "https://lh5.googleusercontent.com/p/AF1QipOIAbsSO9IJfg-8F9T54EAXL5xjlh1pLKJb_vqa=w397-h298-k-no"
            }
        ],
        "link": "https://www.google.com/maps/place/Masjid-e-Noorani/data=!4m7!3m6!1s0x3a4a1161e7be6077:0x948c9401ddd62ec2!8m2!3d16.0705341!4d80.5443905!16s%2Fg%2F11c6dzyhms!19sChIJd2C-52ERSjoRwi7W3QGUjJQ?authuser=0&hl=en&rclk=1",
        "coordinates": {
            "latitude": 16.0705341,
            "longitude": 80.54439049999999
        }
    },
    {
        "name": "Umar Masjid",
        "main_category": "Mosque",
        "address": "3G5X+W95 Umar Masjid, Ponnur, Andhra Pradesh 522124",
        "detailed_address": {
            "ward": null,
            "street": "3G5X+W95",
            "city": "Ponnur",
            "postal_code": null,
            "state": "Andhra Pradesh",
            "country_code": "IN"
        },
        "images": [
            {
                "about": "All",
                "link": "https://lh5.googleusercontent.com/p/AF1QipOAquutui8uX1JT2SgVRdMnUu4gfWRaAC4Ez1x8=w224-h472-k-no"
            },
            {
                "about": "Street View & 360deg",
                "link": "https://streetviewpixels-pa.googleapis.com/v1/thumbnail?panoid=cej-b_p__uowIlfmBSDrdg&cb_client=maps_sv.tactile.gps&w=224&h=298&yaw=150.02383&pitch=0&thumbfov=100"
            }
        ],
        "link": "https://www.google.com/maps/place/Umar+Masjid/data=!4m7!3m6!1s0x3a4a11594f7c341f:0x6c7fb82e7b7f44f1!8m2!3d16.0597538!4d80.5484961!16s%2Fg%2F11f3wtt8wn!19sChIJHzR8T1kRSjoR8UR_ey64f2w?authuser=0&hl=en&rclk=1",
        "coordinates": {
            "latitude": 16.0597538,
            "longitude": 80.5484961
        }
    },
    {
        "name": "Madina Masjid",
        "main_category": "Mosque",
        "address": "3H82+M37 Madina Masjid, Machavaram, Ponnur, Andhra Pradesh 522124",
        "detailed_address": {
            "ward": "Machavaram",
            "street": "3H82+M37",
            "city": "Ponnur",
            "postal_code": "522124",
            "state": "Andhra Pradesh",
            "country_code": "IN"
        },
        "images": [
            {
                "about": "All",
                "link": "https://streetviewpixels-pa.googleapis.com/v1/thumbnail?panoid=zQhCm0nTi-pN-SFBu4cjIQ&cb_client=maps_sv.tactile.gps&w=224&h=298&yaw=160.72813&pitch=0&thumbfov=100"
            },
            {
                "about": "Street View & 360deg",
                "link": "https://streetviewpixels-pa.googleapis.com/v1/thumbnail?panoid=zQhCm0nTi-pN-SFBu4cjIQ&cb_client=maps_sv.tactile.gps&w=224&h=298&yaw=160.72813&pitch=0&thumbfov=100"
            }
        ],
        "link": "https://www.google.com/maps/place/Madina+Masjid/data=!4m7!3m6!1s0x3a4a11675992ce0b:0xe92f807aef84cb10!8m2!3d16.0666648!4d80.5501834!16s%2Fg%2F1hm4gjxsx!19sChIJC86SWWcRSjoREMuE73qAL-k?authuser=0&hl=en&rclk=1",
        "coordinates": {
            "latitude": 16.066664799999998,
            "longitude": 80.5501834
        }
    },
    {
        "name": "Masjid - E- Mohammadia",
        "main_category": "Mosque",
        "address": "3G7X+WJ4 Masjid - E- Mohammadia, Ponnur, Andhra Pradesh 522124",
        "detailed_address": {
            "ward": null,
            "street": "3G7X+WJ4",
            "city": "Ponnur",
            "postal_code": "522124",
            "state": "Andhra Pradesh",
            "country_code": "IN"
        },
        "images": [
            {
                "about": "All",
                "link": "https://lh5.googleusercontent.com/p/AF1QipOA7JM3979K6hVnf_uH_myeMWBFiDZPsjwlHm9V=w397-h298-k-no"
            }
        ],
        "link": "https://www.google.com/maps/place/Masjid+-+E-+Mohammadia/data=!4m7!3m6!1s0x3a4a115e0c80651b:0xca75c606e89fc4db!8m2!3d16.0647571!4d80.5490659!16s%2Fg%2F11c30t0bld!19sChIJG2WADF4RSjoR28Sf6AbGdco?authuser=0&hl=en&rclk=1",
        "coordinates": {
            "latitude": 16.064757099999998,
            "longitude": 80.5490659
        }
    },
    {
        "name": "Masjid-e-Nimra",
        "main_category": "Mosque",
        "address": "3G9Q+29W Masjid-e-Nimra, Sangam, Ponnur, Andhra Pradesh",
        "detailed_address": {
            "ward": null,
            "street": "3G9Q+29W, Sangam",
            "city": "Ponnur",
            "postal_code": null,
            "state": "Andhra Pradesh",
            "country_code": "IN"
        },
        "images": [
            {
                "about": "All",
                "link": "https://lh5.googleusercontent.com/p/AF1QipNMI2ZHRCYMJ2vkmgLeDRtGykMD8p5KQE-4DDmF=w397-h298-k-no"
            }
        ],
        "link": "https://www.google.com/maps/place/Masjid-e-Nimra/data=!4m7!3m6!1s0x3a4a13de768167bb:0x9eb40d0955fa5b7c!8m2!3d16.0676091!4d80.538467!16s%2Fg%2F11dxbcw44d!19sChIJu2eBdt4TSjoRfFv6VQkNtJ4?authuser=0&hl=en&rclk=1",
        "coordinates": {
            "latitude": 16.0676091,
            "longitude": 80.538467
        }
    },
    {
        "name": "Masjid-e-Fathima",
        "main_category": "Mosque",
        "address": "3HF4+JHJ Masjid-e-Fathima, Ponnur, Andhra Pradesh 522124",
        "detailed_address": {
            "ward": null,
            "street": "3HF4+JHJ",
            "city": "Ponnur",
            "postal_code": "522124",
            "state": "Andhra Pradesh",
            "country_code": "IN"
        },
        "images": [
            {
                "about": "All",
                "link": "https://lh5.googleusercontent.com/p/AF1QipMJzxI58yigqmjGdtxTFYRzuGuf8TIwPJHq-1vn=w224-h398-k-no"
            },
            {
                "about": "Videos",
                "link": "https://lh5.googleusercontent.com/p/AF1QipMJzxI58yigqmjGdtxTFYRzuGuf8TIwPJHq-1vn=w224-h398-k-no"
            }
        ],
        "link": "https://www.google.com/maps/place/Masjid-e-Fathima/data=!4m7!3m6!1s0x3a4a116f14d78773:0x4923e108de1a8ab7!8m2!3d16.0740922!4d80.556388!16s%2Fg%2F11d_ytzcq4!19sChIJc4fXFG8RSjoRt4oa3gjhI0k?authuser=0&hl=en&rclk=1",
        "coordinates": {
            "latitude": 16.0740922,
            "longitude": 80.556388
        }
    },
    {
        "name": "JAAMIYA Masjid",
        "main_category": "Mosque",
        "address": "3G9X+88R JAAMIYA Masjid, GBC Rd, Ponnur, Andhra Pradesh 522124",
        "detailed_address": {
            "ward": null,
            "street": "3G9X+88R, GBC Rd",
            "city": "Ponnur",
            "postal_code": "522124",
            "state": "Andhra Pradesh",
            "country_code": "IN"
        },
        "images": [
            {
                "about": "All",
                "link": "https://streetviewpixels-pa.googleapis.com/v1/thumbnail?panoid=ZN4-hLusUq9Xomi7u6eCoA&cb_client=maps_sv.tactile.gps&w=224&h=298&yaw=212.3316&pitch=0&thumbfov=100"
            },
            {
                "about": "Street View & 360deg",
                "link": "https://streetviewpixels-pa.googleapis.com/v1/thumbnail?panoid=ZN4-hLusUq9Xomi7u6eCoA&cb_client=maps_sv.tactile.gps&w=224&h=298&yaw=212.3316&pitch=0&thumbfov=100"
            }
        ],
        "link": "https://www.google.com/maps/place/JAAMIYA+Masjid/data=!4m7!3m6!1s0x3a4a1160c32ee907:0x740dd4365694acc1!8m2!3d16.0683739!4d80.5482659!16s%2Fg%2F11cjpvmq2r!19sChIJB-kuw2ARSjoRwayUVjbUDXQ?authuser=0&hl=en&rclk=1",
        "coordinates": {
            "latitude": 16.0683739,
            "longitude": 80.54826589999999
        }
    },
    {
        "name": "Masjid-e-Aqsa",
        "main_category": "Mosque",
        "address": "3H92+64P Masjid-e-Aqsa, Ponnur, Andhra Pradesh 522124",
        "detailed_address": {
            "ward": null,
            "street": "3H92+64P",
            "city": "Ponnur",
            "postal_code": "522124",
            "state": "Andhra Pradesh",
            "country_code": "IN"
        },
        "images": [
            {
                "about": "All",
                "link": "https://streetviewpixels-pa.googleapis.com/v1/thumbnail?panoid=_5bEnOLT0o3NnSM-PCzSlw&cb_client=maps_sv.tactile.gps&w=224&h=298&yaw=237.95529&pitch=0&thumbfov=100"
            },
            {
                "about": "Street View & 360deg",
                "link": "https://streetviewpixels-pa.googleapis.com/v1/thumbnail?panoid=_5bEnOLT0o3NnSM-PCzSlw&cb_client=maps_sv.tactile.gps&w=224&h=298&yaw=237.95529&pitch=0&thumbfov=100"
            }
        ],
        "link": "https://www.google.com/maps/place/Masjid-e-Aqsa/data=!4m7!3m6!1s0x3a4a1167391370b5:0xbc7363649105d193!8m2!3d16.0680785!4d80.5503309!16s%2Fg%2F12hm763wx!19sChIJtXATOWcRSjoRk9EFkWRjc7w?authuser=0&hl=en&rclk=1",
        "coordinates": {
            "latitude": 16.0680785,
            "longitude": 80.55033089999999
        }
    },
    {
        "name": "Bilaal Masjid",
        "main_category": "Mosque",
        "address": "3H95+48H Bilaal Masjid, Beside: Railway station, Nidubrolu, Ponnur, Andhra Pradesh 522124",
        "detailed_address": {
            "ward": null,
            "street": "3H95+48H, Beside: Railway station, Nidubrolu",
            "city": "Ponnur, Nidubrolu",
            "postal_code": "522124",
            "state": "Andhra Pradesh",
            "country_code": "IN"
        },
        "images": [
            {
                "about": "All",
                "link": "https://lh5.googleusercontent.com/p/AF1QipN7EWwKMlM0wb1cdoGYP7vF9qUFDbM-1KRLPrx7=w397-h298-k-no"
            }
        ],
        "link": "https://www.google.com/maps/place/Bilaal+Masjid/data=!4m7!3m6!1s0x3a4a1169ced980a9:0x86eff77a5bcdbe65!8m2!3d16.0678013!4d80.5583601!16s%2Fg%2F11fx7r4m0v!19sChIJqYDZzmkRSjoRZb7NW3r374Y?authuser=0&hl=en&rclk=1",
        "coordinates": {
            "latitude": 16.0678013,
            "longitude": 80.5583601
        }
    },
    {
        "name": "Masjid-Ayesha",
        "main_category": "Mosque",
        "address": "3HJ2+623 Masjid-Ayesha, Vyshnavinagar, Ponnur, Andhra Pradesh 522316",
        "detailed_address": {
            "ward": "Vyshnavinagar",
            "street": "3HJ2+623",
            "city": "Ponnur",
            "postal_code": "522316",
            "state": "Andhra Pradesh",
            "country_code": "IN"
        },
        "images": [
            {
                "about": "All",
                "link": "https://lh5.googleusercontent.com/p/AF1QipMkhGHd0oQbJ4XYk3xwSic0erFLZsZ_zsf-x4yy=w224-h398-k-no"
            }
        ],
        "link": "https://www.google.com/maps/place/Masjid-Ayesha/data=!4m7!3m6!1s0x3a4a1130e8a75b69:0x864a54383871e2ea!8m2!3d16.0805015!4d80.5500363!16s%2Fg%2F11jr_ppbr2!19sChIJaVun6DARSjoR6uJxODhUSoY?authuser=0&hl=en&rclk=1",
        "coordinates": {
            "latitude": 16.0805015,
            "longitude": 80.5500363
        }
    },
    {
        "name": "Madarsa e mehboobiya niswan",
        "main_category": "Mosque",
        "address": "3G9W+GHQ Madarsa e mehboobiya niswan, near markaz masjid, Ponnur, Andhra Pradesh 522124",
        "detailed_address": {
            "ward": null,
            "street": "3G9W+GHQ, near markaz masjid",
            "city": "Ponnur",
            "postal_code": "522124",
            "state": "Andhra Pradesh",
            "country_code": "IN"
        },
        "images": [],
        "link": "https://www.google.com/maps/place/Madarsa+e+mehboobiya+niswan/data=!4m7!3m6!1s0x3a4a116904748fd1:0x5c7e78a3e887ba8d!8m2!3d16.0688359!4d80.5464832!16s%2Fg%2F11r_wjpx8t!19sChIJ0Y90BGkRSjoRjbqH6KN4flw?authuser=0&hl=en&rclk=1",
        "coordinates": {
            "latitude": 16.0688359,
            "longitude": 80.5464832
        }
    },
    {
        "name": "Alur Masjid",
        "main_category": "Mosque",
        "address": "3HP6+765 Alur Masjid, Unnamed Road, Ponnur, Andhra Pradesh 522124",
        "detailed_address": {
            "ward": null,
            "street": "3HP6+765, Unnamed Road",
            "city": "Ponnur",
            "postal_code": "522124",
            "state": "Andhra Pradesh",
            "country_code": "IN"
        },
        "images": [],
        "link": "https://www.google.com/maps/place/Alur+Masjid/data=!4m7!3m6!1s0x3a4a11fdfd59a3a3:0x41c0e1d77ce5e4d!8m2!3d16.0856306!4d80.5605994!16s%2Fg%2F11rwx1gvhn!19sChIJo6NZ_f0RSjoRTV7Odx0OHAQ?authuser=0&hl=en&rclk=1",
        "coordinates": {
            "latitude": 16.0856306,
            "longitude": 80.5605994
        }
    },
    {
        "name": "Madarsa Mehboobiyya Ponnur",
        "main_category": "Mosque",
        "address": "Madarsa Mehboobiyya Ponnur, 22-13-12, behind Markaz Masjid, Ponnur, Andhra Pradesh 522124",
        "detailed_address": {
            "ward": null,
            "street": "22-13-12, behind Markaz Masjid",
            "city": "Ponnur",
            "postal_code": "522124",
            "state": "Andhra Pradesh",
            "country_code": "IN"
        },
        "images": [
            {
                "about": "All",
                "link": "https://lh5.googleusercontent.com/p/AF1QipNvfpv_inWB39xmaYLWJhafUKkevNkNXyDsOXVx=w529-h298-k-no"
            },
            {
                "about": "By owner",
                "link": "https://lh5.googleusercontent.com/p/AF1QipNHy7_E49Y3YpTZgnVRdUioadr8Sipn66-cJK55=w662-h298-k-no"
            },
            {
                "about": "Videos",
                "link": "https://lh5.googleusercontent.com/p/AF1QipOmUNZ-LkXxmJUzllkciOJ8mWeHHWXHTPalK8fW=w529-h298-k-no"
            }
        ],
        "link": "https://www.google.com/maps/place/Madarsa+Mehboobiyya+Ponnur/data=!4m7!3m6!1s0x3a4a1100d1f95f5d:0x2bfa370642e718c2!8m2!3d16.0692873!4d80.5446664!16s%2Fg%2F11s9c5kdwy!19sChIJXV_50QARSjoRwhjnQgY3-is?authuser=0&hl=en&rclk=1",
        "coordinates": {
            "latitude": 16.0692873,
            "longitude": 80.5446664
        }
    }
]