[
    {
        "name": "Markaz Jama Maszid",
        "main_category": "Mosque",
        "address": "FMXH+M83 Markaz Jama Maszid, Adra, West Bengal 723121",
        "detailed_address": {
            "ward": null,
            "street": "FMXH+M83",
            "city": "Adra",
            "postal_code": "723121",
            "state": "West Bengal",
            "country_code": "IN"
        },
        "images": [
            {
                "about": "All",
                "link": "https://lh5.googleusercontent.com/p/AF1QipPvyBfNHWzn36Jei3apfdeiIA9Avn0LMlXalcnO=w397-h298-k-no"
            },
            {
                "about": "Street View & 360deg",
                "link": "https://streetviewpixels-pa.googleapis.com/v1/thumbnail?panoid=zVFu83GWxDbst3rmxqRymw&cb_client=maps_sv.tactile.gps&w=224&h=298&yaw=349.94327&pitch=0&thumbfov=100"
            },
            {
                "about": "Videos",
                "link": "https://lh5.googleusercontent.com/p/AF1QipNXWqCUFC9Rw3Jv8r_4CeKO9FUnK2uJJpuG3hxV=w224-h398-k-no"
            }
        ],
        "link": "https://www.google.com/maps/place/Markaz+Jama+Maszid/data=!4m7!3m6!1s0x39f6f199a903ed23:0x85ccf5cacff301a8!8m2!3d23.4991361!4d86.6783078!16s%2Fg%2F11c2nh9j93!19sChIJI-0DqZnx9jkRqAHzz8r1zIU?authuser=0&hl=en&rclk=1",
        "coordinates": {
            "latitude": 23.499136099999998,
            "longitude": 86.6783078
        }
    },
    {
        "name": "Masjid Kashmirian",
        "main_category": "Mosque",
        "address": "H2MR+56C Masjid Kashmirian, Adra Colony, Rawalpindi, Punjab 46000, Pakistan",
        "detailed_address": {
            "ward": null,
            "street": "H2MR+56C, Adra Colony",
            "city": "Rawalpindi",
            "postal_code": "46000",
            "state": "Rawalpindi, Punjab",
            "country_code": "PK"
        },
        "images": [
            {
                "about": "All",
                "link": "https://lh5.googleusercontent.com/p/AF1QipPVe5KKx3ets54imkK3g_GMn1Gie7V4NEWGkrrH=w224-h298-k-no"
            }
        ],
        "link": "https://www.google.com/maps/place/Masjid+Kashmirian/data=!4m7!3m6!1s0x38df938276209157:0xabd6ed59cc8436c4!8m2!3d33.5829372!4d73.0405235!16s%2Fg%2F11cjk30pmd!19sChIJV5EgdoKT3zgRxDaEzFnt1qs?authuser=0&hl=en&rclk=1",
        "coordinates": {
            "latitude": 33.582937199999996,
            "longitude": 73.04052349999999
        }
    },
    {
        "name": "NOORANI MASJID",
        "main_category": "Mosque",
        "address": "FMPP+462 NOORANI MASJID, NOORANI MASJID,CHUNABHAATI, Adra, West Bengal 723121",
        "detailed_address": {
            "ward": null,
            "street": "FMPP+462, NOORANI MASJID,CHUNABHAATI",
            "city": "Adra, Palaskola P",
            "postal_code": "723121",
            "state": "West Bengal",
            "country_code": "IN"
        },
        "images": [
            {
                "about": "All",
                "link": "https://lh5.googleusercontent.com/p/AF1QipO6OgjMF1uwaqE6uShQjHnZT_efsyK4_oWGHwsZ=w224-h502-k-no"
            },
            {
                "about": "Dome",
                "link": "https://lh5.googleusercontent.com/p/AF1QipNKEftf4qNF1b7ICBasYQb7PjimYUjzCuNNjn19=w529-h298-k-no"
            }
        ],
        "link": "https://www.google.com/maps/place/NOORANI+MASJID/data=!4m7!3m6!1s0x39f6f10bef2dc9ef:0xfb09012fd07e96d7!8m2!3d23.4852645!4d86.6855237!16s%2Fg%2F11g6qlvswv!19sChIJ78kt7wvx9jkR15Z-0C8BCfs?authuser=0&hl=en&rclk=1",
        "coordinates": {
            "latitude": 23.4852645,
            "longitude": 86.68552369999999
        }
    },
    {
        "name": "Goushia Mosque Upper Jhariadi Adra",
        "main_category": "Mosque",
        "address": "FMWR+M8F Goushia Mosque Upper Jhariadi Adra, Adra Station Rd, Adra, West Bengal 723121",
        "detailed_address": {
            "ward": null,
            "street": "FMWR+M8F, Adra Station Rd",
            "city": "Adra",
            "postal_code": "723121",
            "state": "West Bengal",
            "country_code": "IN"
        },
        "images": [
            {
                "about": "All",
                "link": "https://lh5.googleusercontent.com/p/AF1QipPBz5-S1SkHLAmGK4G_7PWjqFZjojz7OSJ7T1GV=w397-h298-k-no"
            },
            {
                "about": "Dome",
                "link": "https://lh5.googleusercontent.com/p/AF1QipO7nZzBGpVvLFSzLGwISEEungsmoQ_q82KdZUqW=w568-h298-k-no"
            },
            {
                "about": "Videos",
                "link": "https://lh5.googleusercontent.com/p/AF1QipMpZKXSxUwhZsc3BBnPhHjacSn6sM_k7LeIC7sI=w529-h298-k-no"
            }
        ],
        "link": "https://www.google.com/maps/place/Goushia+Mosque+Upper+Jhariadi+Adra/data=!4m7!3m6!1s0x39f6f1a5fb1202ab:0x9e29316c629d3fb4!8m2!3d23.4966917!4d86.6908085!16s%2Fg%2F11c5fzlj01!19sChIJqwIS-6Xx9jkRtD-dYmwxKZ4?authuser=0&hl=en&rclk=1",
        "coordinates": {
            "latitude": 23.4966917,
            "longitude": 86.6908085
        }
    },
    {
        "name": "Masjid Kaliyal Adra",
        "main_category": "Mosque",
        "address": "Masjid Kaliyal Adra, Saeed Street, Tench Bhata, Rawalpindi, Punjab 46000, Pakistan",
        "detailed_address": {
            "ward": "Tench Bhata",
            "street": "Saeed Street",
            "city": "Rawalpindi",
            "postal_code": "46000",
            "state": "Rawalpindi, Punjab",
            "country_code": "PK"
        },
        "images": [
            {
                "about": "All",
                "link": "https://lh5.googleusercontent.com/p/AF1QipMmEl7J-FPMeAdZwHQ1spSoqaNnWJZJsZlcHqbL=w397-h298-k-no"
            }
        ],
        "link": "https://www.google.com/maps/place/Masjid+Kaliyal+Adra/data=!4m7!3m6!1s0x38df93875bf676f1:0x21ef6098c43ceba0!8m2!3d33.5835625!4d73.0398125!16s%2Fg%2F11j2lnzzdm!19sChIJ8Xb2W4eT3zgRoOs8xJhg7yE?authuser=0&hl=en&rclk=1",
        "coordinates": {
            "latitude": 33.5835625,
            "longitude": 73.0398125
        }
    },
    {
        "name": "Jamia Masjid Gulzar e Madina Adra Kalan",
        "main_category": "Mosque",
        "address": "48RF+JC5 Jamia Masjid Gulzar e Madina Adra Kalan, Unnamed Road, Rawalpindi, Punjab, Pakistan",
        "detailed_address": {
            "ward": null,
            "street": "48RF+JC5, Unnamed Road",
            "city": "Rawalpindi",
            "postal_code": null,
            "state": "Rawalpindi, Punjab",
            "country_code": "PK"
        },
        "images": [],
        "link": "https://www.google.com/maps/place/Jamia+Masjid+Gulzar+e+Madina+Adra+Kalan/data=!4m7!3m6!1s0x39201bc7cc7aa87d:0xda346cf6166ea01a!8m2!3d33.1415211!4d73.3236121!16s%2Fg%2F11hfp0dgs_!19sChIJfah6zMcbIDkRGqBuFvZsNNo?authuser=0&hl=en&rclk=1",
        "coordinates": {
            "latitude": 33.1415211,
            "longitude": 73.32361209999999
        }
    },
    {
        "name": "Jama masjid",
        "main_category": "Mosque",
        "address": "FMWG+9FH Jama masjid, Adra, West Bengal 723121",
        "detailed_address": {
            "ward": null,
            "street": "FMWG+9FH",
            "city": "Adra",
            "postal_code": "723121",
            "state": "West Bengal",
            "country_code": "IN"
        },
        "images": [
            {
                "about": "All",
                "link": "https://lh5.googleusercontent.com/p/AF1QipNP7MCMSnHLKjAVt0C2NrF7EkhYUXm8fFudR2Ny=w224-h298-k-no"
            },
            {
                "about": "Street View & 360deg",
                "link": "https://streetviewpixels-pa.googleapis.com/v1/thumbnail?panoid=7qaoLLqwQR8ZhGXgIr0BBA&cb_client=maps_sv.tactile.gps&w=224&h=298&yaw=198.45514&pitch=0&thumbfov=100"
            }
        ],
        "link": "https://www.google.com/maps/place/Jama+masjid/data=!4m7!3m6!1s0x39f6f16b0fcb290b:0x975224e735cb9175!8m2!3d23.4959459!4d86.6762226!16s%2Fg%2F11rv3jk_j6!19sChIJCynLD2vx9jkRdZHLNeckUpc?authuser=0&hl=en&rclk=1",
        "coordinates": {
            "latitude": 23.4959459,
            "longitude": 86.6762226
        }
    },
    {
        "name": "Hanfia masjid usman zada adra",
        "main_category": "Mosque",
        "address": "55RW+5Q8 Hanfia masjid usman zada adra, Usmanzada Adra, Rawalpindi, Punjab, Pakistan",
        "detailed_address": {
            "ward": null,
            "street": "55RW+5Q8",
            "city": "Usmanzada Adra",
            "postal_code": null,
            "state": "Rawalpindi, Punjab",
            "country_code": "PK"
        },
        "images": [],
        "link": "https://www.google.com/maps/place/Hanfia+masjid+usman+zada+adra/data=!4m7!3m6!1s0x39200f320aad61b5:0xf2bfeb2ee1c90e14!8m2!3d33.1915867!4d73.1977133!16s%2Fg%2F11s2q829nl!19sChIJtWGtCjIPIDkRFA7J4S7rv_I?authuser=0&hl=en&rclk=1",
        "coordinates": {
            "latitude": 33.1915867,
            "longitude": 73.1977133
        }
    },
    {
        "name": "Masjid dhoke adra",
        "main_category": "Mosque",
        "address": "84FX+53V Masjid dhoke adra, Unnamed Road, Rawalpindi, Punjab, Pakistan",
        "detailed_address": {
            "ward": null,
            "street": "84FX+53V, Unnamed Road",
            "city": "Rawalpindi",
            "postal_code": null,
            "state": "Rawalpindi, Punjab",
            "country_code": "PK"
        },
        "images": [],
        "link": "https://www.google.com/maps/place/Masjid+dhoke+adra/data=!4m7!3m6!1s0x39200bc829a9fa73:0xf89747fb194efabd!8m2!3d33.3229912!4d73.1476811!16s%2Fg%2F11h2njvrvr!19sChIJc_qpKcgLIDkRvfpOGftHl_g?authuser=0&hl=en&rclk=1",
        "coordinates": {
            "latitude": 33.3229912,
            "longitude": 73.1476811
        }
    },
    {
        "name": "Jamia Masjid Ghausiya",
        "main_category": "Mosque",
        "address": "55QW+WQV Jamia Masjid Ghausiya, Usmanzada Adra, Rawalpindi, Punjab, Pakistan",
        "detailed_address": {
            "ward": null,
            "street": "55QW+WQV",
            "city": "Usmanzada Adra",
            "postal_code": null,
            "state": "Rawalpindi, Punjab",
            "country_code": "PK"
        },
        "images": [],
        "link": "https://www.google.com/maps/place/Jamia+Masjid+Ghausiya/data=!4m7!3m6!1s0x39200f13104d65b7:0x579e881e5d52c046!8m2!3d33.1893971!4d73.195806!16s%2Fg%2F11tby036jz!19sChIJt2VNEBMPIDkRRsBSXR6Inlc?authuser=0&hl=en&rclk=1",
        "coordinates": {
            "latitude": 33.1893971,
            "longitude": 73.19580599999999
        }
    }
]