[
    {
        "name": "MADINA MASJID",
        "main_category": "Mosque",
        "address": "MWM2+M7C MADINA MASJID, Islampura, Purana Shahar,, Dholpur, Rajasthan 328001",
        "detailed_address": {
            "ward": "Madina Colony",
            "street": "MWM2+M7C, Islampura, Purana Shahar,",
            "city": "Dholpur",
            "postal_code": "328001",
            "state": "Rajasthan",
            "country_code": "IN"
        },
        "images": [
            {
                "about": "All",
                "link": "https://streetviewpixels-pa.googleapis.com/v1/thumbnail?panoid=mayMphH18uF-w1OqI4xMIQ&cb_client=maps_sv.tactile.gps&w=224&h=298&yaw=111.92322&pitch=0&thumbfov=100"
            },
            {
                "about": "Street View & 360deg",
                "link": "https://streetviewpixels-pa.googleapis.com/v1/thumbnail?panoid=mayMphH18uF-w1OqI4xMIQ&cb_client=maps_sv.tactile.gps&w=224&h=298&yaw=111.92322&pitch=0&thumbfov=100"
            }
        ],
        "link": "https://www.google.com/maps/place/MADINA+MASJID/data=!4m7!3m6!1s0x3973ffbc13f9cb4f:0xabeaf2d07e3ee4fb!8m2!3d26.684178!4d77.9006425!16s%2Fg%2F11cnkly_zy!19sChIJT8v5E7z_czkR--Q-ftDy6qs?authuser=0&hl=en&rclk=1",
        "coordinates": {
            "latitude": 26.684178,
            "longitude": 77.9006425
        }
    },
    {
        "name": "Bada Peer",
        "main_category": "Mosque",
        "address": "MVPW+8JX Bada Peer, Madina Colony, Dholpur, Rajasthan 328001",
        "detailed_address": {
            "ward": "Madina Colony",
            "street": "MVPW+8JX",
            "city": "Dholpur",
            "postal_code": "328001",
            "state": "Rajasthan",
            "country_code": "IN"
        },
        "images": [
            {
                "about": "All",
                "link": "https://lh5.googleusercontent.com/p/AF1QipMMCUm-B-RHVKimZ0zDLkQyjfGcIHByxuE1DJOg=w412-h298-k-no"
            },
            {
                "about": "Latest",
                "link": "https://lh5.googleusercontent.com/p/AF1QipP5B22t3L7N7TKu7utPPenxkNiM2R-DHi1Ofydq=w529-h298-k-no"
            }
        ],
        "link": "https://www.google.com/maps/place/Bada+Peer/data=!4m7!3m6!1s0x3973ffbafe22eb6b:0x2f10cd88491540bd!8m2!3d26.6858648!4d77.8966176!16s%2Fg%2F11xmg519r!19sChIJa-si_rr_czkRvUAVSYjNEC8?authuser=0&hl=en&rclk=1",
        "coordinates": {
            "latitude": 26.685864799999997,
            "longitude": 77.8966176
        }
    },
    {
        "name": "Zar Zareena Masjid",
        "main_category": "Mosque",
        "address": "Zar Zareena Masjid, Bibi Fatima Maqbara, Madina Colony, Dholpur, Rajasthan 328001",
        "detailed_address": {
            "ward": "Madina Colony",
            "street": "Bibi Fatima Maqbara",
            "city": "Dholpur",
            "postal_code": "328001",
            "state": "Rajasthan",
            "country_code": "IN"
        },
        "images": [],
        "link": "https://www.google.com/maps/place/Zar+Zareena+Masjid/data=!4m7!3m6!1s0x3973ffa602d527cb:0x3a21ceeaeac88e27!8m2!3d26.6817273!4d77.9008918!16s%2Fg%2F11pzg23b2f!19sChIJyyfVAqb_czkRJ47I6urOITo?authuser=0&hl=en&rclk=1",
        "coordinates": {
            "latitude": 26.6817273,
            "longitude": 77.9008918
        }
    },
    {
        "name": "Jama Masjid",
        "main_category": "Mosque",
        "address": "MWM3+R5V Jama Masjid, Madina Colony, Dholpur, Rajasthan 328001",
        "detailed_address": {
            "ward": "Madina Colony",
            "street": "MWM3+R5V, Madina Colony",
            "city": "Dholpur",
            "postal_code": "328001",
            "state": "Rajasthan",
            "country_code": "IN"
        },
        "images": [
            {
                "about": "All",
                "link": "https://lh5.googleusercontent.com/p/AF1QipOUVT5OkxbxBf0Yo0lqS793GC7edxPV2CYhTfTQ=w529-h298-k-no"
            },
            {
                "about": "Videos",
                "link": "https://lh5.googleusercontent.com/p/AF1QipMp1sRbQoz7afi8t5tGViTwHfCbanu7kC3IrhC6=w529-h298-k-no"
            }
        ],
        "link": "https://www.google.com/maps/place/Jama+Masjid/data=!4m7!3m6!1s0x3973ffbdc9bf60e5:0x3090752e84f713f3!8m2!3d26.6846003!4d77.9029237!16s%2Fg%2F1tm0rkj9!19sChIJ5WC_yb3_czkR8xP3hC51kDA?authuser=0&hl=en&rclk=1",
        "coordinates": {
            "latitude": 26.6846003,
            "longitude": 77.9029237
        }
    },
    {
        "name": "KOTLA SHAHI Masjid",
        "main_category": "Mosque",
        "address": "MVPW+CC2 KOTLA SHAHI Masjid, Kotla, Dholpur, Rajasthan 328001",
        "detailed_address": {
            "ward": "Kotla",
            "street": "MVPW+CC2",
            "city": "Dholpur",
            "postal_code": "328001",
            "state": "Rajasthan",
            "country_code": "IN"
        },
        "images": [
            {
                "about": "All",
                "link": "https://lh5.googleusercontent.com/p/AF1QipOPd3_2Fl1XIU1QNOUcjzpqh3xjDXvySqsBqlDY=w224-h298-k-no"
            }
        ],
        "link": "https://www.google.com/maps/place/KOTLA+SHAHI+Masjid/data=!4m7!3m6!1s0x3973ffa550000001:0xb6fec8f8fbce01f!8m2!3d26.6860109!4d77.8960285!16s%2Fg%2F11dxf2cq0x!19sChIJAQAAUKX_czkRH-C8j4_sbws?authuser=0&hl=en&rclk=1",
        "coordinates": {
            "latitude": 26.6860109,
            "longitude": 77.8960285
        }
    },
    {
        "name": "habibullah, Masjid",
        "main_category": "Mosque",
        "address": "PV3X+J48 habibullah, Masjid, Defence Colony, Dholpur, Rajasthan 328001",
        "detailed_address": {
            "ward": "Defence Colony",
            "street": "PV3X+J48",
            "city": "Dholpur",
            "postal_code": "328001",
            "state": "Rajasthan",
            "country_code": "IN"
        },
        "images": [
            {
                "about": "All",
                "link": "https://lh5.googleusercontent.com/p/AF1QipMKRm7jdu4KGhBphye41QF-zt1FfiZ4nrO_mw_3=w224-h298-k-no"
            },
            {
                "about": "Street View & 360deg",
                "link": "https://streetviewpixels-pa.googleapis.com/v1/thumbnail?panoid=CXqrzwc3ruwFvGC9KOcVJw&cb_client=maps_sv.tactile.gps&w=224&h=298&yaw=144.49107&pitch=0&thumbfov=100"
            },
            {
                "about": "Videos",
                "link": "https://lh5.googleusercontent.com/p/AF1QipO0MMa6p7GI8hFJuOFf9xujNfZvF5jsV906UxAu=w224-h398-k-no"
            }
        ],
        "link": "https://www.google.com/maps/place/habibullah,+Masjid/data=!4m7!3m6!1s0x3973ff0913cd9be7:0x6b2b06e257cd0722!8m2!3d26.7040383!4d77.8978422!16s%2Fg%2F11f4r166vg!19sChIJ55vNEwn_czkRIgfNV-IGK2s?authuser=0&hl=en&rclk=1",
        "coordinates": {
            "latitude": 26.7040383,
            "longitude": 77.8978422
        }
    },
    {
        "name": "Naugaja Masjid",
        "main_category": "Mosque",
        "address": "Naugaja Masjid, mohallha naugaja, Madina Colony, Dholpur, Rajasthan 328001",
        "detailed_address": {
            "ward": "Madina Colony",
            "street": "mohallha naugaja",
            "city": "Dholpur",
            "postal_code": "328001",
            "state": "Rajasthan",
            "country_code": "IN"
        },
        "images": [
            {
                "about": "All",
                "link": "https://lh5.googleusercontent.com/p/AF1QipPoQ6O4wucryhXKUD5D9Z0fXOZq0Pzkdgn73ssu=w529-h298-k-no"
            },
            {
                "about": "Videos",
                "link": "https://lh5.googleusercontent.com/p/AF1QipMkybg3kGYyjwqcZ7Xkhq3sRQvK5QRZHAkIicOh=w529-h298-k-no"
            }
        ],
        "link": "https://www.google.com/maps/place/Naugaja+Masjid/data=!4m7!3m6!1s0x3973ffa35412e58b:0x616f7c3d26218cbf!8m2!3d26.689117!4d77.8999031!16s%2Fg%2F11g8p8gb0l!19sChIJi-USVKP_czkRv4whJj18b2E?authuser=0&hl=en&rclk=1",
        "coordinates": {
            "latitude": 26.689117,
            "longitude": 77.8999031
        }
    },
    {
        "name": "Jamia Masjid Ahle Hadees",
        "main_category": "Mosque",
        "address": "MWP2+2RQ Jamia Masjid Ahle Hadees, Unnamed Road, Madina Colony, Dholpur, Rajasthan 328001",
        "detailed_address": {
            "ward": "Madina Colony",
            "street": "MWP2+2RQ, Unnamed Road",
            "city": "Dholpur",
            "postal_code": "328001",
            "state": "Rajasthan",
            "country_code": "IN"
        },
        "images": [
            {
                "about": "All",
                "link": "https://lh5.googleusercontent.com/p/AF1QipNs4MSFOqTvF15R-qvHK69VjSyJsoxOnjJ-vdbu=w528-h298-k-no"
            }
        ],
        "link": "https://www.google.com/maps/place/Jamia+Masjid+Ahle+Hadees/data=!4m7!3m6!1s0x3973ff985fc2c7a5:0x4edd336ba7c4b135!8m2!3d26.685099!4d77.9020947!16s%2Fg%2F11f6121xgm!19sChIJpcfCX5j_czkRNbHEp2sz3U4?authuser=0&hl=en&rclk=1",
        "coordinates": {
            "latitude": 26.685098999999997,
            "longitude": 77.90209469999999
        }
    },
    {
        "name": "Choti Masjid",
        "main_category": "Mosque",
        "address": "MWP2+PPJ Choti Masjid, Unnamed Road, Madina Colony, Dholpur, Rajasthan 328001",
        "detailed_address": {
            "ward": "Madina Colony",
            "street": "MWP2+PPJ, Unnamed Road",
            "city": "Dholpur",
            "postal_code": "328001",
            "state": "Rajasthan",
            "country_code": "IN"
        },
        "images": [
            {
                "about": "All",
                "link": "https://lh5.googleusercontent.com/p/AF1QipPrma493sNxHHJVNhl4-1F7ABkWVE3i2hW58Pwr=w224-h398-k-no"
            }
        ],
        "link": "https://www.google.com/maps/place/Choti+Masjid/data=!4m7!3m6!1s0x3973ffbce55ef4dd:0xff35d4e1f8a2e998!8m2!3d26.6868467!4d77.9017633!16s%2Fg%2F11f2y52xg8!19sChIJ3fRe5bz_czkRmOmi-OHUNf8?authuser=0&hl=en&rclk=1",
        "coordinates": {
            "latitude": 26.6868467,
            "longitude": 77.9017633
        }
    },
    {
        "name": "Taliya ki maszid",
        "main_category": "Mosque",
        "address": "Taliya ki maszid, 653, Hardev Nagar, Dholpur, Rajasthan 328001",
        "detailed_address": {
            "ward": "Hardev Nagar",
            "street": "653",
            "city": "Dholpur",
            "postal_code": "328001",
            "state": "Rajasthan",
            "country_code": "IN"
        },
        "images": [],
        "link": "https://www.google.com/maps/place/Taliya+ki+maszid/data=!4m7!3m6!1s0x3973ffe12621e01b:0xdecbcd069ccad1d4!8m2!3d26.6952316!4d77.8984847!16s%2Fg%2F11sm0r3fzn!19sChIJG-AhJuH_czkR1NHKnAbNy94?authuser=0&hl=en&rclk=1",
        "coordinates": {
            "latitude": 26.6952316,
            "longitude": 77.8984847
        }
    },
    {
        "name": "MASJID E MUHAMMADIA msjideN muhmmdiiyaa",
        "main_category": "Mosque",
        "address": "MVCX+W83 MASJID E MUHAMMADIA msjideN muhmmdiiyaa, Sagarpada, Dholpur, Rajasthan 328001",
        "detailed_address": {
            "ward": "Sagarpada",
            "street": "MVCX+W83",
            "city": "Dholpur",
            "postal_code": "328001",
            "state": "Rajasthan",
            "country_code": "IN"
        },
        "images": [
            {
                "about": "All",
                "link": "https://streetviewpixels-pa.googleapis.com/v1/thumbnail?panoid=56TOaz18a9BbYNXiy7ydOQ&cb_client=maps_sv.tactile.gps&w=224&h=298&yaw=223.97678&pitch=0&thumbfov=100"
            },
            {
                "about": "Street View & 360deg",
                "link": "https://streetviewpixels-pa.googleapis.com/v1/thumbnail?panoid=56TOaz18a9BbYNXiy7ydOQ&cb_client=maps_sv.tactile.gps&w=224&h=298&yaw=223.97678&pitch=0&thumbfov=100"
            }
        ],
        "link": "https://www.google.com/maps/place/MASJID+E+MUHAMMADIA+%E0%A4%AE%E0%A4%B8%E0%A5%8D%E0%A4%9C%E0%A4%BF%E0%A4%A6%E0%A5%87%E0%A4%82+%E0%A4%AE%E0%A5%81%E0%A4%B9%E0%A4%AE%E0%A5%8D%E0%A4%AE%E0%A4%A6%E0%A5%80%E0%A4%AF%E0%A4%BE/data=!4m7!3m6!1s0x3973ffb4e88fbb93:0xb5e75023f5483ad9!8m2!3d26.6722574!4d77.8982977!16s%2Fg%2F11hw3h10t6!19sChIJk7uP6LT_czkR2TpI9SNQ57U?authuser=0&hl=en&rclk=1",
        "coordinates": {
            "latitude": 26.6722574,
            "longitude": 77.8982977
        }
    },
    {
        "name": "MASJID(Sagar pada)",
        "main_category": "Place of worship",
        "address": "MVFW+PW3 MASJID(Sagar pada), Sagarpada, Dholpur, Rajasthan 328001",
        "detailed_address": {
            "ward": "Sagarpada",
            "street": "MVFW+PW3",
            "city": "Dholpur",
            "postal_code": "328001",
            "state": "Rajasthan",
            "country_code": "IN"
        },
        "images": [],
        "link": "https://www.google.com/maps/place/MASJID%28Sagar+pada%29/data=!4m7!3m6!1s0x3973ff76cacbc085:0xbf85d610c22a6742!8m2!3d26.674339!4d77.8978317!16s%2Fg%2F11pzkr5f3s!19sChIJhcDLynb_czkRQmcqwhDWhb8?authuser=0&hl=en&rclk=1",
        "coordinates": {
            "latitude": 26.674339,
            "longitude": 77.8978317
        }
    },
    {
        "name": "Usmaan Ghani Masjid usmaan ghhnii msjid",
        "main_category": "Mosque",
        "address": "PWF4+J4G Usmaan Ghani Masjid usmaan ghhnii msjid, Raja Kera Bypass, Road, Nizam, ColonyDholpur, Rajasthan 328001",
        "detailed_address": {
            "ward": "Nizam",
            "street": "PWF4+J4G, Raja Kera Bypass, Road",
            "city": "ColonyDholpur, Sanda",
            "postal_code": "328001",
            "state": "Rajasthan",
            "country_code": "IN"
        },
        "images": [
            {
                "about": "All",
                "link": "https://lh5.googleusercontent.com/p/AF1QipPjWaWyX3eFudw-kuAI7Dkd2LtOeYMRi9xt1sEU=w397-h298-k-no"
            }
        ],
        "link": "https://www.google.com/maps/place/Usmaan+Ghani+Masjid+%E0%A4%89%E0%A4%B8%E0%A5%8D%E0%A4%AE%E0%A4%BE%E0%A4%A8+%E0%A5%9A%E0%A4%A8%E0%A5%80+%E0%A4%AE%E0%A4%B8%E0%A5%8D%E0%A4%9C%E0%A4%BF%E0%A4%A6/data=!4m7!3m6!1s0x3973ff7c6410e8c7:0xf650a413c63cbeb!8m2!3d26.7240659!4d77.9053182!16s%2Fg%2F11t80z81lb!19sChIJx-gQZHz_czkR68tjPEEKZQ8?authuser=0&hl=en&rclk=1",
        "coordinates": {
            "latitude": 26.7240659,
            "longitude": 77.9053182
        }
    },
    {
        "name": "Baggikhana Mosque",
        "main_category": "Mosque",
        "address": "MVXW+GQR Baggikhana Mosque, Raja Ganj, Dholpur, Rajasthan 328001",
        "detailed_address": {
            "ward": "Raja Ganj",
            "street": "MVXW+GQR",
            "city": "Dholpur",
            "postal_code": "328001",
            "state": "Rajasthan",
            "country_code": "IN"
        },
        "images": [
            {
                "about": "All",
                "link": "https://streetviewpixels-pa.googleapis.com/v1/thumbnail?panoid=q5qaChQj_67eIx7u4taWzw&cb_client=maps_sv.tactile.gps&w=224&h=298&yaw=341.8282&pitch=0&thumbfov=100"
            },
            {
                "about": "Street View & 360deg",
                "link": "https://streetviewpixels-pa.googleapis.com/v1/thumbnail?panoid=q5qaChQj_67eIx7u4taWzw&cb_client=maps_sv.tactile.gps&w=224&h=298&yaw=341.8282&pitch=0&thumbfov=100"
            }
        ],
        "link": "https://www.google.com/maps/place/Baggikhana+Mosque/data=!4m7!3m6!1s0x3973ff1619b3b509:0xa032aa6b118d655c!8m2!3d26.6988675!4d77.8969019!16s%2Fg%2F11g0jcmj94!19sChIJCbWzGRb_czkRXGWNEWuqMqA?authuser=0&hl=en&rclk=1",
        "coordinates": {
            "latitude": 26.6988675,
            "longitude": 77.8969019
        }
    },
    {
        "name": "jiilaanii msjid, Jeelani Masjid",
        "main_category": "Mosque",
        "address": "jiilaanii msjid, Jeelani Masjid, Nawaab Saahab Ka Baara, Rajakhera Rd, Bajaria, Dholpur, Rajasthan 328001",
        "detailed_address": {
            "ward": "Bajaria",
            "street": "Nawaab Saahab Ka Baara, Rajakhera Rd",
            "city": "Dholpur",
            "postal_code": "328001",
            "state": "Rajasthan",
            "country_code": "IN"
        },
        "images": [
            {
                "about": "All",
                "link": "https://streetviewpixels-pa.googleapis.com/v1/thumbnail?panoid=1nudh1GuQMCW5-6L9c41IA&cb_client=maps_sv.tactile.gps&w=224&h=298&yaw=226.30821&pitch=0&thumbfov=100"
            },
            {
                "about": "Street View & 360deg",
                "link": "https://streetviewpixels-pa.googleapis.com/v1/thumbnail?panoid=1nudh1GuQMCW5-6L9c41IA&cb_client=maps_sv.tactile.gps&w=224&h=298&yaw=226.30821&pitch=0&thumbfov=100"
            }
        ],
        "link": "https://www.google.com/maps/place/%E0%A4%9C%E0%A5%80%E0%A4%B2%E0%A4%BE%E0%A4%A8%E0%A5%80+%E0%A4%AE%E0%A4%B8%E0%A5%8D%E0%A4%9C%E0%A4%BF%E0%A4%A6,+Jeelani+Masjid/data=!4m7!3m6!1s0x3973ffc4fc2383e1:0x39d77c0e0908ebd4!8m2!3d26.7033339!4d77.8974884!16s%2Fg%2F11t80ym8n5!19sChIJ4YMj_MT_czkR1OsICQ581zk?authuser=0&hl=en&rclk=1",
        "coordinates": {
            "latitude": 26.7033339,
            "longitude": 77.8974884
        }
    },
    {
        "name": "Jama masjid bhamtipura",
        "main_category": "Mosque",
        "address": "MWW3+25G Jama masjid bhamtipura, Bhamtipura, Dholpur, Rajasthan 328001",
        "detailed_address": {
            "ward": "Bhamtipura",
            "street": "MWW3+25G",
            "city": "Dholpur",
            "postal_code": "328001",
            "state": "Rajasthan",
            "country_code": "IN"
        },
        "images": [
            {
                "about": "All",
                "link": "https://streetviewpixels-pa.googleapis.com/v1/thumbnail?panoid=NAJd7RTrGocl_L-JnvxwFA&cb_client=maps_sv.tactile.gps&w=224&h=298&yaw=111.1679&pitch=0&thumbfov=100"
            },
            {
                "about": "Street View & 360deg",
                "link": "https://streetviewpixels-pa.googleapis.com/v1/thumbnail?panoid=NAJd7RTrGocl_L-JnvxwFA&cb_client=maps_sv.tactile.gps&w=224&h=298&yaw=111.1679&pitch=0&thumbfov=100"
            }
        ],
        "link": "https://www.google.com/maps/place/Jama+masjid+bhamtipura/data=!4m7!3m6!1s0x3973ffe8a654b499:0x5efbc8bfbabc7374!8m2!3d26.6950581!4d77.9029559!16s%2Fg%2F11rfncm3w8!19sChIJmbRUpuj_czkRdHO8ur_I-14?authuser=0&hl=en&rclk=1",
        "coordinates": {
            "latitude": 26.695058099999997,
            "longitude": 77.9029559
        }
    },
    {
        "name": "PATPARA IMI WALI MASJID KE SAMNE TRANSFER PAR",
        "main_category": "Ice cream shop",
        "address": "PATPARA IMI WALI MASJID KE SAMNE TRANSFER PAR, 1473, Madina Colony, Dholpur, Rajasthan 328001",
        "detailed_address": {
            "ward": "Madina Colony",
            "street": "1473",
            "city": "Dholpur",
            "postal_code": "328001",
            "state": "Rajasthan",
            "country_code": "IN"
        },
        "images": [
            {
                "about": "All",
                "link": "https://streetviewpixels-pa.googleapis.com/v1/thumbnail?panoid=z3BUGM7_F6xp1Y3Tq7GS8w&cb_client=maps_sv.tactile.gps&w=224&h=298&yaw=88.90913&pitch=0&thumbfov=100"
            },
            {
                "about": "Street View & 360deg",
                "link": "https://streetviewpixels-pa.googleapis.com/v1/thumbnail?panoid=z3BUGM7_F6xp1Y3Tq7GS8w&cb_client=maps_sv.tactile.gps&w=224&h=298&yaw=88.90913&pitch=0&thumbfov=100"
            }
        ],
        "link": "https://www.google.com/maps/place/PATPARA+IMI+WALI+MASJID+KE+SAMNE+TRANSFER+PAR/data=!4m7!3m6!1s0x3973ff7cafcdfc6d:0x4d2bf4ee38f01d49!8m2!3d26.6876636!4d77.8976139!16s%2Fg%2F11tsdh3pjb!19sChIJbfzNr3z_czkRSR3wOO70K00?authuser=0&hl=en&rclk=1",
        "coordinates": {
            "latitude": 26.6876636,
            "longitude": 77.8976139
        }
    }
]