[
    {
        "name": "Attaran Markaz Masjid Georai",
        "main_category": "Mosque",
        "address": "7P5X+8Q6 Attaran Markaz Masjid Georai, Georai, Maharashtra 431127",
        "detailed_address": {
            "ward": null,
            "street": "7P5X+8Q6",
            "city": "Georai",
            "postal_code": "431127",
            "state": "Maharashtra",
            "country_code": "IN"
        },
        "images": [
            {
                "about": "All",
                "link": "https://lh5.googleusercontent.com/p/AF1QipNzusp8CkONMb09CtfGAbqQeeS9DG-KQIOxKWc=w529-h298-k-no"
            },
            {
                "about": "Street View & 360deg",
                "link": "https://streetviewpixels-pa.googleapis.com/v1/thumbnail?panoid=nGio3J--gy8S9qwevJiq0A&cb_client=maps_sv.tactile.gps&w=224&h=298&yaw=188.10262&pitch=0&thumbfov=100"
            },
            {
                "about": "Videos",
                "link": "https://lh5.googleusercontent.com/p/AF1QipPHT7BJf4IbVMsFlwlyY2ZpuaD0BLS4YmwgrOaJ=w224-h399-k-no"
            }
        ],
        "link": "https://www.google.com/maps/place/Attaran+Markaz+Masjid+Georai/data=!4m7!3m6!1s0x3bdad8e58e6c3ba1:0xda7ec771349da470!8m2!3d19.258294!4d75.7493947!16s%2Fg%2F11c1nyjq15!19sChIJoTtsjuXY2jsRcKSdNHHHfto?authuser=0&hl=en&rclk=1",
        "coordinates": {
            "latitude": 19.258294,
            "longitude": 75.7493947
        }
    },
    {
        "name": "Raza-e-Mustafa Masjid",
        "main_category": "Mosque",
        "address": "7P8X+MWC Raza-e-Mustafa Masjid, Momin Colony, Georai, Maharashtra 431127",
        "detailed_address": {
            "ward": "Gajanan Nagar",
            "street": "7P8X+MWC, Momin Colony",
            "city": "Georai",
            "postal_code": "431127",
            "state": "Maharashtra",
            "country_code": "IN"
        },
        "images": [
            {
                "about": "All",
                "link": "https://streetviewpixels-pa.googleapis.com/v1/thumbnail?panoid=psTGuigy5jPcaHXt8JPRtQ&cb_client=maps_sv.tactile.gps&w=224&h=298&yaw=53.209286&pitch=0&thumbfov=100"
            },
            {
                "about": "Street View & 360deg",
                "link": "https://streetviewpixels-pa.googleapis.com/v1/thumbnail?panoid=psTGuigy5jPcaHXt8JPRtQ&cb_client=maps_sv.tactile.gps&w=224&h=298&yaw=53.209286&pitch=0&thumbfov=100"
            }
        ],
        "link": "https://www.google.com/maps/place/Raza-e-Mustafa+Masjid/data=!4m7!3m6!1s0x3bdad8dd5b3a1d79:0x929ee2235ad2d91b!8m2!3d19.2666871!4d75.7497544!16s%2Fg%2F11c67vz0yt!19sChIJeR06W93Y2jsRG9nSWiPinpI?authuser=0&hl=en&rclk=1",
        "coordinates": {
            "latitude": 19.2666871,
            "longitude": 75.7497544
        }
    },
    {
        "name": "Jama Masjid",
        "main_category": "Mosque",
        "address": "7P6X+6M7 Jama Masjid, Mominpura, Georai, Maharashtra 431127",
        "detailed_address": {
            "ward": "Mominpura",
            "street": "7P6X+6M7",
            "city": "Georai",
            "postal_code": null,
            "state": "Maharashtra",
            "country_code": "IN"
        },
        "images": [
            {
                "about": "All",
                "link": "https://streetviewpixels-pa.googleapis.com/v1/thumbnail?panoid=ueS8gsb3XV1E-eCdpJMyQg&cb_client=maps_sv.tactile.gps&w=224&h=298&yaw=262.5638&pitch=0&thumbfov=100"
            },
            {
                "about": "Street View & 360deg",
                "link": "https://streetviewpixels-pa.googleapis.com/v1/thumbnail?panoid=ueS8gsb3XV1E-eCdpJMyQg&cb_client=maps_sv.tactile.gps&w=224&h=298&yaw=262.5638&pitch=0&thumbfov=100"
            }
        ],
        "link": "https://www.google.com/maps/place/Jama+Masjid/data=!4m7!3m6!1s0x3bdad8e604165bdb:0xe39a4b2517c36dae!8m2!3d19.2605386!4d75.7491834!16s%2Fg%2F11b6lm9grt!19sChIJ21sWBObY2jsRrm3DFyVLmuM?authuser=0&hl=en&rclk=1",
        "coordinates": {
            "latitude": 19.2605386,
            "longitude": 75.74918339999999
        }
    },
    {
        "name": "Eidgah",
        "main_category": "Mosque",
        "address": "7Q42+86H Eidgah, Mondha Naka, Georai, Maharashtra 431127",
        "detailed_address": {
            "ward": "Mondha Naka",
            "street": "7Q42+86H",
            "city": "Georai",
            "postal_code": "431127",
            "state": "Maharashtra",
            "country_code": "IN"
        },
        "images": [
            {
                "about": "All",
                "link": "https://lh5.googleusercontent.com/p/AF1QipNvGIqeDuTAh2vFiNZELzib22yjZkGSyPUCY3rI=w372-h298-k-no"
            }
        ],
        "link": "https://www.google.com/maps/place/Eidgah/data=!4m7!3m6!1s0x3bdad8e53ddfda55:0x25ce9bdf55e7602!8m2!3d19.255815!4d75.7506027!16s%2Fg%2F11c30tf01h!19sChIJVdrfPeXY2jsRAnZe9b3pXAI?authuser=0&hl=en&rclk=1",
        "coordinates": {
            "latitude": 19.255815,
            "longitude": 75.7506027
        }
    },
    {
        "name": "Ek Minar Masjid",
        "main_category": "Mosque",
        "address": "7Q52+V33 Ek Minar Masjid, Georai, Maharashtra 431127",
        "detailed_address": {
            "ward": null,
            "street": "7Q52+V33",
            "city": "Georai",
            "postal_code": "431127",
            "state": "Maharashtra",
            "country_code": "IN"
        },
        "images": [
            {
                "about": "All",
                "link": "https://streetviewpixels-pa.googleapis.com/v1/thumbnail?panoid=6xkY-5z88vQ8-579Xf4kCA&cb_client=maps_sv.tactile.gps&w=224&h=298&yaw=224.7255&pitch=0&thumbfov=100"
            },
            {
                "about": "Street View & 360deg",
                "link": "https://streetviewpixels-pa.googleapis.com/v1/thumbnail?panoid=6xkY-5z88vQ8-579Xf4kCA&cb_client=maps_sv.tactile.gps&w=224&h=298&yaw=224.7255&pitch=0&thumbfov=100"
            }
        ],
        "link": "https://www.google.com/maps/place/Ek+Minar+Masjid/data=!4m7!3m6!1s0x3bdad8e5e7767cad:0xae030ea060b7d11a!8m2!3d19.259637!4d75.7501579!16s%2Fg%2F11g68_nv85!19sChIJrXx25-XY2jsRGtG3YKAOA64?authuser=0&hl=en&rclk=1",
        "coordinates": {
            "latitude": 19.259636999999998,
            "longitude": 75.75015789999999
        }
    },
    {
        "name": "Masjid Umar Farooq",
        "main_category": "Mosque",
        "address": "6QX4+88V Masjid Umar Farooq, 4/410, Tayyab Nagar, Georai, Maharashtra 431127",
        "detailed_address": {
            "ward": "Tayyab Nagar",
            "street": "6QX4+88V, 4/410",
            "city": "Georai",
            "postal_code": "431127",
            "state": "Maharashtra",
            "country_code": "IN"
        },
        "images": [
            {
                "about": "All",
                "link": "https://streetviewpixels-pa.googleapis.com/v1/thumbnail?panoid=4TtyXQgkFVt9JUefctZWKw&cb_client=maps_sv.tactile.gps&w=224&h=298&yaw=4.704261&pitch=0&thumbfov=100"
            },
            {
                "about": "Street View & 360deg",
                "link": "https://streetviewpixels-pa.googleapis.com/v1/thumbnail?panoid=4TtyXQgkFVt9JUefctZWKw&cb_client=maps_sv.tactile.gps&w=224&h=298&yaw=4.704261&pitch=0&thumbfov=100"
            }
        ],
        "link": "https://www.google.com/maps/place/Masjid+Umar+Farooq/data=!4m7!3m6!1s0x3bdad8fc4d96d7a5:0xfd6814a2e0145a99!8m2!3d19.2511656!4d75.757452!16s%2Fg%2F11c52q4qrx!19sChIJpdeWTfzY2jsRmVoU4KIUaP0?authuser=0&hl=en&rclk=1",
        "coordinates": {
            "latitude": 19.2511656,
            "longitude": 75.757452
        }
    },
    {
        "name": "Raj Masjid",
        "main_category": "Mosque",
        "address": "7Q52+6M3 Raj Masjid, Georai, Maharashtra 431127",
        "detailed_address": {
            "ward": null,
            "street": "7Q52+6M3",
            "city": "Georai",
            "postal_code": "431127",
            "state": "Maharashtra",
            "country_code": "IN"
        },
        "images": [
            {
                "about": "All",
                "link": "https://lh5.googleusercontent.com/p/AF1QipO4VqjLFiG68eBxs2aGZKUy3hdGMbQ3Zy-XFy_A=w264-h298-k-no"
            },
            {
                "about": "Dome",
                "link": "https://lh5.googleusercontent.com/p/AF1QipO4VqjLFiG68eBxs2aGZKUy3hdGMbQ3Zy-XFy_A=w264-h298-k-no"
            },
            {
                "about": "Videos",
                "link": "https://lh5.googleusercontent.com/p/AF1QipNgL5rRMs1B4qWBBL1iE_QtYtMTpKRNpJjOan09=w224-h398-k-no"
            },
            {
                "about": "Street View & 360deg",
                "link": "https://streetviewpixels-pa.googleapis.com/v1/thumbnail?panoid=Pok5rdRUOTGAqjG87OO6jQ&cb_client=maps_sv.tactile.gps&w=224&h=298&yaw=37.988693&pitch=0&thumbfov=100"
            }
        ],
        "link": "https://www.google.com/maps/place/Raj+Masjid/data=!4m7!3m6!1s0x3bdad8e5ad2959d9:0xf86350b66c5ea564!8m2!3d19.2580088!4d75.7516613!16s%2Fg%2F11f0kvc_4x!19sChIJ2VkpreXY2jsRZKVebLZQY_g?authuser=0&hl=en&rclk=1",
        "coordinates": {
            "latitude": 19.2580088,
            "longitude": 75.7516613
        }
    },
    {
        "name": "Makkah Masjid",
        "main_category": "Mosque",
        "address": "7P5X+5MV Makkah Masjid, Georai, Maharashtra 431127",
        "detailed_address": {
            "ward": null,
            "street": "7P5X+5MV",
            "city": "Georai",
            "postal_code": "431127",
            "state": "Maharashtra",
            "country_code": "IN"
        },
        "images": [
            {
                "about": "All",
                "link": "https://lh5.googleusercontent.com/p/AF1QipPec_qT5wTB7WaSs1FBCM_gPDo8Skf9Vm27y-JB=w529-h298-k-no"
            },
            {
                "about": "Videos",
                "link": "https://lh5.googleusercontent.com/p/AF1QipN1dh31FyX99YV5uT87itF7O5C20kaEKoHG9jgX=w224-h398-k-no"
            }
        ],
        "link": "https://www.google.com/maps/place/Makkah+Masjid/data=!4m7!3m6!1s0x3bdad8e58f503f27:0xfd7429134f552b08!8m2!3d19.2579788!4d75.7491715!16s%2Fg%2F11c30vj2j1!19sChIJJz9Qj-XY2jsRCCtVTxMpdP0?authuser=0&hl=en&rclk=1",
        "coordinates": {
            "latitude": 19.2579788,
            "longitude": 75.7491715
        }
    },
    {
        "name": "Dargah Masjeed",
        "main_category": "Mosque",
        "address": "7P6X+794 Dargah Masjeed, Mominpura, Georai, Maharashtra 431127",
        "detailed_address": {
            "ward": "Mominpura",
            "street": "7P6X+794",
            "city": "Georai",
            "postal_code": null,
            "state": "Maharashtra",
            "country_code": "IN"
        },
        "images": [],
        "link": "https://www.google.com/maps/place/Dargah+Masjeed/data=!4m7!3m6!1s0x3bdad8e8a9298559:0x4128cc18fba19c42!8m2!3d19.2606311!4d75.7484398!16s%2Fg%2F11cnrmd6m2!19sChIJWYUpqejY2jsRQpyh-xjMKEE?authuser=0&hl=en&rclk=1",
        "coordinates": {
            "latitude": 19.260631099999998,
            "longitude": 75.7484398
        }
    },
    {
        "name": "Hafiziya Masjid",
        "main_category": "Mosque",
        "address": "Hafiziya Masjid, Old Bus Stand, Vir Lahuji Nagar, Georai, Maharashtra 431127",
        "detailed_address": {
            "ward": "Vir Lahuji Nagar",
            "street": "Old Bus Stand",
            "city": "Georai",
            "postal_code": "431127",
            "state": "Maharashtra",
            "country_code": "IN"
        },
        "images": [
            {
                "about": "All",
                "link": "https://streetviewpixels-pa.googleapis.com/v1/thumbnail?panoid=Mmja4ktEYr9A21QnqLUwnQ&cb_client=maps_sv.tactile.gps&w=224&h=298&yaw=267.23718&pitch=0&thumbfov=100"
            },
            {
                "about": "Street View & 360deg",
                "link": "https://streetviewpixels-pa.googleapis.com/v1/thumbnail?panoid=Mmja4ktEYr9A21QnqLUwnQ&cb_client=maps_sv.tactile.gps&w=224&h=298&yaw=267.23718&pitch=0&thumbfov=100"
            }
        ],
        "link": "https://www.google.com/maps/place/Hafiziya+Masjid/data=!4m7!3m6!1s0x3bdad8e8733fe297:0xecfdf97d0b738417!8m2!3d19.2643176!4d75.7483197!16s%2Fg%2F11g65f3s20!19sChIJl-I_c-jY2jsRF4RzC335_ew?authuser=0&hl=en&rclk=1",
        "coordinates": {
            "latitude": 19.2643176,
            "longitude": 75.7483197
        }
    },
    {
        "name": "Bilal Masjid",
        "main_category": "Mosque",
        "address": "7P9X+R65 Bilal Masjid, Sanjay Nagar, Georai, Maharashtra 431127",
        "detailed_address": {
            "ward": "Sanjay Nagar",
            "street": "7P9X+R65",
            "city": "Georai",
            "postal_code": "431127",
            "state": "Maharashtra",
            "country_code": "IN"
        },
        "images": [
            {
                "about": "All",
                "link": "https://lh5.googleusercontent.com/p/AF1QipMfQgwIkfrUWccoL_Ra4-L1CsAmdkCGkzPtEjGs=w529-h298-k-no"
            },
            {
                "about": "Street View & 360deg",
                "link": "https://streetviewpixels-pa.googleapis.com/v1/thumbnail?panoid=8Cd2lVNI4A0reQc1L_IQ9g&cb_client=maps_sv.tactile.gps&w=224&h=298&yaw=292.11908&pitch=0&thumbfov=100"
            }
        ],
        "link": "https://www.google.com/maps/place/Bilal+Masjid/data=!4m7!3m6!1s0x3bdad8c3301eed05:0xd36a2320220511e6!8m2!3d19.2695094!4d75.748117!16s%2Fg%2F11b6hytt4h!19sChIJBe0eMMPY2jsR5hEFIiAjatM?authuser=0&hl=en&rclk=1",
        "coordinates": {
            "latitude": 19.2695094,
            "longitude": 75.748117
        }
    },
    {
        "name": "Masjid-e-Ayesha",
        "main_category": "Mosque",
        "address": "7Q74+9C2 Masjid-e-Ayesha, Ayesha Colony Rd, Balraje Nagar, Georai, Maharashtra 431127",
        "detailed_address": {
            "ward": "Balraje Nagar",
            "street": "7Q74+9C2, Ayesha Colony Rd",
            "city": "Georai",
            "postal_code": "431127",
            "state": "Maharashtra",
            "country_code": "IN"
        },
        "images": [
            {
                "about": "All",
                "link": "https://streetviewpixels-pa.googleapis.com/v1/thumbnail?panoid=x89R8es8cqnMqnN7R7FH3w&cb_client=maps_sv.tactile.gps&w=224&h=298&yaw=21.88849&pitch=0&thumbfov=100"
            },
            {
                "about": "Street View & 360deg",
                "link": "https://streetviewpixels-pa.googleapis.com/v1/thumbnail?panoid=x89R8es8cqnMqnN7R7FH3w&cb_client=maps_sv.tactile.gps&w=224&h=298&yaw=21.88849&pitch=0&thumbfov=100"
            }
        ],
        "link": "https://www.google.com/maps/place/Masjid-e-Ayesha/data=!4m7!3m6!1s0x3bdad8e121d044c7:0x692e37ce3b0310c2!8m2!3d19.2633793!4d75.7560083!16s%2Fg%2F11d_w8f3l9!19sChIJx0TQIeHY2jsRwhADO843Lmk?authuser=0&hl=en&rclk=1",
        "coordinates": {
            "latitude": 19.2633793,
            "longitude": 75.75600829999999
        }
    },
    {
        "name": "Masjid",
        "main_category": "Mosque",
        "address": "6QX4+R7X Masjid, Tayyab Nagar, Georai, Maharashtra 431127",
        "detailed_address": {
            "ward": "Tayyab Nagar",
            "street": "6QX4+R7X",
            "city": "Georai",
            "postal_code": "431127",
            "state": "Maharashtra",
            "country_code": "IN"
        },
        "images": [],
        "link": "https://www.google.com/maps/place/Masjid/data=!4m7!3m6!1s0x3bdad980d213fbcd:0x36160ce8b3732331!8m2!3d19.249066!4d75.7557277!16s%2Fg%2F11rf7ps9l_!19sChIJzfsT0oDZ2jsRMSNzs-gMFjY?authuser=0&hl=en&rclk=1",
        "coordinates": {
            "latitude": 19.249066,
            "longitude": 75.7557277
        }
    },
    {
        "name": "Abubakar Masjid",
        "main_category": "Mosque",
        "address": "7P9W+5VV Abubakar Masjid, Sanjay Nagar, Georai, Maharashtra 431127",
        "detailed_address": {
            "ward": "Sanjay Nagar",
            "street": "7P9W+5VV",
            "city": "Georai",
            "postal_code": "431127",
            "state": "Maharashtra",
            "country_code": "IN"
        },
        "images": [
            {
                "about": "All",
                "link": "https://streetviewpixels-pa.googleapis.com/v1/thumbnail?panoid=WbPOMK8ryWbP5fXlbsi4SA&cb_client=maps_sv.tactile.gps&w=224&h=298&yaw=101.52758&pitch=0&thumbfov=100"
            },
            {
                "about": "Street View & 360deg",
                "link": "https://streetviewpixels-pa.googleapis.com/v1/thumbnail?panoid=WbPOMK8ryWbP5fXlbsi4SA&cb_client=maps_sv.tactile.gps&w=224&h=298&yaw=101.52758&pitch=0&thumbfov=100"
            }
        ],
        "link": "https://www.google.com/maps/place/Abubakar+Masjid/data=!4m7!3m6!1s0x3bdad8c2e878b675:0x2700e3786a268ab!8m2!3d19.2679787!4d75.7471668!16s%2Fg%2F11c30q5bkd!19sChIJdbZ46MLY2jsRq2iihjcOcAI?authuser=0&hl=en&rclk=1",
        "coordinates": {
            "latitude": 19.2679787,
            "longitude": 75.7471668
        }
    },
    {
        "name": "MASJID E UMME SALMA",
        "main_category": "Mosque",
        "address": "6QX4+88V MASJID E UMME SALMA, 4/410, Tayyab Nagar, Georai, Maharashtra 431127",
        "detailed_address": {
            "ward": "Tayyab Nagar",
            "street": "6QX4+88V, 4/410",
            "city": "Georai",
            "postal_code": "431127",
            "state": "Maharashtra",
            "country_code": "IN"
        },
        "images": [
            {
                "about": "All",
                "link": "https://lh5.googleusercontent.com/p/AF1QipPthmCcpXbBVU_W343P51bE04k5-EH11Mg1XNxT=w224-h298-k-no"
            },
            {
                "about": "Street View & 360deg",
                "link": "https://streetviewpixels-pa.googleapis.com/v1/thumbnail?panoid=TwNTDhim-Nqc0TJ7ttwWyA&cb_client=maps_sv.tactile.gps&w=224&h=298&yaw=104.13548&pitch=0&thumbfov=100"
            }
        ],
        "link": "https://www.google.com/maps/place/MASJID+E+UMME+SALMA/data=!4m7!3m6!1s0x3bdad95bb7d244c1:0xa623b756404ffc69!8m2!3d19.2516825!4d75.7566561!16s%2Fg%2F11k9gq6w7j!19sChIJwUTSt1vZ2jsRafxPQFa3I6Y?authuser=0&hl=en&rclk=1",
        "coordinates": {
            "latitude": 19.251682499999998,
            "longitude": 75.7566561
        }
    },
    {
        "name": "Fatema Masjid",
        "main_category": "Mosque",
        "address": "7P8V+CWF Fatema Masjid, Georai, Maharashtra 431127",
        "detailed_address": {
            "ward": null,
            "street": "7P8V+CWF",
            "city": "Georai",
            "postal_code": "431127",
            "state": "Maharashtra",
            "country_code": "IN"
        },
        "images": [
            {
                "about": "All",
                "link": "https://streetviewpixels-pa.googleapis.com/v1/thumbnail?panoid=vIr3zbBpKdk6Tkm80INQfQ&cb_client=maps_sv.tactile.gps&w=224&h=298&yaw=200.85399&pitch=0&thumbfov=100"
            },
            {
                "about": "Street View & 360deg",
                "link": "https://streetviewpixels-pa.googleapis.com/v1/thumbnail?panoid=vIr3zbBpKdk6Tkm80INQfQ&cb_client=maps_sv.tactile.gps&w=224&h=298&yaw=200.85399&pitch=0&thumbfov=100"
            }
        ],
        "link": "https://www.google.com/maps/place/Fatema+Masjid/data=!4m7!3m6!1s0x3bdad8c2715e85e3:0x1b5ce8a364e139e2!8m2!3d19.2660588!4d75.7448007!16s%2Fg%2F11d_xhyfq0!19sChIJ44VeccLY2jsR4jnhZKPoXBs?authuser=0&hl=en&rclk=1",
        "coordinates": {
            "latitude": 19.2660588,
            "longitude": 75.7448007
        }
    },
    {
        "name": "Nurjaha masjid",
        "main_category": "Mosque",
        "address": "6QX5+7FC Nurjaha masjid, Georai Rural, Maharashtra 431127",
        "detailed_address": {
            "ward": null,
            "street": "6QX5+7FC",
            "city": "Georai Rural",
            "postal_code": "431127",
            "state": "Maharashtra",
            "country_code": "IN"
        },
        "images": [
            {
                "about": "All",
                "link": "https://lh5.googleusercontent.com/p/AF1QipN9-CkyUq1HoagZ_mDSViVpGvWCdRFq85M5Rdmr=w224-h398-k-no"
            },
            {
                "about": "Street View & 360deg",
                "link": "https://streetviewpixels-pa.googleapis.com/v1/thumbnail?panoid=pTSAuNP-PLWaHs8wo5UdlA&cb_client=maps_sv.tactile.gps&w=224&h=298&yaw=36.600048&pitch=0&thumbfov=100"
            }
        ],
        "link": "https://www.google.com/maps/place/Nurjaha+masjid/data=!4m7!3m6!1s0x3bdad9ed52439685:0xc597a0ff97925bc7!8m2!3d19.248182!4d75.7586262!16s%2Fg%2F11rsfcwr7p!19sChIJhZZDUu3Z2jsRx1uSl_-gl8U?authuser=0&hl=en&rclk=1",
        "coordinates": {
            "latitude": 19.248182,
            "longitude": 75.7586262
        }
    },
    {
        "name": "Takiya Masjid",
        "main_category": "Mosque",
        "address": "7P6W+644 Takiya Masjid, Georai, Maharashtra 431127",
        "detailed_address": {
            "ward": null,
            "street": "7P6W+644",
            "city": "Georai",
            "postal_code": "431127",
            "state": "Maharashtra",
            "country_code": "IN"
        },
        "images": [
            {
                "about": "All",
                "link": "https://streetviewpixels-pa.googleapis.com/v1/thumbnail?panoid=v5-A34FPIZnm4ZqD5cCgJQ&cb_client=maps_sv.tactile.gps&w=224&h=298&yaw=252.926&pitch=0&thumbfov=100"
            },
            {
                "about": "Street View & 360deg",
                "link": "https://streetviewpixels-pa.googleapis.com/v1/thumbnail?panoid=v5-A34FPIZnm4ZqD5cCgJQ&cb_client=maps_sv.tactile.gps&w=224&h=298&yaw=252.926&pitch=0&thumbfov=100"
            }
        ],
        "link": "https://www.google.com/maps/place/Takiya+Masjid/data=!4m7!3m6!1s0x3bdad8e92f6e795d:0x5e64b91786c378ac!8m2!3d19.2605173!4d75.7453344!16s%2Fg%2F11g65g21cn!19sChIJXXluL-nY2jsRrHjDhhe5ZF4?authuser=0&hl=en&rclk=1",
        "coordinates": {
            "latitude": 19.2605173,
            "longitude": 75.74533439999999
        }
    },
    {
        "name": "mohhammadiya masjid georai",
        "main_category": "Mosque",
        "address": "mohhammadiya masjid georai, Sathe nagar, Georai, Maharashtra 431127",
        "detailed_address": {
            "ward": "Sathe nagar",
            "street": null,
            "city": "Georai",
            "postal_code": "431127",
            "state": "Maharashtra",
            "country_code": "IN"
        },
        "images": [
            {
                "about": "All",
                "link": "https://streetviewpixels-pa.googleapis.com/v1/thumbnail?panoid=_sdqFYsk4QLhvyYEuIlUyw&cb_client=maps_sv.tactile.gps&w=224&h=298&yaw=240.61455&pitch=0&thumbfov=100"
            },
            {
                "about": "Street View & 360deg",
                "link": "https://streetviewpixels-pa.googleapis.com/v1/thumbnail?panoid=_sdqFYsk4QLhvyYEuIlUyw&cb_client=maps_sv.tactile.gps&w=224&h=298&yaw=240.61455&pitch=0&thumbfov=100"
            }
        ],
        "link": "https://www.google.com/maps/place/mohhammadiya+masjid+georai/data=!4m7!3m6!1s0x3bdad8e4616f1bbf:0x239ed9ea4596f180!8m2!3d19.2578125!4d75.7534375!16s%2Fg%2F11dx9g993y!19sChIJvxtvYeTY2jsRgPGWRerZniM?authuser=0&hl=en&rclk=1",
        "coordinates": {
            "latitude": 19.2578125,
            "longitude": 75.75343749999999
        }
    },
    {
        "name": "Masjid-e-Garib Nawaz",
        "main_category": "Mosque",
        "address": "7PFW+3R9 Masjid-e-Garib Nawaz, Georai, Maharashtra 431127",
        "detailed_address": {
            "ward": null,
            "street": "7PFW+3R9",
            "city": "Georai",
            "postal_code": "431127",
            "state": "Maharashtra",
            "country_code": "IN"
        },
        "images": [
            {
                "about": "All",
                "link": "https://lh5.googleusercontent.com/p/AF1QipMePoHM1e42TA5NbymE54DOm6LaKOvDiB5neFYI=w397-h298-k-no"
            },
            {
                "about": "Street View & 360deg",
                "link": "https://streetviewpixels-pa.googleapis.com/v1/thumbnail?panoid=0XQoL_SWj9kxnMV93oY0Xg&cb_client=maps_sv.tactile.gps&w=224&h=298&yaw=346.45508&pitch=0&thumbfov=100"
            }
        ],
        "link": "https://www.google.com/maps/place/Masjid-e-Garib+Nawaz/data=!4m7!3m6!1s0x3bdad8c48f6e3377:0x1843aa22e0eadf06!8m2!3d19.2726526!4d75.7471121!16s%2Fg%2F11g6njv7xf!19sChIJdzNuj8TY2jsRBt_q4CKqQxg?authuser=0&hl=en&rclk=1",
        "coordinates": {
            "latitude": 19.2726526,
            "longitude": 75.7471121
        }
    },
    {
        "name": "Quraishi Masjid",
        "main_category": "Mosque",
        "address": "Quraishi Masjid, Georai, Maharashtra 431127",
        "detailed_address": {
            "ward": null,
            "street": null,
            "city": "Georai",
            "postal_code": "431127",
            "state": "Maharashtra",
            "country_code": "IN"
        },
        "images": [
            {
                "about": "All",
                "link": "https://streetviewpixels-pa.googleapis.com/v1/thumbnail?panoid=uNQppbbYz2Vl5ZP7E35azg&cb_client=maps_sv.tactile.gps&w=224&h=298&yaw=21.909592&pitch=0&thumbfov=100"
            },
            {
                "about": "Street View & 360deg",
                "link": "https://streetviewpixels-pa.googleapis.com/v1/thumbnail?panoid=uNQppbbYz2Vl5ZP7E35azg&cb_client=maps_sv.tactile.gps&w=224&h=298&yaw=21.909592&pitch=0&thumbfov=100"
            }
        ],
        "link": "https://www.google.com/maps/place/Quraishi+Masjid/data=!4m7!3m6!1s0x3bdad8e5b6e7620b:0xcdfbbb2b92be59!8m2!3d19.2585141!4d75.751193!16s%2Fg%2F11g68ybt3h!19sChIJC2LntuXY2jsRWb6SK7v7zQA?authuser=0&hl=en&rclk=1",
        "coordinates": {
            "latitude": 19.2585141,
            "longitude": 75.751193
        }
    },
    {
        "name": "Husaini Masjid",
        "main_category": "Mosque",
        "address": "7PCX+F6G Husaini Masjid, Tipu Sultan Nagar, Georai, Maharashtra 431127",
        "detailed_address": {
            "ward": "Tipu Sultan Nagar",
            "street": "7PCX+F6G",
            "city": "Georai",
            "postal_code": "431127",
            "state": "Maharashtra",
            "country_code": "IN"
        },
        "images": [
            {
                "about": "All",
                "link": "https://streetviewpixels-pa.googleapis.com/v1/thumbnail?panoid=UY4qxozf_126TKU0DZ2r_A&cb_client=maps_sv.tactile.gps&w=224&h=298&yaw=63.82791&pitch=0&thumbfov=100"
            },
            {
                "about": "Street View & 360deg",
                "link": "https://streetviewpixels-pa.googleapis.com/v1/thumbnail?panoid=UY4qxozf_126TKU0DZ2r_A&cb_client=maps_sv.tactile.gps&w=224&h=298&yaw=63.82791&pitch=0&thumbfov=100"
            }
        ],
        "link": "https://www.google.com/maps/place/Husaini+Masjid/data=!4m7!3m6!1s0x3bdad8c3509cd00b:0xd51546c9e419a048!8m2!3d19.2711902!4d75.748065!16s%2Fg%2F11c30v7sph!19sChIJC9CcUMPY2jsRSKAZ5MlGFdU?authuser=0&hl=en&rclk=1",
        "coordinates": {
            "latitude": 19.2711902,
            "longitude": 75.748065
        }
    },
    {
        "name": "New puna motors gerage",
        "main_category": "Mosque",
        "address": "New puna motors gerage, Junaid masjid Meharaj NagarBeed, Jalna - Beed Rd, Georai, Georai Rural, Maharashtra 431127",
        "detailed_address": {
            "ward": null,
            "street": "Junaid masjid Meharaj NagarBeed, Jalna - Beed Rd",
            "city": "Georai, Georai Rural",
            "postal_code": null,
            "state": "Maharashtra",
            "country_code": "IN"
        },
        "images": [
            {
                "about": "All",
                "link": "https://lh5.googleusercontent.com/p/AF1QipMKl9eN_FCr7c8sjxS39gsJ8W2llV3pEm1IXk3P=w224-h397-k-no"
            },
            {
                "about": "Street View & 360deg",
                "link": "https://streetviewpixels-pa.googleapis.com/v1/thumbnail?panoid=qWMaU0xsiT1dVYZbzxWTDw&cb_client=maps_sv.tactile.gps&w=224&h=298&yaw=241.18156&pitch=0&thumbfov=100"
            }
        ],
        "link": "https://www.google.com/maps/place/New+puna+motors+gerage/data=!4m7!3m6!1s0x3bdad94210b7108b:0xa72539dfb48db234!8m2!3d19.2761352!4d75.7413994!16s%2Fg%2F11r32fzk_z!19sChIJixC3EELZ2jsRNLKNtN85Jac?authuser=0&hl=en&rclk=1",
        "coordinates": {
            "latitude": 19.2761352,
            "longitude": 75.74139939999999
        }
    },
    {
        "name": "Zafar Masjid",
        "main_category": "Mosque",
        "address": "7PCW+3V8 Zafar Masjid, Sanjay Nagar, Georai, Maharashtra 431127",
        "detailed_address": {
            "ward": "Sanjay Nagar",
            "street": "7PCW+3V8",
            "city": "Georai",
            "postal_code": "431127",
            "state": "Maharashtra",
            "country_code": "IN"
        },
        "images": [
            {
                "about": "All",
                "link": "https://streetviewpixels-pa.googleapis.com/v1/thumbnail?panoid=u8fs5rrZZZPv377TOVbaNQ&cb_client=maps_sv.tactile.gps&w=224&h=298&yaw=239.099&pitch=0&thumbfov=100"
            },
            {
                "about": "Street View & 360deg",
                "link": "https://streetviewpixels-pa.googleapis.com/v1/thumbnail?panoid=u8fs5rrZZZPv377TOVbaNQ&cb_client=maps_sv.tactile.gps&w=224&h=298&yaw=239.099&pitch=0&thumbfov=100"
            }
        ],
        "link": "https://www.google.com/maps/place/Zafar+Masjid/data=!4m7!3m6!1s0x3bdad942b5b173ff:0x78ae35ed2b2c9b7b!8m2!3d19.2705518!4d75.7457338!16s%2Fg%2F11tg95vkd2!19sChIJ_3OxtULZ2jsRe5ssK-01rng?authuser=0&hl=en&rclk=1",
        "coordinates": {
            "latitude": 19.2705518,
            "longitude": 75.7457338
        }
    },
    {
        "name": "Nurjaha masjid",
        "main_category": "Mosque",
        "address": "7Q63+6VJ Nurjaha masjid, Hariom Colony, Ahilya Nagar, Georai, Maharashtra 431127",
        "detailed_address": {
            "ward": "Hariom Colony, Ahilya Nagar",
            "street": "7Q63+6VJ",
            "city": "Georai",
            "postal_code": "431127",
            "state": "Maharashtra",
            "country_code": "IN"
        },
        "images": [],
        "link": "https://www.google.com/maps/place/Nurjaha+masjid/data=!4m7!3m6!1s0x3bdad9f081c9e50f:0x408478bd88abafdc!8m2!3d19.2605812!4d75.7546293!16s%2Fg%2F11nxsjxdy6!19sChIJD-XJgfDZ2jsR3K-riL14hEA?authuser=0&hl=en&rclk=1",
        "coordinates": {
            "latitude": 19.2605812,
            "longitude": 75.75462929999999
        }
    }
]