[
    {
        "name": "Makkah Masjid",
        "main_category": "Mosque",
        "address": "GV9J+JRJ Makkah Masjid, Bhuvanagiri, Telangana 508116",
        "detailed_address": {
            "ward": null,
            "street": "GV9J+JRJ",
            "city": "Bhuvanagiri",
            "postal_code": "508116",
            "state": "Telangana",
            "country_code": "IN"
        },
        "images": [
            {
                "about": "All",
                "link": "https://lh5.googleusercontent.com/p/AF1QipPCIaZrikicdrtKM3xIsBHaijpOZoUkrdqSGR4M=w529-h298-k-no"
            }
        ],
        "link": "https://www.google.com/maps/place/Makkah+Masjid/data=!4m7!3m6!1s0x3bcb6fa0403d3e63:0x87a8d37441189b75!8m2!3d17.5190865!4d78.8820112!16s%2Fg%2F1tdc87gt!19sChIJYz49QKBvyzsRdZsYQXTTqIc?authuser=0&hl=en&rclk=1",
        "coordinates": {
            "latitude": 17.5190865,
            "longitude": 78.8820112
        }
    },
    {
        "name": "Masjid e chowk",
        "main_category": "Mosque",
        "address": "Masjid e chowk, Fish Market, Azad Rd, Bhuvanagiri, Telangana 508116",
        "detailed_address": {
            "ward": null,
            "street": "Fish Market, Azad Rd",
            "city": "Bhuvanagiri",
            "postal_code": null,
            "state": "Telangana",
            "country_code": "IN"
        },
        "images": [
            {
                "about": "All",
                "link": "https://lh5.googleusercontent.com/p/AF1QipNQHJMoQ9u4rXyOzwX-gaY3zZoViQVqqgj84Fcd=w397-h298-k-no"
            },
            {
                "about": "Dome",
                "link": "https://lh5.googleusercontent.com/p/AF1QipNizoCmJbP2cpXK95L1btGxGnE1ZGzsFWBJ3C2v=w660-h298-k-no"
            },
            {
                "about": "Videos",
                "link": "https://lh5.googleusercontent.com/p/AF1QipP-Wgbch4dWHAqwSLuBUiV9l2_m41nnYCmQX5GY=w224-h398-k-no"
            },
            {
                "about": "Street View & 360deg",
                "link": "https://streetviewpixels-pa.googleapis.com/v1/thumbnail?panoid=_fU4wjrKkF05Jbv3iKzQKg&cb_client=maps_sv.tactile.gps&w=224&h=298&yaw=160.79538&pitch=0&thumbfov=100"
            }
        ],
        "link": "https://www.google.com/maps/place/Masjid+e+chowk/data=!4m7!3m6!1s0x3bcb6f080728c86b:0x2a14a934c60f7623!8m2!3d17.5092785!4d78.8839306!16s%2Fg%2F1ttq0kkp!19sChIJa8goBwhvyzsRI3YPxjSpFCo?authuser=0&hl=en&rclk=1",
        "coordinates": {
            "latitude": 17.5092785,
            "longitude": 78.8839306
        }
    },
    {
        "name": "ISLAMPURA MASJID",
        "main_category": "Mosque",
        "address": "GV7P+HCG ISLAMPURA MASJID, Bhuvanagiri Bus Stand Rd, Medikuntapally, Bhuvanagiri, Telangana 508116",
        "detailed_address": {
            "ward": "Medikuntapally",
            "street": "GV7P+HCG, Bhuvanagiri Bus Stand Rd",
            "city": "Bhuvanagiri",
            "postal_code": "508116",
            "state": "Telangana",
            "country_code": "IN"
        },
        "images": [
            {
                "about": "All",
                "link": "https://lh5.googleusercontent.com/p/AF1QipN3KsUgW_UPrl9jXrpVekrA54TPVmbHEy2jsHZ3=w397-h298-k-no"
            },
            {
                "about": "Street View & 360deg",
                "link": "https://streetviewpixels-pa.googleapis.com/v1/thumbnail?panoid=kxq-NM8Y3NgJomJO4zXMvw&cb_client=maps_sv.tactile.gps&w=224&h=298&yaw=167.01947&pitch=0&thumbfov=100"
            }
        ],
        "link": "https://www.google.com/maps/place/ISLAMPURA+MASJID/data=!4m7!3m6!1s0x3bcb6f099c1ef71f:0x60c3c1943f6f3c59!8m2!3d17.5139292!4d78.8860934!16s%2Fg%2F11hbhjrh81!19sChIJH_cenAlvyzsRWTxvP5TBw2A?authuser=0&hl=en&rclk=1",
        "coordinates": {
            "latitude": 17.5139292,
            "longitude": 78.8860934
        }
    },
    {
        "name": "madina masjid",
        "main_category": "Mosque",
        "address": "GV8M+M2W madina masjid, Bhuvanagiri, Telangana 508116",
        "detailed_address": {
            "ward": null,
            "street": "GV8M+M2W",
            "city": "Bhuvanagiri",
            "postal_code": "508116",
            "state": "Telangana",
            "country_code": "IN"
        },
        "images": [
            {
                "about": "All",
                "link": "https://lh5.googleusercontent.com/p/AF1QipPV7EsrCK4wPxRJyZr7YHnQInpa1A_-Bqm-3JVZ=w224-h397-k-no"
            }
        ],
        "link": "https://www.google.com/maps/place/madina+masjid/data=!4m7!3m6!1s0x3bcb6fa0913fa211:0xbec5fca23e24bb16!8m2!3d17.5167341!4d78.8825877!16s%2Fg%2F11clsf_hb0!19sChIJEaI_kaBvyzsRFrskPqL8xb4?authuser=0&hl=en&rclk=1",
        "coordinates": {
            "latitude": 17.5167341,
            "longitude": 78.8825877
        }
    },
    {
        "name": "Masjide-E-Sahaba, Jaleelpura",
        "main_category": "Mosque",
        "address": "Masjide-E-Sahaba, Jaleelpura, Bhuvanagiri, Telangana 508116",
        "detailed_address": {
            "ward": null,
            "street": null,
            "city": "Bhuvanagiri",
            "postal_code": null,
            "state": "Telangana",
            "country_code": "IN"
        },
        "images": [
            {
                "about": "All",
                "link": "https://lh5.googleusercontent.com/p/AF1QipOtZ8FCp4P4rI74_TIUWfPrMYR6SdErVqugyqgP=w224-h398-k-no"
            },
            {
                "about": "Street View & 360deg",
                "link": "https://streetviewpixels-pa.googleapis.com/v1/thumbnail?panoid=4Sbb-4oj3BjAT_90i85oJg&cb_client=maps_sv.tactile.gps&w=224&h=298&yaw=337.50616&pitch=0&thumbfov=100"
            },
            {
                "about": "Videos",
                "link": "https://lh5.googleusercontent.com/p/AF1QipO5rVkqR5-Uxcxqn47AEkfGePsz59U1xIpER0A=w224-h398-k-no"
            }
        ],
        "link": "https://www.google.com/maps/place/Masjide-E-Sahaba,+Jaleelpura/data=!4m7!3m6!1s0x3bcb6f080728c86b:0xe49e7e745e8031cc!8m2!3d17.5086396!4d78.8820559!16s%2Fg%2F1tdwy_6s!19sChIJa8goBwhvyzsRzDGAXnR-nuQ?authuser=0&hl=en&rclk=1",
        "coordinates": {
            "latitude": 17.5086396,
            "longitude": 78.8820559
        }
    },
    {
        "name": "Bhongir Masjid E Tawheed Ahlehadees",
        "main_category": "Mosque",
        "address": "GV5Q+R2X Bhongir Masjid E Tawheed Ahlehadees, Bhuvanagiri, Telangana 508116",
        "detailed_address": {
            "ward": null,
            "street": "GV5Q+R2X",
            "city": "Bhuvanagiri",
            "postal_code": "508116",
            "state": "Telangana",
            "country_code": "IN"
        },
        "images": [
            {
                "about": "All",
                "link": "https://lh5.googleusercontent.com/p/AF1QipNam7Eb8hkuqIPHtsT8Omf5g4djM92_QCrZEgxS=w224-h298-k-no"
            },
            {
                "about": "Street View & 360deg",
                "link": "https://streetviewpixels-pa.googleapis.com/v1/thumbnail?panoid=IhIoP0o8IW6lguijfAP0dw&cb_client=maps_sv.tactile.gps&w=224&h=298&yaw=35.25473&pitch=0&thumbfov=100"
            }
        ],
        "link": "https://www.google.com/maps/place/Bhongir+Masjid+E+Tawheed+Ahlehadees/data=!4m7!3m6!1s0x3bcb6f089ed752c1:0x8f9cbc16615bfac3!8m2!3d17.509607!4d78.8876011!16s%2Fg%2F11g8sjs9dg!19sChIJwVLXnghvyzsRw_pbYRa8nI8?authuser=0&hl=en&rclk=1",
        "coordinates": {
            "latitude": 17.509607,
            "longitude": 78.8876011
        }
    },
    {
        "name": "Masjid-E-Jamiya",
        "main_category": "Mosque",
        "address": "GV5Q+49W Masjid-E-Jamiya, Qazi mahella bhongir, Bhuvanagiri",
        "detailed_address": {
            "ward": null,
            "street": "GV5Q+49W, Qazi mahella bhongir",
            "city": "Bhuvanagiri",
            "postal_code": null,
            "state": "Telangana",
            "country_code": "IN"
        },
        "images": [
            {
                "about": "All",
                "link": "https://lh5.googleusercontent.com/p/AF1QipPjCeJs0AdFTFGek0rPvMYFeUYAoGB4MBerfxfz=w397-h298-k-no"
            },
            {
                "about": "Street View & 360deg",
                "link": "https://streetviewpixels-pa.googleapis.com/v1/thumbnail?panoid=oJ0T-n4zwxb-KitlikDdRg&cb_client=maps_sv.tactile.gps&w=224&h=298&yaw=219.21872&pitch=0&thumbfov=100"
            }
        ],
        "link": "https://www.google.com/maps/place/Masjid-E-Jamiya/data=!4m7!3m6!1s0x3bcb6f066d45a45b:0x134105d61075309a!8m2!3d17.5078611!4d78.8884539!16s%2Fg%2F11c453s2jz!19sChIJW6RFbQZvyzsRmjB1ENYFQRM?authuser=0&hl=en&rclk=1",
        "coordinates": {
            "latitude": 17.5078611,
            "longitude": 78.8884539
        }
    },
    {
        "name": "Qhazi Guda Masjid",
        "main_category": "Mosque",
        "address": "GV6R+HH6 Qhazi Guda Masjid, Bhuvanagiri-Nalgonda Road, Near Bhongir Fort, Yadadri District, Bhuvanagiri, Telangana 508116",
        "detailed_address": {
            "ward": null,
            "street": "GV6R+HH6, Bhuvanagiri-Nalgonda Road, Near Bhongir Fort, Yadadri District",
            "city": "Bhuvanagiri",
            "postal_code": "508116",
            "state": "Telangana",
            "country_code": "IN"
        },
        "images": [],
        "link": "https://www.google.com/maps/place/Qhazi+Guda+Masjid/data=!4m7!3m6!1s0x3bcb6f0f0e22cfb1:0xea09aba5c3f5c9e8!8m2!3d17.511415!4d78.891379!16s%2Fg%2F11cssw9f4g!19sChIJsc8iDg9vyzsR6Mn1w6WrCeo?authuser=0&hl=en&rclk=1",
        "coordinates": {
            "latitude": 17.511415,
            "longitude": 78.891379
        }
    },
    {
        "name": "Masjid -E- Quba masjidWi quba",
        "main_category": "Mosque",
        "address": "GVFX+79J Masjid -E- Quba masjidWi quba, Sanjeeva Nagar, Bhuvanagiri, Telangana 508116",
        "detailed_address": {
            "ward": "Sanjeeva Nagar",
            "street": "GVFX+79J",
            "city": "Bhuvanagiri",
            "postal_code": "508116",
            "state": "Telangana",
            "country_code": "IN"
        },
        "images": [
            {
                "about": "All",
                "link": "https://lh5.googleusercontent.com/p/AF1QipMNr75tx-LB2CqQ_0i9An9G1Fa89unNE7lz-2KW=w529-h298-k-no"
            },
            {
                "about": "Street View & 360deg",
                "link": "https://streetviewpixels-pa.googleapis.com/v1/thumbnail?panoid=1iRpCNLq8af3TcC5nQ7jRQ&cb_client=maps_sv.tactile.gps&w=224&h=298&yaw=115.96628&pitch=0&thumbfov=100"
            },
            {
                "about": "Videos",
                "link": "https://lh5.googleusercontent.com/p/AF1QipOgfhqXR8vS0ujZFwbHWUZU0VVdQSLx8I-NtGKt=w224-h398-k-no"
            }
        ],
        "link": "https://www.google.com/maps/place/Masjid+-E-+Quba+%D9%85%D9%8E%D8%B3%D9%92%D8%AC%D9%90%D8%AF%D9%91%D9%90+%D9%82%D9%8F%D8%A8%D9%8E%D8%A7%D8%A1%E2%80%AD/data=!4m7!3m6!1s0x3bcb6f8dc873e4cb:0x8a6dd451131464b1!8m2!3d17.5232239!4d78.898377!16s%2Fg%2F11h385ztfv!19sChIJy-RzyI1vyzsRsWQUE1HUbYo?authuser=0&hl=en&rclk=1",
        "coordinates": {
            "latitude": 17.523223899999998,
            "longitude": 78.898377
        }
    },
    {
        "name": "Masjid-e-OMER FAROOQ rza ahle hadees, BHONGIR",
        "main_category": "Mosque",
        "address": "GV9J+7Q2 Masjid-e-OMER FAROOQ rza ahle hadees, BHONGIR, Bhuvanagiri, Telangana 508116",
        "detailed_address": {
            "ward": null,
            "street": "GV9J+7Q2",
            "city": "Bhuvanagiri",
            "postal_code": "508116",
            "state": "Telangana",
            "country_code": "IN"
        },
        "images": [],
        "link": "https://www.google.com/maps/place/Masjid-e-OMER+FAROOQ+rza+ahle+hadees,+BHONGIR/data=!4m7!3m6!1s0x3bcb6fb8367c39af:0xecb01efdb67c6c4!8m2!3d17.5181372!4d78.8818782!16s%2Fg%2F11jk5_61jj!19sChIJrzl8NrhvyzsRxMZn2-8Byw4?authuser=0&hl=en&rclk=1",
        "coordinates": {
            "latitude": 17.518137199999998,
            "longitude": 78.8818782
        }
    },
    {
        "name": "Masjid (Baherpet)",
        "main_category": "Mosque",
        "address": "GV4J+HCX Masjid (Baherpet), Bhuvanagiri, Telangana 508116",
        "detailed_address": {
            "ward": null,
            "street": "GV4J+HCX",
            "city": "Bhuvanagiri",
            "postal_code": "508116",
            "state": "Telangana",
            "country_code": "IN"
        },
        "images": [
            {
                "about": "All",
                "link": "https://lh5.googleusercontent.com/p/AF1QipMhmuX4NkeuD8ExpfoUmC4PFtI_-49tRe2Tq7to=w224-h298-k-no"
            }
        ],
        "link": "https://www.google.com/maps/place/Masjid+%28Baherpet%29/data=!4m7!3m6!1s0x3bcb6f3ad967f2c7:0xe61e11d5a747ad75!8m2!3d17.5064946!4d78.8811108!16s%2Fg%2F11j3vwtg2n!19sChIJx_Jn2TpvyzsRda1Hp9URHuY?authuser=0&hl=en&rclk=1",
        "coordinates": {
            "latitude": 17.5064946,
            "longitude": 78.8811108
        }
    },
    {
        "name": "Masjid-E-Fathima(Quba)",
        "main_category": "Mosque",
        "address": "GVFX+JJX Masjid-E-Fathima(Quba), Railway Station Rd, Sanjeeva Nagar, Bangar Pet, Kurnool, Bhuvanagiri, Andhra Pradesh 518004",
        "detailed_address": {
            "ward": "Sanjeeva Nagar, Bangar Pet",
            "street": "GVFX+JJX, Railway Station Rd",
            "city": "Kurnool, Bhuvanagiri",
            "postal_code": "518004",
            "state": "Andhra Pradesh",
            "country_code": "IN"
        },
        "images": [
            {
                "about": "All",
                "link": "https://lh5.googleusercontent.com/p/AF1QipMqlNzvKs9n_mDZJVTf0Ls1epD1vbi9ClYrwi2B=w224-h298-k-no"
            },
            {
                "about": "Street View & 360deg",
                "link": "https://streetviewpixels-pa.googleapis.com/v1/thumbnail?panoid=yXeb24tA7gxRUEuNurB3Sg&cb_client=maps_sv.tactile.gps&w=224&h=298&yaw=135.74677&pitch=0&thumbfov=100"
            },
            {
                "about": "Videos",
                "link": "https://lh5.googleusercontent.com/p/AF1QipOPIEgDuVKakRjflDg7bZU0mRm-HFSR5hM-8qqo=w224-h398-k-no"
            }
        ],
        "link": "https://www.google.com/maps/place/Masjid-E-Fathima%28Quba%29/data=!4m7!3m6!1s0x3bcb6f6cf356c3ed:0xd275350648c3cbc7!8m2!3d17.5241133!4d78.899097!16s%2Fg%2F11df1rx563!19sChIJ7cNW82xvyzsRx8vDSAY1ddI?authuser=0&hl=en&rclk=1",
        "coordinates": {
            "latitude": 17.5241133,
            "longitude": 78.899097
        }
    },
    {
        "name": "Masjid e badrunnisa",
        "main_category": "Mosque",
        "address": "GV3J+522 Masjid e badrunnisa, Bhuvanagiri, Telangana 508116",
        "detailed_address": {
            "ward": null,
            "street": "GV3J+522",
            "city": "Bhuvanagiri",
            "postal_code": "508116",
            "state": "Telangana",
            "country_code": "IN"
        },
        "images": [
            {
                "about": "All",
                "link": "https://lh5.googleusercontent.com/p/AF1QipPik6Lr3txFZyhkb7TOfMyyzauzqFQY_ixz_vE2=w298-h298-k-no"
            }
        ],
        "link": "https://www.google.com/maps/place/Masjid+e+badrunnisa/data=!4m7!3m6!1s0x3bcb6fb1d09c78c5:0x41715f9dfae6d4ba!8m2!3d17.5028819!4d78.8800234!16s%2Fg%2F11n05mbmpd!19sChIJxXic0LFvyzsRutTm-p1fcUE?authuser=0&hl=en&rclk=1",
        "coordinates": {
            "latitude": 17.5028819,
            "longitude": 78.8800234
        }
    },
    {
        "name": "Masjid e shia asna ashari",
        "main_category": "Mosque",
        "address": "GV5Q+JCG Masjid e shia asna ashari, Khazi mohalla, Bharpet, Bhuvanagiri, Telangana 508116",
        "detailed_address": {
            "ward": "Bharpet",
            "street": "GV5Q+JCG, Khazi mohalla",
            "city": "Bhuvanagiri",
            "postal_code": "508116",
            "state": "Telangana",
            "country_code": "IN"
        },
        "images": [
            {
                "about": "All",
                "link": "https://lh5.googleusercontent.com/p/AF1QipMgHi1MSLVbhbPK5B7inFc_iMxXRoG0jQd6ibw9=w397-h298-k-no"
            },
            {
                "about": "Dome",
                "link": "https://lh5.googleusercontent.com/p/AF1QipMWO2nhYftw2AONEqZwntWkdwAEwTVbgGWaLQzX=w529-h298-k-no"
            },
            {
                "about": "Street View & 360deg",
                "link": "https://streetviewpixels-pa.googleapis.com/v1/thumbnail?panoid=YnRTxoKTmN7-ci2RmNktwA&cb_client=maps_sv.tactile.gps&w=224&h=298&yaw=60.009346&pitch=0&thumbfov=100"
            }
        ],
        "link": "https://www.google.com/maps/place/Masjid+e+shia+asna+ashari/data=!4m7!3m6!1s0x3bcb6fd9992b28ef:0xeb7b777e4116771c!8m2!3d17.5090668!4d78.8885934!16s%2Fg%2F11h4zmwfhn!19sChIJ7ygrmdlvyzsRHHcWQX53e-s?authuser=0&hl=en&rclk=1",
        "coordinates": {
            "latitude": 17.5090668,
            "longitude": 78.88859339999999
        }
    },
    {
        "name": "Masjid e haza",
        "main_category": "Mosque",
        "address": "Masjid e haza, GV6R+HH6 Bhuvanagiri-Nalgonda Road, Fort, near Bhongir, Bhuvanagiri, Telangana 508116",
        "detailed_address": {
            "ward": null,
            "street": "GV6R+HH6 Bhuvanagiri-Nalgonda Road, Fort, near Bhongir",
            "city": "Bhuvanagiri",
            "postal_code": "508116",
            "state": "Telangana",
            "country_code": "IN"
        },
        "images": [
            {
                "about": "All",
                "link": "https://lh5.googleusercontent.com/p/AF1QipOWwm5otlxjSapp0TGz2LDa2g2wrZ6qkOHekkhG=w529-h298-k-no"
            }
        ],
        "link": "https://www.google.com/maps/place/Masjid+e+haza/data=!4m7!3m6!1s0x3bcb6f5fc542d9cd:0x1f27c6a0257f104!8m2!3d17.5113935!4d78.8913648!16s%2Fg%2F11kjn_wg91!19sChIJzdlCxV9vyzsRBPFXAmp88gE?authuser=0&hl=en&rclk=1",
        "coordinates": {
            "latitude": 17.5113935,
            "longitude": 78.89136479999999
        }
    },
    {
        "name": "Memon Masjid",
        "main_category": "Mosque",
        "address": "GVCV+C8M Memon Masjid, Unnamed Road, Bhuvanagiri, Telangana 508116",
        "detailed_address": {
            "ward": null,
            "street": "GVCV+C8M, Unnamed Road",
            "city": "Bhuvanagiri",
            "postal_code": "508116",
            "state": "Telangana",
            "country_code": "IN"
        },
        "images": [
            {
                "about": "All",
                "link": "https://streetviewpixels-pa.googleapis.com/v1/thumbnail?panoid=j9NCLvq12cyAHpSHZ8tYOg&cb_client=maps_sv.tactile.gps&w=224&h=298&yaw=318.62387&pitch=0&thumbfov=100"
            },
            {
                "about": "Street View & 360deg",
                "link": "https://streetviewpixels-pa.googleapis.com/v1/thumbnail?panoid=j9NCLvq12cyAHpSHZ8tYOg&cb_client=maps_sv.tactile.gps&w=224&h=298&yaw=318.62387&pitch=0&thumbfov=100"
            }
        ],
        "link": "https://www.google.com/maps/place/Memon+Masjid/data=!4m7!3m6!1s0x3bcb6f98316d65bd:0xa9767d13d4960def!8m2!3d17.5210781!4d78.8932906!16s%2Fg%2F11gxjxz5d7!19sChIJvWVtMZhvyzsR7w2W1BN9dqk?authuser=0&hl=en&rclk=1",
        "coordinates": {
            "latitude": 17.5210781,
            "longitude": 78.8932906
        }
    },
    {
        "name": "Masjid E Qutubshahi",
        "main_category": "Mosque",
        "address": "GV5J+29X Masjid E Qutubshahi, Bhuvanagiri, Telangana 508116",
        "detailed_address": {
            "ward": null,
            "street": "GV5J+29X",
            "city": "Bhuvanagiri",
            "postal_code": null,
            "state": "Telangana",
            "country_code": "IN"
        },
        "images": [
            {
                "about": "All",
                "link": "https://streetviewpixels-pa.googleapis.com/v1/thumbnail?panoid=xylc6p953sm0CZozK9Xj8w&cb_client=maps_sv.tactile.gps&w=224&h=298&yaw=135.49127&pitch=0&thumbfov=100"
            },
            {
                "about": "Street View & 360deg",
                "link": "https://streetviewpixels-pa.googleapis.com/v1/thumbnail?panoid=xylc6p953sm0CZozK9Xj8w&cb_client=maps_sv.tactile.gps&w=224&h=298&yaw=135.49127&pitch=0&thumbfov=100"
            }
        ],
        "link": "https://www.google.com/maps/place/Masjid+E+Qutubshahi/data=!4m7!3m6!1s0x3bcb6fa860de540b:0x8c68086985252a80!8m2!3d17.5076241!4d78.8809877!16s%2Fg%2F11gdt_n_0s!19sChIJC1TeYKhvyzsRgColhWkIaIw?authuser=0&hl=en&rclk=1",
        "coordinates": {
            "latitude": 17.507624099999997,
            "longitude": 78.88098769999999
        }
    },
    {
        "name": "MASJID-E- ujhlasaha",
        "main_category": "Mosque",
        "address": "GV3F+RCH MASJID-E- ujhlasaha, Bhuvanagiri, Telangana 508116",
        "detailed_address": {
            "ward": null,
            "street": "GV3F+RCH",
            "city": "Bhuvanagiri",
            "postal_code": null,
            "state": "Telangana",
            "country_code": "IN"
        },
        "images": [
            {
                "about": "All",
                "link": "https://streetviewpixels-pa.googleapis.com/v1/thumbnail?panoid=JrQDMCtbcMpzeMgyEK0Pgw&cb_client=maps_sv.tactile.gps&w=224&h=298&yaw=331.0921&pitch=0&thumbfov=100"
            },
            {
                "about": "Street View & 360deg",
                "link": "https://streetviewpixels-pa.googleapis.com/v1/thumbnail?panoid=JrQDMCtbcMpzeMgyEK0Pgw&cb_client=maps_sv.tactile.gps&w=224&h=298&yaw=331.0921&pitch=0&thumbfov=100"
            }
        ],
        "link": "https://www.google.com/maps/place/MASJID-E-+ujhlasaha/data=!4m7!3m6!1s0x3bcb6fb8be195209:0x9eeff863704e0a78!8m2!3d17.5045644!4d78.8735945!16s%2Fg%2F11px7y4nkm!19sChIJCVIZvrhvyzsReApOcGP4754?authuser=0&hl=en&rclk=1",
        "coordinates": {
            "latitude": 17.5045644,
            "longitude": 78.8735945
        }
    },
    {
        "name": "Shahi Masjid Ahle Hadees",
        "main_category": "Mosque",
        "address": "GV3Q+CMX Shahi Masjid Ahle Hadees, Bhuvanagiri, Telangana 508116",
        "detailed_address": {
            "ward": null,
            "street": "GV3Q+CMX",
            "city": "Bhuvanagiri",
            "postal_code": "508116",
            "state": "Telangana",
            "country_code": "IN"
        },
        "images": [
            {
                "about": "All",
                "link": "https://streetviewpixels-pa.googleapis.com/v1/thumbnail?panoid=6uIP0NIjMbl96EyXhBn4pA&cb_client=maps_sv.tactile.gps&w=224&h=298&yaw=114.28116&pitch=0&thumbfov=100"
            },
            {
                "about": "Street View & 360deg",
                "link": "https://streetviewpixels-pa.googleapis.com/v1/thumbnail?panoid=6uIP0NIjMbl96EyXhBn4pA&cb_client=maps_sv.tactile.gps&w=224&h=298&yaw=114.28116&pitch=0&thumbfov=100"
            }
        ],
        "link": "https://www.google.com/maps/place/Shahi+Masjid+Ahle+Hadees/data=!4m7!3m6!1s0x3bcb6f0155555555:0x5eeda42c61801fcd!8m2!3d17.5036103!4d78.8892226!16s%2Fg%2F11g8vps8z2!19sChIJVVVVVQFvyzsRzR-AYSyk7V4?authuser=0&hl=en&rclk=1",
        "coordinates": {
            "latitude": 17.5036103,
            "longitude": 78.8892226
        }
    }
]