[
    {
        "name": "Jama Masjid Mawana",
        "main_category": "Mosque",
        "address": "4W3C+FX8 Jama Masjid Mawana, Unnamed Road, Mawana, Uttar Pradesh 250401",
        "detailed_address": {
            "ward": null,
            "street": "4W3C+FX8, Unnamed Road",
            "city": "Mawana",
            "postal_code": "250401",
            "state": "Uttar Pradesh",
            "country_code": "IN"
        },
        "images": [
            {
                "about": "All",
                "link": "https://lh5.googleusercontent.com/p/AF1QipPPLoWVRi4Paibyhgk1Fl7ho7ur_td2ZjOFyHG_=w238-h298-k-no"
            },
            {
                "about": "Street View & 360deg",
                "link": "https://streetviewpixels-pa.googleapis.com/v1/thumbnail?panoid=cnfL0K4GoMVJpSBY7UVaZA&cb_client=maps_sv.tactile.gps&w=224&h=298&yaw=118.64098&pitch=0&thumbfov=100"
            },
            {
                "about": "Videos",
                "link": "https://lh5.googleusercontent.com/p/AF1QipOnACijftWj2xdsu3Wf_Q9JYtkHOqxnozmx3vU9=w224-h448-k-no"
            }
        ],
        "link": "https://www.google.com/maps/place/Jama+Masjid+Mawana/data=!4m7!3m6!1s0x390c762c9d80ad93:0x9a542969f9fe1d1a!8m2!3d29.1036693!4d77.9224564!16s%2Fg%2F11f106s5pf!19sChIJk62AnSx2DDkRGh3--WkpVJo?authuser=0&hl=en&rclk=1",
        "coordinates": {
            "latitude": 29.1036693,
            "longitude": 77.9224564
        }
    },
    {
        "name": "Masjid-e-Arafat, Mawana",
        "main_category": "Mosque",
        "address": "3WX7+27J Masjid-e-Arafat, Mawana, Mawana, Uttar Pradesh 250401",
        "detailed_address": {
            "ward": null,
            "street": "3WX7+27J",
            "city": "Mawana",
            "postal_code": "250401",
            "state": "Uttar Pradesh",
            "country_code": "IN"
        },
        "images": [
            {
                "about": "All",
                "link": "https://lh5.googleusercontent.com/p/AF1QipMEGq9-A59tcvGGf9h3MowAyKdgOQQbfg8CUtU-=w224-h298-k-no"
            },
            {
                "about": "Dome",
                "link": "https://lh5.googleusercontent.com/p/AF1QipOT6y084-3oV07ehSNGn41dAIT_SMuRlE7eFJUT=w224-h298-k-no"
            },
            {
                "about": "Videos",
                "link": "https://lh5.googleusercontent.com/p/AF1QipO4gKG1hNRMjNb4d1lzXRdUC5-oAtJG81l5t3HL=w224-h398-k-no"
            },
            {
                "about": "Street View & 360deg",
                "link": "https://streetviewpixels-pa.googleapis.com/v1/thumbnail?panoid=S68lkKyWqUhvu9sbOadbDA&cb_client=maps_sv.tactile.gps&w=224&h=298&yaw=317.97522&pitch=0&thumbfov=100"
            }
        ],
        "link": "https://www.google.com/maps/place/Masjid-e-Arafat,+Mawana/data=!4m7!3m6!1s0x390c77cc546922bb:0xec2dfadeabd4d3c4!8m2!3d29.0975864!4d77.9131293!16s%2Fg%2F11g8fx_slq!19sChIJuyJpVMx3DDkRxNPUq976Lew?authuser=0&hl=en&rclk=1",
        "coordinates": {
            "latitude": 29.097586399999997,
            "longitude": 77.9131293
        }
    },
    {
        "name": "Masjid-e-Zakariya",
        "main_category": "Mosque",
        "address": "3WW6+JRW Masjid-e-Zakariya, Mawana, Uttar Pradesh 250401",
        "detailed_address": {
            "ward": null,
            "street": "3WW6+JRW",
            "city": "Mawana",
            "postal_code": "250401",
            "state": "Uttar Pradesh",
            "country_code": "IN"
        },
        "images": [
            {
                "about": "All",
                "link": "https://lh5.googleusercontent.com/p/AF1QipN9WW0EvB1vcoEi58kBOZPPP3yuY8u0TNnpGrdY=w298-h298-k-no"
            },
            {
                "about": "Street View & 360deg",
                "link": "https://streetviewpixels-pa.googleapis.com/v1/thumbnail?panoid=YSt3AZhTIQ3vQylXAjIqNA&cb_client=maps_sv.tactile.gps&w=224&h=298&yaw=182.07402&pitch=0&thumbfov=100"
            },
            {
                "about": "Videos",
                "link": "https://lh5.googleusercontent.com/p/AF1QipNkYMqAgEZVe7cJEKCGKeAMRG5Cm8MTqppLMO-X=w526-h298-k-no"
            }
        ],
        "link": "https://www.google.com/maps/place/Masjid-e-Zakariya/data=!4m7!3m6!1s0x390c77cc6c96c863:0x1089a9e0a0502016!8m2!3d29.0966214!4d77.912067!16s%2Fg%2F11ggh3zsch!19sChIJY8iWbMx3DDkRFiBQoOCpiRA?authuser=0&hl=en&rclk=1",
        "coordinates": {
            "latitude": 29.0966214,
            "longitude": 77.912067
        }
    },
    {
        "name": "Masjid Ibraheem (Rajo Wali)",
        "main_category": "Mosque",
        "address": "4W2C+5F3 Masjid Ibraheem (Rajo Wali), Nalanda Colony, Mohalla Kalyan Singh, Mawana, Uttar Pradesh 250401",
        "detailed_address": {
            "ward": "Nalanda Colony, Mohalla Kalyan Singh",
            "street": "4W2C+5F3",
            "city": "Mawana",
            "postal_code": "250401",
            "state": "Uttar Pradesh",
            "country_code": "IN"
        },
        "images": [
            {
                "about": "All",
                "link": "https://lh5.googleusercontent.com/p/AF1QipMK38iMzACMT4zldURokiVzSqZHnRn3LGR24BnX=w447-h298-k-no"
            },
            {
                "about": "Street View & 360deg",
                "link": "https://streetviewpixels-pa.googleapis.com/v1/thumbnail?panoid=hbEOxvJnHzgz7Obs1XBwzg&cb_client=maps_sv.tactile.gps&w=224&h=298&yaw=227.30188&pitch=0&thumbfov=100"
            }
        ],
        "link": "https://www.google.com/maps/place/Masjid+Ibraheem+%28Rajo+Wali%29/data=!4m7!3m6!1s0x390c771b40d823ed:0xd0023d1d62cc07f4!8m2!3d29.1003824!4d77.9211831!16s%2Fg%2F11gyxlw7fs!19sChIJ7SPYQBt3DDkR9AfMYh09AtA?authuser=0&hl=en&rclk=1",
        "coordinates": {
            "latitude": 29.100382399999997,
            "longitude": 77.9211831
        }
    },
    {
        "name": "Badi Masjid brry msjd",
        "main_category": "Mosque",
        "address": "4W28+4X2 Badi Masjid brry msjd, Mohalla Kalyan Singh, Mawana, Uttar Pradesh 250401",
        "detailed_address": {
            "ward": "Mohalla Kalyan Singh",
            "street": "4W28+4X2",
            "city": "Mawana",
            "postal_code": "250401",
            "state": "Uttar Pradesh",
            "country_code": "IN"
        },
        "images": [
            {
                "about": "All",
                "link": "https://lh5.googleusercontent.com/p/AF1QipNcapffoqcNtBYc9SOg5HReAi2ogDdEILfZyYIg=w224-h298-k-no"
            },
            {
                "about": "Dome",
                "link": "https://lh5.googleusercontent.com/p/AF1QipO2NidS4XGafTh531uIT81LrfxhUqhtbcBogJY0=w224-h298-k-no"
            },
            {
                "about": "Street View & 360deg",
                "link": "https://streetviewpixels-pa.googleapis.com/v1/thumbnail?panoid=Br4rB3JA01xALQZqdEOk1g&cb_client=maps_sv.tactile.gps&w=224&h=298&yaw=16.725607&pitch=0&thumbfov=100"
            }
        ],
        "link": "https://www.google.com/maps/place/Badi+Masjid+%D8%A8%DA%91%DB%8C+%D9%85%D8%B3%D8%AC%D8%AF%E2%80%AD/data=!4m7!3m6!1s0x390c772f9df81dbd:0xd90a3813e3a92466!8m2!3d29.100262!4d77.9173753!16s%2Fg%2F11gyxls6_t!19sChIJvR34nS93DDkRZiSp4xM4Ctk?authuser=0&hl=en&rclk=1",
        "coordinates": {
            "latitude": 29.100261999999997,
            "longitude": 77.9173753
        }
    },
    {
        "name": "Shia Jama Masjid",
        "main_category": "Mosque",
        "address": "4W2C+XH3 Shia Jama Masjid, Kotla, Mohalla Khairat Ali, Mawana, Uttar Pradesh 250401",
        "detailed_address": {
            "ward": "Mohalla Khairat Ali",
            "street": "4W2C+XH3, Kotla",
            "city": "Mawana",
            "postal_code": "250401",
            "state": "Uttar Pradesh",
            "country_code": "IN"
        },
        "images": [
            {
                "about": "All",
                "link": "https://lh5.googleusercontent.com/p/AF1QipOqXGb4SRx7Qtfh9OkpJ_Wu2QvRCdFi92FIIuBD=w397-h298-k-no"
            },
            {
                "about": "Videos",
                "link": "https://lh5.googleusercontent.com/p/AF1QipMugVgZGzZIekRI5_MhjlFAMjF0FaiBi8o4MLxm=w541-h298-k-no"
            }
        ],
        "link": "https://www.google.com/maps/place/Shia+Jama+Masjid/data=!4m7!3m6!1s0x390c77db538c656d:0xe75ff6e9d16a39fa!8m2!3d29.1023775!4d77.9214344!16s%2Fg%2F11hf19v7ny!19sChIJbWWMU9t3DDkR-jlq0en2X-c?authuser=0&hl=en&rclk=1",
        "coordinates": {
            "latitude": 29.1023775,
            "longitude": 77.9214344
        }
    },
    {
        "name": "Masjid Punjabiyan",
        "main_category": "Mosque",
        "address": "4W39+MM9 Masjid Punjabiyan, Mawana Rd, Mawana, Uttar Pradesh 250401",
        "detailed_address": {
            "ward": null,
            "street": "4W39+MM9, Mawana Rd",
            "city": "Mawana",
            "postal_code": "250401",
            "state": "Uttar Pradesh",
            "country_code": "IN"
        },
        "images": [],
        "link": "https://www.google.com/maps/place/Masjid+Punjabiyan/data=!4m7!3m6!1s0x390c77670c0187b9:0xbeed6ff8df7a8af!8m2!3d29.1041588!4d77.9192364!16s%2Fg%2F11hzh_dc49!19sChIJuYcBDGd3DDkRr6j3jf_W7gs?authuser=0&hl=en&rclk=1",
        "coordinates": {
            "latitude": 29.1041588,
            "longitude": 77.9192364
        }
    },
    {
        "name": "Makki Masjid Mawana",
        "main_category": "Mosque",
        "address": "4W47+8C2 Makki Masjid Mawana, behind Krishak Inter College, Mawana, Uttar Pradesh 250401",
        "detailed_address": {
            "ward": null,
            "street": "4W47+8C2, behind Krishak Inter College",
            "city": "Mawana",
            "postal_code": "250401",
            "state": "Uttar Pradesh",
            "country_code": "IN"
        },
        "images": [
            {
                "about": "All",
                "link": "https://lh5.googleusercontent.com/p/AF1QipPV6keGEYF5BKmn4sVWoll7JSTJyu49n9SO0PJX=w529-h298-k-no"
            }
        ],
        "link": "https://www.google.com/maps/place/Makki+Masjid+Mawana/data=!4m7!3m6!1s0x390c7784b2090a23:0x540504db28642af7!8m2!3d29.1057618!4d77.9135213!16s%2Fg%2F11q581tlwv!19sChIJIwoJsoR3DDkR9ypkKNsEBVQ?authuser=0&hl=en&rclk=1",
        "coordinates": {
            "latitude": 29.1057618,
            "longitude": 77.9135213
        }
    },
    {
        "name": "masjid-e-Macca",
        "main_category": "Mosque",
        "address": "3WW8+73R masjid-e-Macca, Mawana, Uttar Pradesh 250401",
        "detailed_address": {
            "ward": null,
            "street": "3WW8+73R",
            "city": "Mawana",
            "postal_code": "250401",
            "state": "Uttar Pradesh",
            "country_code": "IN"
        },
        "images": [
            {
                "about": "All",
                "link": "https://lh5.googleusercontent.com/p/AF1QipNsN82-cUUFyHY2gr5E77dwmqe5UIkNIreGu2a2=w397-h298-k-no"
            },
            {
                "about": "Dome",
                "link": "https://lh5.googleusercontent.com/p/AF1QipOt2rLcTkKUuOV-D10TCTHRANpzQqWOW18kDwYu=w298-h298-k-no"
            },
            {
                "about": "Street View & 360deg",
                "link": "https://streetviewpixels-pa.googleapis.com/v1/thumbnail?panoid=yj7EN8I8nU2FuGObmc3FDA&cb_client=maps_sv.tactile.gps&w=224&h=298&yaw=228.71896&pitch=0&thumbfov=100"
            }
        ],
        "link": "https://www.google.com/maps/place/masjid-e-Macca/data=!4m7!3m6!1s0x390c77cdddcd93f1:0xc9a286a95b7c7faf!8m2!3d29.0957363!4d77.9151543!16s%2Fg%2F11ggw7wll9!19sChIJ8ZPN3c13DDkRr398W6mGosk?authuser=0&hl=en&rclk=1",
        "coordinates": {
            "latitude": 29.0957363,
            "longitude": 77.9151543
        }
    },
    {
        "name": "Mumtaz Masjid",
        "main_category": "Mosque",
        "address": "4W8H+3MC Mumtaz Masjid, Mawana Rd, Mawana, Uttar Pradesh 250401",
        "detailed_address": {
            "ward": null,
            "street": "4W8H+3MC, Mawana Rd",
            "city": "Mawana",
            "postal_code": "250401",
            "state": "Uttar Pradesh",
            "country_code": "IN"
        },
        "images": [
            {
                "about": "All",
                "link": "https://lh5.googleusercontent.com/p/AF1QipNY_i_241fPD0CbE-gpTgxZT6GlPBDtaG4awHDA=w224-h298-k-no"
            },
            {
                "about": "Street View & 360deg",
                "link": "https://streetviewpixels-pa.googleapis.com/v1/thumbnail?panoid=cO3vmTcZtYZOhc67nGFEyw&cb_client=maps_sv.tactile.gps&w=224&h=298&yaw=271.9497&pitch=0&thumbfov=100"
            }
        ],
        "link": "https://www.google.com/maps/place/Mumtaz+Masjid/data=!4m7!3m6!1s0x390b89599d70c047:0x969cf473a9b3d49d!8m2!3d29.115179!4d77.9291555!16s%2Fg%2F11j0qg4vjt!19sChIJR8BwnVmJCzkRndSzqXP0nJY?authuser=0&hl=en&rclk=1",
        "coordinates": {
            "latitude": 29.115178999999998,
            "longitude": 77.9291555
        }
    },
    {
        "name": "Masjid Umar Bin Khattab",
        "main_category": "Mosque",
        "address": "4W2C+HQ7 Masjid Umar Bin Khattab, Mawana, Uttar Pradesh 250401",
        "detailed_address": {
            "ward": null,
            "street": "4W2C+HQ7",
            "city": "Mawana",
            "postal_code": "250401",
            "state": "Uttar Pradesh",
            "country_code": "IN"
        },
        "images": [
            {
                "about": "All",
                "link": "https://streetviewpixels-pa.googleapis.com/v1/thumbnail?panoid=GB7vz0GIRC3YKPbq5_r3og&cb_client=maps_sv.tactile.gps&w=224&h=298&yaw=251.26042&pitch=0&thumbfov=100"
            },
            {
                "about": "Street View & 360deg",
                "link": "https://streetviewpixels-pa.googleapis.com/v1/thumbnail?panoid=GB7vz0GIRC3YKPbq5_r3og&cb_client=maps_sv.tactile.gps&w=224&h=298&yaw=251.26042&pitch=0&thumbfov=100"
            }
        ],
        "link": "https://www.google.com/maps/place/Masjid+Umar+Bin+Khattab/data=!4m7!3m6!1s0x390c77c49d6aa51d:0x2e8759a5a25069be!8m2!3d29.1014112!4d77.9219231!16s%2Fg%2F11ffv6d_kc!19sChIJHaVqncR3DDkRvmlQoqVZhy4?authuser=0&hl=en&rclk=1",
        "coordinates": {
            "latitude": 29.101411199999998,
            "longitude": 77.9219231
        }
    },
    {
        "name": "Masjid Rangrezyan",
        "main_category": "Place of worship",
        "address": "4W3C+22V Masjid Rangrezyan, Mawana, Uttar Pradesh 250401",
        "detailed_address": {
            "ward": null,
            "street": "4W3C+22V",
            "city": "Mawana",
            "postal_code": "250401",
            "state": "Uttar Pradesh",
            "country_code": "IN"
        },
        "images": [],
        "link": "https://www.google.com/maps/place/Masjid+Rangrezyan/data=!4m7!3m6!1s0x390c762cdc728e71:0xecb36ada38e419ad!8m2!3d29.1026182!4d77.9200575!16s%2Fg%2F11b86xzwbw!19sChIJcY5y3Cx2DDkRrRnkONpqs-w?authuser=0&hl=en&rclk=1",
        "coordinates": {
            "latitude": 29.1026182,
            "longitude": 77.9200575
        }
    },
    {
        "name": "Qureshiyaan Masjid",
        "main_category": "Place of worship",
        "address": "4W3C+F8X Qureshiyaan Masjid, Mawana, Uttar Pradesh 250401",
        "detailed_address": {
            "ward": null,
            "street": "4W3C+F8X",
            "city": "Mawana",
            "postal_code": "250401",
            "state": "Uttar Pradesh",
            "country_code": "IN"
        },
        "images": [],
        "link": "https://www.google.com/maps/place/Qureshiyaan+Masjid/data=!4m7!3m6!1s0x390c762cf2e56847:0x525fc8bb2be4a92!8m2!3d29.1037271!4d77.9208461!16s%2Fg%2F11c3vgz96j!19sChIJR2jl8ix2DDkRkkq-sov8JQU?authuser=0&hl=en&rclk=1",
        "coordinates": {
            "latitude": 29.1037271,
            "longitude": 77.92084609999999
        }
    },
    {
        "name": "Masjid Tehsil",
        "main_category": "Mosque",
        "address": "4W4G+PV7 Masjid Tehsil, Mawana, Uttar Pradesh 250401",
        "detailed_address": {
            "ward": null,
            "street": "4W4G+PV7",
            "city": "Mawana",
            "postal_code": "250401",
            "state": "Uttar Pradesh",
            "country_code": "IN"
        },
        "images": [
            {
                "about": "All",
                "link": "https://lh5.googleusercontent.com/p/AF1QipNOdPC-ybuVnNpTyGPNPAlR8Yw_4Gb6X9nKAVNL=w397-h298-k-no"
            },
            {
                "about": "Street View & 360deg",
                "link": "https://streetviewpixels-pa.googleapis.com/v1/thumbnail?panoid=ppfAl7qwm28r6_ymxDjgug&cb_client=maps_sv.tactile.gps&w=224&h=298&yaw=232.38017&pitch=0&thumbfov=100"
            }
        ],
        "link": "https://www.google.com/maps/place/Masjid+Tehsil/data=!4m7!3m6!1s0x390c762a13e474a9:0x6f4cc073c1ee4195!8m2!3d29.1067797!4d77.927162!16s%2Fg%2F11ggsn24yb!19sChIJqXTkEyp2DDkRlUHuwXPATG8?authuser=0&hl=en&rclk=1",
        "coordinates": {
            "latitude": 29.106779699999997,
            "longitude": 77.927162
        }
    },
    {
        "name": "Al Aqsa Masjid",
        "main_category": "Mosque",
        "address": "4W27+VRX Al Aqsa Masjid, Mawana, Uttar Pradesh 250401",
        "detailed_address": {
            "ward": null,
            "street": "4W27+VRX",
            "city": "Mawana",
            "postal_code": "250401",
            "state": "Uttar Pradesh",
            "country_code": "IN"
        },
        "images": [
            {
                "about": "All",
                "link": "https://streetviewpixels-pa.googleapis.com/v1/thumbnail?panoid=13QUQC7GSi_P9KhhMFvEnA&cb_client=maps_sv.tactile.gps&w=224&h=298&yaw=287.61655&pitch=0&thumbfov=100"
            },
            {
                "about": "Street View & 360deg",
                "link": "https://streetviewpixels-pa.googleapis.com/v1/thumbnail?panoid=13QUQC7GSi_P9KhhMFvEnA&cb_client=maps_sv.tactile.gps&w=224&h=298&yaw=287.61655&pitch=0&thumbfov=100"
            }
        ],
        "link": "https://www.google.com/maps/place/Al+Aqsa+Masjid/data=!4m7!3m6!1s0x390c773ad5684c5d:0x4fac5bedf7f727fa!8m2!3d29.1022349!4d77.9146065!16s%2Fg%2F11rlknv5hx!19sChIJXUxo1Tp3DDkR-if39-1brE8?authuser=0&hl=en&rclk=1",
        "coordinates": {
            "latitude": 29.1022349,
            "longitude": 77.91460649999999
        }
    },
    {
        "name": "Makka Masjid(mkhWh msjd)",
        "main_category": "Mosque",
        "address": "3WX8+P34 Makka Masjid(mkhWh msjd), Mawana, Uttar Pradesh 250401",
        "detailed_address": {
            "ward": null,
            "street": "3WX8+P34",
            "city": "Mawana",
            "postal_code": "250401",
            "state": "Uttar Pradesh",
            "country_code": "IN"
        },
        "images": [
            {
                "about": "All",
                "link": "https://lh5.googleusercontent.com/p/AF1QipOjYJX16zPzj8gItUuXLiJqE4jJC4N8Vbz9ouA7=w224-h398-k-no"
            },
            {
                "about": "Dome",
                "link": "https://lh5.googleusercontent.com/p/AF1QipNp8xjAlOtangKZteK9_OXfY9sN6bA8yz-rHpII=w224-h398-k-no"
            },
            {
                "about": "Videos",
                "link": "https://lh5.googleusercontent.com/p/AF1QipNr7UwrvRfoxKTuMIkC2iTwdu6H4koVQEPEA-hj=w298-h298-k-no"
            }
        ],
        "link": "https://www.google.com/maps/place/Makka+Masjid%28%D9%85%DA%A9%D9%91%DB%81+%D9%85%D8%B3%D8%AC%D8%AF%29%E2%80%AD/data=!4m7!3m6!1s0x390c77b48d1d814f:0xfb9542e1f395ce06!8m2!3d29.0992736!4d77.9152065!16s%2Fg%2F11fl7h90gr!19sChIJT4EdjbR3DDkRBs6V8-FClfs?authuser=0&hl=en&rclk=1",
        "coordinates": {
            "latitude": 29.0992736,
            "longitude": 77.9152065
        }
    },
    {
        "name": "Masjid Jannat-ul-Firdaus",
        "main_category": "Mosque",
        "address": "3WW9+9W7 Masjid Jannat-ul-Firdaus, Mawana, Uttar Pradesh 250401",
        "detailed_address": {
            "ward": null,
            "street": "3WW9+9W7",
            "city": "Mawana",
            "postal_code": "250401",
            "state": "Uttar Pradesh",
            "country_code": "IN"
        },
        "images": [
            {
                "about": "All",
                "link": "https://streetviewpixels-pa.googleapis.com/v1/thumbnail?panoid=4E4naxFJA-etaP0bT7zkHA&cb_client=maps_sv.tactile.gps&w=224&h=298&yaw=248.69954&pitch=0&thumbfov=100"
            },
            {
                "about": "Street View & 360deg",
                "link": "https://streetviewpixels-pa.googleapis.com/v1/thumbnail?panoid=4E4naxFJA-etaP0bT7zkHA&cb_client=maps_sv.tactile.gps&w=224&h=298&yaw=248.69954&pitch=0&thumbfov=100"
            }
        ],
        "link": "https://www.google.com/maps/place/Masjid+Jannat-ul-Firdaus/data=!4m7!3m6!1s0x390c775257df35f3:0x15e6dee8d7f7343a!8m2!3d29.0959096!4d77.9197818!16s%2Fg%2F11gyxlxwv7!19sChIJ8zXfV1J3DDkROjT31-je5hU?authuser=0&hl=en&rclk=1",
        "coordinates": {
            "latitude": 29.0959096,
            "longitude": 77.9197818
        }
    },
    {
        "name": "Jama Masjid Palda",
        "main_category": "Mosque",
        "address": "3WWC+Q5Q Jama Masjid Palda, Palda, Mawana, Uttar Pradesh 250404",
        "detailed_address": {
            "ward": "Palda",
            "street": "3WWC+Q5Q",
            "city": "Mawana",
            "postal_code": "250404",
            "state": "Uttar Pradesh",
            "country_code": "IN"
        },
        "images": [
            {
                "about": "All",
                "link": "https://lh5.googleusercontent.com/p/AF1QipPDEgUq61NTm15y9ZkwEc5wBr8tNkliYKR2WIDX=w224-h398-k-no"
            },
            {
                "about": "Latest",
                "link": "https://lh5.googleusercontent.com/p/AF1QipP67wCtUyZObYIQF35aK_DUYv4reO_khG4AEmZV=w224-h298-k-no"
            },
            {
                "about": "Street View & 360deg",
                "link": "https://streetviewpixels-pa.googleapis.com/v1/thumbnail?panoid=nsa68HGkdz2VuGl5Vm_-dQ&cb_client=maps_sv.tactile.gps&w=224&h=298&yaw=109.387535&pitch=0&thumbfov=100"
            }
        ],
        "link": "https://www.google.com/maps/place/Jama+Masjid+Palda/data=!4m7!3m6!1s0x390c7705c5d9d7b7:0x7bfefeeacfaf88c1!8m2!3d29.0969563!4d77.9204938!16s%2Fg%2F11rz2scmz8!19sChIJt9fZxQV3DDkRwYivz-r-_ns?authuser=0&hl=en&rclk=1",
        "coordinates": {
            "latitude": 29.0969563,
            "longitude": 77.9204938
        }
    },
    {
        "name": "Chhappar Wali Masjid",
        "main_category": "Mosque",
        "address": "3WX8+P34 Chhappar Wali Masjid, Mawana, Uttar Pradesh 250401",
        "detailed_address": {
            "ward": null,
            "street": "3WX8+P34",
            "city": "Mawana",
            "postal_code": "250401",
            "state": "Uttar Pradesh",
            "country_code": "IN"
        },
        "images": [
            {
                "about": "All",
                "link": "https://lh5.googleusercontent.com/p/AF1QipNnqqKQ-q5kloGfYhwZsIkEcJdHOQu-ym-sWOOx=w224-h480-k-no"
            }
        ],
        "link": "https://www.google.com/maps/place/Chhappar+Wali+Masjid/data=!4m7!3m6!1s0x390c7718b656b97f:0x3374fbc9fadf09bc!8m2!3d29.0992346!4d77.9152298!16s%2Fg%2F11rtqdq9wg!19sChIJf7lWthh3DDkRvAnf-sn7dDM?authuser=0&hl=en&rclk=1",
        "coordinates": {
            "latitude": 29.0992346,
            "longitude": 77.91522979999999
        }
    },
    {
        "name": "Abu Talib masjid tihai mawana",
        "main_category": "Mosque",
        "address": "Abu Talib masjid tihai mawana, Abu Talib masjid, Mohalla Tihai, Mawana, Uttar Pradesh 250401",
        "detailed_address": {
            "ward": "Mohalla Tihai",
            "street": "Abu Talib masjid",
            "city": "Mawana",
            "postal_code": "250401",
            "state": "Uttar Pradesh",
            "country_code": "IN"
        },
        "images": [],
        "link": "https://www.google.com/maps/place/Abu+Talib+masjid+tihai+mawana/data=!4m7!3m6!1s0x390c77fcef6a90af:0xd5d9c32be3ea0d10!8m2!3d29.1023151!4d77.9235377!16s%2Fg%2F11ndxdz1ws!19sChIJr5Bq7_x3DDkREA3q4yvD2dU?authuser=0&hl=en&rclk=1",
        "coordinates": {
            "latitude": 29.1023151,
            "longitude": 77.9235377
        }
    },
    {
        "name": "ABUBAQR MASJID",
        "main_category": "Mosque",
        "address": "4W49+C4J ABUBAQR MASJID, Mawana, Uttar Pradesh 250401",
        "detailed_address": {
            "ward": null,
            "street": "4W49+C4J",
            "city": "Mawana",
            "postal_code": "250401",
            "state": "Uttar Pradesh",
            "country_code": "IN"
        },
        "images": [
            {
                "about": "All",
                "link": "https://streetviewpixels-pa.googleapis.com/v1/thumbnail?panoid=62R7DuqUHe3yy1oiIbnccw&cb_client=maps_sv.tactile.gps&w=224&h=298&yaw=239.75647&pitch=0&thumbfov=100"
            },
            {
                "about": "Street View & 360deg",
                "link": "https://streetviewpixels-pa.googleapis.com/v1/thumbnail?panoid=62R7DuqUHe3yy1oiIbnccw&cb_client=maps_sv.tactile.gps&w=224&h=298&yaw=239.75647&pitch=0&thumbfov=100"
            }
        ],
        "link": "https://www.google.com/maps/place/ABUBAQR+MASJID/data=!4m7!3m6!1s0x390c77d791ccadf5:0x33b76aebf66516a1!8m2!3d29.1060984!4d77.9177531!16s%2Fg%2F11p06x2l_5!19sChIJ9a3Mkdd3DDkRoRZl9utqtzM?authuser=0&hl=en&rclk=1",
        "coordinates": {
            "latitude": 29.106098399999997,
            "longitude": 77.9177531
        }
    },
    {
        "name": "mo: munnaa laal mdinaa msjid",
        "main_category": "Mosque",
        "address": "3WWC+Q5Q mo: munnaa laal mdinaa msjid, Mawana, Uttar Pradesh 250401",
        "detailed_address": {
            "ward": null,
            "street": "3WWC+Q5Q",
            "city": "Mawana",
            "postal_code": "250401",
            "state": "Uttar Pradesh",
            "country_code": "IN"
        },
        "images": [
            {
                "about": "All",
                "link": "https://streetviewpixels-pa.googleapis.com/v1/thumbnail?panoid=nsa68HGkdz2VuGl5Vm_-dQ&cb_client=maps_sv.tactile.gps&w=224&h=298&yaw=109.387535&pitch=0&thumbfov=100"
            },
            {
                "about": "Street View & 360deg",
                "link": "https://streetviewpixels-pa.googleapis.com/v1/thumbnail?panoid=nsa68HGkdz2VuGl5Vm_-dQ&cb_client=maps_sv.tactile.gps&w=224&h=298&yaw=109.387535&pitch=0&thumbfov=100"
            }
        ],
        "link": "https://www.google.com/maps/place/%E0%A4%AE%E0%A5%8B:+%E0%A4%AE%E0%A5%81%E0%A4%A8%E0%A5%8D%E0%A4%A8%E0%A4%BE+%E0%A4%B2%E0%A4%BE%E0%A4%B2+%E0%A4%AE%E0%A4%A6%E0%A4%BF%E0%A4%A8%E0%A4%BE+%E0%A4%AE%E0%A4%B8%E0%A5%8D%E0%A4%9C%E0%A4%BF%E0%A4%A6/data=!4m7!3m6!1s0x390c7737dd394513:0x95a4a9fa31b8aa!8m2!3d29.0969563!4d77.9204938!16s%2Fg%2F11q3qp_50l!19sChIJE0U53Td3DDkRqrgx-qmklQA?authuser=0&hl=en&rclk=1",
        "coordinates": {
            "latitude": 29.0969563,
            "longitude": 77.9204938
        }
    },
    {
        "name": "Shia masjid mavana Meerut",
        "main_category": "School",
        "address": "4W2F+MJX Shia masjid mavana Meerut, near, old subzi mandhi, Mawana, Uttar Pradesh 250401",
        "detailed_address": {
            "ward": null,
            "street": "4W2F+MJX, near, old subzi mandhi",
            "city": "Mawana",
            "postal_code": "250401",
            "state": "Uttar Pradesh",
            "country_code": "IN"
        },
        "images": [],
        "link": "https://www.google.com/maps/place/Shia+masjid+mavana+Meerut/data=!4m7!3m6!1s0x390c773f6ad0d1d3:0x39298cb230cced40!8m2!3d29.1024172!4d77.9214617!16s%2Fg%2F11h7r4_71y!19sChIJ09HQaj93DDkRQO3MMLKMKTk?authuser=0&hl=en&rclk=1",
        "coordinates": {
            "latitude": 29.102417199999998,
            "longitude": 77.9214617
        }
    },
    {
        "name": "Masjid e arafat",
        "main_category": "Education center",
        "address": "3WX7+4HX Masjid e arafat, Mawana, Uttar Pradesh 250401",
        "detailed_address": {
            "ward": null,
            "street": "3WX7+4HX",
            "city": "Mawana",
            "postal_code": "250401",
            "state": "Uttar Pradesh",
            "country_code": "IN"
        },
        "images": [
            {
                "about": "All",
                "link": "https://streetviewpixels-pa.googleapis.com/v1/thumbnail?panoid=BgZKtohuqO60qR-fO8Tueg&cb_client=maps_sv.tactile.gps&w=224&h=298&yaw=200.49747&pitch=0&thumbfov=100"
            },
            {
                "about": "Street View & 360deg",
                "link": "https://streetviewpixels-pa.googleapis.com/v1/thumbnail?panoid=BgZKtohuqO60qR-fO8Tueg&cb_client=maps_sv.tactile.gps&w=224&h=298&yaw=200.49747&pitch=0&thumbfov=100"
            }
        ],
        "link": "https://www.google.com/maps/place/Masjid+e+arafat/data=!4m7!3m6!1s0x390c7738439d2845:0x7f06552bb0731459!8m2!3d29.0978559!4d77.9139866!16s%2Fg%2F11smgn7mzc!19sChIJRSidQzh3DDkRWRRzsCtVBn8?authuser=0&hl=en&rclk=1",
        "coordinates": {
            "latitude": 29.0978559,
            "longitude": 77.9139866
        }
    },
    {
        "name": "Razzaqia Masjid",
        "main_category": "Mosque",
        "address": "3WW5+RF3 Razzaqia Masjid, Mawana bypass, Noor jahah colony, near id gah, Mawana",
        "detailed_address": {
            "ward": null,
            "street": "3WW5+RF3, Mawana bypass, Noor jahah colony, near id gah",
            "city": "Mawana, Mawana Kalan",
            "postal_code": null,
            "state": "Uttar Pradesh",
            "country_code": "IN"
        },
        "images": [],
        "link": "https://www.google.com/maps/place/Razzaqia+Masjid/data=!4m7!3m6!1s0x390c778add644de5:0x41143d64e90667a0!8m2!3d29.0970131!4d77.9086567!16s%2Fg%2F11nmy6mbj_!19sChIJ5U1k3Yp3DDkRoGcG6WQ9FEE?authuser=0&hl=en&rclk=1",
        "coordinates": {
            "latitude": 29.097013099999998,
            "longitude": 77.9086567
        }
    },
    {
        "name": "Rehmaniya Masjid (Mosque)",
        "main_category": "Mosque",
        "address": "4W3H+W7 Rehmaniya Masjid (Mosque), Mawana, Uttar Pradesh 250401",
        "detailed_address": {
            "ward": null,
            "street": "4W3H+W7",
            "city": "Mawana",
            "postal_code": null,
            "state": "Uttar Pradesh",
            "country_code": "IN"
        },
        "images": [],
        "link": "https://www.google.com/maps/place/Rehmaniya+Masjid+%28Mosque%29/data=!4m7!3m6!1s0x390c7724ac96a323:0x4e5c7a32d180ae6e!8m2!3d29.1048142!4d77.9281743!16s%2Fg%2F11kqblw4lp!19sChIJI6OWrCR3DDkRbq6A0TJ6XE4?authuser=0&hl=en&rclk=1",
        "coordinates": {
            "latitude": 29.1048142,
            "longitude": 77.9281743
        }
    },
    {
        "name": "Masjid Aisha (msjid aaishaa) msjd `y'shh",
        "main_category": "Mosque",
        "address": "3WW9+V9R Masjid Aisha (msjid aaishaa) msjd `y'shh, near Raheem Girls College, Mohalla Kalyan Singh, Mawana, Uttar Pradesh 250401",
        "detailed_address": {
            "ward": "Mohalla Kalyan Singh",
            "street": "3WW9+V9R, near Raheem Girls College",
            "city": "Mawana",
            "postal_code": "250401",
            "state": "Uttar Pradesh",
            "country_code": "IN"
        },
        "images": [],
        "link": "https://www.google.com/maps/place/Masjid+Aisha+%28%E0%A4%AE%E0%A4%B8%E0%A5%8D%E0%A4%9C%E0%A4%BF%E0%A4%A6+%E0%A4%86%E0%A4%87%E0%A4%B6%E0%A4%BE%29+%D9%85%D8%B3%D8%AC%D8%AF+%D8%B9%D8%A7%D8%A6%D8%B4%DB%81%E2%80%AD/data=!4m7!3m6!1s0x390c771c14d5d1ab:0xb378185e3aeeb8c3!8m2!3d29.0972337!4d77.9183918!16s%2Fg%2F11hdsc6btw!19sChIJq9HVFBx3DDkRw7juOl4YeLM?authuser=0&hl=en&rclk=1",
        "coordinates": {
            "latitude": 29.0972337,
            "longitude": 77.9183918
        }
    },
    {
        "name": "Muhammedia Masjid",
        "main_category": "Mosque",
        "address": "4W3G+25H Muhammedia Masjid, Mohalla Tihai, Mawana, Uttar Pradesh 250401",
        "detailed_address": {
            "ward": "Mohalla Tihai",
            "street": "4W3G+25H",
            "city": "Mawana",
            "postal_code": "250401",
            "state": "Uttar Pradesh",
            "country_code": "IN"
        },
        "images": [
            {
                "about": "All",
                "link": "https://lh5.googleusercontent.com/p/AF1QipMZ4MHO97ADpcnL5Z86NLcqI8ePuL__GfMGdisG=w415-h298-k-no"
            },
            {
                "about": "Dome",
                "link": "https://lh5.googleusercontent.com/p/AF1QipNgnY4XHS_9KXHwYQIpYPbEftj2a7xFduBmeEe9=w224-h398-k-no"
            }
        ],
        "link": "https://www.google.com/maps/place/Muhammedia+Masjid/data=!4m7!3m6!1s0x390c7705856967a7:0xe651fdb06f058267!8m2!3d29.1025639!4d77.9254721!16s%2Fg%2F11lm4640pb!19sChIJp2dphQV3DDkRZ4IFb7D9UeY?authuser=0&hl=en&rclk=1",
        "coordinates": {
            "latitude": 29.1025639,
            "longitude": 77.9254721
        }
    },
    {
        "name": "Masjid Ali",
        "main_category": "Mosque",
        "address": "4W2F+69P Masjid Ali, holi chowk walipura, Mohalla Tihai, Mawana, Uttar Pradesh 250401",
        "detailed_address": {
            "ward": "Mohalla Tihai",
            "street": "4W2F+69P, holi chowk walipura",
            "city": "Mawana",
            "postal_code": "250401",
            "state": "Uttar Pradesh",
            "country_code": "IN"
        },
        "images": [],
        "link": "https://www.google.com/maps/place/Masjid+Ali/data=!4m7!3m6!1s0x390c77678306183d:0xb7ec6e08844c6262!8m2!3d29.1005854!4d77.9234511!16s%2Fg%2F11t10r0lzc!19sChIJPRgGg2d3DDkRYmJMhAhu7Lc?authuser=0&hl=en&rclk=1",
        "coordinates": {
            "latitude": 29.1005854,
            "longitude": 77.9234511
        }
    },
    {
        "name": "Rahmaniya masjid(fakeerabad)",
        "main_category": "Mosque",
        "address": "4W3H+MGG Rahmaniya masjid(fakeerabad), Mohalla Tihai, Mawana, Uttar Pradesh 250401",
        "detailed_address": {
            "ward": "Mohalla Tihai",
            "street": "4W3H+MGG",
            "city": "Mawana",
            "postal_code": "250401",
            "state": "Uttar Pradesh",
            "country_code": "IN"
        },
        "images": [],
        "link": "https://www.google.com/maps/place/Rahmaniya+masjid%28fakeerabad%29/data=!4m7!3m6!1s0x390b8982eb7f5a7f:0x37d17056cf348113!8m2!3d29.1041842!4d77.9288152!16s%2Fg%2F11fpkl17lv!19sChIJf1p_64KJCzkRE4E0z1Zw0Tc?authuser=0&hl=en&rclk=1",
        "coordinates": {
            "latitude": 29.1041842,
            "longitude": 77.9288152
        }
    },
    {
        "name": "Mhola munna lal mawana meerut",
        "main_category": "Mosque",
        "address": "Mhola munna lal mawana meerut, 1300, 1300, Mawana, Uttar Pradesh 250401",
        "detailed_address": {
            "ward": null,
            "street": "1300, 1300",
            "city": "Mawana",
            "postal_code": "250401",
            "state": "Uttar Pradesh",
            "country_code": "IN"
        },
        "images": [],
        "link": "https://www.google.com/maps/place/Mhola+munna+lal+mawana+meerut/data=!4m7!3m6!1s0x390c77a253b058db:0x5c91a00cda1121d3!8m2!3d29.1047133!4d77.9167979!16s%2Fg%2F11t2qh86j5!19sChIJ21iwU6J3DDkR0yER2gygkVw?authuser=0&hl=en&rclk=1",
        "coordinates": {
            "latitude": 29.1047133,
            "longitude": 77.91679789999999
        }
    },
    {
        "name": "Mawana T.T home",
        "main_category": "Mosque",
        "address": "Mawana T.T home, Rajo wala bhag, Mawana, Uttar Pradesh 250401",
        "detailed_address": {
            "ward": null,
            "street": "Rajo wala bhag",
            "city": "Mawana",
            "postal_code": null,
            "state": "Uttar Pradesh",
            "country_code": "IN"
        },
        "images": [
            {
                "about": "All",
                "link": "https://streetviewpixels-pa.googleapis.com/v1/thumbnail?panoid=atwjweGtwl9AY79XDsb5rA&cb_client=maps_sv.tactile.gps&w=224&h=298&yaw=92.414604&pitch=0&thumbfov=100"
            },
            {
                "about": "Street View & 360deg",
                "link": "https://streetviewpixels-pa.googleapis.com/v1/thumbnail?panoid=atwjweGtwl9AY79XDsb5rA&cb_client=maps_sv.tactile.gps&w=224&h=298&yaw=92.414604&pitch=0&thumbfov=100"
            }
        ],
        "link": "https://www.google.com/maps/place/Mawana+T.T+home/data=!4m7!3m6!1s0x390c775ba6fb21e3:0x1b686baf53478b1a!8m2!3d29.0972296!4d77.9175841!16s%2Fg%2F11t168n0zt!19sChIJ4yH7plt3DDkRGotHU69raBs?authuser=0&hl=en&rclk=1",
        "coordinates": {
            "latitude": 29.0972296,
            "longitude": 77.9175841
        }
    },
    {
        "name": "Jama Masjid Mawana",
        "main_category": "Clothing store",
        "address": "3WWC+Q5Q Jama Masjid Mawana, Mawana, Uttar Pradesh 250401",
        "detailed_address": {
            "ward": null,
            "street": "3WWC+Q5Q",
            "city": "Mawana",
            "postal_code": null,
            "state": "Uttar Pradesh",
            "country_code": "IN"
        },
        "images": [
            {
                "about": "All",
                "link": "https://streetviewpixels-pa.googleapis.com/v1/thumbnail?panoid=nsa68HGkdz2VuGl5Vm_-dQ&cb_client=maps_sv.tactile.gps&w=224&h=298&yaw=109.387535&pitch=0&thumbfov=100"
            },
            {
                "about": "Street View & 360deg",
                "link": "https://streetviewpixels-pa.googleapis.com/v1/thumbnail?panoid=nsa68HGkdz2VuGl5Vm_-dQ&cb_client=maps_sv.tactile.gps&w=224&h=298&yaw=109.387535&pitch=0&thumbfov=100"
            }
        ],
        "link": "https://www.google.com/maps/place/Jama+Masjid+Mawana/data=!4m7!3m6!1s0x390c77b1fc73a083:0xb01525ec12b50338!8m2!3d29.0969563!4d77.9204938!16s%2Fg%2F11t82k1mgm!19sChIJg6Bz_LF3DDkROAO1EuwlFbA?authuser=0&hl=en&rclk=1",
        "coordinates": {
            "latitude": 29.0969563,
            "longitude": 77.9204938
        }
    }
]