[
    {
        "name": "Masjid E umer",
        "main_category": "Mosque",
        "address": "922H+958 Masjid E umer, Talaja, Gujarat 364140",
        "detailed_address": {
            "ward": null,
            "street": "922H+958",
            "city": "Talaja",
            "postal_code": "364140",
            "state": "Gujarat",
            "country_code": "IN"
        },
        "images": [
            {
                "about": "All",
                "link": "https://lh5.googleusercontent.com/p/AF1QipMX_tFmHk8ziuFUp4Lsl8rYk8LPs-NmpMLNAs-g=w224-h398-k-no"
            },
            {
                "about": "Street View & 360deg",
                "link": "https://streetviewpixels-pa.googleapis.com/v1/thumbnail?panoid=LH6DyktssWqskZyw15ij0g&cb_client=maps_sv.tactile.gps&w=224&h=298&yaw=78.81579&pitch=0&thumbfov=100"
            },
            {
                "about": "Videos",
                "link": "https://lh5.googleusercontent.com/p/AF1QipOEFTlbeJIl_rBDuviKSX8n9JZED0V_7fnj4k4g=w224-h395-k-no"
            }
        ],
        "link": "https://www.google.com/maps/place/Masjid+E+umer/data=!4m7!3m6!1s0x3be1f751d5a1bc0f:0x3fd8a333d233f541!8m2!3d21.3509235!4d72.0279401!16s%2Fg%2F11r98b2kpc!19sChIJD7yh1VH34TsRQfUz0jOj2D8?authuser=0&hl=en&rclk=1",
        "coordinates": {
            "latitude": 21.3509235,
            "longitude": 72.0279401
        }
    },
    {
        "name": "Masjid e mohammadi talaja",
        "main_category": "Mosque",
        "address": "923Q+V93 Masjid e mohammadi talaja, Talaja, Gujarat 364140",
        "detailed_address": {
            "ward": null,
            "street": "923Q+V93",
            "city": "Talaja",
            "postal_code": "364140",
            "state": "Gujarat",
            "country_code": "IN"
        },
        "images": [
            {
                "about": "All",
                "link": "https://lh5.googleusercontent.com/p/AF1QipMEWiLPA-ESMAtQKb-rabUDiqKkkuAkzyAYbZ9N=w224-h398-k-no"
            }
        ],
        "link": "https://www.google.com/maps/place/Masjid+e+mohammadi+talaja/data=!4m7!3m6!1s0x3be1f78681d66ca3:0xdff84b247991df1e!8m2!3d21.3546252!4d72.0384105!16s%2Fg%2F11gj0dp4xp!19sChIJo2zWgYb34TsRHt-ReSRL-N8?authuser=0&hl=en&rclk=1",
        "coordinates": {
            "latitude": 21.354625199999997,
            "longitude": 72.0384105
        }
    },
    {
        "name": "Masjid e adam",
        "main_category": "Mosque",
        "address": "plot no 86, Masjid e adam, Yasmin manzil, Talaja, Gujarat 364140",
        "detailed_address": {
            "ward": null,
            "street": "plot no 86, Yasmin manzil",
            "city": "Talaja",
            "postal_code": "364140",
            "state": "Gujarat",
            "country_code": "IN"
        },
        "images": [
            {
                "about": "All",
                "link": "https://lh5.googleusercontent.com/p/AF1QipPf9cKE0yxLHB_hvCpr6xLyLDZoXlzDzjBwPxG-=w529-h298-k-no"
            },
            {
                "about": "Dome",
                "link": "https://lh5.googleusercontent.com/p/AF1QipMpErCNtJhctMATuHBO48ATjE74JwXEswjebw3f=w224-h298-k-no"
            },
            {
                "about": "Videos",
                "link": "https://lh5.googleusercontent.com/p/AF1QipMv4mMyqSrwIFndXni7_v9qewb8ExN7zo0bMrrO=w541-h298-k-no"
            }
        ],
        "link": "https://www.google.com/maps/place/Masjid+e+adam/data=!4m7!3m6!1s0x3be1f76d96dc2ce9:0x3a2d0b547920c9d0!8m2!3d21.3504895!4d72.0463272!16s%2Fg%2F11fkn0spr7!19sChIJ6Szclm334TsR0MkgeVQLLTo?authuser=0&hl=en&rclk=1",
        "coordinates": {
            "latitude": 21.3504895,
            "longitude": 72.0463272
        }
    },
    {
        "name": "Masjid E Mariyam",
        "main_category": "Mosque",
        "address": "923V+RH3 Masjid E Mariyam, Unnamed Road, Talaja, Gujarat 364140",
        "detailed_address": {
            "ward": null,
            "street": "923V+RH3, Unnamed Road",
            "city": "Talaja",
            "postal_code": "364140",
            "state": "Gujarat",
            "country_code": "IN"
        },
        "images": [],
        "link": "https://www.google.com/maps/place/Masjid+E+Mariyam/data=!4m7!3m6!1s0x3be1f7128873d315:0xc85b678cc64f1953!8m2!3d21.3545231!4d72.0439177!16s%2Fg%2F11gznxz2r_!19sChIJFdNziBL34TsRUxlPxoxnW8g?authuser=0&hl=en&rclk=1",
        "coordinates": {
            "latitude": 21.354523099999998,
            "longitude": 72.0439177
        }
    },
    {
        "name": "masjid E kuba",
        "main_category": "Mosque",
        "address": "922Q+R66 masjid E kuba, Talaja, Gujarat 364140",
        "detailed_address": {
            "ward": null,
            "street": "922Q+R66",
            "city": "Talaja",
            "postal_code": "364140",
            "state": "Gujarat",
            "country_code": "IN"
        },
        "images": [
            {
                "about": "All",
                "link": "https://lh5.googleusercontent.com/p/AF1QipNe_ahj1VG9bkaejKlUJzWQh5lqyrcdgfUEf05y=w529-h298-k-no"
            }
        ],
        "link": "https://www.google.com/maps/place/masjid+E+kuba/data=!4m7!3m6!1s0x3be1f7223a9efe05:0x3b4a38c4950f9e10!8m2!3d21.3520318!4d72.0380157!16s%2Fg%2F11gmwns6sy!19sChIJBf6eOiL34TsREJ4PlcQ4Sjs?authuser=0&hl=en&rclk=1",
        "coordinates": {
            "latitude": 21.3520318,
            "longitude": 72.0380157
        }
    },
    {
        "name": "Hakemi masjid Talaja (Dawoodi Bohra Masjid)",
        "main_category": "Mosque",
        "address": "Hakemi masjid Talaja (Dawoodi Bohra Masjid), Ramtekri Rd, Talaja, Gujarat 364140",
        "detailed_address": {
            "ward": null,
            "street": "Ramtekri Rd",
            "city": "Talaja",
            "postal_code": "364140",
            "state": "Gujarat",
            "country_code": "IN"
        },
        "images": [
            {
                "about": "All",
                "link": "https://lh5.googleusercontent.com/p/AF1QipOIfkRWqwGIRqpmP5O6NPy8ad1trRYKren91AeM=w663-h298-k-no"
            },
            {
                "about": "By owner",
                "link": "https://lh5.googleusercontent.com/p/AF1QipOIfkRWqwGIRqpmP5O6NPy8ad1trRYKren91AeM=w663-h298-k-no"
            }
        ],
        "link": "https://www.google.com/maps/place/Hakemi+masjid+Talaja+%28Dawoodi+Bohra+Masjid%29/data=!4m7!3m6!1s0x3be1f7ca2c9bf361:0xbf4b4b52f10dca81!8m2!3d21.3564447!4d72.0361405!16s%2Fg%2F11fn2zqsfb!19sChIJYfObLMr34TsRgcoN8VJLS78?authuser=0&hl=en&rclk=1",
        "coordinates": {
            "latitude": 21.356444699999997,
            "longitude": 72.0361405
        }
    },
    {
        "name": "MASJID - E - RAHMAAN",
        "main_category": "Mosque",
        "address": "923P+G4G MASJID - E - RAHMAAN, Talaja, Gujarat 364140",
        "detailed_address": {
            "ward": null,
            "street": "923P+G4G",
            "city": "Talaja",
            "postal_code": "364140",
            "state": "Gujarat",
            "country_code": "IN"
        },
        "images": [
            {
                "about": "All",
                "link": "https://streetviewpixels-pa.googleapis.com/v1/thumbnail?panoid=Bj0Z0HJ4pLUBY26iCKsXHQ&cb_client=maps_sv.tactile.gps&w=224&h=298&yaw=35.123627&pitch=0&thumbfov=100"
            },
            {
                "about": "Street View & 360deg",
                "link": "https://streetviewpixels-pa.googleapis.com/v1/thumbnail?panoid=Bj0Z0HJ4pLUBY26iCKsXHQ&cb_client=maps_sv.tactile.gps&w=224&h=298&yaw=35.123627&pitch=0&thumbfov=100"
            }
        ],
        "link": "https://www.google.com/maps/place/MASJID+-+E+-+RAHMAAN/data=!4m7!3m6!1s0x3be1f758b8c6981f:0x6e9f23230302dc90!8m2!3d21.3538179!4d72.0353221!16s%2Fg%2F11rg_p1gn6!19sChIJH5jGuFj34TsRkNwCAyMjn24?authuser=0&hl=en&rclk=1",
        "coordinates": {
            "latitude": 21.3538179,
            "longitude": 72.0353221
        }
    },
    {
        "name": "Masjid E Noor",
        "main_category": "Mosque",
        "address": "922V+F3 Masjid E Noor, Talaja, Gujarat 364140",
        "detailed_address": {
            "ward": null,
            "street": "922V+F3",
            "city": "Talaja",
            "postal_code": null,
            "state": "Gujarat",
            "country_code": "IN"
        },
        "images": [
            {
                "about": "All",
                "link": "https://lh5.googleusercontent.com/p/AF1QipOhz0rVKvsT9MQHaWDq961G97PUQIBvQ3aW3Jv5=w224-h398-k-no"
            },
            {
                "about": "Dome",
                "link": "https://lh5.googleusercontent.com/p/AF1QipOye7zUDb7Q36UCCPTwIH8f5I0tv_eDWbrRZscC=w396-h298-k-no"
            }
        ],
        "link": "https://www.google.com/maps/place/Masjid+E+Noor/data=!4m7!3m6!1s0x3be1f750ee831079:0x550eaa201524059f!8m2!3d21.3512049!4d72.0427012!16s%2Fg%2F11kc2q3692!19sChIJeRCD7lD34TsRnwUkFSCqDlU?authuser=0&hl=en&rclk=1",
        "coordinates": {
            "latitude": 21.3512049,
            "longitude": 72.0427012
        }
    }
]