[
    {
        "name": "Jama Masjid",
        "main_category": "Mosque",
        "address": "6X6Q+52J Jama Masjid, Jehanabad, Bihar 804408",
        "detailed_address": {
            "ward": null,
            "street": "6X6Q+52J",
            "city": "Jehanabad",
            "postal_code": "804408",
            "state": "Bihar",
            "country_code": "IN"
        },
        "images": [
            {
                "about": "All",
                "link": "https://lh5.googleusercontent.com/p/AF1QipOhtzSpeLbSMci6mAK8ZHdN4GLXZ-kLQlOUw55w=w239-h298-k-no"
            },
            {
                "about": "Street View & 360deg",
                "link": "https://lh5.googleusercontent.com/p/AF1QipOrPC9aqc8F4r0IAPFRuSZEKtYYfirJkUQI2chc=w224-h298-k-no-pi-20-ya9.999998-ro-0-fo100"
            },
            {
                "about": "Videos",
                "link": "https://lh5.googleusercontent.com/p/AF1QipMqq4Wq8T_jqiPBNHycHw938FBOy2jptT3mTum2=w224-h398-k-no"
            }
        ],
        "link": "https://www.google.com/maps/place/Jama+Masjid/data=!4m7!3m6!1s0x39f2b584ae17f7af:0x87395b65f355147d!8m2!3d25.2104519!4d84.9875258!16s%2Fg%2F11c2nqmnz4!19sChIJr_cXroS18jkRfRRV82VbOYc?authuser=0&hl=en&rclk=1",
        "coordinates": {
            "latitude": 25.2104519,
            "longitude": 84.9875258
        }
    },
    {
        "name": "Jama Masjid",
        "main_category": "Mosque",
        "address": "5XRJ+JW9 Jama Masjid, Erki, Jehanabad, Bihar 804408",
        "detailed_address": {
            "ward": null,
            "street": "5XRJ+JW9, Erki",
            "city": "Jehanabad",
            "postal_code": "804408",
            "state": "Bihar",
            "country_code": "IN"
        },
        "images": [
            {
                "about": "All",
                "link": "https://lh5.googleusercontent.com/p/AF1QipMTjar25z5RQCgjBUCdjEtDgs-G1uhfzVG1JZYN=w397-h298-k-no"
            },
            {
                "about": "Street View & 360deg",
                "link": "https://streetviewpixels-pa.googleapis.com/v1/thumbnail?panoid=yHqgRPl4g7Gnja4JYpwESw&cb_client=maps_sv.tactile.gps&w=224&h=298&yaw=269.8187&pitch=0&thumbfov=100"
            }
        ],
        "link": "https://www.google.com/maps/place/Jama+Masjid/data=!4m7!3m6!1s0x39f2ca7df2c215df:0xbc14aa2147561929!8m2!3d25.1915321!4d84.9823681!16s%2Fg%2F11bbybzgyp!19sChIJ3xXC8n3K8jkRKRlWRyGqFLw?authuser=0&hl=en&rclk=1",
        "coordinates": {
            "latitude": 25.1915321,
            "longitude": 84.9823681
        }
    },
    {
        "name": "Masjid Jehanabad",
        "main_category": "Mosque",
        "address": "6X6M+7W6 Masjid Jehanabad, Jehanabad, Bihar 804408",
        "detailed_address": {
            "ward": null,
            "street": "6X6M+7W6",
            "city": "Jehanabad",
            "postal_code": "804408",
            "state": "Bihar",
            "country_code": "IN"
        },
        "images": [
            {
                "about": "All",
                "link": "https://lh5.googleusercontent.com/p/AF1QipMF_pTmL-u70FivG69nnkh3O-TX0cvyNgxzwJYF=w410-h298-k-no"
            },
            {
                "about": "Street View & 360deg",
                "link": "https://streetviewpixels-pa.googleapis.com/v1/thumbnail?panoid=nL29GRuyyq56Cpiu6yFE7A&cb_client=maps_sv.tactile.gps&w=224&h=298&yaw=317.63303&pitch=0&thumbfov=100"
            }
        ],
        "link": "https://www.google.com/maps/place/Masjid+Jehanabad/data=!4m7!3m6!1s0x39f2b5832c94709b:0xaffa7aca883763a8!8m2!3d25.2106648!4d84.984774!16s%2Fg%2F11c6s4qff8!19sChIJm3CULIO18jkRqGM3iMp6-q8?authuser=0&hl=en&rclk=1",
        "coordinates": {
            "latitude": 25.2106648,
            "longitude": 84.984774
        }
    },
    {
        "name": "Abeedi Jama Masjid",
        "main_category": "Mosque",
        "address": "65M9+R43 Abeedi Jama Masjid, Sadabad, Jahanabad Bila Ahatmali, Uttar Pradesh 246725",
        "detailed_address": {
            "ward": null,
            "street": "65M9+R43",
            "city": "Sadabad, Jahanabad Bila Ahatmali",
            "postal_code": "246725",
            "state": "Uttar Pradesh",
            "country_code": "IN"
        },
        "images": [
            {
                "about": "All",
                "link": "https://lh5.googleusercontent.com/p/AF1QipMhR79Ognrv2cLPJsKk54SpUxR0_wZLTPwo05EP=w224-h398-k-no"
            },
            {
                "about": "Street View & 360deg",
                "link": "https://streetviewpixels-pa.googleapis.com/v1/thumbnail?panoid=I6G2Pl8lLjxhQGYdgPUHpw&cb_client=maps_sv.tactile.gps&w=224&h=298&yaw=283.1974&pitch=0&thumbfov=100"
            }
        ],
        "link": "https://www.google.com/maps/place/Abeedi+Jama+Masjid/data=!4m7!3m6!1s0x390b93f576dae311:0xf0de86b2f5258140!8m2!3d29.2345022!4d78.1677884!16s%2Fg%2F11h107jyzp!19sChIJEePadvWTCzkRQIEl9bKG3vA?authuser=0&hl=en&rclk=1",
        "coordinates": {
            "latitude": 29.234502199999998,
            "longitude": 78.16778839999999
        }
    },
    {
        "name": "mkhdumaabaad msjid",
        "main_category": "Mosque",
        "address": "6X8Q+49X mkhdumaabaad msjid, Fida Hussain Rd, Jehanabad, Bihar 804408",
        "detailed_address": {
            "ward": null,
            "street": "6X8Q+49X, Fida Hussain Rd",
            "city": "Jehanabad",
            "postal_code": "804408",
            "state": "Bihar",
            "country_code": "IN"
        },
        "images": [
            {
                "about": "All",
                "link": "https://lh5.googleusercontent.com/p/AF1QipMr9i25GMAdyNW-EKG_UMtQwaSLfCf3XRTAwTJR=w224-h298-k-no"
            },
            {
                "about": "Street View & 360deg",
                "link": "https://streetviewpixels-pa.googleapis.com/v1/thumbnail?panoid=WAulBcRPX8aKQCVihncSkQ&cb_client=maps_sv.tactile.gps&w=224&h=298&yaw=196.56242&pitch=0&thumbfov=100"
            }
        ],
        "link": "https://www.google.com/maps/place/%E0%A4%AE%E0%A4%96%E0%A4%A6%E0%A5%81%E0%A4%AE%E0%A4%BE%E0%A4%AC%E0%A4%BE%E0%A4%A6+%E0%A4%AE%E0%A4%B8%E0%A5%8D%E0%A4%9C%E0%A4%BF%E0%A4%A6/data=!4m7!3m6!1s0x39f2b54355973ae9:0xeb699e69d0dbe410!8m2!3d25.2153724!4d84.9884724!16s%2Fg%2F11f66dd38t!19sChIJ6TqXVUO18jkREOTb0Gmeaes?authuser=0&hl=en&rclk=1",
        "coordinates": {
            "latitude": 25.2153724,
            "longitude": 84.98847239999999
        }
    },
    {
        "name": "Jama masjid Jahanabad",
        "main_category": "Mosque",
        "address": "7438+6XC Jama masjid Jahanabad, Jahanabad Bila Ahatmali, Nijabatpura Ahatmali, Uttar Pradesh 246725",
        "detailed_address": {
            "ward": null,
            "street": "7438+6XC",
            "city": "Jahanabad Bila Ahatmali, Nijabatpura Ahatmali",
            "postal_code": null,
            "state": "Uttar Pradesh",
            "country_code": "IN"
        },
        "images": [],
        "link": "https://www.google.com/maps/place/Jama+masjid+Jahanabad/data=!4m7!3m6!1s0x390b93d14c0eb9eb:0xd7f26172491ba806!8m2!3d29.2530531!4d78.1173792!16s%2Fg%2F11k99m_rj9!19sChIJ67kOTNGTCzkRBqgbSXJh8tc?authuser=0&hl=en&rclk=1",
        "coordinates": {
            "latitude": 29.2530531,
            "longitude": 78.1173792
        }
    },
    {
        "name": "khinnii vaalii msjid (nuurii msjid)",
        "main_category": "Mosque",
        "address": "Pasiyapur, khinnii vaalii msjid (nuurii msjid), Jahanabad, Uttar Pradesh 262001",
        "detailed_address": {
            "ward": null,
            "street": "Pasiyapur",
            "city": "Jahanabad",
            "postal_code": "262001",
            "state": "Uttar Pradesh",
            "country_code": "IN"
        },
        "images": [
            {
                "about": "All",
                "link": "https://lh5.googleusercontent.com/p/AF1QipM_zsYrrLQqSZOLO7QAJAMe3jD4VVnQk7kr9nay=w645-h298-k-no"
            },
            {
                "about": "Street View & 360deg",
                "link": "https://streetviewpixels-pa.googleapis.com/v1/thumbnail?panoid=WduJMGpGhWgKI3dKU6YZVA&cb_client=maps_sv.tactile.gps&w=224&h=298&yaw=238.69183&pitch=0&thumbfov=100"
            }
        ],
        "link": "https://www.google.com/maps/place/%E0%A4%96%E0%A4%BF%E0%A4%A8%E0%A5%8D%E0%A4%A8%E0%A5%80+%E0%A4%B5%E0%A4%BE%E0%A4%B2%E0%A5%80+%E0%A4%AE%E0%A4%B8%E0%A5%8D%E0%A4%9C%E0%A4%BF%E0%A4%A6+%28%E0%A4%A8%E0%A5%82%E0%A4%B0%E0%A5%80+%E0%A4%AE%E0%A4%B8%E0%A5%8D%E0%A4%9C%E0%A4%BF%E0%A4%A6%29/data=!4m7!3m6!1s0x39a01543529c3e9b:0x654c442786c91c70!8m2!3d28.63213!4d79.7110593!16s%2Fg%2F11fk8dzpyn!19sChIJmz6cUkMVoDkRcBzJhidETGU?authuser=0&hl=en&rclk=1",
        "coordinates": {
            "latitude": 28.63213,
            "longitude": 79.7110593
        }
    },
    {
        "name": "Masjid _e _Ala_Hazrat",
        "main_category": "Mosque",
        "address": "4939+PVV Masjid _e _Ala_Hazrat, Jahanabad, Uttar Pradesh 212659",
        "detailed_address": {
            "ward": null,
            "street": "4939+PVV",
            "city": "Jahanabad",
            "postal_code": "212659",
            "state": "Uttar Pradesh",
            "country_code": "IN"
        },
        "images": [],
        "link": "https://www.google.com/maps/place/Masjid+_e+_Ala_Hazrat/data=!4m7!3m6!1s0x399c5f9ccf89519d:0x215e1cafc4ff8cfc!8m2!3d26.1043675!4d80.3696689!16s%2Fg%2F11pwxw1qwz!19sChIJnVGJz5xfnDkR_Iz_xK8cXiE?authuser=0&hl=en&rclk=1",
        "coordinates": {
            "latitude": 26.1043675,
            "longitude": 80.3696689
        }
    },
    {
        "name": "Masjid Baghe Firdaus",
        "main_category": "Mosque",
        "address": "4935+4F8 Masjid Baghe Firdaus, SH 46, Jahanabad, Uttar Pradesh 212659",
        "detailed_address": {
            "ward": null,
            "street": "4935+4F8, SH 46",
            "city": "Jahanabad",
            "postal_code": "212659",
            "state": "Uttar Pradesh",
            "country_code": "IN"
        },
        "images": [
            {
                "about": "All",
                "link": "https://lh5.googleusercontent.com/p/AF1QipN8w1sBgnGqr051_cogEW9uvapzMHPH8gYi6eAs=w224-h1079-k-no"
            }
        ],
        "link": "https://www.google.com/maps/place/Masjid+Baghe+Firdaus/data=!4m7!3m6!1s0x399c594d71feae77:0x3ab5a3f22c55ec6c!8m2!3d26.103332!4d80.3584278!16s%2Fg%2F11tclw5yxk!19sChIJd67-cU1ZnDkRbOxVLPKjtTo?authuser=0&hl=en&rclk=1",
        "coordinates": {
            "latitude": 26.103331999999998,
            "longitude": 80.3584278
        }
    },
    {
        "name": "mdiinaa msjid Madina masjid",
        "main_category": "Mosque",
        "address": "Niyar, mdiinaa msjid Madina masjid, omega hospital, Kora Jahanabad, Jahanabad, Uttar Pradesh 212659",
        "detailed_address": {
            "ward": null,
            "street": "Niyar, omega hospital",
            "city": "Kora Jahanabad, Jahanabad",
            "postal_code": "212659",
            "state": "Uttar Pradesh",
            "country_code": "IN"
        },
        "images": [
            {
                "about": "All",
                "link": "https://lh5.googleusercontent.com/p/AF1QipOZQ3ZY051bpGlzxxUuFttPYZMS60JN4wSry9xS=w224-h398-k-no"
            },
            {
                "about": "Videos",
                "link": "https://lh5.googleusercontent.com/p/AF1QipOZQ3ZY051bpGlzxxUuFttPYZMS60JN4wSry9xS=w224-h398-k-no"
            }
        ],
        "link": "https://www.google.com/maps/place/%E0%A4%AE%E0%A4%A6%E0%A5%80%E0%A4%A8%E0%A4%BE+%E0%A4%AE%E0%A4%B8%E0%A5%8D%E0%A4%9C%E0%A4%BF%E0%A4%A6+Madina+masjid/data=!4m7!3m6!1s0x399c59ad52f3f79f:0x8ccb63714276fd6b!8m2!3d26.1000715!4d80.3548032!16s%2Fg%2F11rbdwp517!19sChIJn_fzUq1ZnDkRa_12QnFjy4w?authuser=0&hl=en&rclk=1",
        "coordinates": {
            "latitude": 26.1000715,
            "longitude": 80.35480319999999
        }
    },
    {
        "name": "Masjid",
        "main_category": "Mosque",
        "address": "4937+V5H Masjid, Jahanabad, Uttar Pradesh 212659",
        "detailed_address": {
            "ward": null,
            "street": "4937+V5H",
            "city": "Jahanabad",
            "postal_code": "212659",
            "state": "Uttar Pradesh",
            "country_code": "IN"
        },
        "images": [
            {
                "about": "All",
                "link": "https://streetviewpixels-pa.googleapis.com/v1/thumbnail?panoid=-pK0ylna34Si8zp_DfAUOQ&cb_client=maps_sv.tactile.gps&w=224&h=298&yaw=155.65614&pitch=0&thumbfov=100"
            },
            {
                "about": "Street View & 360deg",
                "link": "https://streetviewpixels-pa.googleapis.com/v1/thumbnail?panoid=-pK0ylna34Si8zp_DfAUOQ&cb_client=maps_sv.tactile.gps&w=224&h=298&yaw=155.65614&pitch=0&thumbfov=100"
            }
        ],
        "link": "https://www.google.com/maps/place/Masjid/data=!4m7!3m6!1s0x399c59a21809511b:0x2fc608bcf4423989!8m2!3d26.1046783!4d80.3629785!16s%2Fg%2F11kwr0rkjf!19sChIJG1EJGKJZnDkRiTlC9LwIxi8?authuser=0&hl=en&rclk=1",
        "coordinates": {
            "latitude": 26.1046783,
            "longitude": 80.3629785
        }
    },
    {
        "name": "Nurani Masjid",
        "main_category": "Mosque",
        "address": "4944+35M Nurani Masjid, Jahanabad, Uttar Pradesh 212659",
        "detailed_address": {
            "ward": null,
            "street": "4944+35M",
            "city": "Jahanabad",
            "postal_code": "212659",
            "state": "Uttar Pradesh",
            "country_code": "IN"
        },
        "images": [],
        "link": "https://www.google.com/maps/place/Nurani+Masjid/data=!4m7!3m6!1s0x399c598375ee49bf:0x3674266c0c577872!8m2!3d26.1052139!4d80.3554068!16s%2Fg%2F11l6t15qnj!19sChIJv0nudYNZnDkRcnhXDGwmdDY?authuser=0&hl=en&rclk=1",
        "coordinates": {
            "latitude": 26.1052139,
            "longitude": 80.3554068
        }
    },
    {
        "name": "Noori Masjid nuurii msjid",
        "main_category": "Mosque",
        "address": "4922+396 Noori Masjid nuurii msjid, Jahanabad, Uttar Pradesh 212659",
        "detailed_address": {
            "ward": null,
            "street": "4922+396",
            "city": "Jahanabad",
            "postal_code": "212659",
            "state": "Uttar Pradesh",
            "country_code": "IN"
        },
        "images": [
            {
                "about": "All",
                "link": "https://lh5.googleusercontent.com/p/AF1QipMYFxOe7addGAflg5wmUK8VZkZbb4RAXmQb-bFG=w224-h398-k-no"
            },
            {
                "about": "Street View & 360deg",
                "link": "https://streetviewpixels-pa.googleapis.com/v1/thumbnail?panoid=dXlJaIRV0fgPWy-67l4b5Q&cb_client=maps_sv.tactile.gps&w=224&h=298&yaw=233.87627&pitch=0&thumbfov=100"
            }
        ],
        "link": "https://www.google.com/maps/place/Noori+Masjid+%E0%A4%A8%E0%A5%82%E0%A4%B0%E0%A5%80+%E0%A4%AE%E0%A4%B8%E0%A5%8D%E0%A4%9C%E0%A4%BF%E0%A4%A6/data=!4m7!3m6!1s0x399c5944c7e42117:0x1844633fda0456!8m2!3d26.1000315!4d80.3509575!16s%2Fg%2F11kc97qdjn!19sChIJFyHkx0RZnDkRVgTaP2NEGAA?authuser=0&hl=en&rclk=1",
        "coordinates": {
            "latitude": 26.1000315,
            "longitude": 80.35095749999999
        }
    }
]