[
    {
        "name": "Ali Mosque",
        "main_category": "Mosque",
        "address": "Ali Mosque, near ali masjid, Main Market, Sherkot, Uttar Pradesh 246747",
        "detailed_address": {
            "ward": "Main Market",
            "street": "near ali masjid",
            "city": "Sherkot",
            "postal_code": "246747",
            "state": "Uttar Pradesh",
            "country_code": "IN"
        },
        "images": [
            {
                "about": "All",
                "link": "https://lh5.googleusercontent.com/p/AF1QipNI68cYAd0Bvjxu1N5kE_4818QeXZM7z5CcdfVS=w397-h298-k-no"
            },
            {
                "about": "Latest",
                "link": "https://lh5.googleusercontent.com/p/AF1QipMHyQHCa9CcdkesDBk8ayJ0cHMQWgASmKS9Rnz5=w224-h398-k-no"
            },
            {
                "about": "Videos",
                "link": "https://lh5.googleusercontent.com/p/AF1QipNFz09Y6kp4t2-6y53WWTSyHephVqYqSz1svufU=w224-h398-k-no"
            },
            {
                "about": "By owner",
                "link": "https://lh5.googleusercontent.com/p/AF1QipPaODxxmRoqtl-i_1HDGVe5eP3PleKndj3vZAxM=w224-h298-k-no"
            }
        ],
        "link": "https://www.google.com/maps/place/Ali+Mosque/data=!4m7!3m6!1s0x390bca23effb08cb:0xbaa20a806a3b2c70!8m2!3d29.3259787!4d78.5722731!16s%2Fg%2F1tvgsqdh!19sChIJywj77yPKCzkRcCw7aoAKoro?authuser=0&hl=en&rclk=1",
        "coordinates": {
            "latitude": 29.3259787,
            "longitude": 78.57227309999999
        }
    },
    {
        "name": "Sherkot Jama Masjid",
        "main_category": "Mosque",
        "address": "8HJC+47F Sherkot Jama Masjid, Sherkot, Uttar Pradesh 246747",
        "detailed_address": {
            "ward": null,
            "street": "8HJC+47F",
            "city": "Sherkot",
            "postal_code": "246747",
            "state": "Uttar Pradesh",
            "country_code": "IN"
        },
        "images": [
            {
                "about": "All",
                "link": "https://lh5.googleusercontent.com/p/AF1QipNEZzGOh7BlPsmzo-_fAuxQ5p6Z1seedax-AMWt=w224-h398-k-no"
            },
            {
                "about": "Dome",
                "link": "https://lh5.googleusercontent.com/p/AF1QipOAigkrFoh9jWvVhXeJYwbR7q30zMYbn2G_vgZP=w245-h298-k-no"
            },
            {
                "about": "Videos",
                "link": "https://lh5.googleusercontent.com/p/AF1QipMykjgdn6Chm2_ETmcix01niWdm1DxPWiXNHyXg=w224-h398-k-no"
            }
        ],
        "link": "https://www.google.com/maps/place/Sherkot+Jama+Masjid/data=!4m7!3m6!1s0x390bca261a1f4a43:0xc7d24597821a092b!8m2!3d29.3303187!4d78.570668!16s%2Fg%2F11ddx799w2!19sChIJQ0ofGibKCzkRKwkagpdF0sc?authuser=0&hl=en&rclk=1",
        "coordinates": {
            "latitude": 29.3303187,
            "longitude": 78.570668
        }
    },
    {
        "name": "Mullahano wali masjid",
        "main_category": "Mosque",
        "address": "Mullahano wali masjid, Sherkot, Uttar Pradesh 246747",
        "detailed_address": {
            "ward": null,
            "street": null,
            "city": "Sherkot",
            "postal_code": "246747",
            "state": "Uttar Pradesh",
            "country_code": "IN"
        },
        "images": [
            {
                "about": "All",
                "link": "https://lh5.googleusercontent.com/p/AF1QipMm8F3uJtDQzbGBNi_sh2vRK4TrySkHLha1-AJc=w662-h298-k-no"
            }
        ],
        "link": "https://www.google.com/maps/place/Mullahano+wali+masjid/data=!4m7!3m6!1s0x390bcb0e1cb980d5:0x466168f22caabb08!8m2!3d29.3310303!4d78.5770342!16s%2Fg%2F11s7tby_73!19sChIJ1YC5HA7LCzkRCLuqLPJoYUY?authuser=0&hl=en&rclk=1",
        "coordinates": {
            "latitude": 29.3310303,
            "longitude": 78.5770342
        }
    },
    {
        "name": "Mustafa Masjid Sherkot",
        "main_category": "School",
        "address": "8HHG+XJJ Mustafa Masjid Sherkot, Unnamed Road, Sherkot, Uttar Pradesh 246747",
        "detailed_address": {
            "ward": null,
            "street": "8HHG+XJJ, Unnamed Road",
            "city": "Sherkot",
            "postal_code": "246747",
            "state": "Uttar Pradesh",
            "country_code": "IN"
        },
        "images": [
            {
                "about": "All",
                "link": "https://lh5.googleusercontent.com/p/AF1QipNjzgCac0lWj6-3pUP-CFkOf52VValgngssOp2C=w224-h398-k-no"
            }
        ],
        "link": "https://www.google.com/maps/place/Mustafa+Masjid+Sherkot/data=!4m7!3m6!1s0x390bcb558b68707d:0xf2770097a7ea74fd!8m2!3d29.3299689!4d78.5765019!16s%2Fg%2F11f667wr5t!19sChIJfXBoi1XLCzkR_XTqp5cAd_I?authuser=0&hl=en&rclk=1",
        "coordinates": {
            "latitude": 29.329968899999997,
            "longitude": 78.5765019
        }
    },
    {
        "name": "Masjid Khari Kuan",
        "main_category": "Mosque",
        "address": "8HJC+3QV Masjid Khari Kuan, Sherkot, Uttar Pradesh 246747",
        "detailed_address": {
            "ward": null,
            "street": "8HJC+3QV",
            "city": "Sherkot",
            "postal_code": "246747",
            "state": "Uttar Pradesh",
            "country_code": "IN"
        },
        "images": [],
        "link": "https://www.google.com/maps/place/Masjid+Khari+Kuan/data=!4m7!3m6!1s0x390bcb5f11130595:0x13e912768dcdfa1b!8m2!3d29.3302492!4d78.5718396!16s%2Fg%2F11vjggm04v!19sChIJlQUTEV_LCzkRG_rNjXYS6RM?authuser=0&hl=en&rclk=1",
        "coordinates": {
            "latitude": 29.330249199999997,
            "longitude": 78.57183959999999
        }
    }
]