[
    {
        "name": "Abu Bakr 'abuw bakrin [Masjid]",
        "main_category": "Mosque",
        "address": "Abu Bakr 'abuw bakrin [Masjid], AP Perfect Star, Sahaspur Alinagar, Sahaspur, Uttar Pradesh 244222",
        "detailed_address": {
            "ward": null,
            "street": "AP Perfect Star",
            "city": "Sahaspur Alinagar, Sahaspur",
            "postal_code": "244222",
            "state": "Uttar Pradesh",
            "country_code": "IN"
        },
        "images": [],
        "link": "https://www.google.com/maps/place/Abu+Bakr+%D8%A3%D9%8E%D8%A8%D9%8F%D9%88+%D8%A8%D9%8E%D9%83%D9%92%D8%B1%D9%8D+%5BMasjid%5D%E2%80%AD/data=!4m7!3m6!1s0x390b039bc83a16a9:0x8afe5e2f4b6d91d7!8m2!3d28.837461!4d78.5791095!16s%2Fg%2F11pkbzcfgk!19sChIJqRY6yJsDCzkR15FtSy9e_oo?authuser=0&hl=en&rclk=1",
        "coordinates": {
            "latitude": 28.837460999999998,
            "longitude": 78.5791095
        }
    },
    {
        "name": "Jama Masjid Sahaspur",
        "main_category": "Mosque",
        "address": "4JCF+92G Jama Masjid Sahaspur, Sahaspur, Uttar Pradesh 246745",
        "detailed_address": {
            "ward": null,
            "street": "4JCF+92G",
            "city": "Sahaspur",
            "postal_code": "246745",
            "state": "Uttar Pradesh",
            "country_code": "IN"
        },
        "images": [
            {
                "about": "All",
                "link": "https://lh5.googleusercontent.com/p/AF1QipPPUL_6jnvXC5dtljOHVPCjSiL914Uomkof4rN5=w529-h298-k-no"
            },
            {
                "about": "Videos",
                "link": "https://lh5.googleusercontent.com/p/AF1QipMO6KhI3qrD3lTxi9n7Tftlvp8ipjXYjWZkmpw2=w224-h398-k-no"
            }
        ],
        "link": "https://www.google.com/maps/place/Jama+Masjid+Sahaspur/data=!4m7!3m6!1s0x390bb2832c146d67:0x7163e14e1e10e61c!8m2!3d29.1209317!4d78.6225682!16s%2Fg%2F1w96f3mk!19sChIJZ20ULIOyCzkRHOYQHk7hY3E?authuser=0&hl=en&rclk=1",
        "coordinates": {
            "latitude": 29.1209317,
            "longitude": 78.6225682
        }
    },
    {
        "name": "Masjid Hakeempura",
        "main_category": "Mosque",
        "address": "4J99+X9G Masjid Hakeempura, Hakeempura, Sahaspur, Uttar Pradesh 246745",
        "detailed_address": {
            "ward": "Hakeempura",
            "street": "4J99+X9G",
            "city": "Sahaspur",
            "postal_code": "246745",
            "state": "Uttar Pradesh",
            "country_code": "IN"
        },
        "images": [
            {
                "about": "All",
                "link": "https://lh5.googleusercontent.com/p/AF1QipN1j0jUaZipmpcUgLQNOGfSdnt2rCetXEflLYn1=w396-h298-k-no"
            }
        ],
        "link": "https://www.google.com/maps/place/Masjid+Hakeempura/data=!4m7!3m6!1s0x390bb28235ac1f2b:0x7ba14548b01473ae!8m2!3d29.1199428!4d78.6184376!16s%2Fg%2F1tdzdcb9!19sChIJKx-sNYKyCzkRrnMUsEhFoXs?authuser=0&hl=en&rclk=1",
        "coordinates": {
            "latitude": 29.119942799999997,
            "longitude": 78.6184376
        }
    },
    {
        "name": "Batul Masjid",
        "main_category": "Mosque",
        "address": "4JF9+HMQ Batul Masjid, Sahaspur, Uttar Pradesh 246745",
        "detailed_address": {
            "ward": null,
            "street": "4JF9+HMQ",
            "city": "Sahaspur",
            "postal_code": "246745",
            "state": "Uttar Pradesh",
            "country_code": "IN"
        },
        "images": [
            {
                "about": "All",
                "link": "https://lh5.googleusercontent.com/p/AF1QipPT9Y900IT8umxOTe1UU8clO2eM80_T-dGuwT6u=w529-h298-k-no"
            }
        ],
        "link": "https://www.google.com/maps/place/Batul+Masjid/data=!4m7!3m6!1s0x390bb2846fb7a2a7:0x8d26c9f87e2dff3c!8m2!3d29.1239634!4d78.6192265!16s%2Fg%2F11gdrdd1hs!19sChIJp6K3b4SyCzkRPP8tfvjJJo0?authuser=0&hl=en&rclk=1",
        "coordinates": {
            "latitude": 29.123963399999997,
            "longitude": 78.6192265
        }
    },
    {
        "name": "Masjid Sharif",
        "main_category": "Mosque",
        "address": "4JC9+RFJ Masjid Sharif, Sahaspur, Uttar Pradesh 246745",
        "detailed_address": {
            "ward": null,
            "street": "4JC9+RFJ",
            "city": "Sahaspur",
            "postal_code": "246745",
            "state": "Uttar Pradesh",
            "country_code": "IN"
        },
        "images": [],
        "link": "https://www.google.com/maps/place/Masjid+Sharif/data=!4m7!3m6!1s0x390bb283eccd8c4b:0x5453a378f7ac857!8m2!3d29.1220833!4d78.618654!16s%2Fg%2F11gcd4nf4f!19sChIJS4zN7IOyCzkRV8h6jzc6RQU?authuser=0&hl=en&rclk=1",
        "coordinates": {
            "latitude": 29.1220833,
            "longitude": 78.61865399999999
        }
    },
    {
        "name": "Masjid",
        "main_category": "Mosque",
        "address": "4J8C+JHC Masjid, Sahaspur Ring Rd, Hakeempura, Gospur Mafi, Uttar Pradesh 246745",
        "detailed_address": {
            "ward": "Hakeempura",
            "street": "4J8C+JHC, Sahaspur Ring Rd",
            "city": "Gospur Mafi",
            "postal_code": "246745",
            "state": "Uttar Pradesh",
            "country_code": "IN"
        },
        "images": [
            {
                "about": "All",
                "link": "https://lh5.googleusercontent.com/p/AF1QipMGY8nzDoPeeW9nhSk5knza5C9t7aKzueGMFxil=w662-h298-k-no"
            }
        ],
        "link": "https://www.google.com/maps/place/Masjid/data=!4m7!3m6!1s0x390badb5c06f2d65:0x446ccbe4f27e9a8e!8m2!3d29.116563!4d78.6213817!16s%2Fg%2F11qynv7gpq!19sChIJZS1vwLWtCzkRjpp-8uTLbEQ?authuser=0&hl=en&rclk=1",
        "coordinates": {
            "latitude": 29.116563,
            "longitude": 78.6213817
        }
    },
    {
        "name": "TAKIYEE WALLE MASJID , SAHASPUR",
        "main_category": "Mosque",
        "address": "4J6C+HJW TAKIYEE WALLE MASJID , SAHASPUR, Sahaspur Link Rd, Gospur Mafi, Sahaspur, Uttar Pradesh 246745",
        "detailed_address": {
            "ward": null,
            "street": "4J6C+HJW, Sahaspur Link Rd, Gospur Mafi",
            "city": "Sahaspur, Gospur Mafi",
            "postal_code": "246745",
            "state": "Uttar Pradesh",
            "country_code": "IN"
        },
        "images": [
            {
                "about": "All",
                "link": "https://streetviewpixels-pa.googleapis.com/v1/thumbnail?panoid=8gJWS7UPDh6rZHqFoiQ6cA&cb_client=maps_sv.tactile.gps&w=224&h=298&yaw=245.6361&pitch=0&thumbfov=100"
            },
            {
                "about": "Street View & 360deg",
                "link": "https://streetviewpixels-pa.googleapis.com/v1/thumbnail?panoid=8gJWS7UPDh6rZHqFoiQ6cA&cb_client=maps_sv.tactile.gps&w=224&h=298&yaw=245.6361&pitch=0&thumbfov=100"
            }
        ],
        "link": "https://www.google.com/maps/place/TAKIYEE+WALLE+MASJID+,+SAHASPUR/data=!4m7!3m6!1s0x390bad4b04f2013f:0xa1c0d70c79efa791!8m2!3d29.1114845!4d78.6215822!16s%2Fg%2F11qs35xq34!19sChIJPwHyBEutCzkRkafveQzXwKE?authuser=0&hl=en&rclk=1",
        "coordinates": {
            "latitude": 29.1114845,
            "longitude": 78.62158219999999
        }
    },
    {
        "name": "BUS STAND MASJID, SAHASPUR",
        "main_category": "Mosque",
        "address": "4JC8+H8H BUS STAND MASJID, SAHASPUR, Sahaspur, Uttar Pradesh 246745",
        "detailed_address": {
            "ward": null,
            "street": "4JC8+H8H",
            "city": "Sahaspur",
            "postal_code": "246745",
            "state": "Uttar Pradesh",
            "country_code": "IN"
        },
        "images": [
            {
                "about": "All",
                "link": "https://streetviewpixels-pa.googleapis.com/v1/thumbnail?panoid=FwLIeoqlFzQhC2CctpppXQ&cb_client=maps_sv.tactile.gps&w=224&h=298&yaw=223.87769&pitch=0&thumbfov=100"
            },
            {
                "about": "Street View & 360deg",
                "link": "https://streetviewpixels-pa.googleapis.com/v1/thumbnail?panoid=FwLIeoqlFzQhC2CctpppXQ&cb_client=maps_sv.tactile.gps&w=224&h=298&yaw=223.87769&pitch=0&thumbfov=100"
            }
        ],
        "link": "https://www.google.com/maps/place/BUS+STAND+MASJID,+SAHASPUR/data=!4m7!3m6!1s0x390bb372f8cadb45:0xbd5c469ff72b3b4b!8m2!3d29.1214436!4d78.6158624!16s%2Fg%2F11r0wq_r11!19sChIJRdvK-HKzCzkRSzsr959GXL0?authuser=0&hl=en&rclk=1",
        "coordinates": {
            "latitude": 29.1214436,
            "longitude": 78.6158624
        }
    },
    {
        "name": "MASJID",
        "main_category": "Mosque",
        "address": "4JG8+V38 MASJID, Madanpuri, Sahaspur, Uttar Pradesh 246745",
        "detailed_address": {
            "ward": null,
            "street": "4JG8+V38",
            "city": "Madanpuri, Sahaspur",
            "postal_code": null,
            "state": "Uttar Pradesh",
            "country_code": "IN"
        },
        "images": [
            {
                "about": "All",
                "link": "https://lh5.googleusercontent.com/p/AF1QipMkT8qD3vJwpDQBju1IQEBRTXGFwXmf3J9jflWm=w224-h471-k-no"
            },
            {
                "about": "Videos",
                "link": "https://lh5.googleusercontent.com/p/AF1QipMkT8qD3vJwpDQBju1IQEBRTXGFwXmf3J9jflWm=w224-h471-k-no"
            }
        ],
        "link": "https://www.google.com/maps/place/MASJID/data=!4m7!3m6!1s0x390bb3ff4b5e9399:0x6df4b136a11b0217!8m2!3d29.1271611!4d78.6151912!16s%2Fg%2F11mk6nrb3t!19sChIJmZNeS_-zCzkRFwIboTax9G0?authuser=0&hl=en&rclk=1",
        "coordinates": {
            "latitude": 29.1271611,
            "longitude": 78.6151912
        }
    },
    {
        "name": "Aysha masjid ayshaa msjid",
        "main_category": "Mosque",
        "address": "Aysha masjid ayshaa msjid, Haji Choudhry Sharafat Rd, Sahaspur, Uttar Pradesh 246745",
        "detailed_address": {
            "ward": null,
            "street": "Haji Choudhry Sharafat Rd",
            "city": "Sahaspur",
            "postal_code": "246745",
            "state": "Uttar Pradesh",
            "country_code": "IN"
        },
        "images": [],
        "link": "https://www.google.com/maps/place/Aysha+masjid+%E0%A4%85%E0%A4%AF%E0%A4%B6%E0%A4%BE+%E0%A4%AE%E0%A4%B8%E0%A5%8D%E0%A4%9C%E0%A4%BF%E0%A4%A6/data=!4m7!3m6!1s0x390bb3bd015a0161:0x9853cbd50acc0223!8m2!3d29.1234105!4d78.6221553!16s%2Fg%2F11j7cydqqv!19sChIJYQFaAb2zCzkRIwLMCtXLU5g?authuser=0&hl=en&rclk=1",
        "coordinates": {
            "latitude": 29.1234105,
            "longitude": 78.6221553
        }
    },
    {
        "name": "Mosque AISHA",
        "main_category": "Mosque",
        "address": "4JCF+MC7 Mosque AISHA, Sahaspur, Uttar Pradesh 246745",
        "detailed_address": {
            "ward": null,
            "street": "4JCF+MC7",
            "city": "Sahaspur",
            "postal_code": "246745",
            "state": "Uttar Pradesh",
            "country_code": "IN"
        },
        "images": [],
        "link": "https://www.google.com/maps/place/Mosque+AISHA/data=!4m7!3m6!1s0x390bb3fa7d5e90e5:0x9e45fc94c3b95fd5!8m2!3d29.1216706!4d78.6235543!16s%2Fg%2F11fct3vf2t!19sChIJ5ZBeffqzCzkR1V-5w5T8RZ4?authuser=0&hl=en&rclk=1",
        "coordinates": {
            "latitude": 29.121670599999998,
            "longitude": 78.6235543
        }
    },
    {
        "name": "Sunheri masjid (Rai)",
        "main_category": "Mosque",
        "address": "4JFC+C83 Sunheri masjid (Rai), Sahaspur, Uttar Pradesh 246745",
        "detailed_address": {
            "ward": null,
            "street": "4JFC+C83",
            "city": "Sahaspur",
            "postal_code": "246745",
            "state": "Uttar Pradesh",
            "country_code": "IN"
        },
        "images": [],
        "link": "https://www.google.com/maps/place/Sunheri+masjid+%28Rai%29/data=!4m7!3m6!1s0x390bb328477b7879:0x6b40818131b775c3!8m2!3d29.1235199!4d78.620801!16s%2Fg%2F11ny544j7x!19sChIJeXh7RyizCzkRw3W3MYGBQGs?authuser=0&hl=en&rclk=1",
        "coordinates": {
            "latitude": 29.123519899999998,
            "longitude": 78.620801
        }
    },
    {
        "name": "Moti Masjid Sahaspur",
        "main_category": "Mosque",
        "address": "Moti Masjid Sahaspur, Main, Market Mohalla Choudharian, opposite Moti Masjid, Sahaspur, Uttar Pradesh 246745",
        "detailed_address": {
            "ward": null,
            "street": "Main, Market Mohalla Choudharian, opposite Moti Masjid",
            "city": "Sahaspur",
            "postal_code": "246745",
            "state": "Uttar Pradesh",
            "country_code": "IN"
        },
        "images": [
            {
                "about": "All",
                "link": "https://lh5.googleusercontent.com/p/AF1QipP_r-0y3ymisIrajPXFVlKA5IKptLgyJcSLGGxG=w298-h298-k-no"
            },
            {
                "about": "Dome",
                "link": "https://lh5.googleusercontent.com/p/AF1QipODH-cufjDLfyjLkGM20BlWAusUtwtaV_9d5QcD=w224-h474-k-no"
            },
            {
                "about": "By owner",
                "link": "https://lh5.googleusercontent.com/p/AF1QipODH-cufjDLfyjLkGM20BlWAusUtwtaV_9d5QcD=w224-h474-k-no"
            }
        ],
        "link": "https://www.google.com/maps/place/Moti+Masjid+Sahaspur/data=!4m7!3m6!1s0x390bb373412d30c3:0xce627cb8c1a594fd!8m2!3d29.1208737!4d78.6214858!16s%2Fg%2F11vlc2qy6l!19sChIJwzAtQXOzCzkR_ZSlwbh8Ys4?authuser=0&hl=en&rclk=1",
        "coordinates": {
            "latitude": 29.120873699999997,
            "longitude": 78.6214858
        }
    },
    {
        "name": "MASJID MOTAN Sahaspur",
        "main_category": "Housing development",
        "address": "4JCC+632 MASJID MOTAN Sahaspur, Sahaspur, Uttar Pradesh 246745",
        "detailed_address": {
            "ward": null,
            "street": "4JCC+632",
            "city": "Sahaspur",
            "postal_code": "246745",
            "state": "Uttar Pradesh",
            "country_code": "IN"
        },
        "images": [],
        "link": "https://www.google.com/maps/place/MASJID+MOTAN+Sahaspur/data=!4m7!3m6!1s0x390bb3991d4d670d:0xa26c36e215b62419!8m2!3d29.1205036!4d78.6201421!16s%2Fg%2F11txzx4tc7!19sChIJDWdNHZmzCzkRGSS2FeI2bKI?authuser=0&hl=en&rclk=1",
        "coordinates": {
            "latitude": 29.1205036,
            "longitude": 78.6201421
        }
    },
    {
        "name": "Masjid Ansariyan",
        "main_category": "Mosque",
        "address": "4J9C+9C4 Masjid Ansariyan, Hakeempura, Sahaspur, Uttar Pradesh 246745",
        "detailed_address": {
            "ward": "Hakeempura",
            "street": "4J9C+9C4",
            "city": "Sahaspur",
            "postal_code": "246745",
            "state": "Uttar Pradesh",
            "country_code": "IN"
        },
        "images": [],
        "link": "https://www.google.com/maps/place/Masjid+Ansariyan/data=!4m7!3m6!1s0x390bb39c4b333a6b:0x646ccfcf98d0e08!8m2!3d29.1183796!4d78.6210805!16s%2Fg%2F11s4tr0fmr!19sChIJazozS5yzCzkRCA6N-fzMRgY?authuser=0&hl=en&rclk=1",
        "coordinates": {
            "latitude": 29.118379599999997,
            "longitude": 78.62108049999999
        }
    }
]