[
    {
        "name": "Gushkara Masjid",
        "main_category": "Mosque",
        "address": "Gushkara Masjid, gushkara muslimpara, 713128",
        "detailed_address": {
            "ward": null,
            "street": "gushkara muslimpara",
            "city": "Guskhara",
            "postal_code": "713128",
            "state": "West Bengal",
            "country_code": "IN"
        },
        "images": [
            {
                "about": "All",
                "link": "https://lh5.googleusercontent.com/p/AF1QipOuASzuCEJLUW9yMATAyA952ILfFTVV-JRnIfaY=w529-h298-k-no"
            }
        ],
        "link": "https://www.google.com/maps/place/Gushkara+Masjid/data=!4m7!3m6!1s0x39f9cef6fd37c217:0x306aa5fb1e358e7d!8m2!3d23.4938654!4d87.7400376!16s%2Fg%2F11c539qyzx!19sChIJF8I3_fbO-TkRfY41HvulajA?authuser=0&hl=en&rclk=1",
        "coordinates": {
            "latitude": 23.4938654,
            "longitude": 87.7400376
        }
    },
    {
        "name": "Dharapara Nobobi Masjid",
        "main_category": "Mosque",
        "address": "FPJF+F8H Dharapara Nobobi Masjid, Abhirampur - Gushkara Rd, Guskhara, Dwariapur P, West Bengal 713128",
        "detailed_address": {
            "ward": null,
            "street": "FPJF+F8H, Abhirampur - Gushkara Rd",
            "city": "Guskhara, Dwariapur P",
            "postal_code": "713128",
            "state": "West Bengal",
            "country_code": "IN"
        },
        "images": [
            {
                "about": "All",
                "link": "https://lh5.googleusercontent.com/p/AF1QipNhPzimY3l9Rdr6dPn_QHBm2z_kEgj4Ds2McjYz=w529-h298-k-no"
            },
            {
                "about": "Dome",
                "link": "https://lh5.googleusercontent.com/p/AF1QipPXTK4rYcgXhrtzXZ6gNWSUdNtdzxM7xdTGQ-se=w530-h298-k-no"
            },
            {
                "about": "Videos",
                "link": "https://lh5.googleusercontent.com/p/AF1QipNhPzimY3l9Rdr6dPn_QHBm2z_kEgj4Ds2McjYz=w529-h298-k-no"
            }
        ],
        "link": "https://www.google.com/maps/place/Dharapara+Nobobi+Masjid/data=!4m7!3m6!1s0x39f9ce697298414d:0xed2682771148bafc!8m2!3d23.4811984!4d87.7233466!16s%2Fg%2F11c5bh6z2q!19sChIJTUGYcmnO-TkR_LpIEXeCJu0?authuser=0&hl=en&rclk=1",
        "coordinates": {
            "latitude": 23.4811984,
            "longitude": 87.7233466
        }
    },
    {
        "name": "Masjid",
        "main_category": "Mosque",
        "address": "FPVR+J38 Masjid, Municipality Rd, Guskhara, West Bengal 713128",
        "detailed_address": {
            "ward": null,
            "street": "FPVR+J38, Municipality Rd",
            "city": "Guskhara",
            "postal_code": "713128",
            "state": "West Bengal",
            "country_code": "IN"
        },
        "images": [
            {
                "about": "All",
                "link": "https://lh5.googleusercontent.com/p/AF1QipP_nLVLhx8sCCeodvN0o0KblqrK_7z3-dywSyE4=w224-h298-k-no"
            }
        ],
        "link": "https://www.google.com/maps/place/Masjid/data=!4m7!3m6!1s0x39f9cffba8571023:0xefeacda1c80f6423!8m2!3d23.4940404!4d87.7401887!16s%2Fg%2F11p5rh5b19!19sChIJIxBXqPvP-TkRI2QPyKHN6u8?authuser=0&hl=en&rclk=1",
        "coordinates": {
            "latitude": 23.4940404,
            "longitude": 87.74018869999999
        }
    }
]