[
    {
        "name": "Jama Masjid",
        "main_category": "Mosque",
        "address": "MGGQ+F5Q Jama Masjid, Jama Masjid Rd, Mahalaxmiwada, Adilabad, Telangana 504001",
        "detailed_address": {
            "ward": "Mahalaxmiwada",
            "street": "MGGQ+F5Q, Jama Masjid Rd",
            "city": "Adilabad",
            "postal_code": "504001",
            "state": "Telangana",
            "country_code": "IN"
        },
        "images": [
            {
                "about": "All",
                "link": "https://lh5.googleusercontent.com/p/AF1QipNdTCCpjT4t2OBpBahpDVnWNKAVzB0u2qEZpKeP=w397-h298-k-no"
            },
            {
                "about": "Street View & 360deg",
                "link": "https://lh5.googleusercontent.com/p/AF1QipPo2PUhUk-_NBic66BHYz9HLRA1PuHJwnurxWHf=w224-h298-k-no-pi-20-ya349-ro-0-fo100"
            },
            {
                "about": "Videos",
                "link": "https://lh5.googleusercontent.com/p/AF1QipOuvlTWfYBRcdP6KLk4Jspx5n0H2HE1EEPHKZ33=w224-h398-k-no"
            }
        ],
        "link": "https://www.google.com/maps/place/Jama+Masjid/data=!4m7!3m6!1s0x3bd25c75f87e8a01:0x25a95ee1fbab37d0!8m2!3d19.6762137!4d78.5379985!16s%2Fg%2F1tlqnfwv!19sChIJAYp--HVc0jsR0Der--FeqSU?authuser=0&hl=en&rclk=1",
        "coordinates": {
            "latitude": 19.676213699999998,
            "longitude": 78.5379985
        }
    },
    {
        "name": "Gulzaar Masjid",
        "main_category": "Mosque",
        "address": "MGCR+66Q Gulzaar Masjid, Bokkalguda St, Brahmanwadi, Adilabad, Telangana 504001",
        "detailed_address": {
            "ward": "Brahmanwadi",
            "street": "MGCR+66Q, Bokkalguda St",
            "city": "Adilabad",
            "postal_code": "504001",
            "state": "Telangana",
            "country_code": "IN"
        },
        "images": [
            {
                "about": "All",
                "link": "https://lh5.googleusercontent.com/p/AF1QipPmV3_7b_4d4-yd3TDYdhSwh-dkAtQLbh-hwyA=w397-h298-k-no"
            },
            {
                "about": "Street View & 360deg",
                "link": "https://streetviewpixels-pa.googleapis.com/v1/thumbnail?panoid=Hjurfo0YTHMAMkuvVanxqg&cb_client=maps_sv.tactile.gps&w=224&h=298&yaw=359.00403&pitch=0&thumbfov=100"
            }
        ],
        "link": "https://www.google.com/maps/place/Gulzaar+Masjid/data=!4m7!3m6!1s0x3bd25c7477d00337:0x3dc61fe7489f62b1!8m2!3d19.6704596!4d78.5395986!16s%2Fg%2F1tcz6sjz!19sChIJNwPQd3Rc0jsRsWKfSOcfxj0?authuser=0&hl=en&rclk=1",
        "coordinates": {
            "latitude": 19.670459599999997,
            "longitude": 78.53959859999999
        }
    },
    {
        "name": "Masjid e Noor Khursheed Nagar",
        "main_category": "Mosque",
        "address": "Masjid e Noor Khursheed Nagar, khursheed Nagar, Adilabad, Telangana 504001",
        "detailed_address": {
            "ward": "khursheed Nagar",
            "street": null,
            "city": "Adilabad",
            "postal_code": null,
            "state": "Telangana",
            "country_code": "IN"
        },
        "images": [
            {
                "about": "All",
                "link": "https://lh5.googleusercontent.com/p/AF1QipPyoDMYqI3OO884Ocs9uk4CPjjRa0EOjJ6k8j-q=w397-h298-k-no"
            },
            {
                "about": "Street View & 360deg",
                "link": "https://streetviewpixels-pa.googleapis.com/v1/thumbnail?panoid=5fxzjQj1QLUlTBK5S_u0Kw&cb_client=maps_sv.tactile.gps&w=224&h=298&yaw=351.5925&pitch=0&thumbfov=100"
            },
            {
                "about": "Videos",
                "link": "https://lh5.googleusercontent.com/p/AF1QipMHV1tpT_iLVbFwCMg3JnsxtRwnGztyPSPSpHTQ=w224-h398-k-no"
            }
        ],
        "link": "https://www.google.com/maps/place/Masjid+e+Noor+Khursheed+Nagar/data=!4m7!3m6!1s0x3bd25b7f77891187:0xd64d9d2522c68201!8m2!3d19.6780656!4d78.5199255!16s%2Fg%2F1pp2x6dd1!19sChIJhxGJd39b0jsRAYLGIiWdTdY?authuser=0&hl=en&rclk=1",
        "coordinates": {
            "latitude": 19.6780656,
            "longitude": 78.5199255
        }
    },
    {
        "name": "Masjid_E_Quba",
        "main_category": "Mosque",
        "address": "Masjid_E_Quba, 2-5-216, beside Masjid E Quba Khila, Mohalla Badh, Adilabad, Telangana 504001",
        "detailed_address": {
            "ward": "Mohalla Badh",
            "street": "2-5-216, beside Masjid E Quba Khila",
            "city": "Adilabad",
            "postal_code": "504001",
            "state": "Telangana",
            "country_code": "IN"
        },
        "images": [
            {
                "about": "All",
                "link": "https://lh5.googleusercontent.com/p/AF1QipM_2i45qyYhzAh14r7YhaGwxYpd3IWg9t2VLxd6=w397-h298-k-no"
            },
            {
                "about": "Street View & 360deg",
                "link": "https://streetviewpixels-pa.googleapis.com/v1/thumbnail?panoid=gzyk9M54_rg3zqTk-6eHYA&cb_client=maps_sv.tactile.gps&w=224&h=298&yaw=291.87372&pitch=0&thumbfov=100"
            }
        ],
        "link": "https://www.google.com/maps/place/Masjid_E_Quba/data=!4m7!3m6!1s0x3bd25bedeaaaaaab:0xe29f9a411d92289b!8m2!3d19.6793188!4d78.5406475!16s%2Fg%2F11bwkvtnj8!19sChIJq6qq6u1b0jsRmyiSHUGan-I?authuser=0&hl=en&rclk=1",
        "coordinates": {
            "latitude": 19.6793188,
            "longitude": 78.54064749999999
        }
    },
    {
        "name": "MASJID-E-Bilal",
        "main_category": "Mosque",
        "address": "MGHQ+H25 MASJID-E-Bilal, Adilabad - Nagpur Rd, Panjesha, Adilabad, Telangana 504001",
        "detailed_address": {
            "ward": "Panjesha",
            "street": "MGHQ+H25, Adilabad - Nagpur Rd",
            "city": "Adilabad",
            "postal_code": "504001",
            "state": "Telangana",
            "country_code": "IN"
        },
        "images": [
            {
                "about": "All",
                "link": "https://streetviewpixels-pa.googleapis.com/v1/thumbnail?panoid=621VQEPZ4skDx1HILMA3uw&cb_client=maps_sv.tactile.gps&w=224&h=298&yaw=175.99062&pitch=0&thumbfov=100"
            },
            {
                "about": "Street View & 360deg",
                "link": "https://streetviewpixels-pa.googleapis.com/v1/thumbnail?panoid=621VQEPZ4skDx1HILMA3uw&cb_client=maps_sv.tactile.gps&w=224&h=298&yaw=175.99062&pitch=0&thumbfov=100"
            }
        ],
        "link": "https://www.google.com/maps/place/MASJID-E-Bilal/data=!4m7!3m6!1s0x3bd25b89846e6659:0x31ee36077b20474f!8m2!3d19.6788851!4d78.5375982!16s%2Fg%2F11gclzc6pn!19sChIJWWZuhIlb0jsRT0cgewc27jE?authuser=0&hl=en&rclk=1",
        "coordinates": {
            "latitude": 19.6788851,
            "longitude": 78.53759819999999
        }
    },
    {
        "name": "Makka Masjid",
        "main_category": "Mosque",
        "address": "CFG3+QPG Makka Masjid, Ichoda, Telangana 504307",
        "detailed_address": {
            "ward": null,
            "street": "CFG3+QPG",
            "city": "Ichoda",
            "postal_code": "504307",
            "state": "Telangana",
            "country_code": "IN"
        },
        "images": [
            {
                "about": "All",
                "link": "https://lh5.googleusercontent.com/p/AF1QipMbXDp4an-5Ck3M1LeVWRN4IXm4KdVBr-_B4B5B=w397-h298-k-no"
            },
            {
                "about": "Street View & 360deg",
                "link": "https://streetviewpixels-pa.googleapis.com/v1/thumbnail?panoid=0CeQHIkPttv4CoiA8RxDrA&cb_client=maps_sv.tactile.gps&w=224&h=298&yaw=52.33259&pitch=0&thumbfov=100"
            }
        ],
        "link": "https://www.google.com/maps/place/Makka+Masjid/data=!4m7!3m6!1s0x3bd26f985b7ba91f:0xff30f7087fea8336!8m2!3d19.4269309!4d78.4543422!16s%2Fg%2F11fxx3q066!19sChIJH6l7W5hv0jsRNoPqfwj3MP8?authuser=0&hl=en&rclk=1",
        "coordinates": {
            "latitude": 19.4269309,
            "longitude": 78.4543422
        }
    },
    {
        "name": "Masjid -e- Dawathul Haq",
        "main_category": "Mosque",
        "address": "CFH2+G89 Masjid -e- Dawathul Haq, Ichoda Main Rd, Ichoda, Telangana 504307",
        "detailed_address": {
            "ward": null,
            "street": "CFH2+G89, Ichoda Main Rd",
            "city": "Ichoda",
            "postal_code": "504307",
            "state": "Telangana",
            "country_code": "IN"
        },
        "images": [
            {
                "about": "All",
                "link": "https://streetviewpixels-pa.googleapis.com/v1/thumbnail?panoid=TlJx0UgEp8ZpimzC7GcfQA&cb_client=maps_sv.tactile.gps&w=224&h=298&yaw=212.80678&pitch=0&thumbfov=100"
            },
            {
                "about": "Street View & 360deg",
                "link": "https://streetviewpixels-pa.googleapis.com/v1/thumbnail?panoid=TlJx0UgEp8ZpimzC7GcfQA&cb_client=maps_sv.tactile.gps&w=224&h=298&yaw=212.80678&pitch=0&thumbfov=100"
            }
        ],
        "link": "https://www.google.com/maps/place/Masjid+-e-+Dawathul+Haq/data=!4m7!3m6!1s0x3bd26fa240811f53:0x84ebb182ea5a35e4!8m2!3d19.4287993!4d78.4508528!16s%2Fg%2F11b75hw8dx!19sChIJUx-BQKJv0jsR5DVa6oKx64Q?authuser=0&hl=en&rclk=1",
        "coordinates": {
            "latitude": 19.428799299999998,
            "longitude": 78.45085279999999
        }
    },
    {
        "name": "Masjid E Namrah",
        "main_category": "Mosque",
        "address": "MGGM+7CV Masjid E Namrah, Ambedkar Chowk, Bhuktapur, Telangana 504001",
        "detailed_address": {
            "ward": null,
            "street": "MGGM+7CV, Ambedkar Chowk",
            "city": "Bhuktapur",
            "postal_code": null,
            "state": "Telangana",
            "country_code": "IN"
        },
        "images": [
            {
                "about": "All",
                "link": "https://streetviewpixels-pa.googleapis.com/v1/thumbnail?panoid=YibEOZNMQ1nXdYc_GbW58Q&cb_client=maps_sv.tactile.gps&w=224&h=298&yaw=335.1761&pitch=0&thumbfov=100"
            },
            {
                "about": "Street View & 360deg",
                "link": "https://streetviewpixels-pa.googleapis.com/v1/thumbnail?panoid=YibEOZNMQ1nXdYc_GbW58Q&cb_client=maps_sv.tactile.gps&w=224&h=298&yaw=335.1761&pitch=0&thumbfov=100"
            }
        ],
        "link": "https://www.google.com/maps/place/Masjid+E+Namrah/data=!4m7!3m6!1s0x3bd25b8829cd21e7:0xb871a2b68c3b292c!8m2!3d19.6757458!4d78.5335363!16s%2Fg%2F11b6v0h3n3!19sChIJ5yHNKYhb0jsRLCk7jLaicbg?authuser=0&hl=en&rclk=1",
        "coordinates": {
            "latitude": 19.675745799999998,
            "longitude": 78.5335363
        }
    },
    {
        "name": "Masjid E IBrahimiya",
        "main_category": "Mosque",
        "address": "Masjid E IBrahimiya, Shanti Nagar, Adilabad, Telangana 504001",
        "detailed_address": {
            "ward": "Shanti Nagar",
            "street": null,
            "city": "Adilabad",
            "postal_code": "504001",
            "state": "Telangana",
            "country_code": "IN"
        },
        "images": [
            {
                "about": "All",
                "link": "https://lh5.googleusercontent.com/p/AF1QipPZTifsHnAyqEeKbOSWtc-LpjVnop9C_cxGrrUQ=w276-h298-k-no"
            },
            {
                "about": "Street View & 360deg",
                "link": "https://streetviewpixels-pa.googleapis.com/v1/thumbnail?panoid=3rGvXQxNAUzGyIaQyRaqqQ&cb_client=maps_sv.tactile.gps&w=224&h=298&yaw=43.913197&pitch=0&thumbfov=100"
            }
        ],
        "link": "https://www.google.com/maps/place/Masjid+E+IBrahimiya/data=!4m7!3m6!1s0x3bd25d44b0027dc7:0x5b9c582e308fceb0!8m2!3d19.6688451!4d78.5432386!16s%2Fg%2F11flbsbk92!19sChIJx30CsERd0jsRsM6PMC5YnFs?authuser=0&hl=en&rclk=1",
        "coordinates": {
            "latitude": 19.6688451,
            "longitude": 78.5432386
        }
    },
    {
        "name": "MASJID E IBRAHIMIA",
        "main_category": "Mosque",
        "address": "MASJID E IBRAHIMIA, 2-5-275/1, tirpally, Adilabad, Telangana 504001",
        "detailed_address": {
            "ward": "tirpally",
            "street": "2-5-275/1",
            "city": "Adilabad",
            "postal_code": "504001",
            "state": "Telangana",
            "country_code": "IN"
        },
        "images": [
            {
                "about": "All",
                "link": "https://lh5.googleusercontent.com/p/AF1QipM3YUUiTtMOJUWIG7FezL58giq-GEhwFac-701K=w224-h298-k-no"
            },
            {
                "about": "By owner",
                "link": "https://lh5.googleusercontent.com/p/AF1QipPK0T5ehTHLz0DVoXhK2puwkJwUkD-5UbP3qWd2=w224-h298-k-no"
            },
            {
                "about": "Street View & 360deg",
                "link": "https://streetviewpixels-pa.googleapis.com/v1/thumbnail?panoid=vfk9FchW3gjT8UyupzO2pw&cb_client=maps_sv.tactile.gps&w=224&h=298&yaw=171.01938&pitch=0&thumbfov=100"
            }
        ],
        "link": "https://www.google.com/maps/place/MASJID+E+IBRAHIMIA/data=!4m7!3m6!1s0x3bd25b8b6628a527:0x550e60c0cd80575a!8m2!3d19.6814941!4d78.5416637!16s%2Fg%2F11f15jwjc0!19sChIJJ6UoZotb0jsRWleAzcBgDlU?authuser=0&hl=en&rclk=1",
        "coordinates": {
            "latitude": 19.6814941,
            "longitude": 78.5416637
        }
    },
    {
        "name": "JAMA MASJID",
        "main_category": "Mosque",
        "address": "9829+4GF JAMA MASJID, Boath Buzurg, Telangana 504304",
        "detailed_address": {
            "ward": null,
            "street": "9829+4GF",
            "city": "Boath Buzurg",
            "postal_code": "504304",
            "state": "Telangana",
            "country_code": "IN"
        },
        "images": [
            {
                "about": "All",
                "link": "https://lh5.googleusercontent.com/p/AF1QipOMyYwCT_py64TUYE8118nl1Ch8zhvgA1OvLcN8=w224-h298-k-no"
            }
        ],
        "link": "https://www.google.com/maps/place/JAMA+MASJID/data=!4m7!3m6!1s0x3bd272e975f77229:0x9b59ab055d5647d2!8m2!3d19.3503023!4d78.3188004!16s%2Fg%2F11fy9g9qym!19sChIJKXL3dely0jsR0kdWXQWrWZs?authuser=0&hl=en&rclk=1",
        "coordinates": {
            "latitude": 19.3503023,
            "longitude": 78.3188004
        }
    },
    {
        "name": "JAMA MASJID TOSHAM",
        "main_category": "Mosque",
        "address": "GHH7+PQH JAMA MASJID TOSHAM, Tosham, Telangana 504308",
        "detailed_address": {
            "ward": null,
            "street": "GHH7+PQH",
            "city": "Tosham",
            "postal_code": "504308",
            "state": "Telangana",
            "country_code": "IN"
        },
        "images": [
            {
                "about": "All",
                "link": "https://lh5.googleusercontent.com/p/AF1QipPK-Erpzu4Wpddk6muwvlexdYjqMJZBG6UE0XSz=w224-h337-k-no"
            }
        ],
        "link": "https://www.google.com/maps/place/JAMA+MASJID+TOSHAM/data=!4m7!3m6!1s0x3bd2679d129ca44d:0x37c41b1b017dded8!8m2!3d19.529309!4d78.5644921!16s%2Fg%2F11llhm5gzr!19sChIJTaScEp1n0jsR2N59ARsbxDc?authuser=0&hl=en&rclk=1",
        "coordinates": {
            "latitude": 19.529308999999998,
            "longitude": 78.5644921
        }
    },
    {
        "name": "Makkah Masjid",
        "main_category": "Mosque",
        "address": "JGVP+75 Makkah Masjid, Khoja Colony, Adilabad, Telangana 504001",
        "detailed_address": {
            "ward": "Khoja Colony",
            "street": "JGVP+75",
            "city": "Adilabad",
            "postal_code": "504001",
            "state": "Telangana",
            "country_code": "IN"
        },
        "images": [
            {
                "about": "All",
                "link": "https://lh5.googleusercontent.com/p/AF1QipNysZYxLkMAEMjRXVCd2GiWLELaN_y4an7WgPA3=w529-h298-k-no"
            }
        ],
        "link": "https://www.google.com/maps/place/Makkah+Masjid/data=!4m7!3m6!1s0x3bd25d02ee832577:0x98776ac946be5479!8m2!3d19.6431637!4d78.5353692!16s%2Fg%2F11r_wlfhm2!19sChIJdyWD7gJd0jsReVS-Rslqd5g?authuser=0&hl=en&rclk=1",
        "coordinates": {
            "latitude": 19.6431637,
            "longitude": 78.53536919999999
        }
    },
    {
        "name": "MASJID",
        "main_category": "Mosque",
        "address": "88VH+QXG MASJID, Boath Buzurg, Telangana 504304",
        "detailed_address": {
            "ward": null,
            "street": "88VH+QXG",
            "city": "Boath Buzurg",
            "postal_code": "504304",
            "state": "Telangana",
            "country_code": "IN"
        },
        "images": [],
        "link": "https://www.google.com/maps/place/MASJID/data=!4m7!3m6!1s0x3bd273a5ccb6c791:0xf37853e1363ccaa0!8m2!3d19.344726!4d78.330825!16s%2Fg%2F11snwzzbc5!19sChIJkce2zKVz0jsRoMo8NuFTePM?authuser=0&hl=en&rclk=1",
        "coordinates": {
            "latitude": 19.344725999999998,
            "longitude": 78.33082499999999
        }
    },
    {
        "name": "Jama e masjid",
        "main_category": "Mosque",
        "address": "CHP6+V5V Jama e masjid, Sirikonda, Telangana 504307",
        "detailed_address": {
            "ward": null,
            "street": "CHP6+V5V",
            "city": "Sirikonda",
            "postal_code": "504307",
            "state": "Telangana",
            "country_code": "IN"
        },
        "images": [
            {
                "about": "All",
                "link": "https://lh5.googleusercontent.com/p/AF1QipMGtr2sRBfSdTzeMJ82Z9IJOcY0uvu1dcZWnBRP=w224-h298-k-no"
            }
        ],
        "link": "https://www.google.com/maps/place/Jama+e+masjid/data=!4m7!3m6!1s0x3bd265a0c4b67e19:0xeef9904049bc52ba!8m2!3d19.4372379!4d78.5604069!16s%2Fg%2F11t6n00ddy!19sChIJGX62xKBl0jsRulK8SUCQ-e4?authuser=0&hl=en&rclk=1",
        "coordinates": {
            "latitude": 19.4372379,
            "longitude": 78.56040689999999
        }
    },
    {
        "name": "Madarsa Imdadul uloom",
        "main_category": "Mosque",
        "address": "MHH3+X3 Madarsa Imdadul uloom, Adilabad, Telangana 504001",
        "detailed_address": {
            "ward": null,
            "street": "MHH3+X3",
            "city": "Adilabad",
            "postal_code": null,
            "state": "Telangana",
            "country_code": "IN"
        },
        "images": [],
        "link": "https://www.google.com/maps/place/Madarsa+Imdadul+uloom/data=!4m7!3m6!1s0x3bd25b469a2a59b5:0x398d9511bd9f4f1!8m2!3d19.6798862!4d78.5526843!16s%2Fg%2F11s4t771x_!19sChIJtVkqmkZb0jsR8fTZG1HZmAM?authuser=0&hl=en&rclk=1",
        "coordinates": {
            "latitude": 19.6798862,
            "longitude": 78.5526843
        }
    },
    {
        "name": "JAMA MASJID SONALA",
        "main_category": "Mosque",
        "address": "C898+5MG JAMA MASJID SONALA, Sonala, Telangana 504304",
        "detailed_address": {
            "ward": null,
            "street": "C898+5MG",
            "city": "Sonala",
            "postal_code": "504304",
            "state": "Telangana",
            "country_code": "IN"
        },
        "images": [
            {
                "about": "All",
                "link": "https://lh5.googleusercontent.com/p/AF1QipN9SSvlpo20wl_bWKlJQhHmp1twWJalwOPumS3E=w224-h443-k-no"
            }
        ],
        "link": "https://www.google.com/maps/place/JAMA+MASJID+SONALA/data=!4m7!3m6!1s0x3bd26d23b3215fe7:0x2ecf57cb2074d1c0!8m2!3d19.4179334!4d78.3166892!16s%2Fg%2F11p1048s3j!19sChIJ518hsyNt0jsRwNF0IMtXzy4?authuser=0&hl=en&rclk=1",
        "coordinates": {
            "latitude": 19.4179334,
            "longitude": 78.3166892
        }
    }
]