[
    {
        "name": "New Market Jama Masjid",
        "main_category": "Mosque",
        "address": "New Market Jama Masjid, New Market, N.S.T. Colony, Dimapur, Nagaland 797112",
        "detailed_address": {
            "ward": "N.S.T. Colony",
            "street": "New Market",
            "city": "Dimapur",
            "postal_code": "797112",
            "state": "Nagaland",
            "country_code": "IN"
        },
        "images": [
            {
                "about": "All",
                "link": "https://lh5.googleusercontent.com/p/AF1QipOOyQSgkvq83cBXZG0xw2xzcXL_BQDb8XwENVfb=w224-h485-k-no"
            },
            {
                "about": "Dome",
                "link": "https://lh5.googleusercontent.com/p/AF1QipPXAragBJoxwMo_B6veCHsTsDN5KpwI74tHcGAI=w397-h298-k-no"
            },
            {
                "about": "Videos",
                "link": "https://lh5.googleusercontent.com/p/AF1QipMiyj9-LYWuCa81AG-uW9E3G52KdlkY7rtG45fv=w224-h398-k-no"
            }
        ],
        "link": "https://www.google.com/maps/place/New+Market+Jama+Masjid/data=!4m7!3m6!1s0x3745e18ce0e38509:0x7e15bcaadd4404ab!8m2!3d25.9079303!4d93.7218459!16s%2Fg%2F1w0h5whs!19sChIJCYXj4IzhRTcRqwRE3aq8FX4?authuser=0&hl=en&rclk=1",
        "coordinates": {
            "latitude": 25.9079303,
            "longitude": 93.72184589999999
        }
    },
    {
        "name": "Lahorijan Masjid",
        "main_category": "Mosque",
        "address": "WPHM+37H Lahorijan Masjid, Golaghat Rd, Lahorijan, Dimapur, Assam 797117",
        "detailed_address": {
            "ward": "Lahorijan",
            "street": "WPHM+37H, Golaghat Rd",
            "city": "Dimapur",
            "postal_code": "797117",
            "state": "Assam",
            "country_code": "IN"
        },
        "images": [
            {
                "about": "All",
                "link": "https://lh5.googleusercontent.com/p/AF1QipNKop8ivqHdONbrW5iAx_352F7jvrj29sg2ZoNM=w224-h299-k-no"
            },
            {
                "about": "Street View & 360deg",
                "link": "https://streetviewpixels-pa.googleapis.com/v1/thumbnail?panoid=dROInKpQTD59aNomU1uXrA&cb_client=maps_sv.tactile.gps&w=224&h=298&yaw=129.97902&pitch=0&thumbfov=100"
            },
            {
                "about": "Videos",
                "link": "https://lh5.googleusercontent.com/p/AF1QipO1R5wynp9i3ZRv8mvHMjzvu-s8KVKDxYtftY8o=w224-h398-k-no"
            }
        ],
        "link": "https://www.google.com/maps/place/Lahorijan+Masjid/data=!4m7!3m6!1s0x3745e1c34d65bfcd:0xc593d593311a7fa5!8m2!3d25.927692!4d93.733249!16s%2Fg%2F11csp8zdsd!19sChIJzb9lTcPhRTcRpX8aMZPVk8U?authuser=0&hl=en&rclk=1",
        "coordinates": {
            "latitude": 25.927692,
            "longitude": 93.733249
        }
    },
    {
        "name": "Noorani Jama Masjid",
        "main_category": "Mosque",
        "address": "WP39+HH8 Noorani Jama Masjid, Zeliangrong Village, Dimapur, Nagaland 797113",
        "detailed_address": {
            "ward": "Zeliangrong Village",
            "street": "WP39+HH8",
            "city": "Dimapur",
            "postal_code": "797113",
            "state": "Nagaland",
            "country_code": "IN"
        },
        "images": [
            {
                "about": "All",
                "link": "https://lh5.googleusercontent.com/p/AF1QipP4jLJG0bXhO6iy_MlfjER5AnEw6H5Tk_nZd7wi=w529-h298-k-no"
            },
            {
                "about": "Videos",
                "link": "https://lh5.googleusercontent.com/p/AF1QipNQcuWSYB1anx-1ecV1sFi3SdIdFnJ3vvkUu__m=w530-h298-k-no"
            }
        ],
        "link": "https://www.google.com/maps/place/Noorani+Jama+Masjid/data=!4m7!3m6!1s0x3745e18be9842453:0x2c66bfa7948b2b04!8m2!3d25.9039074!4d93.7189579!16s%2Fg%2F11df7q4rr2!19sChIJUySE6YvhRTcRBCuLlKe_Ziw?authuser=0&hl=en&rclk=1",
        "coordinates": {
            "latitude": 25.903907399999998,
            "longitude": 93.71895789999999
        }
    },
    {
        "name": "Chumoukedima Jama Masjid",
        "main_category": "Mosque",
        "address": "Chumoukedima Jama Masjid, Ward 5, Chumukeidma, Dimapur, Nagaland 797103",
        "detailed_address": {
            "ward": "Ward 5, Chumukeidma",
            "street": null,
            "city": "Dimapur",
            "postal_code": "797103",
            "state": "Nagaland",
            "country_code": "IN"
        },
        "images": [
            {
                "about": "All",
                "link": "https://lh5.googleusercontent.com/p/AF1QipPlrQ07hjr6hQihvsEGr3yhbZfMQPdR9NtdFgc=w224-h298-k-no"
            },
            {
                "about": "By owner",
                "link": "https://lh5.googleusercontent.com/p/AF1QipNvlA-NaFsAuSqLZbdr8grI1Q8N7yaDY_iKEQg=w298-h298-k-no"
            }
        ],
        "link": "https://www.google.com/maps/place/Ch%C3%BCmoukedima+Jama+Masjid/data=!4m7!3m6!1s0x37460888777076c1:0xc5d688b03d3622ea!8m2!3d25.8151125!4d93.7857031!16s%2Fg%2F11c6029vwm!19sChIJwXZwd4gIRjcR6iI2PbCI1sU?authuser=0&hl=en&rclk=1",
        "coordinates": {
            "latitude": 25.815112499999998,
            "longitude": 93.78570309999999
        }
    },
    {
        "name": "Idgah Jame Masjid & Madrassa",
        "main_category": "Mosque",
        "address": "WP8G+GQ4 Idgah Jame Masjid & Madrassa, Golaghat Rd, Zakiesato Colony, Khermahal, Dimapur, Nagaland 797112",
        "detailed_address": {
            "ward": "Zakiesato Colony, Khermahal",
            "street": "WP8G+GQ4, Golaghat Rd",
            "city": "Dimapur",
            "postal_code": null,
            "state": "Nagaland",
            "country_code": "IN"
        },
        "images": [
            {
                "about": "All",
                "link": "https://lh5.googleusercontent.com/p/AF1QipPrhUE9HfVP82-FGhMapfGxrnKRddvJQDXaJyQU=w224-h397-k-no"
            },
            {
                "about": "Videos",
                "link": "https://lh5.googleusercontent.com/p/AF1QipOmaTNJleoeoLT-j4ewMF6nuRS6JTTOjxwPTf3R=w224-h399-k-no"
            }
        ],
        "link": "https://www.google.com/maps/place/Idgah+Jame+Masjid+%26+Madrassa/data=!4m7!3m6!1s0x3745e1ec0de672a3:0xbb4726ee53ce185b!8m2!3d25.9162547!4d93.7269553!16s%2Fg%2F11d_77f_80!19sChIJo3LmDezhRTcRWxjOU-4mR7s?authuser=0&hl=en&rclk=1",
        "coordinates": {
            "latitude": 25.9162547,
            "longitude": 93.7269553
        }
    },
    {
        "name": "Jama masjid,Notun Basti",
        "main_category": "Mosque",
        "address": "WP78+PJ6 Jama masjid,Notun Basti, Ao Khel, Notun Bosti, Dimapur, Nagaland 797112",
        "detailed_address": {
            "ward": "Ao Khel, Notun Bosti",
            "street": "WP78+PJ6",
            "city": "Dimapur",
            "postal_code": "797112",
            "state": "Nagaland",
            "country_code": "IN"
        },
        "images": [
            {
                "about": "All",
                "link": "https://lh5.googleusercontent.com/p/AF1QipMw9cu3vVoWUjLrOCP0WnO19CY_LnhUI9FzJNRs=w224-h398-k-no"
            },
            {
                "about": "Dome",
                "link": "https://lh5.googleusercontent.com/p/AF1QipOI9Usf9VWvN7qs_P4XCo5n4T3QeX1ShfjeGdaB=w295-h298-k-no"
            }
        ],
        "link": "https://www.google.com/maps/place/Jama+masjid,Notun+Basti/data=!4m7!3m6!1s0x3745e1910986aa6f:0xe562f2252b8c8392!8m2!3d25.9142972!4d93.7165189!16s%2Fg%2F11dfghnzfm!19sChIJb6qGCZHhRTcRkoOMKyXyYuU?authuser=0&hl=en&rclk=1",
        "coordinates": {
            "latitude": 25.9142972,
            "longitude": 93.7165189
        }
    },
    {
        "name": "Madina Masjid, Dimapur",
        "main_category": "Mosque",
        "address": "WP32+H96 Madina Masjid, Dimapur, Diphu, Road, Oriental Colony, Dimapur, Nagaland 797113",
        "detailed_address": {
            "ward": "Oriental Colony",
            "street": "WP32+H96, Diphu, Road",
            "city": "Dimapur",
            "postal_code": "797113",
            "state": "Nagaland",
            "country_code": "IN"
        },
        "images": [
            {
                "about": "All",
                "link": "https://lh5.googleusercontent.com/p/AF1QipPiwSjme4x0z9qG116w6pp4rR32m8NtegWnlDTv=w529-h298-k-no"
            }
        ],
        "link": "https://www.google.com/maps/place/Madina+Masjid,+Dimapur/data=!4m7!3m6!1s0x3745e17f1993ada9:0xf528f88506a340e4!8m2!3d25.9039088!4d93.7008772!16s%2Fg%2F11f3975zh4!19sChIJqa2TGX_hRTcR5ECjBoX4KPU?authuser=0&hl=en&rclk=1",
        "coordinates": {
            "latitude": 25.9039088,
            "longitude": 93.7008772
        }
    },
    {
        "name": "Lahorijan natun Basti eidgah Jame masjid",
        "main_category": "Mosque",
        "address": "WPHP+QXP Lahorijan natun Basti eidgah Jame masjid, Burma Camp, Dimapur, Assam 797117",
        "detailed_address": {
            "ward": "Burma Camp",
            "street": "WPHP+QXP",
            "city": "Dimapur",
            "postal_code": "797117",
            "state": "Assam",
            "country_code": "IN"
        },
        "images": [
            {
                "about": "All",
                "link": "https://lh5.googleusercontent.com/p/AF1QipNqcqiu30844J-oXf1ragQFQxdLze5DDbjUTblz=w645-h298-k-no"
            },
            {
                "about": "Videos",
                "link": "https://lh5.googleusercontent.com/p/AF1QipNavbp4ArTIsOGeqcTD6FDNYSl7Ecf8rJ_LSMAW=w224-h497-k-no"
            }
        ],
        "link": "https://www.google.com/maps/place/Lahorijan+natun+Basti+eidgah+Jame+masjid/data=!4m7!3m6!1s0x3745e19de6e8a899:0xee41c2e5ccb25ea6!8m2!3d25.9294666!4d93.7374454!16s%2Fg%2F11flt_dr5q!19sChIJmajo5p3hRTcRpl6yzOXCQe4?authuser=0&hl=en&rclk=1",
        "coordinates": {
            "latitude": 25.929466599999998,
            "longitude": 93.7374454
        }
    },
    {
        "name": "Jame Masjid",
        "main_category": "Mosque",
        "address": "WP5X+Q53 Jame Masjid, Purana Bazar, Dimapur, Nagaland 797116",
        "detailed_address": {
            "ward": "Purana Bazar",
            "street": "WP5X+Q53",
            "city": "Dimapur",
            "postal_code": "797116",
            "state": "Nagaland",
            "country_code": "IN"
        },
        "images": [
            {
                "about": "All",
                "link": "https://lh5.googleusercontent.com/p/AF1QipMVeowhbNSkprfk7ptfO4N21Oa-cMLR6l93JroI=w224-h398-k-no"
            }
        ],
        "link": "https://www.google.com/maps/place/Jame+Masjid/data=!4m7!3m6!1s0x37460b5869e785ff:0x863c6076596d62cd!8m2!3d25.9093004!4d93.7476488!16s%2Fg%2F11k4lmyzsb!19sChIJ_4XnaVgLRjcRzWJtWXZgPIY?authuser=0&hl=en&rclk=1",
        "coordinates": {
            "latitude": 25.9093004,
            "longitude": 93.7476488
        }
    },
    {
        "name": "Lahorijan natun Basti eidgah Jame masjid",
        "main_category": "Mosque",
        "address": "WPCH+FR9 Lahorijan natun Basti eidgah Jame masjid, Natun Basti, Lahorijan, Dimapur, Nagaland 797117",
        "detailed_address": {
            "ward": "Natun Basti, Lahorijan",
            "street": "WPCH+FR9",
            "city": "Dimapur",
            "postal_code": "797117",
            "state": "Nagaland",
            "country_code": "IN"
        },
        "images": [
            {
                "about": "All",
                "link": "https://lh5.googleusercontent.com/p/AF1QipOV8skpIT1q53j8MKoiomjLEqe8SL-L7IBqhAaL=w397-h298-k-no"
            }
        ],
        "link": "https://www.google.com/maps/place/Lahorijan+natun+Basti+eidgah+Jame+masjid/data=!4m7!3m6!1s0x3745e1a0cd42d49b:0xb883ae23b0fb3cad!8m2!3d25.9211632!4d93.7295952!16s%2Fg%2F11hym118n1!19sChIJm9RCzaDhRTcRrTz7sCOug7g?authuser=0&hl=en&rclk=1",
        "coordinates": {
            "latitude": 25.9211632,
            "longitude": 93.72959519999999
        }
    },
    {
        "name": "Panjakhana Ali Masjid",
        "main_category": "Mosque",
        "address": "Panjakhana Ali Masjid, United Colony, Half Nagarjan, Dimapur, Nagaland 797112",
        "detailed_address": {
            "ward": "United Colony, Half Nagarjan",
            "street": null,
            "city": "Dimapur",
            "postal_code": "797112",
            "state": "Nagaland",
            "country_code": "IN"
        },
        "images": [],
        "link": "https://www.google.com/maps/place/Panjakhana+Ali+Masjid/data=!4m7!3m6!1s0x3745e18d81a7746f:0xe2408f5987e89c8d!8m2!3d25.9016409!4d93.7341211!16s%2Fg%2F11g0l4zl3p!19sChIJb3SngY3hRTcRjZzoh1mPQOI?authuser=0&hl=en&rclk=1",
        "coordinates": {
            "latitude": 25.9016409,
            "longitude": 93.7341211
        }
    },
    {
        "name": "Masjid-e-Abubakar",
        "main_category": "Mosque",
        "address": "WP2H+32J Masjid-e-Abubakar, Grace Colony, Kuda Village, c' khel, Dimapur, Nagaland",
        "detailed_address": {
            "ward": "Kuda Village, c' khel",
            "street": "WP2H+32J, Grace Colony",
            "city": "Dimapur",
            "postal_code": null,
            "state": "Nagaland",
            "country_code": "IN"
        },
        "images": [
            {
                "about": "All",
                "link": "https://lh5.googleusercontent.com/p/AF1QipNqvpL4PRVbcc5CL8cIGtCgjZWj6_AnHLy1s4KQ=w397-h298-k-no"
            }
        ],
        "link": "https://www.google.com/maps/place/Masjid-e-Abubakar/data=!4m7!3m6!1s0x3745e185973c4eef:0xa9a8550b3866124!8m2!3d25.9002181!4d93.7275119!16s%2Fg%2F11g1q1x9dl!19sChIJ7048l4XhRTcRJGGGs1CFmgo?authuser=0&hl=en&rclk=1",
        "coordinates": {
            "latitude": 25.9002181,
            "longitude": 93.7275119
        }
    },
    {
        "name": "Panjagana Masjid",
        "main_category": "Mosque",
        "address": "WP4R+22J Panjagana Masjid, Super Market Ln, Half Nagarjan, Dimapur, Nagaland 797112",
        "detailed_address": {
            "ward": "Half Nagarjan",
            "street": "WP4R+22J, Super Market Ln",
            "city": "Dimapur",
            "postal_code": "797112",
            "state": "Nagaland",
            "country_code": "IN"
        },
        "images": [],
        "link": "https://www.google.com/maps/place/Panjagana+Masjid/data=!4m7!3m6!1s0x3745e10e0b995ae3:0x339705f5754e53fd!8m2!3d25.9050957!4d93.7400025!16s%2Fg%2F11flc000vg!19sChIJ41qZCw7hRTcR_VNOdfUFlzM?authuser=0&hl=en&rclk=1",
        "coordinates": {
            "latitude": 25.9050957,
            "longitude": 93.7400025
        }
    },
    {
        "name": "Supply colony panjagana masjid",
        "main_category": "Mosque",
        "address": "WP75+9FJ Supply colony panjagana masjid, Duncan Rd, Fellowship Colony, Dimapur, Nagaland 797113",
        "detailed_address": {
            "ward": "Fellowship Colony",
            "street": "WP75+9FJ, Duncan Rd",
            "city": "Dimapur",
            "postal_code": "797113",
            "state": "Nagaland",
            "country_code": "IN"
        },
        "images": [],
        "link": "https://www.google.com/maps/place/Supply+colony+panjagana+masjid/data=!4m7!3m6!1s0x3745e1105a128ecb:0x4e70fe58e78be609!8m2!3d25.913472!4d93.7086343!16s%2Fg%2F11rd7w39m0!19sChIJy44SWhDhRTcRCeaL51j-cE4?authuser=0&hl=en&rclk=1",
        "coordinates": {
            "latitude": 25.913472,
            "longitude": 93.7086343
        }
    },
    {
        "name": "7th Mile Panjegana Masjid",
        "main_category": "Mosque",
        "address": "RQ9H+7H5 7th Mile Panjegana Masjid, Dimapur, Nagaland 797115",
        "detailed_address": {
            "ward": null,
            "street": "RQ9H+7H5",
            "city": "Dimapur",
            "postal_code": null,
            "state": "Nagaland",
            "country_code": "IN"
        },
        "images": [],
        "link": "https://www.google.com/maps/place/7th+Mile+Panjegana+Masjid/data=!4m7!3m6!1s0x374609ca866fe7bf:0x56bae7b86e60fcd7!8m2!3d25.8181479!4d93.7789774!16s%2Fg%2F11h_bfqzbr!19sChIJv-dvhsoJRjcR1_xgbrjnulY?authuser=0&hl=en&rclk=1",
        "coordinates": {
            "latitude": 25.8181479,
            "longitude": 93.7789774
        }
    },
    {
        "name": "Islamic jama mosid",
        "main_category": "Mosque",
        "address": "RP3V+2G Islamic jama mosid, Dimapur, Nagaland 797103",
        "detailed_address": {
            "ward": null,
            "street": "RP3V+2G",
            "city": "Dimapur",
            "postal_code": null,
            "state": "Nagaland",
            "country_code": "IN"
        },
        "images": [],
        "link": "https://www.google.com/maps/place/Islamic+jama+mosid/data=!4m7!3m6!1s0x37460715050ce763:0xba05b11c699cffad!8m2!3d25.8024949!4d93.7437368!16s%2Fg%2F11q4c8ztdz!19sChIJY-cMBRUHRjcRrf-caRyxBbo?authuser=0&hl=en&rclk=1",
        "coordinates": {
            "latitude": 25.8024949,
            "longitude": 93.7437368
        }
    },
    {
        "name": "Punchgana masjid",
        "main_category": "Place of worship",
        "address": "WP5R+63H Punchgana masjid, Walford Rd, Namgalong Colony, Burma Camp, Dimapur, Nagaland 797117",
        "detailed_address": {
            "ward": "Namgalong Colony, Burma Camp",
            "street": "WP5R+63H, Walford Rd",
            "city": "Dimapur",
            "postal_code": "797117",
            "state": "Nagaland",
            "country_code": "IN"
        },
        "images": [],
        "link": "https://www.google.com/maps/place/Punchgana+masjid/data=!4m7!3m6!1s0x3745e1580b8810d5:0x59b5493245268bb6!8m2!3d25.9080606!4d93.7402199!16s%2Fg%2F11tmrff4hh!19sChIJ1RCIC1jhRTcRtosmRTJJtVk?authuser=0&hl=en&rclk=1",
        "coordinates": {
            "latitude": 25.9080606,
            "longitude": 93.7402199
        }
    },
    {
        "name": "Noori Masjid",
        "main_category": "Mosque",
        "address": "WP7M+3CC Noori Masjid, Power House Colony, Dimapur, Nagaland 797117",
        "detailed_address": {
            "ward": "Power House Colony",
            "street": "WP7M+3CC",
            "city": "Dimapur",
            "postal_code": "797117",
            "state": "Nagaland",
            "country_code": "IN"
        },
        "images": [],
        "link": "https://www.google.com/maps/place/Noori+Masjid/data=!4m7!3m6!1s0x3745e12c1e73bdd9:0x225a7f10c3fe74df!8m2!3d25.9126832!4d93.733529!16s%2Fg%2F11vbq2nwmn!19sChIJ2b1zHizhRTcR33T-wxB_WiI?authuser=0&hl=en&rclk=1",
        "coordinates": {
            "latitude": 25.9126832,
            "longitude": 93.73352899999999
        }
    },
    {
        "name": "Jabale noor Jame masjid",
        "main_category": "Mosque",
        "address": "WP9Q+R5P Jabale noor Jame masjid, Naga Colony, Burma Camp, Dimapur, Nagaland 797117",
        "detailed_address": {
            "ward": "Naga Colony, Burma Camp",
            "street": "WP9Q+R5P",
            "city": "Dimapur",
            "postal_code": null,
            "state": "Nagaland",
            "country_code": "IN"
        },
        "images": [
            {
                "about": "All",
                "link": "https://lh5.googleusercontent.com/p/AF1QipOSZQ73sOLf3RXlQrb-bmYrj9BJPNl0qcGqupXg=w224-h398-k-no"
            },
            {
                "about": "Dome",
                "link": "https://lh5.googleusercontent.com/p/AF1QipOSZQ73sOLf3RXlQrb-bmYrj9BJPNl0qcGqupXg=w224-h398-k-no"
            }
        ],
        "link": "https://www.google.com/maps/place/Jabale+noor+Jame+masjid/data=!4m7!3m6!1s0x3745e189e4d22c49:0x7634a68f2208e29f!8m2!3d25.919598!4d93.7379566!16s%2Fg%2F11sbdgb5rk!19sChIJSSzS5InhRTcRn-IIIo-mNHY?authuser=0&hl=en&rclk=1",
        "coordinates": {
            "latitude": 25.919598,
            "longitude": 93.73795659999999
        }
    },
    {
        "name": "Tila Bosti Maszid",
        "main_category": "Mosque",
        "address": "RQG8+R9 Tila Bosti Maszid, 7th Mile, Dimapur, Nagaland 797115",
        "detailed_address": {
            "ward": "7th Mile",
            "street": "RQG8+R9",
            "city": "Dimapur",
            "postal_code": null,
            "state": "Nagaland",
            "country_code": "IN"
        },
        "images": [],
        "link": "https://www.google.com/maps/place/Tila+Bosti+Maszid/data=!4m7!3m6!1s0x3746098e3f1f762b:0x5217e894b6097caf!8m2!3d25.8270131!4d93.7658689!16s%2Fg%2F11krw1tyhc!19sChIJK3YfP44JRjcRr3wJtpToF1I?authuser=0&hl=en&rclk=1",
        "coordinates": {
            "latitude": 25.8270131,
            "longitude": 93.7658689
        }
    }
]