[
    {
        "name": "Bukhari(Shia) Masjid",
        "main_category": "Mosque",
        "address": "QPW3+G2F Bukhari(Shia) Masjid, Bukhari Rd, Bukhari Mohallah, Brahmpuri, Kodinar, Gujarat 362720",
        "detailed_address": {
            "ward": "Bukhari Mohallah, Brahmpuri",
            "street": "QPW3+G2F, Bukhari Rd",
            "city": "Kodinar",
            "postal_code": "362720",
            "state": "Gujarat",
            "country_code": "IN"
        },
        "images": [
            {
                "about": "All",
                "link": "https://lh5.googleusercontent.com/p/AF1QipPN2iUW42O_Jqn2o6qOvJuh5akDG7n054kbGd-z=w529-h298-k-no"
            },
            {
                "about": "Dome",
                "link": "https://lh5.googleusercontent.com/p/AF1QipMxmmlMmhinXjDpqcQVqahE_OLSDkYoKNySkS3g=w397-h298-k-no"
            },
            {
                "about": "Videos",
                "link": "https://lh5.googleusercontent.com/p/AF1QipN9-PZxRQar3MwL0kcyOkU5W3y7c5lJYi30oLiW=w529-h298-k-no"
            }
        ],
        "link": "https://www.google.com/maps/place/Bukhari%28Shia%29+Masjid/data=!4m7!3m6!1s0x3be2d93a5420aaaf:0x485b6866afb59120!8m2!3d20.7963157!4d70.7025405!16s%2Fg%2F11b7b_2q6s!19sChIJr6ogVDrZ4jsRIJG1r2ZoW0g?authuser=0&hl=en&rclk=1",
        "coordinates": {
            "latitude": 20.796315699999997,
            "longitude": 70.7025405
        }
    },
    {
        "name": "Masjide Muhammadi",
        "main_category": "Mosque",
        "address": "QPW6+M36 Masjide Muhammadi, Jin Plot Kodinar- Dhari hwy Junagadh, Kodinar, Gujarat 362720",
        "detailed_address": {
            "ward": "Jin Plot",
            "street": "QPW6+M36, Jin Plot Kodinar- Dhari hwy Junagadh",
            "city": "Kodinar",
            "postal_code": "362720",
            "state": "Gujarat",
            "country_code": "IN"
        },
        "images": [
            {
                "about": "All",
                "link": "https://lh5.googleusercontent.com/p/AF1QipNJoInjepjommT2Z_9RDPhvZ7YV96IfV0i_DIRK=w224-h472-k-no"
            },
            {
                "about": "Videos",
                "link": "https://lh5.googleusercontent.com/p/AF1QipOv9BYnFjIuDiAYDtOBQIdMvtO1kFUOugr8Py65=w224-h398-k-no"
            }
        ],
        "link": "https://www.google.com/maps/place/Masjide+Muhammadi/data=!4m7!3m6!1s0x3be2d9319cd6f24b:0xbd7a07f5dbfcb3ed!8m2!3d20.796657!4d70.710126!16s%2Fg%2F11g69b_dfv!19sChIJS_LWnDHZ4jsR7bP82_UHer0?authuser=0&hl=en&rclk=1",
        "coordinates": {
            "latitude": 20.796657,
            "longitude": 70.710126
        }
    },
    {
        "name": "Nai Masjid",
        "main_category": "Mosque",
        "address": "Nai Masjid, Brahmpuri, Kodinar, Gujarat 362720",
        "detailed_address": {
            "ward": "Brahmpuri",
            "street": "Nai Masjid",
            "city": "Kodinar",
            "postal_code": null,
            "state": "Gujarat",
            "country_code": "IN"
        },
        "images": [
            {
                "about": "All",
                "link": "https://lh5.googleusercontent.com/p/AF1QipNrLqx3eEuIQx7iDk8t5ELWpqd3pwnHnPwvkQfs=w224-h398-k-no"
            },
            {
                "about": "Videos",
                "link": "https://lh5.googleusercontent.com/p/AF1QipNereFAukU8-1z_6zjpUMn8gyT4yoK_iFgBwnKk=w529-h298-k-no"
            }
        ],
        "link": "https://www.google.com/maps/place/Nai+Masjid/data=!4m7!3m6!1s0x3be2d93af5ee524b:0x32b250d110419d3a!8m2!3d20.7959048!4d70.7031399!16s%2Fg%2F11btsvcsbx!19sChIJS1Lu9TrZ4jsROp1BENFQsjI?authuser=0&hl=en&rclk=1",
        "coordinates": {
            "latitude": 20.7959048,
            "longitude": 70.7031399
        }
    },
    {
        "name": "Qadri Masjid",
        "main_category": "Mosque",
        "address": "QPW2+6RR Qadri Masjid, Padhavada, Brahmpuri, Kodinar, Gujarat 362720",
        "detailed_address": {
            "ward": "Padhavada, Brahmpuri",
            "street": "QPW2+6RR",
            "city": "Kodinar",
            "postal_code": "362720",
            "state": "Gujarat",
            "country_code": "IN"
        },
        "images": [
            {
                "about": "All",
                "link": "https://lh5.googleusercontent.com/p/AF1QipPUY_B-LjLcuOI5unxqlYrkNWupE63jBNn-A084=w224-h298-k-no"
            },
            {
                "about": "Dome",
                "link": "https://lh5.googleusercontent.com/p/AF1QipPUY_B-LjLcuOI5unxqlYrkNWupE63jBNn-A084=w224-h298-k-no"
            }
        ],
        "link": "https://www.google.com/maps/place/Qadri+Masjid/data=!4m7!3m6!1s0x3be2d93afe6d686f:0xee79e6e4f7b5b579!8m2!3d20.7956058!4d70.702001!16s%2Fg%2F11bw5t04_w!19sChIJb2ht_jrZ4jsRebW19-Tmee4?authuser=0&hl=en&rclk=1",
        "coordinates": {
            "latitude": 20.7956058,
            "longitude": 70.702001
        }
    },
    {
        "name": "Kaji Masjid",
        "main_category": "Mosque",
        "address": "QPV3+H2H Kaji Masjid, Qadri Mohalla, Brahmpuri, Kodinar, Gujarat 362720",
        "detailed_address": {
            "ward": "Qadri Mohalla, Brahmpuri",
            "street": "QPV3+H2H",
            "city": "Kodinar",
            "postal_code": "362720",
            "state": "Gujarat",
            "country_code": "IN"
        },
        "images": [
            {
                "about": "All",
                "link": "https://lh5.googleusercontent.com/p/AF1QipOMKNN0CP0GmwFW7huxpm-9vDE2i70lbT_cYLyw=w529-h298-k-no"
            }
        ],
        "link": "https://www.google.com/maps/place/Kaji+Masjid/data=!4m7!3m6!1s0x3be2d93adae94ac7:0x6451ab2c31e4b32f!8m2!3d20.7939492!4d70.7026058!16s%2Fg%2F1th0lbxr!19sChIJx0rp2jrZ4jsRL7PkMSyrUWQ?authuser=0&hl=en&rclk=1",
        "coordinates": {
            "latitude": 20.7939492,
            "longitude": 70.7026058
        }
    },
    {
        "name": "JAMA MASJID",
        "main_category": "Mosque",
        "address": "QPR3+XF5 JAMA MASJID, Brahmpuri, Kodinar, Gujarat 362720",
        "detailed_address": {
            "ward": "Brahmpuri",
            "street": "QPR3+XF5",
            "city": "Kodinar",
            "postal_code": "362720",
            "state": "Gujarat",
            "country_code": "IN"
        },
        "images": [
            {
                "about": "All",
                "link": "https://lh5.googleusercontent.com/p/AF1QipPph4KpheRHLOEu6tJP7b-ooKe2qmiLvCAMjFdb=w529-h298-k-no"
            },
            {
                "about": "Videos",
                "link": "https://lh5.googleusercontent.com/p/AF1QipPph4KpheRHLOEu6tJP7b-ooKe2qmiLvCAMjFdb=w529-h298-k-no"
            }
        ],
        "link": "https://www.google.com/maps/place/JAMA+MASJID/data=!4m7!3m6!1s0x3be2d92546676695:0xbdc05e8e9d2e6a5d!8m2!3d20.7923868!4d70.7037458!16s%2Fg%2F11g8ybk46l!19sChIJlWZnRiXZ4jsRXWounY5ewL0?authuser=0&hl=en&rclk=1",
        "coordinates": {
            "latitude": 20.7923868,
            "longitude": 70.7037458
        }
    },
    {
        "name": "Memon Colony Masjid",
        "main_category": "Mosque",
        "address": "QMXW+F3Q Memon Colony Masjid, Meman Colony, Kodinar, Gujarat 362720",
        "detailed_address": {
            "ward": "Meman Colony",
            "street": "QMXW+F3Q",
            "city": "Kodinar",
            "postal_code": "362720",
            "state": "Gujarat",
            "country_code": "IN"
        },
        "images": [],
        "link": "https://www.google.com/maps/place/Memon+Colony+Masjid/data=!4m7!3m6!1s0x3be2d99f5037c481:0x9dd884bf8dbc5565!8m2!3d20.798705!4d70.6952317!16s%2Fg%2F11fj0t2hqp!19sChIJgcQ3UJ_Z4jsRZVW8jb-E2J0?authuser=0&hl=en&rclk=1",
        "coordinates": {
            "latitude": 20.798704999999998,
            "longitude": 70.6952317
        }
    },
    {
        "name": "Masjid E Gaushiya",
        "main_category": "Mosque",
        "address": "QMWW+4XQ Masjid E Gaushiya, Amrut Nagar, Kodinar, Gujarat 362720",
        "detailed_address": {
            "ward": "Amrut Nagar",
            "street": "QMWW+4XQ",
            "city": "Kodinar",
            "postal_code": "362720",
            "state": "Gujarat",
            "country_code": "IN"
        },
        "images": [
            {
                "about": "All",
                "link": "https://lh5.googleusercontent.com/p/AF1QipN0sLY1C97HMB9F2_dQTER69-D2YPUx5Fo0XHR7=w397-h298-k-no"
            },
            {
                "about": "Videos",
                "link": "https://lh5.googleusercontent.com/p/AF1QipOp5y7s0i4Xp0d7T1l47PRKzfSy4bk79ca90zr5=w224-h398-k-no"
            }
        ],
        "link": "https://www.google.com/maps/place/Masjid+E+Gaushiya/data=!4m7!3m6!1s0x3be2d9acfe781327:0xd2a379af23c3655c!8m2!3d20.7953293!4d70.6974832!16s%2Fg%2F11ghrnvyn_!19sChIJJxN4_qzZ4jsRXGXDI695o9I?authuser=0&hl=en&rclk=1",
        "coordinates": {
            "latitude": 20.7953293,
            "longitude": 70.6974832
        }
    },
    {
        "name": "Ibadat Gah E Qadri Dulha",
        "main_category": "Mosque",
        "address": "RM6R+3M9 Ibadat Gah E Qadri Dulha, Sardar Nagar, Kodinar, Gujarat 362720",
        "detailed_address": {
            "ward": "Sardar Nagar",
            "street": "RM6R+3M9",
            "city": "Kodinar",
            "postal_code": "362720",
            "state": "Gujarat",
            "country_code": "IN"
        },
        "images": [
            {
                "about": "All",
                "link": "https://lh5.googleusercontent.com/p/AF1QipNOKNeIqglRh5cT5Dfgw6VRGzoKfvrth4tVWkvc=w397-h298-k-no"
            }
        ],
        "link": "https://www.google.com/maps/place/Ibadat+Gah+E+Qadri+Dulha/data=!4m7!3m6!1s0x3be2d9e3aa6c64f9:0x50930b14b7211dff!8m2!3d20.8101688!4d70.6917292!16s%2Fg%2F11gpn4w37q!19sChIJ-WRsquPZ4jsR_x0htxQLk1A?authuser=0&hl=en&rclk=1",
        "coordinates": {
            "latitude": 20.8101688,
            "longitude": 70.6917292
        }
    },
    {
        "name": "Kadridulha Masjid",
        "main_category": "Mosque",
        "address": "QPW5+6MV Kadridulha Masjid, Jin Plot, Kodinar, Gujarat 362720",
        "detailed_address": {
            "ward": "Jin Plot",
            "street": "QPW5+6MV",
            "city": "Kodinar",
            "postal_code": "362720",
            "state": "Gujarat",
            "country_code": "IN"
        },
        "images": [],
        "link": "https://www.google.com/maps/place/Kadridulha+Masjid/data=!4m7!3m6!1s0x3be2d9dd1067d941:0x83fde05445c945d0!8m2!3d20.795614!4d70.709171!16s%2Fg%2F11fpdcjfq_!19sChIJQdlnEN3Z4jsR0EXJRVTg_YM?authuser=0&hl=en&rclk=1",
        "coordinates": {
            "latitude": 20.795614,
            "longitude": 70.709171
        }
    }
]