[
    {
        "name": "Jama Masjid",
        "main_category": "Mosque",
        "address": "Jama Masjid, Moga road street no. 4, Kot Kapura, Punjab 151204",
        "detailed_address": {
            "ward": null,
            "street": "Moga road street no. 4",
            "city": "Kot Kapura",
            "postal_code": "151204",
            "state": "Punjab",
            "country_code": "IN"
        },
        "images": [
            {
                "about": "All",
                "link": "https://lh5.googleusercontent.com/p/AF1QipPJffuhjaJB2i2L5YGzYzO41nvbLv23CgqKvuzi=w529-h298-k-no"
            },
            {
                "about": "Videos",
                "link": "https://lh5.googleusercontent.com/p/AF1QipPHlsHSAVpYIICUKmlWT6pFfwy5VZbvwZiz9KAS=w529-h298-k-no"
            }
        ],
        "link": "https://www.google.com/maps/place/Jama+Masjid/data=!4m7!3m6!1s0x391751b3b20013f9:0x63c5c465c2e84713!8m2!3d30.5792477!4d74.8309783!16s%2Fg%2F11g8vw33j9!19sChIJ-RMAsrNRFzkRE0fowmXExWM?authuser=0&hl=en&rclk=1",
        "coordinates": {
            "latitude": 30.5792477,
            "longitude": 74.8309783
        }
    },
    {
        "name": "Peer Baba Khatar Pal",
        "main_category": "Mosque",
        "address": "HRJ9+XQP Peer Baba Khatar Pal, Dr Om Parkash St, Gurdwara Bazar, Kot Kapura, Punjab 151204",
        "detailed_address": {
            "ward": "Gurdwara Bazar",
            "street": "HRJ9+XQP, Dr Om Parkash St",
            "city": "Kot Kapura",
            "postal_code": "151204",
            "state": "Punjab",
            "country_code": "IN"
        },
        "images": [],
        "link": "https://www.google.com/maps/place/Peer+Baba+Khatar+Pal/data=!4m7!3m6!1s0x39175051b87ddb2b:0xf23f64220d48e416!8m2!3d30.5824631!4d74.8194507!16s%2Fg%2F11_r0d2t8!19sChIJK9t9uFFQFzkRFuRIDSJkP_I?authuser=0&hl=en&rclk=1",
        "coordinates": {
            "latitude": 30.5824631,
            "longitude": 74.81945069999999
        }
    },
    {
        "name": "Masjid",
        "main_category": "Mosque",
        "address": "GRW6+756 Masjid, Unnamed Road, Bahman Wala, Punjab 151204",
        "detailed_address": {
            "ward": null,
            "street": "GRW6+756, Unnamed Road",
            "city": "Bahman Wala",
            "postal_code": "151204",
            "state": "Punjab",
            "country_code": "IN"
        },
        "images": [
            {
                "about": "All",
                "link": "https://streetviewpixels-pa.googleapis.com/v1/thumbnail?panoid=MPlYKOTYkXxTQRjuRi0BLg&cb_client=maps_sv.tactile.gps&w=224&h=298&yaw=265.8104&pitch=0&thumbfov=100"
            },
            {
                "about": "Street View & 360deg",
                "link": "https://streetviewpixels-pa.googleapis.com/v1/thumbnail?panoid=MPlYKOTYkXxTQRjuRi0BLg&cb_client=maps_sv.tactile.gps&w=224&h=298&yaw=265.8104&pitch=0&thumbfov=100"
            }
        ],
        "link": "https://www.google.com/maps/place/Masjid/data=!4m7!3m6!1s0x39174f6fb0f56609:0x2502f8e284b4a4de!8m2!3d30.5456583!4d74.8103767!16s%2Fg%2F11p4q84lz_!19sChIJCWb1sG9PFzkR3qS0hOL4AiU?authuser=0&hl=en&rclk=1",
        "coordinates": {
            "latitude": 30.5456583,
            "longitude": 74.81037669999999
        }
    }
]