[
    {
        "name": "Jalali Masjid.",
        "main_category": "Mosque",
        "address": "2HHW+HXR Jalali Masjid., Naroda Rd, Old City, Kalupur, Ahmedabad, Gujarat 380002",
        "detailed_address": {
            "ward": "Old City, Kalupur",
            "street": "2HHW+HXR, Naroda Rd",
            "city": "Ahmedabad",
            "postal_code": "380002",
            "state": "Gujarat",
            "country_code": "IN"
        },
        "images": [
            {
                "about": "All",
                "link": "https://lh5.googleusercontent.com/p/AF1QipOzzyNe3vmKB9wXL9_HW7TmRFH4LxO5QXkoZkvp=w397-h298-k-no"
            }
        ],
        "link": "https://www.google.com/maps/place/Jalali+Masjid./data=!4m7!3m6!1s0x395e8430ccb57339:0x74ac7cc2e4464fd2!8m2!3d23.0289911!4d72.5973853!16s%2Fg%2F11b86m_2g6!19sChIJOXO1zDCEXjkR0k9G5MJ8rHQ?authuser=0&hl=en&rclk=1",
        "coordinates": {
            "latitude": 23.0289911,
            "longitude": 72.5973853
        }
    },
    {
        "name": "Jama Masjid Jalali",
        "main_category": "Religious destination",
        "address": "V782+MXC Jama Masjid Jalali, Mohalla Abulfazl, Jalali, Uttar Pradesh 202128",
        "detailed_address": {
            "ward": "Mohalla Abulfazl",
            "street": "V782+MXC",
            "city": "Jalali",
            "postal_code": "202128",
            "state": "Uttar Pradesh",
            "country_code": "IN"
        },
        "images": [
            {
                "about": "All",
                "link": "https://lh5.googleusercontent.com/p/AF1QipN4ACzQC_boK5AXV4-_QA4M0u2BVZwvU6zWOzas=w397-h298-k-no"
            },
            {
                "about": "Street View & 360deg",
                "link": "https://streetviewpixels-pa.googleapis.com/v1/thumbnail?panoid=uxvSDa-MUhTE4X4VoLLW1Q&cb_client=maps_sv.tactile.gps&w=224&h=298&yaw=209.61647&pitch=0&thumbfov=100"
            }
        ],
        "link": "https://www.google.com/maps/place/Jama+Masjid+Jalali/data=!4m7!3m6!1s0x3974bf805f1d1269:0x4f09ad5dd281509a!8m2!3d27.866694!4d78.2524056!16s%2Fg%2F11grtgn2p3!19sChIJaRIdX4C_dDkRmlCB0l2tCU8?authuser=0&hl=en&rclk=1",
        "coordinates": {
            "latitude": 27.866694,
            "longitude": 78.2524056
        }
    },
    {
        "name": "Masjid E Jana",
        "main_category": "Mosque",
        "address": "V783+FH6 Masjid E Jana, Jalali, Uttar Pradesh 202128",
        "detailed_address": {
            "ward": null,
            "street": "V783+FH6",
            "city": "Jalali",
            "postal_code": "202128",
            "state": "Uttar Pradesh",
            "country_code": "IN"
        },
        "images": [],
        "link": "https://www.google.com/maps/place/Masjid+E+Jana/data=!4m7!3m6!1s0x3974bf22036afe4b:0x4dc08b143aabe09f!8m2!3d27.8661564!4d78.2538763!16s%2Fg%2F1hm2080k9!19sChIJS_5qAyK_dDkRn-CrOhSLwE0?authuser=0&hl=en&rclk=1",
        "coordinates": {
            "latitude": 27.866156399999998,
            "longitude": 78.2538763
        }
    },
    {
        "name": "Jalali Mohalla Masjid",
        "main_category": "Mosque",
        "address": "M69G+RRP Jalali Mohalla Masjid, Bhadgaon, Maharashtra 424105",
        "detailed_address": {
            "ward": null,
            "street": "M69G+RRP",
            "city": "Bhadgaon",
            "postal_code": "424105",
            "state": "Maharashtra",
            "country_code": "IN"
        },
        "images": [],
        "link": "https://www.google.com/maps/place/Jalali+Mohalla+Masjid/data=!4m7!3m6!1s0x3bd9449485cf9e59:0x44f382fbcc038275!8m2!3d20.6695995!4d75.2270656!16s%2Fg%2F11h9xrvkhw!19sChIJWZ7PhZRE2TsRdYIDzPuC80Q?authuser=0&hl=en&rclk=1",
        "coordinates": {
            "latitude": 20.6695995,
            "longitude": 75.2270656
        }
    },
    {
        "name": "Jama Mustafa masjid jalali",
        "main_category": "Mosque",
        "address": "V784+HMW Jama Mustafa masjid jalali, Jalali, Uttar Pradesh 202128",
        "detailed_address": {
            "ward": null,
            "street": "V784+HMW",
            "city": "Jalali",
            "postal_code": "202128",
            "state": "Uttar Pradesh",
            "country_code": "IN"
        },
        "images": [
            {
                "about": "All",
                "link": "https://lh5.googleusercontent.com/p/AF1QipPh5Spxe42NUPH0bZEp64MYqrdbjy18aL_TAKcB=w529-h298-k-no"
            }
        ],
        "link": "https://www.google.com/maps/place/Jama+Mustafa+masjid+jalali/data=!4m7!3m6!1s0x3974bfd3b692f1ab:0x6d0f4f214d8e6811!8m2!3d27.8664797!4d78.2566955!16s%2Fg%2F11pcxzfnk4!19sChIJq_GSttO_dDkREWiOTSFPD20?authuser=0&hl=en&rclk=1",
        "coordinates": {
            "latitude": 27.8664797,
            "longitude": 78.25669549999999
        }
    },
    {
        "name": "Jalali Masjid",
        "main_category": "Mosque",
        "address": "4XH8+3H6 Jalali Masjid, Ragadganj Road Near Machchli Mandi, 271001",
        "detailed_address": {
            "ward": "Subhash Nagar, Jhanjhari Block",
            "street": "4XH8+3H6, Ragadganj Road Near Machchli Mandi",
            "city": "Gonda",
            "postal_code": "271001",
            "state": "Uttar Pradesh",
            "country_code": "IN"
        },
        "images": [
            {
                "about": "All",
                "link": "https://streetviewpixels-pa.googleapis.com/v1/thumbnail?panoid=toorDVn0qQZw2Bcw4mfhJw&cb_client=maps_sv.tactile.gps&w=224&h=298&yaw=258.52072&pitch=0&thumbfov=100"
            },
            {
                "about": "Street View & 360deg",
                "link": "https://streetviewpixels-pa.googleapis.com/v1/thumbnail?panoid=toorDVn0qQZw2Bcw4mfhJw&cb_client=maps_sv.tactile.gps&w=224&h=298&yaw=258.52072&pitch=0&thumbfov=100"
            }
        ],
        "link": "https://www.google.com/maps/place/Jalali+Masjid/data=!4m7!3m6!1s0x3999f1963eaad1ad:0xd0e927756a354bc!8m2!3d27.1276589!4d81.9663759!16s%2Fg%2F11hz6tsb_f!19sChIJrdGqPpbxmTkRvFSjVneSDg0?authuser=0&hl=en&rclk=1",
        "coordinates": {
            "latitude": 27.1276589,
            "longitude": 81.9663759
        }
    },
    {
        "name": "Noorani Masjid Jalali",
        "main_category": "Mosque",
        "address": "V783+7M4 Noorani Masjid Jalali, Jalali, Uttar Pradesh 202128",
        "detailed_address": {
            "ward": null,
            "street": "V783+7M4",
            "city": "Jalali",
            "postal_code": "202128",
            "state": "Uttar Pradesh",
            "country_code": "IN"
        },
        "images": [
            {
                "about": "All",
                "link": "https://lh5.googleusercontent.com/p/AF1QipPiQ-jv67SnesG0A742AtEvxHkoaBJ5xSly9Ax8=w529-h298-k-no"
            },
            {
                "about": "Videos",
                "link": "https://lh5.googleusercontent.com/p/AF1QipOlen4DtIPkRwr4qvJDJhVAWNt3zcLl4TqGir-E=w224-h398-k-no"
            }
        ],
        "link": "https://www.google.com/maps/place/Noorani+Masjid+Jalali/data=!4m7!3m6!1s0x3974bf7fbd394221:0x54a6b293b95dcc9b!8m2!3d27.8656391!4d78.2542014!16s%2Fg%2F11ssjqrbtw!19sChIJIUI5vX-_dDkRm8xduZOyplQ?authuser=0&hl=en&rclk=1",
        "coordinates": {
            "latitude": 27.8656391,
            "longitude": 78.2542014
        }
    },
    {
        "name": "Madina Masjid, Jalali",
        "main_category": "Mosque",
        "address": "Madina Masjid, Jalali, Bus Stop, Jalali, Uttar Pradesh 202128",
        "detailed_address": {
            "ward": null,
            "street": "Bus Stop",
            "city": "Jalali",
            "postal_code": "202128",
            "state": "Uttar Pradesh",
            "country_code": "IN"
        },
        "images": [
            {
                "about": "All",
                "link": "https://lh5.googleusercontent.com/p/AF1QipO-rcGoED4C7SVffsoGspT2qHehXC3PvC8v9W9a=w397-h298-k-no"
            },
            {
                "about": "Street View & 360deg",
                "link": "https://streetviewpixels-pa.googleapis.com/v1/thumbnail?panoid=Vl6aYdjru6KPi3wEWUmqYA&cb_client=maps_sv.tactile.gps&w=224&h=298&yaw=27.399698&pitch=0&thumbfov=100"
            }
        ],
        "link": "https://www.google.com/maps/place/Madina+Masjid,+Jalali/data=!4m7!3m6!1s0x3974bff11cbbea9f:0x1e4f4d1af9039a05!8m2!3d27.8674235!4d78.2490495!16s%2Fg%2F11h7pth6fd!19sChIJn-q7HPG_dDkRBZoD-RpNTx4?authuser=0&hl=en&rclk=1",
        "coordinates": {
            "latitude": 27.867423499999997,
            "longitude": 78.2490495
        }
    },
    {
        "name": "JAM-E-MASJID-A-JALALI (R.A).",
        "main_category": "Mosque",
        "address": "F4QQ+Q65 JAM-E-MASJID-A-JALALI (R.A)., Unnamed Road, Chengail, Howrah, West Bengal 711308",
        "detailed_address": {
            "ward": "Chengail",
            "street": "F4QQ+Q65, Unnamed Road",
            "city": "Howrah",
            "postal_code": "711308",
            "state": "West Bengal",
            "country_code": "IN"
        },
        "images": [
            {
                "about": "All",
                "link": "https://lh5.googleusercontent.com/p/AF1QipP2QwP0DiJU1I93WYRgyX-e0Jd-FfFqpH2JepJQ=w397-h298-k-no"
            },
            {
                "about": "Videos",
                "link": "https://lh5.googleusercontent.com/p/AF1QipNqtnbVNW0eD2C_ChCrqspIeMb6wt1-LPi8v4Tx=w644-h298-k-no"
            }
        ],
        "link": "https://www.google.com/maps/place/JAM-E-MASJID-A-JALALI+%28R.A%29./data=!4m7!3m6!1s0x3a02874b3bcf2361:0x746437f56489d2ca!8m2!3d22.4893782!4d88.1381014!16s%2Fg%2F11h4gmjj7s!19sChIJYSPPO0uHAjoRytKJZPU3ZHQ?authuser=0&hl=en&rclk=1",
        "coordinates": {
            "latitude": 22.489378199999997,
            "longitude": 88.1381014
        }
    },
    {
        "name": "Jalali Masjid",
        "main_category": "Apartment building",
        "address": "2HFC+2G5 Jalali Masjid, Narolgam, Ellisbridge, Ahmedabad, Gujarat 380006",
        "detailed_address": {
            "ward": "Narolgam, Ellisbridge",
            "street": "2HFC+2G5",
            "city": "Ahmedabad",
            "postal_code": null,
            "state": "Gujarat",
            "country_code": "IN"
        },
        "images": [
            {
                "about": "All",
                "link": "https://streetviewpixels-pa.googleapis.com/v1/thumbnail?panoid=Jw2K_uNfIoaOlXOHYjfg6Q&cb_client=maps_sv.tactile.gps&w=224&h=298&yaw=210.43977&pitch=0&thumbfov=100"
            },
            {
                "about": "Street View & 360deg",
                "link": "https://streetviewpixels-pa.googleapis.com/v1/thumbnail?panoid=Jw2K_uNfIoaOlXOHYjfg6Q&cb_client=maps_sv.tactile.gps&w=224&h=298&yaw=210.43977&pitch=0&thumbfov=100"
            }
        ],
        "link": "https://www.google.com/maps/place/Jalali+Masjid/data=!4m7!3m6!1s0x395e85178bdab00b:0xd19b152caea5e6d!8m2!3d23.022505!4d72.5713621!16s%2Fg%2F11vb1g5w1y!19sChIJC7DaixeFXjkRbV7qylKxGQ0?authuser=0&hl=en&rclk=1",
        "coordinates": {
            "latitude": 23.022505,
            "longitude": 72.5713621
        }
    }
]