[
    {
        "name": "Madina Masjid",
        "main_category": "Mosque",
        "address": "9XJQ+3H6 Madina Masjid, Dhandhuka, Gujarat 382460",
        "detailed_address": {
            "ward": null,
            "street": "9XJQ+3H6",
            "city": "Dhandhuka",
            "postal_code": "382460",
            "state": "Gujarat",
            "country_code": "IN"
        },
        "images": [
            {
                "about": "All",
                "link": "https://lh5.googleusercontent.com/p/AF1QipMPryDhF7c6LT3wA4JInehlwqQhvjIdm6kz0zKA=w224-h298-k-no"
            },
            {
                "about": "Dome",
                "link": "https://lh5.googleusercontent.com/p/AF1QipMkLewVaJ8kMCysZusrVKXTugGK650PTc2v7Yyj=w449-h298-k-no"
            },
            {
                "about": "Videos",
                "link": "https://lh5.googleusercontent.com/p/AF1QipPg4TtVNXw-h9oKHCHyO02195d6yrNC0QSucqOW=w529-h298-k-no"
            }
        ],
        "link": "https://www.google.com/maps/place/Madina+Masjid/data=!4m7!3m6!1s0x395ed50de0ce526f:0xae3b8ee6093075b0!8m2!3d22.3801624!4d71.9889048!16s%2Fg%2F11dzdk7dr1!19sChIJb1LO4A3VXjkRsHUwCeaOO64?authuser=0&hl=en&rclk=1",
        "coordinates": {
            "latitude": 22.3801624,
            "longitude": 71.9889048
        }
    },
    {
        "name": "Qureshi Masjid",
        "main_category": "Mosque",
        "address": "9XJP+848 Qureshi Masjid, 1, Qureshi Wada Rd, Dhandhuka, Gujarat 382460",
        "detailed_address": {
            "ward": null,
            "street": "9XJP+848, 1, Qureshi Wada Rd",
            "city": "Dhandhuka",
            "postal_code": "382460",
            "state": "Gujarat",
            "country_code": "IN"
        },
        "images": [
            {
                "about": "All",
                "link": "https://lh5.googleusercontent.com/p/AF1QipP6DGZnmr5HF9RrK8Y5XrkqN50y3Umk87PWtUSj=w224-h298-k-no"
            },
            {
                "about": "By owner",
                "link": "https://lh5.googleusercontent.com/p/AF1QipPIuqng5fKOERQxoJKrTtOo94W0FRWPCc9mka-T=w224-h298-k-no"
            },
            {
                "about": "Videos",
                "link": "https://lh5.googleusercontent.com/p/AF1QipPje2cTCy7k7REdQaqNbMr-V6j5pJpX4Bq0I3gX=w224-h398-k-no"
            }
        ],
        "link": "https://www.google.com/maps/place/Qureshi+Masjid/data=!4m7!3m6!1s0x395ed511853f2611:0x2ee1f8f463885e15!8m2!3d22.3806582!4d71.9852202!16s%2Fg%2F11b6t2hnbr!19sChIJESY_hRHVXjkRFV6IY_T44S4?authuser=0&hl=en&rclk=1",
        "coordinates": {
            "latitude": 22.3806582,
            "longitude": 71.9852202
        }
    },
    {
        "name": "Ghoghari Masjid",
        "main_category": "Mosque",
        "address": "9XJQ+R56 Ghoghari Masjid, Dhandhuka, Gujarat 382460",
        "detailed_address": {
            "ward": null,
            "street": "9XJQ+R56",
            "city": "Dhandhuka",
            "postal_code": "382460",
            "state": "Gujarat",
            "country_code": "IN"
        },
        "images": [
            {
                "about": "All",
                "link": "https://lh5.googleusercontent.com/p/AF1QipP4qVAYu0I6PYP6797aG3JrDzkm_IbKXIkuSged=w397-h298-k-no"
            }
        ],
        "link": "https://www.google.com/maps/place/Ghoghari+Masjid/data=!4m7!3m6!1s0x395ed50e217acf15:0x8ea46beed3e236b1!8m2!3d22.3820315!4d71.9878849!16s%2Fg%2F11c1_vytks!19sChIJFc96IQ7VXjkRsTbi0-5rpI4?authuser=0&hl=en&rclk=1",
        "coordinates": {
            "latitude": 22.3820315,
            "longitude": 71.9878849
        }
    },
    {
        "name": "Jumma Masjid Dhandhuka",
        "main_category": "Mosque",
        "address": "9XJP+C75 Jumma Masjid Dhandhuka, Dhandhuka, Gujarat 382460",
        "detailed_address": {
            "ward": null,
            "street": "9XJP+C75",
            "city": "Dhandhuka",
            "postal_code": "382460",
            "state": "Gujarat",
            "country_code": "IN"
        },
        "images": [],
        "link": "https://www.google.com/maps/place/Jumma+Masjid+Dhandhuka/data=!4m7!3m6!1s0x395ed511922c90a1:0x96e303a5e4355ea0!8m2!3d22.381016!4d71.985727!16s%2Fg%2F11cst190yj!19sChIJoZAskhHVXjkRoF415KUD45Y?authuser=0&hl=en&rclk=1",
        "coordinates": {
            "latitude": 22.381016,
            "longitude": 71.985727
        }
    },
    {
        "name": "Eidgah Masjid",
        "main_category": "Mosque",
        "address": "9XJG+36R Eidgah Masjid, GJ SH 36, Dhandhuka, Gujarat 382460",
        "detailed_address": {
            "ward": null,
            "street": "9XJG+36R, GJ SH 36",
            "city": "Dhandhuka",
            "postal_code": "382460",
            "state": "Gujarat",
            "country_code": "IN"
        },
        "images": [
            {
                "about": "All",
                "link": "https://lh5.googleusercontent.com/p/AF1QipPZze2GQiG8lR6WxAoLbbYzEzb8I0WFOGMDrNbt=w231-h298-k-no"
            },
            {
                "about": "Street View & 360deg",
                "link": "https://streetviewpixels-pa.googleapis.com/v1/thumbnail?panoid=K414W2RYDFXdwYDh-_DF_A&cb_client=maps_sv.tactile.gps&w=224&h=298&yaw=291.69595&pitch=0&thumbfov=100"
            }
        ],
        "link": "https://www.google.com/maps/place/Eidgah+Masjid/data=!4m7!3m6!1s0x395ed53df5a126f9:0x98a4ed6c3bfb320!8m2!3d22.3802331!4d71.9755041!16s%2Fg%2F11f1y0zfp7!19sChIJ-Sah9T3VXjkRILO_w9ZOigk?authuser=0&hl=en&rclk=1",
        "coordinates": {
            "latitude": 22.380233099999998,
            "longitude": 71.9755041
        }
    },
    {
        "name": "Khanjiwada Aamena Masjid",
        "main_category": "Mosque",
        "address": "9XMQ+49F Khanjiwada Aamena Masjid, Dhandhuka, Gujarat 382460",
        "detailed_address": {
            "ward": null,
            "street": "9XMQ+49F",
            "city": "Dhandhuka",
            "postal_code": null,
            "state": "Gujarat",
            "country_code": "IN"
        },
        "images": [],
        "link": "https://www.google.com/maps/place/Khanjiwada+Aamena+Masjid/data=!4m7!3m6!1s0x395ed50e31a55253:0xccc79284c013c2ad!8m2!3d22.3828191!4d71.988419!16s%2Fg%2F11f50p93tp!19sChIJU1KlMQ7VXjkRrcITwISSx8w?authuser=0&hl=en&rclk=1",
        "coordinates": {
            "latitude": 22.3828191,
            "longitude": 71.988419
        }
    },
    {
        "name": "Talatwada Masjid",
        "main_category": "Mosque",
        "address": "9XJP+CWP Talatwada Masjid, Dhandhuka, Gujarat 382460",
        "detailed_address": {
            "ward": null,
            "street": "9XJP+CWP",
            "city": "Dhandhuka",
            "postal_code": "382460",
            "state": "Gujarat",
            "country_code": "IN"
        },
        "images": [],
        "link": "https://www.google.com/maps/place/Talatwada+Masjid/data=!4m7!3m6!1s0x395ed511e2688f2d:0xf76a60faff31ac7f!8m2!3d22.381098!4d71.9873129!16s%2Fg%2F11f092w0p1!19sChIJLY9o4hHVXjkRf6wx__pgavc?authuser=0&hl=en&rclk=1",
        "coordinates": {
            "latitude": 22.381097999999998,
            "longitude": 71.98731289999999
        }
    },
    {
        "name": "Fazle-ali masjid dhandhuka",
        "main_category": "Mosque",
        "address": "9XJP+4QJ Fazle-ali masjid dhandhuka, Dhandhuka, Gujarat 382460",
        "detailed_address": {
            "ward": null,
            "street": "9XJP+4QJ",
            "city": "Dhandhuka",
            "postal_code": null,
            "state": "Gujarat",
            "country_code": "IN"
        },
        "images": [
            {
                "about": "All",
                "link": "https://lh5.googleusercontent.com/p/AF1QipNQNl87aVdcmh9wPL0a2esCLVKbJ0LUz8H79jZa=w453-h298-k-no"
            },
            {
                "about": "Videos",
                "link": "https://lh5.googleusercontent.com/p/AF1QipMcGeNOaor5Zh0uF4zQRvrPYEux7fZfZH3CUcl8=w224-h398-k-no"
            }
        ],
        "link": "https://www.google.com/maps/place/Fazle-ali+masjid+dhandhuka/data=!4m7!3m6!1s0x395ed51a485e3221:0x60328aff07060b78!8m2!3d22.3803446!4d71.986906!16s%2Fg%2F11j9cy17s_!19sChIJITJeSBrVXjkReAsGB_-KMmA?authuser=0&hl=en&rclk=1",
        "coordinates": {
            "latitude": 22.380344599999997,
            "longitude": 71.98690599999999
        }
    },
    {
        "name": "Maruwada Masjid",
        "main_category": "Mosque",
        "address": "9XHP+RH9 Maruwada Masjid, Dhandhuka, Gujarat 382460",
        "detailed_address": {
            "ward": null,
            "street": "9XHP+RH9",
            "city": "Dhandhuka",
            "postal_code": null,
            "state": "Gujarat",
            "country_code": "IN"
        },
        "images": [
            {
                "about": "All",
                "link": "https://lh5.googleusercontent.com/p/AF1QipOV34ZSAyyUzgfi10ww_PFwX9Tonru0CzLkabj7=w224-h298-k-no"
            }
        ],
        "link": "https://www.google.com/maps/place/Maruwada+Masjid/data=!4m7!3m6!1s0x395ed5b6bedc082d:0xeed8cc500acde1b4!8m2!3d22.3795256!4d71.9864737!16s%2Fg%2F11ppz8by97!19sChIJLQjcvrbVXjkRtOHNClDM2O4?authuser=0&hl=en&rclk=1",
        "coordinates": {
            "latitude": 22.379525599999997,
            "longitude": 71.98647369999999
        }
    },
    {
        "name": "Kasba masjid dhandhuka.",
        "main_category": "Interior Decorator",
        "address": "9XJQ+JFV Kasba masjid dhandhuka., Dhandhuka, Gujarat 382460",
        "detailed_address": {
            "ward": null,
            "street": "9XJQ+JFV",
            "city": "Dhandhuka",
            "postal_code": "382460",
            "state": "Gujarat",
            "country_code": "IN"
        },
        "images": [
            {
                "about": "All",
                "link": "https://lh5.googleusercontent.com/p/AF1QipOAW9q11vBKBWIragxv43eOxGKSF4ZLxVUrXv3w=w662-h298-k-no"
            },
            {
                "about": "Exterior",
                "link": "https://lh5.googleusercontent.com/p/AF1QipNJ0lGyg-O2bX3xpLgE4wSKR-Glup-AqsaHLh25=w662-h298-k-no"
            },
            {
                "about": "Inside",
                "link": "https://lh5.googleusercontent.com/p/AF1QipOqA7kg9oqSI5Rfa64pHYeElA4RlJRkT3DphGdf=w529-h298-k-no"
            }
        ],
        "link": "https://www.google.com/maps/place/Kasba+masjid+dhandhuka./data=!4m7!3m6!1s0x395ed5a80db1ae0f:0x4d1d0235dd3b6605!8m2!3d22.3816259!4d71.9886967!16s%2Fg%2F11k3z5xmkv!19sChIJD66xDajVXjkRBWY73TUCHU0?authuser=0&hl=en&rclk=1",
        "coordinates": {
            "latitude": 22.3816259,
            "longitude": 71.98869669999999
        }
    }
]