[
    {
        "name": "MASJID MOHALLAH SADAT",
        "main_category": "Mosque",
        "address": "JJRQ+4JW MASJID MOHALLAH SADAT, near imambada sharqi, Mohalla sharqi, Sirsi Dehat, Sirsi, Uttar Pradesh 244301",
        "detailed_address": {
            "ward": "Mohalla sharqi",
            "street": "JJRQ+4JW, near imambada sharqi",
            "city": "Sirsi Dehat, Sirsi",
            "postal_code": null,
            "state": "Uttar Pradesh",
            "country_code": "IN"
        },
        "images": [
            {
                "about": "All",
                "link": "https://lh5.googleusercontent.com/p/AF1QipMdyamSRTdxOknyT9_Skt1RI1b-ReD9Wk2dGTjV=w224-h314-k-no"
            },
            {
                "about": "Dome",
                "link": "https://lh5.googleusercontent.com/p/AF1QipOObCH-c6gX62VvJG4BJ4nbNDPT6g_QcNhmOybl=w224-h298-k-no"
            },
            {
                "about": "Street View & 360deg",
                "link": "https://streetviewpixels-pa.googleapis.com/v1/thumbnail?panoid=zYN9eFWizb_0OUbdwVBRUQ&cb_client=maps_sv.tactile.gps&w=224&h=298&yaw=272.53284&pitch=0&thumbfov=100"
            }
        ],
        "link": "https://www.google.com/maps/place/MASJID+MOHALLAH+SADAT/data=!4m7!3m6!1s0x390b1e17c7efce39:0x3c9c0cd8281c26e5!8m2!3d28.6380752!4d78.6434539!16s%2Fg%2F12hlr3w1x!19sChIJOc7vxxceCzkR5SYcKNgMnDw?authuser=0&hl=en&rclk=1",
        "coordinates": {
            "latitude": 28.6380752,
            "longitude": 78.6434539
        }
    },
    {
        "name": "Eidgah Ground, Sirsi",
        "main_category": "Mosque",
        "address": "JRCR+CR2 Eidgah Ground, Sirsi, Sirsi, Karnataka 581401",
        "detailed_address": {
            "ward": null,
            "street": "JRCR+CR2",
            "city": "Sirsi",
            "postal_code": "581401",
            "state": "Karnataka",
            "country_code": "IN"
        },
        "images": [
            {
                "about": "All",
                "link": "https://lh5.googleusercontent.com/p/AF1QipPZIUu7iyN48v7LSkr8mhIWbEF-HwQtWqKCPfVl=w529-h298-k-no"
            },
            {
                "about": "Dome",
                "link": "https://lh5.googleusercontent.com/p/AF1QipPoMYsOFlOt3yl0XAlBw-FbKG6P7XAxn1csM0sD=w525-h298-k-no"
            },
            {
                "about": "Videos",
                "link": "https://lh5.googleusercontent.com/p/AF1QipPoMYsOFlOt3yl0XAlBw-FbKG6P7XAxn1csM0sD=w525-h298-k-no"
            }
        ],
        "link": "https://www.google.com/maps/place/Eidgah+Ground,+Sirsi/data=!4m7!3m6!1s0x3bbea9331e38216b:0x765ada55d4e36f49!8m2!3d14.621001!4d74.8420154!16s%2Fg%2F11bzzyml7n!19sChIJayE4HjOpvjsRSW_j1FXaWnY?authuser=0&hl=en&rclk=1",
        "coordinates": {
            "latitude": 14.621001,
            "longitude": 74.8420154
        }
    },
    {
        "name": "Shia Jama Masjid",
        "main_category": "Mosque",
        "address": "JJQQ+RPG Shia Jama Masjid, Moradabad Sambhal Bahjoi Marg, Sirsi, Uttar Pradesh 244301",
        "detailed_address": {
            "ward": null,
            "street": "JJQQ+RPG, Moradabad Sambhal Bahjoi Marg",
            "city": "Sirsi",
            "postal_code": "244301",
            "state": "Uttar Pradesh",
            "country_code": "IN"
        },
        "images": [
            {
                "about": "All",
                "link": "https://lh5.googleusercontent.com/p/AF1QipNVywHQNP-Lh8oWOGnTbCCTfxQvS2Pm0L9m7iRe=w397-h298-k-no"
            }
        ],
        "link": "https://www.google.com/maps/place/Shia+Jama+Masjid/data=!4m7!3m6!1s0x390b1e142db5fdb9:0xe550b8111e8fdcdd!8m2!3d28.6395557!4d78.6393182!16s%2Fg%2F12hk51pg_!19sChIJuf21LRQeCzkR3dyPHhG4UOU?authuser=0&hl=en&rclk=1",
        "coordinates": {
            "latitude": 28.6395557,
            "longitude": 78.63931819999999
        }
    },
    {
        "name": "Masjid Choudhriyan",
        "main_category": "Mosque",
        "address": "JJQQ+7QR Masjid Choudhriyan, Sirsi, Uttar Pradesh 244301",
        "detailed_address": {
            "ward": null,
            "street": "JJQQ+7QR",
            "city": "Sirsi",
            "postal_code": "244301",
            "state": "Uttar Pradesh",
            "country_code": "IN"
        },
        "images": [
            {
                "about": "All",
                "link": "https://lh5.googleusercontent.com/p/AF1QipNk6fkz_fhMhQ4zOCxfrDpP6CE6qc86YQZQyg-c=w397-h298-k-no"
            }
        ],
        "link": "https://www.google.com/maps/place/Masjid+Choudhriyan/data=!4m7!3m6!1s0x390b1e15db9b0ceb:0x4282ad51b29729b4!8m2!3d28.638248!4d78.6393788!16s%2Fg%2F11g8bvwcf8!19sChIJ6wyb2xUeCzkRtCmXslGtgkI?authuser=0&hl=en&rclk=1",
        "coordinates": {
            "latitude": 28.638247999999997,
            "longitude": 78.6393788
        }
    },
    {
        "name": "Masjid Markaz Wali",
        "main_category": "Mosque",
        "address": "JJRW+G8R Masjid Markaz Wali, Sirsi, Uttar Pradesh 244301",
        "detailed_address": {
            "ward": null,
            "street": "JJRW+G8R",
            "city": "Sirsi",
            "postal_code": "244301",
            "state": "Uttar Pradesh",
            "country_code": "IN"
        },
        "images": [
            {
                "about": "All",
                "link": "https://lh5.googleusercontent.com/p/AF1QipNzv9pUcDLGYFhtOI8tqiR_6uRgjp-pM5TG3aFs=w224-h319-k-no"
            },
            {
                "about": "Street View & 360deg",
                "link": "https://streetviewpixels-pa.googleapis.com/v1/thumbnail?panoid=IsKQgTJ5sTipPtOzTcLlow&cb_client=maps_sv.tactile.gps&w=224&h=298&yaw=320.4012&pitch=0&thumbfov=100"
            }
        ],
        "link": "https://www.google.com/maps/place/Masjid+Markaz+Wali/data=!4m7!3m6!1s0x390b1e19e0f03809:0xfd169c6128e8eb72!8m2!3d28.6413599!4d78.6457637!16s%2Fg%2F11f03pxz2h!19sChIJCTjw4BkeCzkRcuvoKGGcFv0?authuser=0&hl=en&rclk=1",
        "coordinates": {
            "latitude": 28.641359899999998,
            "longitude": 78.6457637
        }
    },
    {
        "name": "Ahle Sunnat Jama Masjid",
        "main_category": "Mosque",
        "address": "JJQQ+X7Q Ahle Sunnat Jama Masjid, Sambhal Rd, Sirsi, Uttar Pradesh 244301",
        "detailed_address": {
            "ward": null,
            "street": "JJQQ+X7Q, Sambhal Rd",
            "city": "Sirsi",
            "postal_code": "244301",
            "state": "Uttar Pradesh",
            "country_code": "IN"
        },
        "images": [
            {
                "about": "All",
                "link": "https://lh5.googleusercontent.com/p/AF1QipO09r8lJKlROLOnYf01_pB0e_I7cOgi_iRo6Hcn=w596-h298-k-no"
            },
            {
                "about": "Street View & 360deg",
                "link": "https://streetviewpixels-pa.googleapis.com/v1/thumbnail?panoid=WXhFsf1h6X4Wbo6Lknjo-g&cb_client=maps_sv.tactile.gps&w=224&h=298&yaw=300.05087&pitch=0&thumbfov=100"
            }
        ],
        "link": "https://www.google.com/maps/place/Ahle+Sunnat+Jama+Masjid/data=!4m7!3m6!1s0x390b1e144636e8db:0x7b3a377deffdbdba!8m2!3d28.639953!4d78.638248!16s%2Fg%2F11dym80v9g!19sChIJ2-g2RhQeCzkRur397303Ons?authuser=0&hl=en&rclk=1",
        "coordinates": {
            "latitude": 28.639953,
            "longitude": 78.63824799999999
        }
    },
    {
        "name": "Masjide Zehra, Sirsi Sadat",
        "main_category": "Mosque",
        "address": "JJPR+HRV Masjide Zehra, Sirsi Sadat, Sirsi, Uttar Pradesh 244301",
        "detailed_address": {
            "ward": null,
            "street": "JJPR+HRV",
            "city": "Sirsi",
            "postal_code": "244301",
            "state": "Uttar Pradesh",
            "country_code": "IN"
        },
        "images": [
            {
                "about": "All",
                "link": "https://lh5.googleusercontent.com/p/AF1QipMocmIIbU_CSovE3nuSFeCR3cHU1R709LwUrO4G=w224-h497-k-no"
            },
            {
                "about": "Videos",
                "link": "https://lh5.googleusercontent.com/p/AF1QipMT_JuVfeZDoSc965Oird6NYYpl9SLKF4GHhO43=w224-h398-k-no"
            }
        ],
        "link": "https://www.google.com/maps/place/Masjide+Zehra,+Sirsi+Sadat/data=!4m7!3m6!1s0x390b1e3d87c35d9b:0xc510ee57e61dd2df!8m2!3d28.6364929!4d78.6420511!16s%2Fg%2F11f2wp9b0y!19sChIJm13Dhz0eCzkR39Id5lfuEMU?authuser=0&hl=en&rclk=1",
        "coordinates": {
            "latitude": 28.6364929,
            "longitude": 78.6420511
        }
    },
    {
        "name": "Budh Bazar Mosque",
        "main_category": "Mosque",
        "address": "JJVR+CQ7 Budh Bazar Mosque, near Munshi Medical Store, Sirsi, Uttar Pradesh 244301",
        "detailed_address": {
            "ward": null,
            "street": "JJVR+CQ7, Budh Bazar Mosque, near Munshi Medical Store",
            "city": "Sirsi",
            "postal_code": "244301",
            "state": "Uttar Pradesh",
            "country_code": "IN"
        },
        "images": [
            {
                "about": "All",
                "link": "https://lh5.googleusercontent.com/p/AF1QipNxAZSzFEH5i729COsfQ4404ufnUDVbQYr9iqje=w322-h298-k-no"
            },
            {
                "about": "Street View & 360deg",
                "link": "https://streetviewpixels-pa.googleapis.com/v1/thumbnail?panoid=NnxKxYKqwRz6VYbezIhApQ&cb_client=maps_sv.tactile.gps&w=224&h=298&yaw=298.39328&pitch=0&thumbfov=100"
            }
        ],
        "link": "https://www.google.com/maps/place/Budh+Bazar+Mosque/data=!4m7!3m6!1s0x390b1e1124e5365b:0x693abe6905316f6c!8m2!3d28.6435329!4d78.6419207!16s%2Fg%2F11dxk9_9nf!19sChIJWzblJBEeCzkRbG8xBWm-Omk?authuser=0&hl=en&rclk=1",
        "coordinates": {
            "latitude": 28.6435329,
            "longitude": 78.6419207
        }
    },
    {
        "name": "masJid Imam Ali Raza A.s Ek meenar masjid",
        "main_category": "Mosque",
        "address": "JJQR+722 masJid Imam Ali Raza A.s Ek meenar masjid, Sirsi, Uttar Pradesh 244301",
        "detailed_address": {
            "ward": null,
            "street": "JJQR+722",
            "city": "Sirsi",
            "postal_code": "244301",
            "state": "Uttar Pradesh",
            "country_code": "IN"
        },
        "images": [
            {
                "about": "All",
                "link": "https://lh5.googleusercontent.com/p/AF1QipM2CruzYr6pQXMjhU59ikyv3yGzaAoMp1fInoy9=w224-h298-k-no"
            }
        ],
        "link": "https://www.google.com/maps/place/masJid+Imam+Ali+Raza+A.s+Ek+meenar+masjid/data=!4m7!3m6!1s0x390b1e1675ce88cb:0xaf78c252c3f20b19!8m2!3d28.6381356!4d78.6400075!16s%2Fg%2F11c7hcc3rc!19sChIJy4jOdRYeCzkRGQvyw1LCeK8?authuser=0&hl=en&rclk=1",
        "coordinates": {
            "latitude": 28.6381356,
            "longitude": 78.6400075
        }
    },
    {
        "name": "Moti Masjid",
        "main_category": "Mosque",
        "address": "JJRQ+CW2 Moti Masjid, Sirsi, Uttar Pradesh 244301",
        "detailed_address": {
            "ward": null,
            "street": "JJRQ+CW2",
            "city": "Sirsi",
            "postal_code": "244301",
            "state": "Uttar Pradesh",
            "country_code": "IN"
        },
        "images": [
            {
                "about": "All",
                "link": "https://streetviewpixels-pa.googleapis.com/v1/thumbnail?panoid=eq5xsaPr75g_XC-ai8nRaw&cb_client=maps_sv.tactile.gps&w=224&h=298&yaw=100.47452&pitch=0&thumbfov=100"
            },
            {
                "about": "Street View & 360deg",
                "link": "https://streetviewpixels-pa.googleapis.com/v1/thumbnail?panoid=eq5xsaPr75g_XC-ai8nRaw&cb_client=maps_sv.tactile.gps&w=224&h=298&yaw=100.47452&pitch=0&thumbfov=100"
            }
        ],
        "link": "https://www.google.com/maps/place/Moti+Masjid/data=!4m7!3m6!1s0x390b1e141e44f483:0x1b8fa828f4f89d68!8m2!3d28.641001!4d78.6397782!16s%2Fg%2F11f5dz6hjn!19sChIJg_REHhQeCzkRaJ349Ciojxs?authuser=0&hl=en&rclk=1",
        "coordinates": {
            "latitude": 28.641001,
            "longitude": 78.6397782
        }
    },
    {
        "name": "Khawaja Garib Nawaz masjid",
        "main_category": "Mosque",
        "address": "JV93+JGH Khawaja Garib Nawaz masjid, Garib nawaz, gali Road, Kasturba Nagar, Sirsi, Karnataka 581402",
        "detailed_address": {
            "ward": "Kasturba Nagar",
            "street": "JV93+JGH Garib nawaz, gali Road",
            "city": "Sirsi",
            "postal_code": "581402",
            "state": "Karnataka",
            "country_code": "IN"
        },
        "images": [
            {
                "about": "All",
                "link": "https://lh5.googleusercontent.com/p/AF1QipOpe3ncpo2huxDrfgR1bCFwJ_ib8oqmu2yEE6NB=w224-h298-k-no"
            },
            {
                "about": "Latest",
                "link": "https://lh5.googleusercontent.com/p/AF1QipP_DS3vzFSQWBRXCd4M8X4_qwYfnFLHurLRGxqx=w224-h497-k-no"
            },
            {
                "about": "Dome",
                "link": "https://lh5.googleusercontent.com/p/AF1QipP_DS3vzFSQWBRXCd4M8X4_qwYfnFLHurLRGxqx=w224-h497-k-no"
            },
            {
                "about": "Street View & 360deg",
                "link": "https://streetviewpixels-pa.googleapis.com/v1/thumbnail?panoid=NMPEzKHHs8_GFoBoswSP2A&cb_client=maps_sv.tactile.gps&w=224&h=298&yaw=173.44008&pitch=0&thumbfov=100"
            }
        ],
        "link": "https://www.google.com/maps/place/Khawaja+Garib+Nawaz+masjid/data=!4m7!3m6!1s0x3bbea9a1fff3220d:0x3eae79835c69719a!8m2!3d14.6190595!4d74.8538483!16s%2Fg%2F11fm7_yjcl!19sChIJDSLz_6GpvjsRmnFpXIN5rj4?authuser=0&hl=en&rclk=1",
        "coordinates": {
            "latitude": 14.619059499999999,
            "longitude": 74.8538483
        }
    },
    {
        "name": "Noorani masjid sirsi",
        "main_category": "Mosque",
        "address": "JJRW+437 Noorani masjid sirsi, Sirsi, Uttar Pradesh 244301",
        "detailed_address": {
            "ward": null,
            "street": "JJRW+437",
            "city": "Sirsi",
            "postal_code": "244301",
            "state": "Uttar Pradesh",
            "country_code": "IN"
        },
        "images": [
            {
                "about": "All",
                "link": "https://lh5.googleusercontent.com/p/AF1QipO4zI3Ijcyajk4ksDuYHP1Zi5k2OgLFihFzSBu5=w224-h398-k-no"
            },
            {
                "about": "Latest",
                "link": "https://lh5.googleusercontent.com/p/AF1QipO7KngXDmxRQ7b4V6e14VBONmc2q4dnc5mCv4oJ=w224-h398-k-no"
            },
            {
                "about": "Videos",
                "link": "https://lh5.googleusercontent.com/p/AF1QipO7KngXDmxRQ7b4V6e14VBONmc2q4dnc5mCv4oJ=w224-h398-k-no"
            }
        ],
        "link": "https://www.google.com/maps/place/Noorani+masjid+sirsi/data=!4m7!3m6!1s0x390b1f9053022901:0x2bc72347e039facf!8m2!3d28.6398627!4d78.6463507!16s%2Fg%2F11vj2rxjh4!19sChIJASkCU5AfCzkRz_o54Ecjxys?authuser=0&hl=en&rclk=1",
        "coordinates": {
            "latitude": 28.6398627,
            "longitude": 78.6463507
        }
    },
    {
        "name": "Qureshiyan Sunni Masjid",
        "main_category": "Mosque",
        "address": "JJRV+47Q Qureshiyan Sunni Masjid, Masjid Mohallah Sadat Rd, Sirsi, Uttar Pradesh 244301",
        "detailed_address": {
            "ward": null,
            "street": "JJRV+47Q, Masjid Mohallah Sadat Rd",
            "city": "Sirsi",
            "postal_code": "244301",
            "state": "Uttar Pradesh",
            "country_code": "IN"
        },
        "images": [
            {
                "about": "All",
                "link": "https://streetviewpixels-pa.googleapis.com/v1/thumbnail?panoid=kLTUsWJFn70WDnGS54a-rQ&cb_client=maps_sv.tactile.gps&w=224&h=298&yaw=91.19109&pitch=0&thumbfov=100"
            },
            {
                "about": "Street View & 360deg",
                "link": "https://streetviewpixels-pa.googleapis.com/v1/thumbnail?panoid=kLTUsWJFn70WDnGS54a-rQ&cb_client=maps_sv.tactile.gps&w=224&h=298&yaw=91.19109&pitch=0&thumbfov=100"
            }
        ],
        "link": "https://www.google.com/maps/place/Qureshiyan+Sunni+Masjid/data=!4m7!3m6!1s0x390b1fc586356db3:0xbc244bf843413d82!8m2!3d28.6403477!4d78.6432309!16s%2Fg%2F11fwdn8_fs!19sChIJs201hsUfCzkRgj1BQ_hLJLw?authuser=0&hl=en&rclk=1",
        "coordinates": {
            "latitude": 28.6403477,
            "longitude": 78.64323089999999
        }
    },
    {
        "name": "Meraj masjid",
        "main_category": "Mosque",
        "address": "JJQQ+4C4 Meraj masjid, Mohalla Chaudhrian, Sirsi, Uttar Pradesh 244301",
        "detailed_address": {
            "ward": "Mohalla Chaudhrian",
            "street": "JJQQ+4C4",
            "city": "Sirsi",
            "postal_code": null,
            "state": "Uttar Pradesh",
            "country_code": "IN"
        },
        "images": [],
        "link": "https://www.google.com/maps/place/Meraj+masjid/data=!4m7!3m6!1s0x390b1fecec83dc8d:0x48a44cb33b8be639!8m2!3d28.6377644!4d78.6385857!16s%2Fg%2F11ftc2sw2r!19sChIJjdyD7OwfCzkROeaLO7NMpEg?authuser=0&hl=en&rclk=1",
        "coordinates": {
            "latitude": 28.6377644,
            "longitude": 78.6385857
        }
    },
    {
        "name": "hanfi jama masjid",
        "main_category": "Mosque",
        "address": "hanfi jama masjid, Sambhal Rd, Sirsi, Uttar Pradesh 244301",
        "detailed_address": {
            "ward": null,
            "street": "hanfi jama masjid, Sambhal Rd",
            "city": "Sirsi",
            "postal_code": "244301",
            "state": "Uttar Pradesh",
            "country_code": "IN"
        },
        "images": [
            {
                "about": "All",
                "link": "https://lh5.googleusercontent.com/p/AF1QipOCm4l64MNI5Ve0hqWbXyqZr1guHsGijPNOUuhE=w397-h298-k-no"
            },
            {
                "about": "Dome",
                "link": "https://lh5.googleusercontent.com/p/AF1QipMyauatSa9lZFaC3v08F3ycOYHafrok3y_iBOTu=w397-h298-k-no"
            }
        ],
        "link": "https://www.google.com/maps/place/hanfi+jama+masjid/data=!4m7!3m6!1s0x390b1e1680664ccb:0xe3aa74f58d02d64a!8m2!3d28.6394037!4d78.6399964!16s%2Fg%2F11cr_fw5c6!19sChIJy0xmgBYeCzkRStYCjfV0quM?authuser=0&hl=en&rclk=1",
        "coordinates": {
            "latitude": 28.6394037,
            "longitude": 78.6399964
        }
    },
    {
        "name": "Masjid Nawabaan",
        "main_category": "Mosque",
        "address": "JJPQ+WC9 Masjid Nawabaan, Sirsi, Uttar Pradesh 244301",
        "detailed_address": {
            "ward": null,
            "street": "JJPQ+WC9",
            "city": "Sirsi",
            "postal_code": "244301",
            "state": "Uttar Pradesh",
            "country_code": "IN"
        },
        "images": [
            {
                "about": "All",
                "link": "https://lh5.googleusercontent.com/p/AF1QipMVgc6SjTG_niAcn4SVLf4ZdOlcp5OoxO3yLqBN=w530-h298-k-no"
            },
            {
                "about": "Dome",
                "link": "https://lh5.googleusercontent.com/p/AF1QipOueBOVJFHhSdCy-6RmTrIhEeUvU3RK15bb3-Ff=w397-h298-k-no"
            },
            {
                "about": "Videos",
                "link": "https://lh5.googleusercontent.com/p/AF1QipPlAF-BYFMCSeY7zmjyxpaEt9hb4oIBjXDms-wR=w224-h395-k-no"
            }
        ],
        "link": "https://www.google.com/maps/place/Masjid+Nawabaan/data=!4m7!3m6!1s0x390b1f7cd429192d:0x9f08c21b875e3411!8m2!3d28.6372875!4d78.6386235!16s%2Fg%2F11gmf0vb01!19sChIJLRkp1HwfCzkRETRehxvCCJ8?authuser=0&hl=en&rclk=1",
        "coordinates": {
            "latitude": 28.6372875,
            "longitude": 78.6386235
        }
    },
    {
        "name": "Gulshan-e-Madeena Masjid & Madrasa",
        "main_category": "Mosque",
        "address": "JV22+X78 Gulshan-e-Madeena Masjid & Madrasa, Sirsi, Karnataka 581402",
        "detailed_address": {
            "ward": null,
            "street": "JV22+X78",
            "city": "Sirsi",
            "postal_code": null,
            "state": "Karnataka",
            "country_code": "IN"
        },
        "images": [
            {
                "about": "All",
                "link": "https://streetviewpixels-pa.googleapis.com/v1/thumbnail?panoid=2TGg0FCoJONIsL1dHV79aA&cb_client=maps_sv.tactile.gps&w=224&h=298&yaw=193.32433&pitch=0&thumbfov=100"
            },
            {
                "about": "Street View & 360deg",
                "link": "https://streetviewpixels-pa.googleapis.com/v1/thumbnail?panoid=2TGg0FCoJONIsL1dHV79aA&cb_client=maps_sv.tactile.gps&w=224&h=298&yaw=193.32433&pitch=0&thumbfov=100"
            }
        ],
        "link": "https://www.google.com/maps/place/Gulshan-e-Madeena+Masjid+%26+Madrasa/data=!4m7!3m6!1s0x3bbea9614ad2fc67:0xa3c01029dd93bd7f!8m2!3d14.6024069!4d74.850713!16s%2Fg%2F11k3tnhvw0!19sChIJZ_zSSmGpvjsRf72T3SkQwKM?authuser=0&hl=en&rclk=1",
        "coordinates": {
            "latitude": 14.6024069,
            "longitude": 74.850713
        }
    },
    {
        "name": "Intzar Mehdi Sirsivi",
        "main_category": "Mosque",
        "address": "JJQQ+RP5 Intzar Mehdi Sirsivi, Jama Masjid Rd, Sirsi, Uttar Pradesh 244301",
        "detailed_address": {
            "ward": null,
            "street": "JJQQ+RP5, Jama Masjid Rd",
            "city": "Sirsi",
            "postal_code": "244301",
            "state": "Uttar Pradesh",
            "country_code": "IN"
        },
        "images": [],
        "link": "https://www.google.com/maps/place/Intzar+Mehdi+Sirsivi/data=!4m7!3m6!1s0x390b1e142c491fe3:0x9c83e9036f3c8c5b!8m2!3d28.6395078!4d78.639375!16s%2Fg%2F1q5byhy0b!19sChIJ4x9JLBQeCzkRW4w8bwPpg5w?authuser=0&hl=en&rclk=1",
        "coordinates": {
            "latitude": 28.639507799999997,
            "longitude": 78.639375
        }
    },
    {
        "name": "Samman shaheed masjid",
        "main_category": "Mosque",
        "address": "Samman shaheed masjid, Samman saheed, Husaini Rd, Sirsi, Uttar Pradesh 244301",
        "detailed_address": {
            "ward": null,
            "street": "Samman saheed, Husaini Rd",
            "city": "Sirsi",
            "postal_code": "244301",
            "state": "Uttar Pradesh",
            "country_code": "IN"
        },
        "images": [
            {
                "about": "All",
                "link": "https://lh5.googleusercontent.com/p/AF1QipPxQr9zGPIQVkm53BYzB3ykuAFayrYGTJsr4msM=w529-h298-k-no"
            },
            {
                "about": "Street View & 360deg",
                "link": "https://streetviewpixels-pa.googleapis.com/v1/thumbnail?panoid=75xN4Lz_SytNVoL9Git_fA&cb_client=maps_sv.tactile.gps&w=224&h=298&yaw=149.19547&pitch=0&thumbfov=100"
            }
        ],
        "link": "https://www.google.com/maps/place/Samman+shaheed+masjid/data=!4m7!3m6!1s0x390b1f69bd00dbf9:0x9e4aaeb217281ad2!8m2!3d28.6393362!4d78.6384458!16s%2Fg%2F11nsqpt2rw!19sChIJ-dsAvWkfCzkR0hooF7KuSp4?authuser=0&hl=en&rclk=1",
        "coordinates": {
            "latitude": 28.6393362,
            "longitude": 78.6384458
        }
    },
    {
        "name": "Shia Mosque",
        "main_category": "Mosque",
        "address": "JJQR+JMF Shia Mosque, Sirsi, Uttar Pradesh 244301",
        "detailed_address": {
            "ward": null,
            "street": "JJQR+JMF",
            "city": "Sirsi",
            "postal_code": "244301",
            "state": "Uttar Pradesh",
            "country_code": "IN"
        },
        "images": [
            {
                "about": "All",
                "link": "https://lh5.googleusercontent.com/p/AF1QipMSyvSksDzSZH5aF82o9SHfCIsUDUQLRnd1dlK-=w224-h298-k-no-pi0-ya351-ro-0-fo100"
            },
            {
                "about": "Street View & 360deg",
                "link": "https://lh5.googleusercontent.com/p/AF1QipMSyvSksDzSZH5aF82o9SHfCIsUDUQLRnd1dlK-=w224-h298-k-no-pi0-ya351-ro-0-fo100"
            }
        ],
        "link": "https://www.google.com/maps/place/Shia+Mosque/data=!4m7!3m6!1s0x390b1fa9d77669d5:0xc8f94336dc43b911!8m2!3d28.6392695!4d78.6416988!16s%2Fg%2F11rclc05hk!19sChIJ1Wl216kfCzkREblD3DZD-cg?authuser=0&hl=en&rclk=1",
        "coordinates": {
            "latitude": 28.639269499999997,
            "longitude": 78.6416988
        }
    },
    {
        "name": "Noori jama masjid road pachim tola Sirsi",
        "main_category": "Housing society",
        "address": "Noori jama masjid road pachim tola Sirsi, Sirsi hot, Kasturba Gandhi Road, Jhundpura, Jhundpura Village, Sector 11, Kishanganj, Noida, Bihar 201301",
        "detailed_address": {
            "ward": "Jhundpura, Jhundpura Village, Sector 11",
            "street": "Sirsi hot, Kasturba Gandhi Road",
            "city": "Kishanganj, Noida",
            "postal_code": null,
            "state": "Bihar",
            "country_code": "IN"
        },
        "images": [],
        "link": "https://www.google.com/maps/place/Noori+jama+masjid+road+pachim+tola+Sirsi/data=!4m7!3m6!1s0x390ce5fa1552472d:0xc8577adf33f25f02!8m2!3d28.5974039!4d77.3318539!16s%2Fg%2F11v11fyytx!19sChIJLUdSFfrlDDkRAl_yM996V8g?authuser=0&hl=en&rclk=1",
        "coordinates": {
            "latitude": 28.5974039,
            "longitude": 77.3318539
        }
    },
    {
        "name": "Meraaj Masjid",
        "main_category": "Mosque",
        "address": "JJQV+Q4V Meraaj Masjid, Mohallah chaudhariyan, Sirsi, Uttar Pradesh",
        "detailed_address": {
            "ward": null,
            "street": "JJQV+Q4V, Mohallah chaudhariyan",
            "city": "Sirsi",
            "postal_code": null,
            "state": "Uttar Pradesh",
            "country_code": "IN"
        },
        "images": [
            {
                "about": "All",
                "link": "https://lh5.googleusercontent.com/p/AF1QipPBQHpakxzb4Zu33R5Gmo6m4eGWw_jLLCdn8qht=w224-h398-k-no"
            }
        ],
        "link": "https://www.google.com/maps/place/Meraaj+Masjid/data=!4m7!3m6!1s0x390b1f5bc7915bc5:0x9344bfe8b21abc5e!8m2!3d28.6394985!4d78.6427889!16s%2Fg%2F11ftbkb714!19sChIJxVuRx1sfCzkRXrwasui_RJM?authuser=0&hl=en&rclk=1",
        "coordinates": {
            "latitude": 28.6394985,
            "longitude": 78.6427889
        }
    },
    {
        "name": "Jaama masjid milak sirsi mylk syrsy",
        "main_category": "Mosque",
        "address": "MMQP+R97 Jaama masjid milak sirsi mylk syrsy, Sambhal Rd, Moradabad, Asalatnagar Baga, Uttar Pradesh 244301",
        "detailed_address": {
            "ward": null,
            "street": "MMQP+R97, Sambhal Rd",
            "city": "Moradabad, Asalatnagar Baga",
            "postal_code": "244301",
            "state": "Uttar Pradesh",
            "country_code": "IN"
        },
        "images": [
            {
                "about": "All",
                "link": "https://streetviewpixels-pa.googleapis.com/v1/thumbnail?panoid=3BQR27lRL0nzvmK_Z0wEQg&cb_client=maps_sv.tactile.gps&w=224&h=298&yaw=215.46713&pitch=0&thumbfov=100"
            },
            {
                "about": "Street View & 360deg",
                "link": "https://streetviewpixels-pa.googleapis.com/v1/thumbnail?panoid=3BQR27lRL0nzvmK_Z0wEQg&cb_client=maps_sv.tactile.gps&w=224&h=298&yaw=215.46713&pitch=0&thumbfov=100"
            }
        ],
        "link": "https://www.google.com/maps/place/Jaama+masjid+milak+sirsi+%D9%85%D9%8A%D9%84%D8%A7%D9%83+%D8%B3%D9%8A%D8%B1%D8%B3%D9%8A%E2%80%AD/data=!4m7!3m6!1s0x390ae3ce8cd9b515:0xa26f135c9cda510b!8m2!3d28.6895306!4d78.685922!16s%2Fg%2F11sf4t7wx3!19sChIJFbXZjM7jCjkRC1HanFwTb6I?authuser=0&hl=en&rclk=1",
        "coordinates": {
            "latitude": 28.689530599999998,
            "longitude": 78.68592199999999
        }
    },
    {
        "name": "Masjide quba ahle sunnatul jamat",
        "main_category": "Mosque",
        "address": "JRFR+488 Masjide quba ahle sunnatul jamat, Kanvalli galli, Nehru Nagar Rd, Sirsi",
        "detailed_address": {
            "ward": null,
            "street": "JRFR+488, Kanvalli galli, Nehru Nagar Rd",
            "city": "Sirsi",
            "postal_code": null,
            "state": "Karnataka",
            "country_code": "IN"
        },
        "images": [
            {
                "about": "All",
                "link": "https://lh5.googleusercontent.com/p/AF1QipOl0v7MHedhS-ru1idSlFhRoFzhfQJRxdRLDd-b=w397-h298-k-no"
            }
        ],
        "link": "https://www.google.com/maps/place/Masjide+quba+ahle+sunnatul+jamat/data=!4m7!3m6!1s0x3bbeaf439ec09903:0xb171eca58a015bd5!8m2!3d14.6227946!4d74.8408376!16s%2Fg%2F11mr297zhz!19sChIJA5nAnkOvvjsR1VsBiqXscbE?authuser=0&hl=en&rclk=1",
        "coordinates": {
            "latitude": 14.622794599999999,
            "longitude": 74.8408376
        }
    },
    {
        "name": "Masjide Bilal Ahale Hadees ISLOOR",
        "main_category": "Mosque",
        "address": "JR8M+5RX Masjide Bilal Ahale Hadees ISLOOR, Mohammadya colony isloor, Sirsi - Hubli Rd, Sirsi, Karnataka",
        "detailed_address": {
            "ward": "CP Bazar",
            "street": "JR8M+5RX, Mohammadya colony isloor, Sirsi - Hubli Rd",
            "city": "Sirsi",
            "postal_code": null,
            "state": "Karnataka",
            "country_code": "IN"
        },
        "images": [
            {
                "about": "All",
                "link": "https://streetviewpixels-pa.googleapis.com/v1/thumbnail?panoid=mE_pN3xqHx-Xbk9K9T5dFQ&cb_client=maps_sv.tactile.gps&w=224&h=298&yaw=189.05334&pitch=0&thumbfov=100"
            },
            {
                "about": "Street View & 360deg",
                "link": "https://streetviewpixels-pa.googleapis.com/v1/thumbnail?panoid=mE_pN3xqHx-Xbk9K9T5dFQ&cb_client=maps_sv.tactile.gps&w=224&h=298&yaw=189.05334&pitch=0&thumbfov=100"
            }
        ],
        "link": "https://www.google.com/maps/place/Masjide+Bilal+Ahale+Hadees+ISLOOR/data=!4m7!3m6!1s0x3bbea99b2b97cacb:0xb0e46816b040e3c5!8m2!3d14.6154947!4d74.8346175!16s%2Fg%2F11v0nyr60_!19sChIJy8qXK5upvjsRxeNAsBZo5LA?authuser=0&hl=en&rclk=1",
        "coordinates": {
            "latitude": 14.6154947,
            "longitude": 74.8346175
        }
    },
    {
        "name": "Maajide quba ahle sunnat wal jamat",
        "main_category": "Mosque",
        "address": "JVG2+866 Maajide quba ahle sunnat wal jamat, Kanvalli galli, Nehru Nagar Rd, opposite KSRTC Depot, Sirsi",
        "detailed_address": {
            "ward": null,
            "street": "JVG2+866, Kanvalli galli, Nehru Nagar Rd, opposite KSRTC Depot",
            "city": "Sirsi",
            "postal_code": null,
            "state": "Karnataka",
            "country_code": "IN"
        },
        "images": [
            {
                "about": "All",
                "link": "https://streetviewpixels-pa.googleapis.com/v1/thumbnail?panoid=VOtb-A7JF7SrT5pv7mx3Sw&cb_client=maps_sv.tactile.gps&w=224&h=298&yaw=220.56912&pitch=0&thumbfov=100"
            },
            {
                "about": "Street View & 360deg",
                "link": "https://streetviewpixels-pa.googleapis.com/v1/thumbnail?panoid=VOtb-A7JF7SrT5pv7mx3Sw&cb_client=maps_sv.tactile.gps&w=224&h=298&yaw=220.56912&pitch=0&thumbfov=100"
            }
        ],
        "link": "https://www.google.com/maps/place/Maajide+quba+ahle+sunnat+wal+jamat/data=!4m7!3m6!1s0x3bbeafa56c88882b:0xc326baf1f7b730b3!8m2!3d14.6257872!4d74.8505194!16s%2Fg%2F11r2rplkmt!19sChIJK4iIbKWvvjsRszC39_G6JsM?authuser=0&hl=en&rclk=1",
        "coordinates": {
            "latitude": 14.6257872,
            "longitude": 74.8505194
        }
    },
    {
        "name": "Shirsi Juma Masjid",
        "main_category": "School",
        "address": "JR9V+VJ4 Shirsi Juma Masjid, Vill, Sirsi, Karnataka 581402",
        "detailed_address": {
            "ward": null,
            "street": "JR9V+VJ4, Vill",
            "city": "Sirsi",
            "postal_code": null,
            "state": "Karnataka",
            "country_code": "IN"
        },
        "images": [
            {
                "about": "All",
                "link": "https://streetviewpixels-pa.googleapis.com/v1/thumbnail?panoid=ibPu78Bg4kMW2LHug9kANA&cb_client=maps_sv.tactile.gps&w=224&h=298&yaw=314.19696&pitch=0&thumbfov=100"
            },
            {
                "about": "Street View & 360deg",
                "link": "https://streetviewpixels-pa.googleapis.com/v1/thumbnail?panoid=ibPu78Bg4kMW2LHug9kANA&cb_client=maps_sv.tactile.gps&w=224&h=298&yaw=314.19696&pitch=0&thumbfov=100"
            }
        ],
        "link": "https://www.google.com/maps/place/Shirsi+Juma+Masjid/data=!4m7!3m6!1s0x3bbea9cae0f94ed5:0x460f2c1284a7b3d3!8m2!3d14.6196391!4d74.844077!16s%2Fg%2F11j98d71y4!19sChIJ1U754MqpvjsR07OnhBIsD0Y?authuser=0&hl=en&rclk=1",
        "coordinates": {
            "latitude": 14.619639099999999,
            "longitude": 74.844077
        }
    }
]