[
    {
        "name": "SHORNUR TOWN JUMA MASJID",
        "main_category": "Mosque",
        "address": "Q78C+829 SHORNUR TOWN JUMA MASJID, Shoranur, Kerala 679121",
        "detailed_address": {
            "ward": null,
            "street": "Q78C+829",
            "city": "Shoranur",
            "postal_code": "679121",
            "state": "Kerala",
            "country_code": "IN"
        },
        "images": [
            {
                "about": "All",
                "link": "https://lh5.googleusercontent.com/p/AF1QipOt6ckZRI6hBLKnkEvW3Xt4sxeO9rQ2SiejQMFh=w224-h299-k-no"
            },
            {
                "about": "Street View & 360deg",
                "link": "https://streetviewpixels-pa.googleapis.com/v1/thumbnail?panoid=gzKMnysSag3gOIAmLna1VQ&cb_client=maps_sv.tactile.gps&w=224&h=298&yaw=296.36523&pitch=0&thumbfov=100"
            }
        ],
        "link": "https://www.google.com/maps/place/SHORNUR+TOWN+JUMA+MASJID/data=!4m7!3m6!1s0x3ba7c4ab3b30f319:0xd002c882a82c4896!8m2!3d10.765795!4d76.2701197!16s%2Fg%2F11g6nhv6w7!19sChIJGfMwO6vEpzsRlkgsqILIAtA?authuser=0&hl=en&rclk=1",
        "coordinates": {
            "latitude": 10.765794999999999,
            "longitude": 76.2701197
        }
    },
    {
        "name": "Shornur Masjid (Railway JN)",
        "main_category": "Mosque",
        "address": "Q76C+3H4 Shornur Masjid (Railway JN), Mudaliyar Theruvu, Shoranur, Kerala 679121",
        "detailed_address": {
            "ward": "Mudaliyar Theruvu",
            "street": "Q76C+3H4",
            "city": "Shoranur",
            "postal_code": "679121",
            "state": "Kerala",
            "country_code": "IN"
        },
        "images": [
            {
                "about": "All",
                "link": "https://lh5.googleusercontent.com/p/AF1QipNzGDiy4q0Eh8w3dpOJlDpiGlymE-zK2yQqBAnT=w224-h298-k-no"
            },
            {
                "about": "Street View & 360deg",
                "link": "https://streetviewpixels-pa.googleapis.com/v1/thumbnail?panoid=ed6Ulwo36zT-tF2S8QGxyQ&cb_client=maps_sv.tactile.gps&w=224&h=298&yaw=239.93147&pitch=0&thumbfov=100"
            }
        ],
        "link": "https://www.google.com/maps/place/Shornur+Masjid+%28Railway+JN%29/data=!4m7!3m6!1s0x3ba7dcaad67e2b73:0x1e8ad48dddd2aa37!8m2!3d10.7601353!4d76.2714649!16s%2Fg%2F11c72r301n!19sChIJcyt-1qrcpzsRN6rS3Y3Uih4?authuser=0&hl=en&rclk=1",
        "coordinates": {
            "latitude": 10.7601353,
            "longitude": 76.2714649
        }
    },
    {
        "name": "Masjid",
        "main_category": "Mosque",
        "address": "Q75C+5WP Masjid, Shoranur, Kerala 679121",
        "detailed_address": {
            "ward": null,
            "street": "Q75C+5WP",
            "city": "Shoranur",
            "postal_code": "679121",
            "state": "Kerala",
            "country_code": "IN"
        },
        "images": [
            {
                "about": "All",
                "link": "https://lh5.googleusercontent.com/p/AF1QipMrXJjH706S1vw0TOkYid5WcfDu3dQrYE69cyk=w224-h398-k-no"
            },
            {
                "about": "Latest",
                "link": "https://lh5.googleusercontent.com/p/AF1QipNh0DGuKQfWAZJcH1_HbyD2slZfoQQQw7Zp9doI=w397-h298-k-no"
            },
            {
                "about": "Street View & 360deg",
                "link": "https://streetviewpixels-pa.googleapis.com/v1/thumbnail?panoid=TwDyV7Mr0LouC7VFfQ-JxQ&cb_client=maps_sv.tactile.gps&w=224&h=298&yaw=175.45099&pitch=0&thumbfov=100"
            }
        ],
        "link": "https://www.google.com/maps/place/Masjid/data=!4m7!3m6!1s0x3ba7dcab4178e51b:0xa4f5bf6356d62b97!8m2!3d10.7579546!4d76.272337!16s%2Fg%2F11g8cd5mjb!19sChIJG-V4QavcpzsRlyvWVmO_9aQ?authuser=0&hl=en&rclk=1",
        "coordinates": {
            "latitude": 10.7579546,
            "longitude": 76.272337
        }
    },
    {
        "name": "Shornur Bus Stand Masjid",
        "main_category": "Mosque",
        "address": "Q779+6J9 Shornur Bus Stand Masjid, Shoranur, Kerala 679121",
        "detailed_address": {
            "ward": null,
            "street": "Q779+6J9",
            "city": "Shoranur",
            "postal_code": "679121",
            "state": "Kerala",
            "country_code": "IN"
        },
        "images": [],
        "link": "https://www.google.com/maps/place/Shornur+Bus+Stand+Masjid/data=!4m7!3m6!1s0x3ba7c4aa90612997:0xeb12d8cec93d5376!8m2!3d10.7630289!4d76.2691204!16s%2Fg%2F11dypwcn1h!19sChIJlylhkKrEpzsRdlM9yc7YEus?authuser=0&hl=en&rclk=1",
        "coordinates": {
            "latitude": 10.7630289,
            "longitude": 76.26912039999999
        }
    },
    {
        "name": "Masjid Paruthipra. Shoranur",
        "main_category": "Mosque",
        "address": "Q783+F7F Masjid Paruthipra. Shoranur, Shoranur, Kerala 679121",
        "detailed_address": {
            "ward": null,
            "street": "Q783+F7F",
            "city": "Shoranur",
            "postal_code": null,
            "state": "Kerala",
            "country_code": "IN"
        },
        "images": [
            {
                "about": "All",
                "link": "https://lh5.googleusercontent.com/p/AF1QipNVbjCjzP6nfeKS0cQUT0ihYmHbOuKZfqgVLT4F=w364-h298-k-no"
            },
            {
                "about": "Street View & 360deg",
                "link": "https://streetviewpixels-pa.googleapis.com/v1/thumbnail?panoid=Xbf4SCacewEFXmg0kEcyxw&cb_client=maps_sv.tactile.gps&w=224&h=298&yaw=109.94122&pitch=0&thumbfov=100"
            },
            {
                "about": "Videos",
                "link": "https://lh5.googleusercontent.com/p/AF1QipNShEPWohkabi-QrLHCR84yjhlN5Cell8Ly9dWg=w224-h398-k-no"
            }
        ],
        "link": "https://www.google.com/maps/place/Masjid+Paruthipra.+Shoranur/data=!4m7!3m6!1s0x3ba7c4a152075bcb:0xf43fba40b79cfe25!8m2!3d10.7661995!4d76.2531657!16s%2Fg%2F11f31h22ms!19sChIJy1sHUqHEpzsRJf6ct0C6P_Q?authuser=0&hl=en&rclk=1",
        "coordinates": {
            "latitude": 10.766199499999999,
            "longitude": 76.2531657
        }
    },
    {
        "name": "Poiloor Juma Masjid",
        "main_category": "Mosque",
        "address": "Q798+24V Poiloor Juma Masjid, Shoranur, Kerala 679122",
        "detailed_address": {
            "ward": null,
            "street": "Q798+24V",
            "city": "Shoranur",
            "postal_code": "679122",
            "state": "Kerala",
            "country_code": "IN"
        },
        "images": [
            {
                "about": "All",
                "link": "https://lh5.googleusercontent.com/p/AF1QipNux2GCf2rcVaE6QJb9EVtZfPHM-iUrdyKnsNsV=w529-h298-k-no"
            },
            {
                "about": "Dome",
                "link": "https://lh5.googleusercontent.com/p/AF1QipPggLU74-o6bDU0N3NCIK8-GKnhvFk2kVxb1DSf=w224-h398-k-no"
            }
        ],
        "link": "https://www.google.com/maps/place/Poiloor+Juma+Masjid/data=!4m7!3m6!1s0x3ba7c4ac00000001:0x407aea2c2cfb6800!8m2!3d10.7676064!4d76.2652909!16s%2Fg%2F11dxd51pvh!19sChIJAQAAAKzEpzsRAGj7LCzqekA?authuser=0&hl=en&rclk=1",
        "coordinates": {
            "latitude": 10.7676064,
            "longitude": 76.2652909
        }
    },
    {
        "name": "KMM Juma Masjid",
        "main_category": "Mosque",
        "address": "KMM Juma Masjid, Zion Peace Nest, near Govt Press Quarters, Shoranur, Kerala 679122",
        "detailed_address": {
            "ward": null,
            "street": "Zion Peace Nest, near Govt Press Quarters",
            "city": "Shoranur",
            "postal_code": "679122",
            "state": "Kerala",
            "country_code": "IN"
        },
        "images": [
            {
                "about": "All",
                "link": "https://lh5.googleusercontent.com/p/AF1QipOqN4wwZED1zA9t-tIw3CHWrUUd-UV7q2SKe64=w662-h298-k-no"
            },
            {
                "about": "Street View & 360deg",
                "link": "https://streetviewpixels-pa.googleapis.com/v1/thumbnail?panoid=DvaE45N4hPjys32pppNTiA&cb_client=maps_sv.tactile.gps&w=224&h=298&yaw=320.5388&pitch=0&thumbfov=100"
            },
            {
                "about": "Videos",
                "link": "https://lh5.googleusercontent.com/p/AF1QipPiVgdNuheQtwrnl1gOIoZZ39HCIhPryBF3sVk=w224-h395-k-no"
            }
        ],
        "link": "https://www.google.com/maps/place/KMM+Juma+Masjid/data=!4m7!3m6!1s0x3ba7db871b58e565:0x972eb8e792acaf40!8m2!3d10.7719816!4d76.2769228!16s%2Fg%2F11llsx53tf!19sChIJZeVYG4fbpzsRQK-skue4Lpc?authuser=0&hl=en&rclk=1",
        "coordinates": {
            "latitude": 10.7719816,
            "longitude": 76.2769228
        }
    },
    {
        "name": "Nedungottur Masjid",
        "main_category": "Mosque",
        "address": "Q776+23H Nedungottur Masjid, Nedungotoor, Shoranur, Kerala 679123",
        "detailed_address": {
            "ward": "Nedungotoor",
            "street": "Q776+23H",
            "city": "Shoranur",
            "postal_code": "679123",
            "state": "Kerala",
            "country_code": "IN"
        },
        "images": [],
        "link": "https://www.google.com/maps/place/Nedungottur+Masjid/data=!4m7!3m6!1s0x3ba7c4a80fffffff:0x8cf5dd217872e0b7!8m2!3d10.7625603!4d76.2602222!16s%2Fg%2F11f03r8w1x!19sChIJ____D6jEpzsRt-ByeCHd9Yw?authuser=0&hl=en&rclk=1",
        "coordinates": {
            "latitude": 10.762560299999999,
            "longitude": 76.2602222
        }
    }
]