[
    {
        "name": "Titilagarh Mosque",
        "main_category": "Mosque",
        "address": "74QX+V2F Titilagarh Mosque, Masjid Rd, Neheru Nagar, Titilagarh, Odisha 767033",
        "detailed_address": {
            "ward": "Neheru Nagar",
            "street": "74QX+V2F, Masjid Rd",
            "city": "Titilagarh",
            "postal_code": "767033",
            "state": "Odisha",
            "country_code": "IN"
        },
        "images": [
            {
                "about": "All",
                "link": "https://lh5.googleusercontent.com/p/AF1QipO_OjU6qSb9VYtjR_6jCisVQL_p9Osp7TW1tjLX=w529-h298-k-no"
            },
            {
                "about": "Videos",
                "link": "https://lh5.googleusercontent.com/p/AF1QipOABfOAS4A33L3LjVNeN92cS2Tiul4r3Mn9JljZ=w224-h407-k-no"
            }
        ],
        "link": "https://www.google.com/maps/place/Titilagarh+Mosque/data=!4m7!3m6!1s0x3a24595f27d05b21:0x9b69c9a5146f572e!8m2!3d20.2896968!4d83.147546!16s%2Fg%2F124yf6vdz!19sChIJIVvQJ19ZJDoRLldvFKXJaZs?authuser=0&hl=en&rclk=1",
        "coordinates": {
            "latitude": 20.289696799999998,
            "longitude": 83.14754599999999
        }
    },
    {
        "name": "Masjid-e-Aayisha Ahl-e-hadees",
        "main_category": "Mosque",
        "address": "75M3+V76 Masjid-e-Aayisha Ahl-e-hadees, Padmanavapur, Titilagarh, Odisha 767033",
        "detailed_address": {
            "ward": "Padmanavapur",
            "street": "75M3+V76",
            "city": "Titilagarh",
            "postal_code": "767033",
            "state": "Odisha",
            "country_code": "IN"
        },
        "images": [
            {
                "about": "All",
                "link": "https://lh5.googleusercontent.com/p/AF1QipMI2swAJCXFTxXAmEaomny8Szk5MFMfWO3SHmo=w224-h398-k-no"
            },
            {
                "about": "Street View & 360deg",
                "link": "https://streetviewpixels-pa.googleapis.com/v1/thumbnail?panoid=8t51ONCOlRk-yMixU44QHw&cb_client=maps_sv.tactile.gps&w=224&h=298&yaw=251.74745&pitch=0&thumbfov=100"
            },
            {
                "about": "Videos",
                "link": "https://lh5.googleusercontent.com/p/AF1QipPSMK9opJwb7goi71W66KfRcodTwLPLBo5IHdrt=w238-h298-k-no"
            }
        ],
        "link": "https://www.google.com/maps/place/Masjid-e-Aayisha+Ahl-e-hadees/data=!4m7!3m6!1s0x3a245941639768dd:0xf87900144989026e!8m2!3d20.2846743!4d83.1531358!16s%2Fg%2F11fcpvl53v!19sChIJ3WiXY0FZJDoRbgKJSRQAefg?authuser=0&hl=en&rclk=1",
        "coordinates": {
            "latitude": 20.2846743,
            "longitude": 83.1531358
        }
    },
    {
        "name": "Masjid-e-Aayisha Ahl-e-hadees",
        "main_category": "Mosque",
        "address": "74PW+RMF Masjid-e-Aayisha Ahl-e-hadees, Bhagban Sahu Colony, masjid pada, Titilagarh, Odisha 767033",
        "detailed_address": {
            "ward": "Bhagban Sahu Colony, masjid pada",
            "street": "74PW+RMF",
            "city": "Titilagarh",
            "postal_code": "767033",
            "state": "Odisha",
            "country_code": "IN"
        },
        "images": [
            {
                "about": "All",
                "link": "https://lh5.googleusercontent.com/p/AF1QipPbvTiYWh0RxS_gJzt9XOrvCxlov6XQlx9sKkg=w224-h398-k-no"
            }
        ],
        "link": "https://www.google.com/maps/place/Masjid-e-Aayisha+Ahl-e-hadees/data=!4m7!3m6!1s0x3a24599ce04bdc61:0x3a36ead74c19acf0!8m2!3d20.2870675!4d83.1466705!16s%2Fg%2F11gmw8h52s!19sChIJYdxL4JxZJDoR8KwZTNfqNjo?authuser=0&hl=en&rclk=1",
        "coordinates": {
            "latitude": 20.2870675,
            "longitude": 83.1466705
        }
    }
]