[
    {
        "name": "Jama Masjid",
        "main_category": "Mosque",
        "address": "Jama Masjid, Old Delhi, Delhi, 110006",
        "detailed_address": {
            "ward": "Jama Masjid, Old Delhi",
            "street": null,
            "city": "Delhi",
            "postal_code": "110006",
            "state": "Delhi",
            "country_code": "IN"
        },
        "images": [
            {
                "about": "All",
                "link": "https://lh5.googleusercontent.com/p/AF1QipMak1D51ms3fAec8Hv85TWzznlDqiSG6WVzH1oo=w447-h298-k-no"
            },
            {
                "about": "Latest",
                "link": "https://lh5.googleusercontent.com/p/AF1QipNNRpm0-dXpgV9oJsKWwcImDfg9o81awCWu2hlm=w224-h398-k-no"
            },
            {
                "about": "Videos",
                "link": "https://lh5.googleusercontent.com/p/AF1QipMlxs5wfHk0o905fntq2LudrTJLkjZky0yCrLHV=w529-h298-k-no"
            },
            {
                "about": "National Boot House",
                "link": "https://lh5.googleusercontent.com/p/AF1QipM5PMl5iJ13XFmdtykdBe9uqqkRj7XNcGjDk_Gd=w529-h298-k-no"
            },
            {
                "about": "Dome",
                "link": "https://lh5.googleusercontent.com/p/AF1QipN2U6zM28o9erhatzJ_mJpeLOkFiGCQiEtj0B9g=w274-h298-k-no"
            },
            {
                "about": "Street View & 360deg",
                "link": "https://lh5.googleusercontent.com/p/AF1QipPz_Omqh6xT1_brAdCRe0ER_BM8EZGxJGXxUSA=w224-h298-k-no-pi-30.000002-ya291.3302-ro-0-fo100"
            }
        ],
        "link": "https://www.google.com/maps/place/Jama+Masjid/data=!4m7!3m6!1s0x390cfd18df89b215:0xdd57369e29bf9d96!8m2!3d28.6506792!4d77.2334421!16zL20vMDR5emo1!19sChIJFbKJ3xj9DDkRlp2_KZ42V90?authuser=0&hl=en&rclk=1",
        "coordinates": {
            "latitude": 28.6506792,
            "longitude": 77.23344209999999
        }
    },
    {
        "name": "Masjid-E-Mohammadia",
        "main_category": "Mosque",
        "address": "Masjid-E-Mohammadia, Sangareddy-Narsapur Rd, Borpatla, Telangana 502296",
        "detailed_address": {
            "ward": null,
            "street": "Sangareddy-Narsapur Rd",
            "city": "Borpatla",
            "postal_code": "502296",
            "state": "Telangana",
            "country_code": "IN"
        },
        "images": [
            {
                "about": "All",
                "link": "https://lh5.googleusercontent.com/p/AF1QipPFQZtTc6j_hcbLqsfnxi2l8yQnlfK7N_3D9W5s=w298-h298-k-no"
            },
            {
                "about": "By owner",
                "link": "https://lh5.googleusercontent.com/p/AF1QipOlDjOoDP5nv1BkRTh0eD0utTnKyBe5YShWBpbX=w529-h298-k-no"
            }
        ],
        "link": "https://www.google.com/maps/place/Masjid-E-Mohammadia/data=!4m7!3m6!1s0x3bcbf63af69bd2ad:0x3085c4a4362d5186!8m2!3d17.6745172!4d78.1696185!16s%2Fg%2F11bx1h1hmg!19sChIJrdKb9jr2yzsRhlEtNqTEhTA?authuser=0&hl=en&rclk=1",
        "coordinates": {
            "latitude": 17.6745172,
            "longitude": 78.1696185
        }
    },
    {
        "name": "Masjid e Abu Bakar",
        "main_category": "Mosque",
        "address": "Masjid e Abu Bakar, Nagullapally, Narsapur, Nagulpalle, Telangana 502313",
        "detailed_address": {
            "ward": "Nagullapally",
            "street": null,
            "city": "Narsapur, Nagulpalle",
            "postal_code": "502313",
            "state": "Telangana",
            "country_code": "IN"
        },
        "images": [
            {
                "about": "All",
                "link": "https://lh5.googleusercontent.com/p/AF1QipNlZsZnhgwIcEV265gl2ZGzRkJ_h2Stx3wSoiEB=w532-h298-k-no"
            },
            {
                "about": "By owner",
                "link": "https://lh5.googleusercontent.com/p/AF1QipNlZsZnhgwIcEV265gl2ZGzRkJ_h2Stx3wSoiEB=w532-h298-k-no"
            }
        ],
        "link": "https://www.google.com/maps/place/Masjid+e+Abu+Bakar/data=!4m7!3m6!1s0x3bcc0beb22cb7eed:0x987ccb7c1c163d03!8m2!3d17.7529984!4d78.2147026!16s%2Fg%2F11gxmh54mz!19sChIJ7X7LIusLzDsRAz0WHHzLfJg?authuser=0&hl=en&rclk=1",
        "coordinates": {
            "latitude": 17.7529984,
            "longitude": 78.2147026
        }
    },
    {
        "name": "Madina Masjid",
        "main_category": "Mosque",
        "address": "P7RJ+3VX Madina Masjid, SH6, Narsapur, Telangana 502313",
        "detailed_address": {
            "ward": null,
            "street": "P7RJ+3VX, SH6",
            "city": "Narsapur",
            "postal_code": "502313",
            "state": "Telangana",
            "country_code": "IN"
        },
        "images": [
            {
                "about": "All",
                "link": "https://lh5.googleusercontent.com/p/AF1QipP6Pal_Nli0ZiGkgW9dtTykQ_p31kaW9SivmN86=w397-h298-k-no"
            },
            {
                "about": "Street View & 360deg",
                "link": "https://streetviewpixels-pa.googleapis.com/v1/thumbnail?panoid=SNyHQcUcA4sm3fHD9svxvQ&cb_client=maps_sv.tactile.gps&w=224&h=298&yaw=235.4995&pitch=0&thumbfov=100"
            }
        ],
        "link": "https://www.google.com/maps/place/Madina+Masjid/data=!4m7!3m6!1s0x3bcc0ad78e528bed:0x748ac92266492d8e!8m2!3d17.7402407!4d78.282243!16s%2Fg%2F11g6vhnpj1!19sChIJ7YtSjtcKzDsRji1JZiLJinQ?authuser=0&hl=en&rclk=1",
        "coordinates": {
            "latitude": 17.740240699999998,
            "longitude": 78.282243
        }
    },
    {
        "name": "Masjid-e-noor, Panja Centre",
        "main_category": "Mosque",
        "address": "CMMW+4HF Masjid-e-noor, Panja Centre, Gandhi Nagar-I, Narsapur, Andhra Pradesh 534275",
        "detailed_address": {
            "ward": "Gandhi Nagar-I",
            "street": "CMMW+4HF",
            "city": "Narsapur",
            "postal_code": "534275",
            "state": "Andhra Pradesh",
            "country_code": "IN"
        },
        "images": [
            {
                "about": "All",
                "link": "https://lh5.googleusercontent.com/p/AF1QipPjjhQkyXhc9yA6IpjeRKUVCh5HHNlWsHLH-nvM=w224-h306-k-no"
            },
            {
                "about": "Street View & 360deg",
                "link": "https://streetviewpixels-pa.googleapis.com/v1/thumbnail?panoid=xw0FZ50OreSoGRjKoVgTUA&cb_client=maps_sv.tactile.gps&w=224&h=298&yaw=142.00092&pitch=0&thumbfov=100"
            }
        ],
        "link": "https://www.google.com/maps/place/Masjid-e-noor,+Panja+Centre/data=!4m7!3m6!1s0x3a37d9d97cdb04d9:0xad3990ed411f95d6!8m2!3d16.4328122!4d81.6964265!16s%2Fg%2F11dxrmblxp!19sChIJ2QTbfNnZNzoR1pUfQe2QOa0?authuser=0&hl=en&rclk=1",
        "coordinates": {
            "latitude": 16.4328122,
            "longitude": 81.6964265
        }
    },
    {
        "name": "Jamiya Mosque (Big)",
        "main_category": "Mosque",
        "address": "CMHW+8CW Jamiya Mosque (Big), Malem St, Gandhi Nagar-I, Narsapur, Andhra Pradesh 534275",
        "detailed_address": {
            "ward": "Gandhi Nagar-I",
            "street": "CMHW+8CW, Malem St",
            "city": "Narsapur",
            "postal_code": "534275",
            "state": "Andhra Pradesh",
            "country_code": "IN"
        },
        "images": [
            {
                "about": "All",
                "link": "https://lh5.googleusercontent.com/p/AF1QipN-2x25UdPD1M-18K2jvKppUpLDE6C-Df4IO-QE=w397-h298-k-no"
            },
            {
                "about": "Dome",
                "link": "https://lh5.googleusercontent.com/p/AF1QipOdDRWhQGiaH9bEXdLhF4gDWj3oWNenkONrVVkE=w529-h298-k-no"
            }
        ],
        "link": "https://www.google.com/maps/place/Jamiya+Mosque+%28Big%29/data=!4m7!3m6!1s0x3a37d9d74fbbad07:0xac02f0c03bdb735d!8m2!3d16.4283672!4d81.6960633!16s%2Fg%2F1yg6nr67c!19sChIJB627T9fZNzoRXXPbO8DwAqw?authuser=0&hl=en&rclk=1",
        "coordinates": {
            "latitude": 16.4283672,
            "longitude": 81.69606329999999
        }
    },
    {
        "name": "Masjid",
        "main_category": "Mosque",
        "address": "GP8J+QPM Masjid, Valluru - Palakollu Rd, Palakollu, Andhra Pradesh 534260",
        "detailed_address": {
            "ward": null,
            "street": "GP8J+QPM, Valluru - Palakollu Rd",
            "city": "Palakollu",
            "postal_code": "534260",
            "state": "Andhra Pradesh",
            "country_code": "IN"
        },
        "images": [
            {
                "about": "All",
                "link": "https://lh5.googleusercontent.com/p/AF1QipPwm12lGfwFfRM-jS-icl7snvc4TMlu1OB16lWI=w397-h298-k-no"
            },
            {
                "about": "Street View & 360deg",
                "link": "https://streetviewpixels-pa.googleapis.com/v1/thumbnail?panoid=JUYYlnwWr_rsZQs0EJ7-ug&cb_client=maps_sv.tactile.gps&w=224&h=298&yaw=158.45016&pitch=0&thumbfov=100"
            }
        ],
        "link": "https://www.google.com/maps/place/Masjid/data=!4m7!3m6!1s0x3a37dafe8c65b877:0x5645111d9b443ec!8m2!3d16.5169667!4d81.7317846!16s%2Fg%2F11g65g20cf!19sChIJd7hljP7aNzoR7EO02RFRZAU?authuser=0&hl=en&rclk=1",
        "coordinates": {
            "latitude": 16.516966699999998,
            "longitude": 81.7317846
        }
    },
    {
        "name": "Mosque",
        "main_category": "Mosque",
        "address": "M9H9+MG6 Mosque, Gummadidala, Telangana 502313",
        "detailed_address": {
            "ward": null,
            "street": "M9H9+MG6",
            "city": "Gummadidala",
            "postal_code": "502313",
            "state": "Telangana",
            "country_code": "IN"
        },
        "images": [
            {
                "about": "All",
                "link": "https://lh5.googleusercontent.com/p/AF1QipMnlG3GSSQCAc25fh3f6S7zF29xnkhZHAmMhy3D=w397-h298-k-no"
            }
        ],
        "link": "https://www.google.com/maps/place/Mosque/data=!4m7!3m6!1s0x3bcb8a164112f10b:0x217828ca98bb23a3!8m2!3d17.6791675!4d78.3687753!16s%2Fg%2F11f1vq7klb!19sChIJC_ESQRaKyzsRoyO7mMooeCE?authuser=0&hl=en&rclk=1",
        "coordinates": {
            "latitude": 17.6791675,
            "longitude": 78.3687753
        }
    },
    {
        "name": "Madina Masjid, Siddipet",
        "main_category": "Mosque",
        "address": "4V53+G3Q Madina Masjid, Siddipet, Paripally Street, Parupalliveedhi Parupalliveedhi Siddipet, Narsapur, Telangana 502103",
        "detailed_address": {
            "ward": "Parupalliveedhi",
            "street": "4V53+G3Q, Paripally Street, Parupalliveedhi Parupalliveedhi Siddipet",
            "city": "Narsapur, Siddipet",
            "postal_code": "502103",
            "state": "Telangana",
            "country_code": "IN"
        },
        "images": [
            {
                "about": "All",
                "link": "https://lh5.googleusercontent.com/p/AF1QipMPQUSHVzBcHtmTERwdY5_djt9p6SAwypqLb5yy=w397-h298-k-no"
            },
            {
                "about": "Street View & 360deg",
                "link": "https://streetviewpixels-pa.googleapis.com/v1/thumbnail?panoid=56lDYWLWSnJ1JBhG7dNusg&cb_client=maps_sv.tactile.gps&w=224&h=298&yaw=64.03543&pitch=0&thumbfov=100"
            }
        ],
        "link": "https://www.google.com/maps/place/Madina+Masjid,+Siddipet/data=!4m7!3m6!1s0x3bcced4e827a12cd:0x8e2b2cb5dcc58829!8m2!3d18.1088467!4d78.852734!16s%2Fg%2F12hmj4_xg!19sChIJzRJ6gk7tzDsRKYjF3LUsK44?authuser=0&hl=en&rclk=1",
        "coordinates": {
            "latitude": 18.1088467,
            "longitude": 78.852734
        }
    },
    {
        "name": "Masjid Kagaz Maddur,Narsapur Road,Telangana",
        "main_category": "Mosque",
        "address": "M7VJ+7QF Masjid Kagaz Maddur,Narsapur Road,Telangana, Kagazmaddur, Telangana 502313",
        "detailed_address": {
            "ward": null,
            "street": "M7VJ+7QF",
            "city": "Kagazmaddur",
            "postal_code": "502313",
            "state": "Telangana",
            "country_code": "IN"
        },
        "images": [
            {
                "about": "All",
                "link": "https://lh5.googleusercontent.com/p/AF1QipOql3pCPmt40fVBwWaI-GioJFypuLKpbXLJscJk=w529-h298-k-no"
            },
            {
                "about": "Street View & 360deg",
                "link": "https://streetviewpixels-pa.googleapis.com/v1/thumbnail?panoid=9MdLdttso6cz5djduS_Csg&cb_client=maps_sv.tactile.gps&w=224&h=298&yaw=176.91591&pitch=0&thumbfov=100"
            }
        ],
        "link": "https://www.google.com/maps/place/Masjid+Kagaz+Maddur,Narsapur+Road,Telangana/data=!4m7!3m6!1s0x3bcbf55787a7a5fb:0x263a63cf01a13b4b!8m2!3d17.6931998!4d78.2819073!16s%2Fg%2F11h9zhpj_z!19sChIJ-6Wnh1f1yzsRSzuhAc9jOiY?authuser=0&hl=en&rclk=1",
        "coordinates": {
            "latitude": 17.6931998,
            "longitude": 78.2819073
        }
    },
    {
        "name": "Mosque (Small)",
        "main_category": "Mosque",
        "address": "CMMX+546 Mosque (Small), Old Bazar Rd, Darbarevu, Narsapur, Andhra Pradesh 534275",
        "detailed_address": {
            "ward": "Darbarevu",
            "street": "CMMX+546, Old Bazar Rd",
            "city": "Narsapur",
            "postal_code": "534275",
            "state": "Andhra Pradesh",
            "country_code": "IN"
        },
        "images": [
            {
                "about": "All",
                "link": "https://lh5.googleusercontent.com/p/AF1QipOPy3MOoBM4Wi4KubTIlnQ8fADDBo2aJGrW8Qr0=w447-h298-k-no"
            }
        ],
        "link": "https://www.google.com/maps/place/Mosque+%28Small%29/data=!4m7!3m6!1s0x3a37d9dbc89b054f:0xef2523caab6d6f35!8m2!3d16.432908!4d81.6977772!16s%2Fg%2F1yg6nr6f_!19sChIJTwWbyNvZNzoRNW9tq8ojJe8?authuser=0&hl=en&rclk=1",
        "coordinates": {
            "latitude": 16.432907999999998,
            "longitude": 81.69777719999999
        }
    },
    {
        "name": "Masjid-e-Rahman",
        "main_category": "Mosque",
        "address": "J99P+J64 Masjid-e-Rahman, Beside Schnieder Electric, Village,, Hyderabad - Narsapur Rd, near Air Force Academy, Gagillapur, Hyderabad, Telangana 500043",
        "detailed_address": {
            "ward": "Gagillapur",
            "street": "J99P+J64, Beside Schnieder Electric, Village,, Hyderabad - Narsapur Rd, near Air Force Academy",
            "city": "Hyderabad",
            "postal_code": "500043",
            "state": "Telangana",
            "country_code": "IN"
        },
        "images": [
            {
                "about": "All",
                "link": "https://lh5.googleusercontent.com/p/AF1QipMd4P5kC2CKT1DxRTfuXYxZXcDbOV10ibdFp0hu=w397-h298-k-no"
            },
            {
                "about": "Street View & 360deg",
                "link": "https://streetviewpixels-pa.googleapis.com/v1/thumbnail?panoid=kXbodiOpw31CtApTl855tQ&cb_client=maps_sv.tactile.gps&w=224&h=298&yaw=244.14307&pitch=0&thumbfov=100"
            }
        ],
        "link": "https://www.google.com/maps/place/Masjid-e-Rahman/data=!4m7!3m6!1s0x3bcb8957eb445dff:0xb5af6b65e9ca8ac1!8m2!3d17.6190153!4d78.3855837!16s%2Fg%2F11c60j7f7g!19sChIJ_11E61eJyzsRwYrK6WVrr7U?authuser=0&hl=en&rclk=1",
        "coordinates": {
            "latitude": 17.6190153,
            "longitude": 78.3855837
        }
    },
    {
        "name": "Masjid E Sardar",
        "main_category": "Mosque",
        "address": "J3CP+G94 Masjid E Sardar, Nalsabgadda, Sangareddy, Telangana 502001",
        "detailed_address": {
            "ward": "Nalsabgadda",
            "street": "J3CP+G94",
            "city": "Sangareddy",
            "postal_code": "502001",
            "state": "Telangana",
            "country_code": "IN"
        },
        "images": [
            {
                "about": "All",
                "link": "https://lh5.googleusercontent.com/p/AF1QipNn1ihAEhrW0SKrS48dy8pFmpm6tCVq5SknG5NZ=w224-h397-k-no"
            },
            {
                "about": "Street View & 360deg",
                "link": "https://lh5.googleusercontent.com/p/AF1QipNgbXMxU_j4HZ-TwlBZpKJD4Qu2I01OEtgyA3zU=w224-h298-k-no-pi-10-ya14.000005-ro-0-fo100"
            }
        ],
        "link": "https://www.google.com/maps/place/Masjid+E+Sardar/data=!4m7!3m6!1s0x3bcbf9a644c17351:0x26fc01deaa3ae23b!8m2!3d17.6212721!4d78.0859594!16s%2Fg%2F11h5vjspg7!19sChIJUXPBRKb5yzsRO-I6qt4B_CY?authuser=0&hl=en&rclk=1",
        "coordinates": {
            "latitude": 17.6212721,
            "longitude": 78.0859594
        }
    },
    {
        "name": "Jamia Masjid",
        "main_category": "Mosque",
        "address": "9PWX+8JX Jamia Masjid, Andhra Pradesh 533252",
        "detailed_address": {
            "ward": null,
            "street": "9PWX+8JX",
            "city": null,
            "postal_code": "533252",
            "state": "Andhra Pradesh",
            "country_code": "IN"
        },
        "images": [
            {
                "about": "All",
                "link": "https://lh5.googleusercontent.com/p/AF1QipPZPJWHjBFLglb1Yn5daH2E59wZCWb_gYoE6b3v=w397-h298-k-no"
            }
        ],
        "link": "https://www.google.com/maps/place/Jamia+Masjid/data=!4m7!3m6!1s0x3a37d8932e85d5b5:0xb04171375b3f09a7!8m2!3d16.3958625!4d81.7491107!16s%2Fg%2F11c6vhvbxw!19sChIJtdWFLpPYNzoRpwk_WzdxQbA?authuser=0&hl=en&rclk=1",
        "coordinates": {
            "latitude": 16.3958625,
            "longitude": 81.7491107
        }
    },
    {
        "name": "JAMIA MASJID",
        "main_category": "Mosque",
        "address": "9QWF+P22 JAMIA MASJID, Andhra Pradesh 533252",
        "detailed_address": {
            "ward": null,
            "street": "9QWF+P22",
            "city": null,
            "postal_code": "533252",
            "state": "Andhra Pradesh",
            "country_code": "IN"
        },
        "images": [
            {
                "about": "All",
                "link": "https://lh5.googleusercontent.com/p/AF1QipN5tZJj6ronBr2veZYvjUcgKuNnlJWxk8hkuDIx=w529-h298-k-no"
            }
        ],
        "link": "https://www.google.com/maps/place/JAMIA+MASJID/data=!4m7!3m6!1s0x3a37d8b61b521da5:0x447b63f4cf341be9!8m2!3d16.3967539!4d81.772529!16s%2Fg%2F11cls6nslv!19sChIJpR1SG7bYNzoR6Rs0z_Rje0Q?authuser=0&hl=en&rclk=1",
        "coordinates": {
            "latitude": 16.3967539,
            "longitude": 81.77252899999999
        }
    },
    {
        "name": "Jamiyan Masjid Narsapur",
        "main_category": "Mosque",
        "address": "42M4+W7C Jamiyan Masjid Narsapur, Kurki, Karnataka 563133",
        "detailed_address": {
            "ward": null,
            "street": "42M4+W7C",
            "city": "Kurki",
            "postal_code": "563133",
            "state": "Karnataka",
            "country_code": "IN"
        },
        "images": [],
        "link": "https://www.google.com/maps/place/Jamiyan+Masjid+Narsapur/data=!4m7!3m6!1s0x3badfc6f9b8ea269:0xb828a0d261febf32!8m2!3d13.1348035!4d78.0056521!16s%2Fg%2F11c508mg80!19sChIJaaKOm2_8rTsRMr_-YdKgKLg?authuser=0&hl=en&rclk=1",
        "coordinates": {
            "latitude": 13.134803499999999,
            "longitude": 78.00565209999999
        }
    },
    {
        "name": "Al Jamia Masjid",
        "main_category": "Mosque",
        "address": "264J+J9W Al Jamia Masjid, SH 83, Narasapur, Karnataka 591130",
        "detailed_address": {
            "ward": null,
            "street": "264J+J9W, SH 83",
            "city": "Narasapur",
            "postal_code": "591130",
            "state": "Karnataka",
            "country_code": "IN"
        },
        "images": [
            {
                "about": "All",
                "link": "https://lh5.googleusercontent.com/p/AF1QipMFLwv7P5gEfsFOdXyATB10kSyVCKk45E3RDbk7=w224-h398-k-no"
            }
        ],
        "link": "https://www.google.com/maps/place/Al+Jamia+Masjid/data=!4m7!3m6!1s0x3bb8a74a578bbf23:0x89f6c06643ba9d74!8m2!3d16.0066174!4d75.2309488!16s%2Fg%2F11h5vkqn57!19sChIJI7-LV0qnuDsRdJ26Q2bA9ok?authuser=0&hl=en&rclk=1",
        "coordinates": {
            "latitude": 16.0066174,
            "longitude": 75.2309488
        }
    },
    {
        "name": "Masjid-E-Sydena umer Farooq",
        "main_category": "Mosque",
        "address": "M6P2+RP8 Masjid-E-Sydena umer Farooq, Sangareddy-Narsapur Road, Narsapur, Telangana 502296",
        "detailed_address": {
            "ward": null,
            "street": "M6P2+RP8, Sangareddy-Narsapur Road",
            "city": "Narsapur",
            "postal_code": "502296",
            "state": "Telangana",
            "country_code": "IN"
        },
        "images": [
            {
                "about": "All",
                "link": "https://lh5.googleusercontent.com/p/AF1QipO2eXOh83yr2uBKl-tjzDSPfvFND-M6kywtF9px=w528-h298-k-no"
            }
        ],
        "link": "https://www.google.com/maps/place/Masjid-E-Sydena+umer+Farooq/data=!4m7!3m6!1s0x3bcbf6009cd1b0e1:0x6cb900667c751e87!8m2!3d17.6870397!4d78.2018255!16s%2Fg%2F11clzk4tfz!19sChIJ4bDRnAD2yzsRhx51fGYAuWw?authuser=0&hl=en&rclk=1",
        "coordinates": {
            "latitude": 17.6870397,
            "longitude": 78.2018255
        }
    },
    {
        "name": "Markaz Masjid, Tailorpate",
        "main_category": "Mosque",
        "address": "CMPX+MM5 Markaz Masjid, Tailorpate, Roypeta, Narsapur, Andhra Pradesh 534275",
        "detailed_address": {
            "ward": "Roypeta",
            "street": "CMPX+MM5",
            "city": "Narsapur",
            "postal_code": "534275",
            "state": "Andhra Pradesh",
            "country_code": "IN"
        },
        "images": [],
        "link": "https://www.google.com/maps/place/Markaz+Masjid,+Tailorpate/data=!4m7!3m6!1s0x3a37d9dc600be30b:0x1bc0752bb49e8fb7!8m2!3d16.4366265!4d81.6992356!16s%2Fg%2F11g71tsp8w!19sChIJC-MLYNzZNzoRt4-etCt1wBs?authuser=0&hl=en&rclk=1",
        "coordinates": {
            "latitude": 16.4366265,
            "longitude": 81.6992356
        }
    },
    {
        "name": "Jama Masjid",
        "main_category": "Mosque",
        "address": "Jama Masjid, Station Rd - Bijlipur, Manoharabad, Telangana 502336",
        "detailed_address": {
            "ward": null,
            "street": "Station Rd - Bijlipur",
            "city": "Manoharabad",
            "postal_code": "502336",
            "state": "Telangana",
            "country_code": "IN"
        },
        "images": [
            {
                "about": "All",
                "link": "https://lh5.googleusercontent.com/p/AF1QipMODl9hxopLdekiW5mehqBoU4Ufl2g-Sx29_WII=w425-h298-k-no"
            },
            {
                "about": "Latest",
                "link": "https://lh5.googleusercontent.com/p/AF1QipPXEqXGUcCQS4dL7-b5mpwaE752CMK8nywHp4fT=w224-h398-k-no"
            },
            {
                "about": "Videos",
                "link": "https://lh5.googleusercontent.com/p/AF1QipNl4SSe-vgC_X08MAOqhqFzO7xxlgdldbfYR9N2=w541-h298-k-no"
            },
            {
                "about": "By owner",
                "link": "https://lh5.googleusercontent.com/p/AF1QipPRZ9N5xCWtDj7xXVHuTLzpQULqEAv6DmjlmSt7=w659-h298-k-no"
            },
            {
                "about": "Street View & 360deg",
                "link": "https://streetviewpixels-pa.googleapis.com/v1/thumbnail?panoid=YZLhi7HitaMIClOKrFz1AQ&cb_client=maps_sv.tactile.gps&w=224&h=298&yaw=180.61786&pitch=0&thumbfov=100"
            }
        ],
        "link": "https://www.google.com/maps/place/Jama+Masjid/data=!4m7!3m6!1s0x3bcc77655b48409f:0x59b1edf3d34e3aff!8m2!3d17.765758!4d78.4645!16s%2Fg%2F11g71t_n69!19sChIJn0BIW2V3zDsR_zpO0_PtsVk?authuser=0&hl=en&rclk=1",
        "coordinates": {
            "latitude": 17.765757999999998,
            "longitude": 78.4645
        }
    },
    {
        "name": "Jamia Masjid [Markaz Hathnoora]",
        "main_category": "Mosque",
        "address": "Jamia Masjid [Markaz Hathnoora], Hathnoora, Telangana 502296",
        "detailed_address": {
            "ward": null,
            "street": null,
            "city": "Hathnoora",
            "postal_code": "502296",
            "state": "Telangana",
            "country_code": "IN"
        },
        "images": [
            {
                "about": "All",
                "link": "https://lh5.googleusercontent.com/p/AF1QipNxpzSKcU6_AZdaknV_N0bfnQKITCJBM64E1NCU=w648-h298-k-no"
            },
            {
                "about": "By owner",
                "link": "https://lh5.googleusercontent.com/p/AF1QipN3ckVrqRjn7GRCnQXgFJNHA5BnWYu5zlPr6lf5=w298-h298-k-no"
            },
            {
                "about": "Street View & 360deg",
                "link": "https://lh5.googleusercontent.com/p/AF1QipM2KVAl93sU6r1XgT5jHFoMF-nncQ88Kg6fOFs2=w224-h298-k-no-pi-10-ya284-ro-0-fo100"
            }
        ],
        "link": "https://www.google.com/maps/place/Jamia+Masjid+%5BMarkaz+Hathnoora%5D/data=!4m7!3m6!1s0x3bcc0906405bdf49:0x6fd4854ec6814436!8m2!3d17.739403!4d78.166117!16s%2Fg%2F11d_9fws1d!19sChIJSd9bQAYJzDsRNkSBxk6F1G8?authuser=0&hl=en&rclk=1",
        "coordinates": {
            "latitude": 17.739403,
            "longitude": 78.166117
        }
    },
    {
        "name": "jama masjid",
        "main_category": "Mosque",
        "address": "4556+99V jama masjid, Narsapur, Telangana 504104",
        "detailed_address": {
            "ward": null,
            "street": "4556+99V",
            "city": "Narsapur",
            "postal_code": "504104",
            "state": "Telangana",
            "country_code": "IN"
        },
        "images": [
            {
                "about": "All",
                "link": "https://lh5.googleusercontent.com/p/AF1QipOPIP1qQg97_iSKy4lRKYYJ6tC5zEqYZf_iVK0D=w529-h298-k-no"
            }
        ],
        "link": "https://www.google.com/maps/place/jama+masjid/data=!4m7!3m6!1s0x3bcdf6debe130ce1:0x496ea4eb093e0f95!8m2!3d19.1084754!4d78.1609358!16s%2Fg%2F11dymkzz5r!19sChIJ4QwTvt72zTsRlQ8-Ceukbkk?authuser=0&hl=en&rclk=1",
        "coordinates": {
            "latitude": 19.1084754,
            "longitude": 78.16093579999999
        }
    },
    {
        "name": "Mastan Baba Dargah",
        "main_category": "Mosque",
        "address": "CMJW+CR7 Mastan Baba Dargah, Darga St, Darbarevu, Narsapur, Andhra Pradesh 534275",
        "detailed_address": {
            "ward": "Darbarevu",
            "street": "CMJW+CR7, Darga St",
            "city": "Narsapur",
            "postal_code": "534275",
            "state": "Andhra Pradesh",
            "country_code": "IN"
        },
        "images": [
            {
                "about": "All",
                "link": "https://lh5.googleusercontent.com/p/AF1QipMUpXEEq-oPFFJfHVNGvC7nD-6I3E-0X4FHUyZB=w523-h298-k-no"
            },
            {
                "about": "Street View & 360deg",
                "link": "https://streetviewpixels-pa.googleapis.com/v1/thumbnail?panoid=I7unoTVJ4jojAQccLmZqCQ&cb_client=maps_sv.tactile.gps&w=224&h=298&yaw=121.06759&pitch=0&thumbfov=100"
            },
            {
                "about": "Videos",
                "link": "https://lh5.googleusercontent.com/p/AF1QipO0EmCOIH_MGj9WbpJwIHu2OddYkh6JvDZ3KB_o=w224-h407-k-no"
            }
        ],
        "link": "https://www.google.com/maps/place/Mastan+Baba+Dargah/data=!4m7!3m6!1s0x3a37d9da38ff30b7:0x3b4d8a1058c415f6!8m2!3d16.4310314!4d81.6970467!16s%2Fg%2F11gdy347wy!19sChIJtzD_ONrZNzoR9hXEWBCKTTs?authuser=0&hl=en&rclk=1",
        "coordinates": {
            "latitude": 16.4310314,
            "longitude": 81.6970467
        }
    },
    {
        "name": "Jama Masjid",
        "main_category": "Mosque",
        "address": "H6WR+W3Q Jama Masjid, Narsapur Patancheru Rd, Peddakanjerla, Telangana 502319",
        "detailed_address": {
            "ward": null,
            "street": "H6WR+W3Q, Narsapur Patancheru Rd",
            "city": "Peddakanjerla",
            "postal_code": "502319",
            "state": "Telangana",
            "country_code": "IN"
        },
        "images": [
            {
                "about": "All",
                "link": "https://lh5.googleusercontent.com/p/AF1QipPvgUsWe1X5_gpkmw3NDbwzYKMW2emxOTtR15vb=w397-h298-k-no"
            },
            {
                "about": "Street View & 360deg",
                "link": "https://streetviewpixels-pa.googleapis.com/v1/thumbnail?panoid=wVIuG-zOU-nJyA64jHRo9A&cb_client=maps_sv.tactile.gps&w=224&h=298&yaw=49.308502&pitch=0&thumbfov=100"
            }
        ],
        "link": "https://www.google.com/maps/place/Jama+Masjid/data=!4m7!3m6!1s0x3bcbf38719482939:0x91fe9cbc32e1ff5d!8m2!3d17.5973322!4d78.2402265!16s%2Fg%2F11f1tb21bq!19sChIJOSlIGYfzyzsRXf_hMryc_pE?authuser=0&hl=en&rclk=1",
        "coordinates": {
            "latitude": 17.5973322,
            "longitude": 78.24022649999999
        }
    },
    {
        "name": "Masjid e Meraj",
        "main_category": "Mosque",
        "address": "V5GR+MMR Masjid e Meraj, Near Kannavaram Cheruvu, Mohammednagar, Telangana 502316",
        "detailed_address": {
            "ward": null,
            "street": "V5GR+MMR, Near Kannavaram Cheruvu",
            "city": "Mohammednagar",
            "postal_code": "502316",
            "state": "Telangana",
            "country_code": "IN"
        },
        "images": [
            {
                "about": "All",
                "link": "https://lh5.googleusercontent.com/p/AF1QipOxgs3nCJxizmVa4xz5naZSWprmfvY2e_m3zV2-=w529-h298-k-no"
            }
        ],
        "link": "https://www.google.com/maps/place/Masjid+e+Meraj/data=!4m7!3m6!1s0x3bcc11fd58dc9eaf:0x58fc9f68d63f145a!8m2!3d17.8767431!4d78.1916422!16s%2Fg%2F11f4033lyb!19sChIJr57cWP0RzDsRWhQ_1mif_Fg?authuser=0&hl=en&rclk=1",
        "coordinates": {
            "latitude": 17.8767431,
            "longitude": 78.19164219999999
        }
    },
    {
        "name": "Masjid Al Falah",
        "main_category": "Mosque",
        "address": "FMJ8+3XG Masjid Al Falah, Narsapur, Andhra Pradesh 534275",
        "detailed_address": {
            "ward": null,
            "street": "FMJ8+3XG",
            "city": "Narsapur",
            "postal_code": "534275",
            "state": "Andhra Pradesh",
            "country_code": "IN"
        },
        "images": [
            {
                "about": "All",
                "link": "https://lh5.googleusercontent.com/p/AF1QipMCPZo1Y6BDTlGpVAo9c-WDkJIwjQ38sVts3BrQ=w529-h298-k-no"
            },
            {
                "about": "Videos",
                "link": "https://lh5.googleusercontent.com/p/AF1QipMc88QjEf3MaqAh_LSE8_9cpW4L-G5b0JK6E_Te=w224-h397-k-no"
            }
        ],
        "link": "https://www.google.com/maps/place/Masjid+Al+Falah/data=!4m7!3m6!1s0x3a37d1bee9307f1d:0x14b57658f06ee10d!8m2!3d16.480191!4d81.6674441!16s%2Fg%2F11ss6shr99!19sChIJHX8w6b7RNzoRDeFu8Fh2tRQ?authuser=0&hl=en&rclk=1",
        "coordinates": {
            "latitude": 16.480190999999998,
            "longitude": 81.6674441
        }
    },
    {
        "name": "Masjid-E-Hanafia",
        "main_category": "Mosque",
        "address": "7-5-25, Masjid-E-Hanafia, Pulavarthy's Building, palurivari street, Maseed Rd, Karri Satyavathi Nagar, Tadepalligudem, Andhra Pradesh 534101",
        "detailed_address": {
            "ward": "Karri Satyavathi Nagar",
            "street": "7-5-25, Pulavarthy's Building, palurivari street, Maseed Rd",
            "city": "Tadepalligudem",
            "postal_code": "534101",
            "state": "Andhra Pradesh",
            "country_code": "IN"
        },
        "images": [
            {
                "about": "All",
                "link": "https://lh5.googleusercontent.com/p/AF1QipNvq3m_sdNhKXNrwybOdkAvQaku2PohBJOBABYZ=w224-h298-k-no"
            },
            {
                "about": "Dome",
                "link": "https://lh5.googleusercontent.com/p/AF1QipPbIEnN4WbR21MCBtqr_MsjhP9xKRHPUelP6a-y=w224-h398-k-no"
            },
            {
                "about": "Street View & 360deg",
                "link": "https://streetviewpixels-pa.googleapis.com/v1/thumbnail?panoid=QjeaseJ-H88hknDTlNQ_gA&cb_client=maps_sv.tactile.gps&w=224&h=298&yaw=90.89049&pitch=0&thumbfov=100"
            }
        ],
        "link": "https://www.google.com/maps/place/Masjid-E-Hanafia/data=!4m7!3m6!1s0x3a37b5a38f1dcc69:0xeb27f4d36eebd1b9!8m2!3d16.8115722!4d81.5334393!16s%2Fg%2F11hz15h2pq!19sChIJacwdj6O1NzoRudHrbtP0J-s?authuser=0&hl=en&rclk=1",
        "coordinates": {
            "latitude": 16.8115722,
            "longitude": 81.5334393
        }
    },
    {
        "name": "New Masjid",
        "main_category": "Mosque",
        "address": "4536+837 New Masjid, Narsapur, Telangana 504104",
        "detailed_address": {
            "ward": null,
            "street": "4536+837",
            "city": "Narsapur",
            "postal_code": "504104",
            "state": "Telangana",
            "country_code": "IN"
        },
        "images": [
            {
                "about": "All",
                "link": "https://lh5.googleusercontent.com/p/AF1QipM54G4ao8KLpfnUMityNPwDLhIOdlgeLBJaLwfm=w239-h298-k-no"
            },
            {
                "about": "Dome",
                "link": "https://lh5.googleusercontent.com/p/AF1QipM54G4ao8KLpfnUMityNPwDLhIOdlgeLBJaLwfm=w239-h298-k-no"
            }
        ],
        "link": "https://www.google.com/maps/place/New+Masjid/data=!4m7!3m6!1s0x3bcdf6d9badf7107:0x959db33fe812bc3a!8m2!3d19.1032998!4d78.1601806!16s%2Fg%2F11dyqr83fc!19sChIJB3Hfutn2zTsROrwS6D-znZU?authuser=0&hl=en&rclk=1",
        "coordinates": {
            "latitude": 19.1032998,
            "longitude": 78.16018059999999
        }
    },
    {
        "name": "Masjid-E-Gousia",
        "main_category": "Mosque",
        "address": "Masjid-E-Gousia, Bus Stop, Narsapur, Telangana 502279",
        "detailed_address": {
            "ward": null,
            "street": "Bus Stop",
            "city": "Narsapur",
            "postal_code": "502279",
            "state": "Telangana",
            "country_code": "IN"
        },
        "images": [
            {
                "about": "All",
                "link": "https://lh5.googleusercontent.com/p/AF1QipMqsg-QSacIiX9ecoz-cpzk6smg49VWLREP693e=w529-h298-k-no"
            }
        ],
        "link": "https://www.google.com/maps/place/Masjid-E-Gousia/data=!4m7!3m6!1s0x3bcc7f4be83527cb:0x4de26fd2e77d9ff5!8m2!3d17.7289961!4d78.566564!16s%2Fg%2F11fv46hfhn!19sChIJyyc16Et_zDsR9Z9959Jv4k0?authuser=0&hl=en&rclk=1",
        "coordinates": {
            "latitude": 17.7289961,
            "longitude": 78.566564
        }
    },
    {
        "name": "Masjid E Nazeer",
        "main_category": "Mosque",
        "address": "P765+4CR Masjid E Nazeer, Unnamed Road, Awancha, Telangana 502313",
        "detailed_address": {
            "ward": null,
            "street": "P765+4CR, Unnamed Road",
            "city": "Awancha",
            "postal_code": "502313",
            "state": "Telangana",
            "country_code": "IN"
        },
        "images": [
            {
                "about": "All",
                "link": "https://lh5.googleusercontent.com/p/AF1QipMsQoICVVswWo-FOunlyYyUUxtdEkCamCEbJRkZ=w397-h298-k-no"
            },
            {
                "about": "Street View & 360deg",
                "link": "https://streetviewpixels-pa.googleapis.com/v1/thumbnail?panoid=jYMle969_EfOukoitZYSJQ&cb_client=maps_sv.tactile.gps&w=224&h=298&yaw=26.853373&pitch=0&thumbfov=100"
            }
        ],
        "link": "https://www.google.com/maps/place/Masjid+E+Nazeer/data=!4m7!3m6!1s0x3bcc0b7701e46a17:0x615ab5a16c2482d7!8m2!3d17.710373!4d78.258501!16s%2Fg%2F11nnn2dnm1!19sChIJF2rkAXcLzDsR14IkbKG1WmE?authuser=0&hl=en&rclk=1",
        "coordinates": {
            "latitude": 17.710373,
            "longitude": 78.258501
        }
    },
    {
        "name": "Jamia Masjid",
        "main_category": "Mosque",
        "address": "Jamia Masjid, Narsapura, Kurki, Karnataka 563133",
        "detailed_address": {
            "ward": null,
            "street": null,
            "city": "Narsapura, Kurki",
            "postal_code": "563133",
            "state": "Karnataka",
            "country_code": "IN"
        },
        "images": [
            {
                "about": "All",
                "link": "https://lh5.googleusercontent.com/p/AF1QipPSvoDC7BnrL9jWt-Z8D730eNQbkLUzbRP-aHp1=w224-h398-k-no"
            }
        ],
        "link": "https://www.google.com/maps/place/Jamia+Masjid/data=!4m7!3m6!1s0x3badfd359fb22fcb:0x2146a6242159d33d!8m2!3d13.1380248!4d78.0050132!16s%2Fg%2F11j3shfw_0!19sChIJyy-ynzX9rTsRPdNZISSmRiE?authuser=0&hl=en&rclk=1",
        "coordinates": {
            "latitude": 13.1380248,
            "longitude": 78.0050132
        }
    },
    {
        "name": "Masjid e abubakr",
        "main_category": "Mosque",
        "address": "GPHG+476 Masjid e abubakr, Brodipet Rd, Brodipet, Palakollu, Andhra Pradesh 534260",
        "detailed_address": {
            "ward": "Brodipet",
            "street": "GPHG+476, Brodipet Rd",
            "city": "Palakollu",
            "postal_code": "534260",
            "state": "Andhra Pradesh",
            "country_code": "IN"
        },
        "images": [
            {
                "about": "All",
                "link": "https://lh5.googleusercontent.com/p/AF1QipNEr0yYWyBhJTAGDuyNNaPjzGBXb5wb_23Ul2gJ=w224-h298-k-no"
            },
            {
                "about": "Street View & 360deg",
                "link": "https://streetviewpixels-pa.googleapis.com/v1/thumbnail?panoid=oioWJCy1hMetWbZUYFfiUw&cb_client=maps_sv.tactile.gps&w=224&h=298&yaw=114.02773&pitch=0&thumbfov=100"
            }
        ],
        "link": "https://www.google.com/maps/place/Masjid+e+abubakr/data=!4m7!3m6!1s0x3a37dbd2cb9544d5:0x2bf027824a205ca1!8m2!3d16.5277995!4d81.725638!16s%2Fg%2F11h1p020_p!19sChIJ1USVy9LbNzoRoVwgSoIn8Cs?authuser=0&hl=en&rclk=1",
        "coordinates": {
            "latitude": 16.5277995,
            "longitude": 81.72563799999999
        }
    },
    {
        "name": "Madina Masjid",
        "main_category": "Mosque",
        "address": "MW9F+MJV Madina Masjid, Narsapur, Bellal Tarafa (Bodhan Rural), Telangana 503180",
        "detailed_address": {
            "ward": null,
            "street": "MW9F+MJV, Narsapur",
            "city": "Bellal Tarafa (Bodhan Rural), Narsapur",
            "postal_code": "503180",
            "state": "Telangana",
            "country_code": "IN"
        },
        "images": [
            {
                "about": "All",
                "link": "https://lh5.googleusercontent.com/p/AF1QipNfKdKki1Rjsct-jrj-yNt60jo_K69GBzicho8S=w224-h398-k-no"
            },
            {
                "about": "Street View & 360deg",
                "link": "https://streetviewpixels-pa.googleapis.com/v1/thumbnail?panoid=q1195G7wuAQlOk5dP0fARg&cb_client=maps_sv.tactile.gps&w=224&h=298&yaw=250.44238&pitch=0&thumbfov=100"
            },
            {
                "about": "Videos",
                "link": "https://lh5.googleusercontent.com/p/AF1QipOnYeNXxl-lanFLbG0wjNHOnY-pIbZum678-fQx=w224-h395-k-no"
            }
        ],
        "link": "https://www.google.com/maps/place/Madina+Masjid/data=!4m7!3m6!1s0x3bce7739a181d1bf:0x619cbe01be8bbfe9!8m2!3d18.6692439!4d77.9240619!16s%2Fg%2F11j6jmhyg1!19sChIJv9GBoTl3zjsR6b-LvgG-nGE?authuser=0&hl=en&rclk=1",
        "coordinates": {
            "latitude": 18.669243899999998,
            "longitude": 77.9240619
        }
    },
    {
        "name": "MADINA MASJID",
        "main_category": "Mosque",
        "address": "Q944+V65 MADINA MASJID, Unnamed Road, Shivampet, Telangana 502313",
        "detailed_address": {
            "ward": null,
            "street": "Q944+V65, Unnamed Road",
            "city": "Shivampet",
            "postal_code": "502313",
            "state": "Telangana",
            "country_code": "IN"
        },
        "images": [
            {
                "about": "All",
                "link": "https://lh5.googleusercontent.com/p/AF1QipOJx5grNH7DO01ic6M-zKl9E5ZmjWCuGRVWFXEl=w224-h369-k-no"
            }
        ],
        "link": "https://www.google.com/maps/place/MADINA+MASJID/data=!4m7!3m6!1s0x3bcc75edfc0a4031:0x22d025056594843d!8m2!3d17.7571429!4d78.3556041!16s%2Fg%2F11fnwtz7p8!19sChIJMUAK_O11zDsRPYSUZQUl0CI?authuser=0&hl=en&rclk=1",
        "coordinates": {
            "latitude": 17.757142899999998,
            "longitude": 78.3556041
        }
    },
    {
        "name": "NOOR MUHAMMAD MASJID",
        "main_category": "Religious destination",
        "address": "P7QJ+9FF NOOR MUHAMMAD MASJID, Narsapur, Telangana 502313",
        "detailed_address": {
            "ward": null,
            "street": "P7QJ+9FF",
            "city": "Narsapur",
            "postal_code": "502313",
            "state": "Telangana",
            "country_code": "IN"
        },
        "images": [],
        "link": "https://www.google.com/maps/place/NOOR+MUHAMMAD+MASJID/data=!4m7!3m6!1s0x3bcc0b9677c35719:0xc776f9e3af413d48!8m2!3d17.7384405!4d78.2811813!16s%2Fg%2F11f7mt403s!19sChIJGVfDd5YLzDsRSD1Br-P5dsc?authuser=0&hl=en&rclk=1",
        "coordinates": {
            "latitude": 17.7384405,
            "longitude": 78.2811813
        }
    },
    {
        "name": "Jama Masjid",
        "main_category": "Mosque",
        "address": "7G39+969 Jama Masjid, Mangapet (Podmur), Narsapur, Telangana 506172",
        "detailed_address": {
            "ward": null,
            "street": "7G39+969",
            "city": "Mangapet (Podmur), Narsapur",
            "postal_code": "506172",
            "state": "Telangana",
            "country_code": "IN"
        },
        "images": [
            {
                "about": "All",
                "link": "https://streetviewpixels-pa.googleapis.com/v1/thumbnail?panoid=DF6UIVN37wf3Bc42bdVBpA&cb_client=maps_sv.tactile.gps&w=224&h=298&yaw=241.29648&pitch=0&thumbfov=100"
            },
            {
                "about": "Dome",
                "link": "https://lh5.googleusercontent.com/p/AF1QipPsEAaiQTA49FB44PlcFSijKnETmFtDVP0Ynbhv=w397-h298-k-no"
            },
            {
                "about": "Street View & 360deg",
                "link": "https://streetviewpixels-pa.googleapis.com/v1/thumbnail?panoid=DF6UIVN37wf3Bc42bdVBpA&cb_client=maps_sv.tactile.gps&w=224&h=298&yaw=241.29648&pitch=0&thumbfov=100"
            }
        ],
        "link": "https://www.google.com/maps/place/Jama+Masjid/data=!4m7!3m6!1s0x3a33c1124553168d:0xe55f03fb993d4824!8m2!3d18.2534097!4d80.5181238!16s%2Fg%2F11c53jm3jt!19sChIJjRZTRRLBMzoRJEg9mfsDX-U?authuser=0&hl=en&rclk=1",
        "coordinates": {
            "latitude": 18.2534097,
            "longitude": 80.5181238
        }
    },
    {
        "name": "Masjid-e-Acqsa",
        "main_category": "Mosque",
        "address": "CQ72+5CM Masjid-e-Acqsa, Andhra Pradesh 533251",
        "detailed_address": {
            "ward": null,
            "street": "CQ72+5CM",
            "city": null,
            "postal_code": "533251",
            "state": "Andhra Pradesh",
            "country_code": "IN"
        },
        "images": [],
        "link": "https://www.google.com/maps/place/Masjid-e-Acqsa/data=!4m7!3m6!1s0x3a37d8e41b7fc4e5:0x83bc246410b6723c!8m2!3d16.4129523!4d81.751046!16s%2Fg%2F11c58sf92c!19sChIJ5cR_G-TYNzoRPHK2EGQkvIM?authuser=0&hl=en&rclk=1",
        "coordinates": {
            "latitude": 16.4129523,
            "longitude": 81.751046
        }
    },
    {
        "name": "Masjid-e-nawabi",
        "main_category": "Mosque",
        "address": "GJQC+FF7 Masjid-e-nawabi, PP Rd, Veeravasaram, Andhra Pradesh 534245",
        "detailed_address": {
            "ward": null,
            "street": "GJQC+FF7, PP Rd",
            "city": "Veeravasaram",
            "postal_code": "534245",
            "state": "Andhra Pradesh",
            "country_code": "IN"
        },
        "images": [
            {
                "about": "All",
                "link": "https://lh5.googleusercontent.com/p/AF1QipN6wy_6rT44-ppSWgOjIVFVtFEYRDlgVZbjBgjM=w662-h298-k-no"
            },
            {
                "about": "Dome",
                "link": "https://lh5.googleusercontent.com/p/AF1QipPD-DlCgUhTC1pN_px0JhS22ALhHcAxGryTPkR2=w224-h497-k-no"
            },
            {
                "about": "Videos",
                "link": "https://lh5.googleusercontent.com/p/AF1QipPuqnIi0YluHgi57VK2HXOBY00Kar4JA9gtYrB7=w224-h398-k-no"
            },
            {
                "about": "Street View & 360deg",
                "link": "https://streetviewpixels-pa.googleapis.com/v1/thumbnail?panoid=KPze9f5WwmuoDPWWrYiLEQ&cb_client=maps_sv.tactile.gps&w=224&h=298&yaw=35.944218&pitch=0&thumbfov=100"
            }
        ],
        "link": "https://www.google.com/maps/place/Masjid-e-nawabi/data=!4m7!3m6!1s0x3a37d17da894ac81:0x486e56d1f4a3adb8!8m2!3d16.5386535!4d81.6211628!16s%2Fg%2F11hf7cmyvj!19sChIJgayUqH3RNzoRuK2j9NFWbkg?authuser=0&hl=en&rclk=1",
        "coordinates": {
            "latitude": 16.5386535,
            "longitude": 81.6211628
        }
    },
    {
        "name": "Jama Masjid Narsingpally",
        "main_category": "Mosque",
        "address": "H4Q7+PWM Jama Masjid Narsingpally, Mudakpally (Narsingpally), Sirpur, Telangana 503230",
        "detailed_address": {
            "ward": null,
            "street": "H4Q7+PWM",
            "city": "Mudakpally (Narsingpally), Sirpur",
            "postal_code": "503230",
            "state": "Telangana",
            "country_code": "IN"
        },
        "images": [
            {
                "about": "All",
                "link": "https://streetviewpixels-pa.googleapis.com/v1/thumbnail?panoid=RzM8B-_B7nYoHo8x3_wvmg&cb_client=maps_sv.tactile.gps&w=224&h=298&yaw=285.80917&pitch=0&thumbfov=100"
            },
            {
                "about": "Street View & 360deg",
                "link": "https://streetviewpixels-pa.googleapis.com/v1/thumbnail?panoid=RzM8B-_B7nYoHo8x3_wvmg&cb_client=maps_sv.tactile.gps&w=224&h=298&yaw=285.80917&pitch=0&thumbfov=100"
            }
        ],
        "link": "https://www.google.com/maps/place/Jama+Masjid+Narsingpally/data=!4m7!3m6!1s0x3bcdcfd93411c237:0xef155b2bc2bde9a7!8m2!3d18.5893306!4d78.1147972!16s%2Fg%2F11g69h2fq3!19sChIJN8IRNNnPzTsRp-m9witbFe8?authuser=0&hl=en&rclk=1",
        "coordinates": {
            "latitude": 18.5893306,
            "longitude": 78.1147972
        }
    },
    {
        "name": "Jama masjid kokkonda",
        "main_category": "Mosque",
        "address": "Jama masjid kokkonda, Hnuman road 8, 8, Kokkonda, Telangana 502336",
        "detailed_address": {
            "ward": null,
            "street": "Hnuman road 8, 8",
            "city": "Kokkonda",
            "postal_code": "502336",
            "state": "Telangana",
            "country_code": "IN"
        },
        "images": [
            {
                "about": "All",
                "link": "https://lh5.googleusercontent.com/p/AF1QipNLpAOkRuPkKrbGOWiMGwHPmsTCVjV9pgD4KEKG=w397-h298-k-no"
            }
        ],
        "link": "https://www.google.com/maps/place/Jama+masjid+kokkonda/data=!4m7!3m6!1s0x3bcc79a9430199cb:0xfbfd240cb58a9e82!8m2!3d17.7228711!4d78.5419984!16s%2Fg%2F11rwmmwmyl!19sChIJy5kBQ6l5zDsRgp6KtQwk_fs?authuser=0&hl=en&rclk=1",
        "coordinates": {
            "latitude": 17.7228711,
            "longitude": 78.5419984
        }
    },
    {
        "name": "Masjid E Ibrahim",
        "main_category": "Mosque",
        "address": "Masjid E Ibrahim, Sri Renuka Ellamma Temple, Indiramma Colony, Narsapur, Telangana 502276",
        "detailed_address": {
            "ward": "Indiramma Colony",
            "street": "Sri Renuka Ellamma Temple",
            "city": "Narsapur",
            "postal_code": "502276",
            "state": "Telangana",
            "country_code": "IN"
        },
        "images": [],
        "link": "https://www.google.com/maps/place/Masjid+E+Ibrahim/data=!4m7!3m6!1s0x3bcced9e24765b31:0xf9ef95f347e2a92a!8m2!3d18.1241248!4d78.8589023!16s%2Fg%2F11n0j7h7r4!19sChIJMVt2JJ7tzDsRKqniR_OV7_k?authuser=0&hl=en&rclk=1",
        "coordinates": {
            "latitude": 18.1241248,
            "longitude": 78.8589023
        }
    },
    {
        "name": "NOOR MASJID",
        "main_category": "Mosque",
        "address": "P7MH+788 NOOR MASJID, Narsapur, Telangana 502313",
        "detailed_address": {
            "ward": null,
            "street": "P7MH+788",
            "city": "Narsapur",
            "postal_code": "502313",
            "state": "Telangana",
            "country_code": "IN"
        },
        "images": [],
        "link": "https://www.google.com/maps/place/NOOR+MASJID/data=!4m7!3m6!1s0x3bcc0b2ff66844cd:0x7e394b33ccdefb4a!8m2!3d17.7331614!4d78.2783322!16s%2Fg%2F11gk5k4f84!19sChIJzURo9i8LzDsRSvvezDNLOX4?authuser=0&hl=en&rclk=1",
        "coordinates": {
            "latitude": 17.7331614,
            "longitude": 78.2783322
        }
    },
    {
        "name": "Masjid e Sahaba",
        "main_category": "Mosque",
        "address": "MW97+47 Masjid e Sahaba, Road, Shakar Nagar, Narsapur, Nizamabad, Telangana 503180",
        "detailed_address": {
            "ward": "Shakar Nagar",
            "street": "MW97+47, Road",
            "city": "Narsapur, Nizamabad",
            "postal_code": "503180",
            "state": "Telangana",
            "country_code": "IN"
        },
        "images": [
            {
                "about": "All",
                "link": "https://lh5.googleusercontent.com/p/AF1QipPsUAJ2a_43oHYmJT5796VZCbwl4tam0hnF7a54=w397-h298-k-no"
            },
            {
                "about": "Street View & 360deg",
                "link": "https://streetviewpixels-pa.googleapis.com/v1/thumbnail?panoid=eOVLa2ua8Ytpfsqy_umh9w&cb_client=maps_sv.tactile.gps&w=224&h=298&yaw=12.234174&pitch=0&thumbfov=100"
            }
        ],
        "link": "https://www.google.com/maps/place/Masjid+e+Sahaba/data=!4m7!3m6!1s0x3bce77e68740166f:0xd595289a2226972a!8m2!3d18.6678103!4d77.9132359!16s%2Fg%2F11rnjrfrb6!19sChIJbxZAh-Z3zjsRKpcmIpooldU?authuser=0&hl=en&rclk=1",
        "coordinates": {
            "latitude": 18.6678103,
            "longitude": 77.91323589999999
        }
    },
    {
        "name": "Masjid-e-mohammad jamat-e-Ahle hadees",
        "main_category": "Mosque",
        "address": "Masjid-e-mohammad jamat-e-Ahle hadees, Bus Stop, 1, Nidadavole - Narasapuram State Hwy, Samisragudem, Andhra Pradesh 534302",
        "detailed_address": {
            "ward": null,
            "street": "Bus Stop, 1, Nidadavole - Narasapuram State Hwy",
            "city": "Samisragudem",
            "postal_code": "534302",
            "state": "Andhra Pradesh",
            "country_code": "IN"
        },
        "images": [
            {
                "about": "All",
                "link": "https://lh5.googleusercontent.com/p/AF1QipM7EmmFpS4EsmeoSGNo4s-gfXc65U5qgMQN7DDg=w224-h476-k-no"
            },
            {
                "about": "Street View & 360deg",
                "link": "https://streetviewpixels-pa.googleapis.com/v1/thumbnail?panoid=3DuLO_E7kGAq1xiyRzdR7g&cb_client=maps_sv.tactile.gps&w=224&h=298&yaw=203.7282&pitch=0&thumbfov=100"
            }
        ],
        "link": "https://www.google.com/maps/place/Masjid-e-mohammad+jamat-e-Ahle+hadees/data=!4m7!3m6!1s0x3a37b1358309d309:0xc0f36032643c188f!8m2!3d16.902501!4d81.683381!16s%2Fg%2F11fmf1q4zc!19sChIJCdMJgzWxNzoRjxg8ZDJg88A?authuser=0&hl=en&rclk=1",
        "coordinates": {
            "latitude": 16.902501,
            "longitude": 81.683381
        }
    },
    {
        "name": "Aqsa Masjid",
        "main_category": "Religious destination",
        "address": "P7RQ+248 Aqsa Masjid, AQSA COLONY, Narsapur, Telangana 502313",
        "detailed_address": {
            "ward": "AQSA COLONY",
            "street": "P7RQ+248",
            "city": "Narsapur",
            "postal_code": "502313",
            "state": "Telangana",
            "country_code": "IN"
        },
        "images": [],
        "link": "https://www.google.com/maps/place/Aqsa+Masjid/data=!4m7!3m6!1s0x3bcc0b9559d4c0b1:0x4accc8057e817218!8m2!3d17.7400372!4d78.2878418!16s%2Fg%2F11f7msr04g!19sChIJscDUWZULzDsRGHKBfgXIzEo?authuser=0&hl=en&rclk=1",
        "coordinates": {
            "latitude": 17.7400372,
            "longitude": 78.2878418
        }
    },
    {
        "name": "MASJID-E-SAFA",
        "main_category": "Religious destination",
        "address": "P7PM+5QR MASJID-E-SAFA, NGOs colony, Narsapur, Telangana 502313",
        "detailed_address": {
            "ward": "NGOs colony",
            "street": "P7PM+5QR",
            "city": "Narsapur",
            "postal_code": "502313",
            "state": "Telangana",
            "country_code": "IN"
        },
        "images": [],
        "link": "https://www.google.com/maps/place/MASJID-E-SAFA/data=!4m7!3m6!1s0x3bcc0bdf62c1c2b9:0xd30a52dd4121e6d2!8m2!3d17.7354862!4d78.2843882!16s%2Fg%2F11f7mrzdt6!19sChIJucLBYt8LzDsR0uYhQd1SCtM?authuser=0&hl=en&rclk=1",
        "coordinates": {
            "latitude": 17.7354862,
            "longitude": 78.2843882
        }
    },
    {
        "name": "Madina masjid mdynh msjd",
        "main_category": "Mosque",
        "address": "HR7P+V32 Madina masjid mdynh msjd, Office Road, Narsapur, Telangana 501202",
        "detailed_address": {
            "ward": null,
            "street": "HR7P+V32, Office Road",
            "city": "Narsapur",
            "postal_code": "501202",
            "state": "Telangana",
            "country_code": "IN"
        },
        "images": [
            {
                "about": "All",
                "link": "https://lh5.googleusercontent.com/p/AF1QipOc_U3Wnt4W_duBCVqzRk5kgBaxeZYHvQ3t4UkM=w224-h298-k-no"
            },
            {
                "about": "Videos",
                "link": "https://lh5.googleusercontent.com/p/AF1QipMvGcO_nrAmuAgjl_V-dVPB5HeeP73QS3gk1es6=w224-h398-k-no"
            }
        ],
        "link": "https://www.google.com/maps/place/Madina+masjid+%D9%85%D8%AF%DB%8C%D9%86%DB%81+%D9%85%D8%B3%D8%AC%D8%AF%E2%80%AD/data=!4m7!3m6!1s0x3bc951e2f0eb7081:0xea82e1b84d665b94!8m2!3d17.5646349!4d77.8351359!16s%2Fg%2F11sxdjzpk7!19sChIJgXDr8OJRyTsRlFtmTbjhguo?authuser=0&hl=en&rclk=1",
        "coordinates": {
            "latitude": 17.564634899999998,
            "longitude": 77.8351359
        }
    },
    {
        "name": "MASJID-E-JUBAIR",
        "main_category": "Mosque",
        "address": "G4Q9+87W MASJID-E-JUBAIR, Narasapuram, Andhra Pradesh 524313",
        "detailed_address": {
            "ward": null,
            "street": "G4Q9+87W",
            "city": "Narasapuram",
            "postal_code": "524313",
            "state": "Andhra Pradesh",
            "country_code": "IN"
        },
        "images": [
            {
                "about": "All",
                "link": "https://lh5.googleusercontent.com/p/AF1QipPkbnSAdHWyfEsdYbTv50tCzBGUliwG7elBLwsc=w224-h298-k-no"
            },
            {
                "about": "Dome",
                "link": "https://lh5.googleusercontent.com/p/AF1QipPBeVFAyLBn7gSM2x9oy522vbNFHrZDUBxcpsRL=w224-h298-k-no"
            }
        ],
        "link": "https://www.google.com/maps/place/MASJID-E-JUBAIR/data=!4m7!3m6!1s0x3a4c617daac6d311:0x100982bdc4983a2b!8m2!3d14.538365!4d80.1182079!16s%2Fg%2F11h713431r!19sChIJEdPGqn1hTDoRKzqYxL2CCRA?authuser=0&hl=en&rclk=1",
        "coordinates": {
            "latitude": 14.538364999999999,
            "longitude": 80.1182079
        }
    },
    {
        "name": "Sunni masjid",
        "main_category": "Mosque",
        "address": "GPC4+JMR Sunni masjid, Poolapalli, Palakollu, Andhra Pradesh 534250",
        "detailed_address": {
            "ward": "Poolapalli",
            "street": "GPC4+JMR",
            "city": "Palakollu",
            "postal_code": "534250",
            "state": "Andhra Pradesh",
            "country_code": "IN"
        },
        "images": [],
        "link": "https://www.google.com/maps/place/Sunni+masjid/data=!4m7!3m6!1s0x3a37dba8c06358ad:0x1fbf40c94730bbc!8m2!3d16.522859!4d81.7064102!16s%2Fg%2F11sq1cysz7!19sChIJrVhjwKjbNzoRvAtzlAz0-wE?authuser=0&hl=en&rclk=1",
        "coordinates": {
            "latitude": 16.522859,
            "longitude": 81.7064102
        }
    },
    {
        "name": "Wattipally Masjid",
        "main_category": "Mosque",
        "address": "RVF2+72X Wattipally Masjid, Wattipally, Telangana 502312",
        "detailed_address": {
            "ward": null,
            "street": "RVF2+72X",
            "city": "Wattipally",
            "postal_code": "502312",
            "state": "Telangana",
            "country_code": "IN"
        },
        "images": [
            {
                "about": "All",
                "link": "https://lh5.googleusercontent.com/p/AF1QipMCKPVIq_7eejlatyn-KnND8KMazhtTC72QGbiV=w530-h298-k-no"
            }
        ],
        "link": "https://www.google.com/maps/place/Wattipally+Masjid/data=!4m7!3m6!1s0x3bcc9b87adf1ef4f:0xc16783e5fba87b81!8m2!3d17.8232392!4d78.8501188!16s%2Fg%2F11rwp3ckp7!19sChIJT-_xrYebzDsRgXuo--WDZ8E?authuser=0&hl=en&rclk=1",
        "coordinates": {
            "latitude": 17.8232392,
            "longitude": 78.85011879999999
        }
    },
    {
        "name": "JAME MASJID msiid Nagepoor",
        "main_category": "Mosque",
        "address": "RX2W+G8Q JAME MASJID msiid Nagepoor, Basara Rd, near zphs, Nagepur, Telangana 503245",
        "detailed_address": {
            "ward": null,
            "street": "RX2W+G8Q, Basara Rd, near zphs",
            "city": "Nagepur",
            "postal_code": null,
            "state": "Telangana",
            "country_code": "IN"
        },
        "images": [],
        "link": "https://www.google.com/maps/place/JAME+MASJID+%E0%B0%AE%E0%B0%B8%E0%B1%80%E0%B0%A6%E0%B1%8D+Nagepoor/data=!4m7!3m6!1s0x3bcde1757e333251:0x3f5941690a1096c8!8m2!3d18.8013323!4d77.9958577!16s%2Fg%2F11h3kbhg6b!19sChIJUTIzfnXhzTsRyJYQCmlBWT8?authuser=0&hl=en&rclk=1",
        "coordinates": {
            "latitude": 18.8013323,
            "longitude": 77.9958577
        }
    },
    {
        "name": "Madani A Maszid",
        "main_category": "Mosque",
        "address": "FQJJ+J4W Madani A Maszid, Ealamanchili Rd, Elamanchili, Andhra Pradesh 534268",
        "detailed_address": {
            "ward": null,
            "street": "FQJJ+J4W, Ealamanchili Rd",
            "city": "Elamanchili",
            "postal_code": "534268",
            "state": "Andhra Pradesh",
            "country_code": "IN"
        },
        "images": [],
        "link": "https://www.google.com/maps/place/Madani+A+Maszid/data=!4m7!3m6!1s0x3a37dc0848fc69bd:0x8e5b3c2babb93dbd!8m2!3d16.4816236!4d81.780339!16s%2Fg%2F11f5bpty_x!19sChIJvWn8SAjcNzoRvT25qys8W44?authuser=0&hl=en&rclk=1",
        "coordinates": {
            "latitude": 16.4816236,
            "longitude": 81.780339
        }
    },
    {
        "name": "Masjid",
        "main_category": "Mosque",
        "address": "GJPH+M32 Masjid, China Peta, Veeravasaram, Andhra Pradesh 534245",
        "detailed_address": {
            "ward": "China Peta",
            "street": "GJPH+M32",
            "city": "Veeravasaram",
            "postal_code": "534245",
            "state": "Andhra Pradesh",
            "country_code": "IN"
        },
        "images": [],
        "link": "https://www.google.com/maps/place/Masjid/data=!4m7!3m6!1s0x3a37d1c19b1aef63:0x24949f46aa33422e!8m2!3d16.5366424!4d81.6276359!16s%2Fg%2F11fy9rnw83!19sChIJY-8am8HRNzoRLkIzqkaflCQ?authuser=0&hl=en&rclk=1",
        "coordinates": {
            "latitude": 16.536642399999998,
            "longitude": 81.6276359
        }
    },
    {
        "name": "MARKAZ MASJID NARSAPUR",
        "main_category": "Religious destination",
        "address": "P7QH+768 MARKAZ MASJID NARSAPUR, Market Rd, Narsapur, Telangana 502313",
        "detailed_address": {
            "ward": null,
            "street": "P7QH+768, Market Rd",
            "city": "Narsapur",
            "postal_code": "502313",
            "state": "Telangana",
            "country_code": "IN"
        },
        "images": [
            {
                "about": "All",
                "link": "https://streetviewpixels-pa.googleapis.com/v1/thumbnail?panoid=PTdPNXx2Kei9k3es31OJBw&cb_client=maps_sv.tactile.gps&w=224&h=298&yaw=141.97815&pitch=0&thumbfov=100"
            },
            {
                "about": "Street View & 360deg",
                "link": "https://streetviewpixels-pa.googleapis.com/v1/thumbnail?panoid=PTdPNXx2Kei9k3es31OJBw&cb_client=maps_sv.tactile.gps&w=224&h=298&yaw=141.97815&pitch=0&thumbfov=100"
            }
        ],
        "link": "https://www.google.com/maps/place/MARKAZ+MASJID+NARSAPUR/data=!4m7!3m6!1s0x3bcc0b42966293c9:0x6edd698acca6eb39!8m2!3d17.7381603!4d78.278071!16s%2Fg%2F11g1_p9n1s!19sChIJyZNilkILzDsROeumzIpp3W4?authuser=0&hl=en&rclk=1",
        "coordinates": {
            "latitude": 17.7381603,
            "longitude": 78.278071
        }
    },
    {
        "name": "Eidgah",
        "main_category": "Mosque",
        "address": "CMJR+PPP Eidgah, Mission High School Rd, Gandhi Nagar-II, Narsapur, Andhra Pradesh 534275",
        "detailed_address": {
            "ward": "Gandhi Nagar-II",
            "street": "CMJR+PPP, Mission High School Rd",
            "city": "Narsapur",
            "postal_code": "534275",
            "state": "Andhra Pradesh",
            "country_code": "IN"
        },
        "images": [
            {
                "about": "All",
                "link": "https://lh5.googleusercontent.com/p/AF1QipN2Iu_UUtkpBH9l9_hUuM8r2yNZI6S3w8lS4uBU=w397-h298-k-no"
            }
        ],
        "link": "https://www.google.com/maps/place/Eidgah/data=!4m7!3m6!1s0x3a37d9c9d1552063:0xf11681beb234c38f!8m2!3d16.4318365!4d81.6918311!16s%2Fg%2F11fmwvwbmy!19sChIJYyBV0cnZNzoRj8M0sr6BFvE?authuser=0&hl=en&rclk=1",
        "coordinates": {
            "latitude": 16.4318365,
            "longitude": 81.6918311
        }
    },
    {
        "name": "Peddakanjerla Masjid",
        "main_category": "Mosque",
        "address": "H6WR+W4C Peddakanjerla Masjid, Narsapur Patancheru Rd, Peddakanjerla, Telangana 502319",
        "detailed_address": {
            "ward": null,
            "street": "H6WR+W4C, Narsapur Patancheru Rd",
            "city": "Peddakanjerla",
            "postal_code": "502319",
            "state": "Telangana",
            "country_code": "IN"
        },
        "images": [
            {
                "about": "All",
                "link": "https://lh5.googleusercontent.com/p/AF1QipOYfW7sx6-mWjZsdAG2vqgEsM6MUPuZbk7KghLY=w224-h398-k-no"
            },
            {
                "about": "Dome",
                "link": "https://lh5.googleusercontent.com/p/AF1QipOYfW7sx6-mWjZsdAG2vqgEsM6MUPuZbk7KghLY=w224-h398-k-no"
            },
            {
                "about": "Street View & 360deg",
                "link": "https://streetviewpixels-pa.googleapis.com/v1/thumbnail?panoid=EGeNnJZ6v0cE7G-t4tfkrg&cb_client=maps_sv.tactile.gps&w=224&h=298&yaw=34.050304&pitch=0&thumbfov=100"
            }
        ],
        "link": "https://www.google.com/maps/place/Peddakanjerla+Masjid/data=!4m7!3m6!1s0x3bcbf3b4345b6889:0x81b27d87f8ef4fd2!8m2!3d17.5973164!4d78.2402704!16s%2Fg%2F11p0g33j1q!19sChIJiWhbNLTzyzsR0k_v-Id9soE?authuser=0&hl=en&rclk=1",
        "coordinates": {
            "latitude": 17.5973164,
            "longitude": 78.2402704
        }
    },
    {
        "name": "Masjid ayesha",
        "main_category": "Mosque",
        "address": "GP89+894 Masjid ayesha, Kotta Colony, Ramarao Peta, Palakollu, Andhra Pradesh 534260",
        "detailed_address": {
            "ward": "Kotta Colony, Ramarao Peta",
            "street": "GP89+894",
            "city": "Palakollu",
            "postal_code": "534260",
            "state": "Andhra Pradesh",
            "country_code": "IN"
        },
        "images": [],
        "link": "https://www.google.com/maps/place/Masjid+ayesha/data=!4m7!3m6!1s0x3a37db0d6fdb1361:0x55d5254c7bed7e2a!8m2!3d16.5157581!4d81.7184591!16s%2Fg%2F11j34h7x8m!19sChIJYRPbbw3bNzoRKn7te0wl1VU?authuser=0&hl=en&rclk=1",
        "coordinates": {
            "latitude": 16.5157581,
            "longitude": 81.71845909999999
        }
    },
    {
        "name": "Jamiya Masjid",
        "main_category": "Mosque",
        "address": "Jamiya Masjid, Panchagudi, Dharmara, Telangana 504104",
        "detailed_address": {
            "ward": null,
            "street": null,
            "city": "Panchagudi, Dharmara",
            "postal_code": "504104",
            "state": "Telangana",
            "country_code": "IN"
        },
        "images": [
            {
                "about": "All",
                "link": "https://lh5.googleusercontent.com/p/AF1QipM5i9IOOHW-ZlNoFoGvKpt8OwSV4QWEo83MMoeP=w397-h298-k-no"
            },
            {
                "about": "By owner",
                "link": "https://lh5.googleusercontent.com/p/AF1QipOih7VnTsEr7XFFl5v9hERLp6_XWIpIrFwoZPL2=w397-h298-k-no"
            }
        ],
        "link": "https://www.google.com/maps/place/Jamiya+Masjid/data=!4m7!3m6!1s0x3bcde5f57d5ce841:0x54a16d15ab8d2131!8m2!3d18.9698223!4d78.0838299!16s%2Fg%2F11g23bk4d8!19sChIJQehcffXlzTsRMSGNqxVtoVQ?authuser=0&hl=en&rclk=1",
        "coordinates": {
            "latitude": 18.9698223,
            "longitude": 78.0838299
        }
    },
    {
        "name": "Masjid e Mohammad",
        "main_category": "Mosque",
        "address": "RPJ4+Q78 Masjid e Mohammad, Pragnapur, Telangana 502278",
        "detailed_address": {
            "ward": null,
            "street": "RPJ4+Q78",
            "city": "Pragnapur",
            "postal_code": null,
            "state": "Telangana",
            "country_code": "IN"
        },
        "images": [
            {
                "about": "All",
                "link": "https://streetviewpixels-pa.googleapis.com/v1/thumbnail?panoid=uDdf0u_JYxzjHhAJAYeNqQ&cb_client=maps_sv.tactile.gps&w=224&h=298&yaw=326.21503&pitch=0&thumbfov=100"
            },
            {
                "about": "Street View & 360deg",
                "link": "https://streetviewpixels-pa.googleapis.com/v1/thumbnail?panoid=uDdf0u_JYxzjHhAJAYeNqQ&cb_client=maps_sv.tactile.gps&w=224&h=298&yaw=326.21503&pitch=0&thumbfov=100"
            }
        ],
        "link": "https://www.google.com/maps/place/Masjid+e+Mohammad/data=!4m7!3m6!1s0x3bcc87caf1a99877:0x44750ffbff62c813!8m2!3d17.8319087!4d78.705708!16s%2Fg%2F11q93l_5lh!19sChIJd5ip8cqHzDsRE8hi__sPdUQ?authuser=0&hl=en&rclk=1",
        "coordinates": {
            "latitude": 17.8319087,
            "longitude": 78.705708
        }
    },
    {
        "name": "Narasapuram Masjid a noorul Huda",
        "main_category": "Mosque",
        "address": "3W2J+XF7 Narasapuram Masjid a noorul Huda, Narasapuram, Balarajupalli, Andhra Pradesh 516175",
        "detailed_address": {
            "ward": null,
            "street": "3W2J+XF7",
            "city": "Narasapuram, Balarajupalli",
            "postal_code": null,
            "state": "Andhra Pradesh",
            "country_code": "IN"
        },
        "images": [
            {
                "about": "All",
                "link": "https://lh5.googleusercontent.com/p/AF1QipPXf7FUA_qx6Pib5qK4mcxYOadrdBpGWJ9R5700=w397-h298-k-no"
            },
            {
                "about": "Dome",
                "link": "https://lh5.googleusercontent.com/p/AF1QipPrXjPl2-9VXqY0vGxNFjb5X5n-iL1pzOnJ8uOa=w397-h298-k-no"
            }
        ],
        "link": "https://www.google.com/maps/place/Narasapuram+Masjid+a+noorul+Huda/data=!4m7!3m6!1s0x3bb495860401527d:0xdc09358049aee0c6!8m2!3d15.0524242!4d78.9311852!16s%2Fg%2F11kht5smk5!19sChIJfVIBBIaVtDsRxuCuSYA1Cdw?authuser=0&hl=en&rclk=1",
        "coordinates": {
            "latitude": 15.052424199999999,
            "longitude": 78.9311852
        }
    },
    {
        "name": "Masjid",
        "main_category": "Mosque",
        "address": "VGQG+33H Masjid, Narsapur, village, Damargidda, Telangana 509407",
        "detailed_address": {
            "ward": null,
            "street": "VGQG+33H, Narsapur, village",
            "city": "Damargidda, Narsapur",
            "postal_code": "509407",
            "state": "Telangana",
            "country_code": "IN"
        },
        "images": [],
        "link": "https://www.google.com/maps/place/Masjid/data=!4m7!3m6!1s0x3bc9a1e545c9fc31:0x26f3b7a97695988a!8m2!3d16.8876854!4d77.5252239!16s%2Fg%2F11qb54yzkl!19sChIJMfzJReWhyTsRipiVdqm38yY?authuser=0&hl=en&rclk=1",
        "coordinates": {
            "latitude": 16.8876854,
            "longitude": 77.5252239
        }
    },
    {
        "name": "Janaya masjid",
        "main_category": "Mosque",
        "address": "VGHJ+P27 Janaya masjid, Narasapur, Wadawatti, Karnataka 587155",
        "detailed_address": {
            "ward": null,
            "street": "VGHJ+P27",
            "city": "Narasapur, Wadawatti",
            "postal_code": "587155",
            "state": "Karnataka",
            "country_code": "IN"
        },
        "images": [],
        "link": "https://www.google.com/maps/place/Janaya+masjid/data=!4m7!3m6!1s0x3bb8854ff6d7b8bf:0x28e65737f947709b!8m2!3d15.8792762!4d75.5300534!16s%2Fg%2F11rhvvc3gg!19sChIJv7jX9k-FuDsRm3BH-TdX5ig?authuser=0&hl=en&rclk=1",
        "coordinates": {
            "latitude": 15.8792762,
            "longitude": 75.5300534
        }
    },
    {
        "name": "Jama masjid",
        "main_category": "School",
        "address": "P7QH+46M Jama masjid, Market Rd, Narsapur, Telangana 502313",
        "detailed_address": {
            "ward": null,
            "street": "P7QH+46M, Market Rd",
            "city": "Narsapur",
            "postal_code": "502313",
            "state": "Telangana",
            "country_code": "IN"
        },
        "images": [
            {
                "about": "All",
                "link": "https://lh5.googleusercontent.com/p/AF1QipO96HeepKqXjafNlBAlRKHrQOD5kDIJWIEN7l2e=w529-h298-k-no"
            },
            {
                "about": "Street View & 360deg",
                "link": "https://streetviewpixels-pa.googleapis.com/v1/thumbnail?panoid=Dw-65df0G0AE8kVDvJGShw&cb_client=maps_sv.tactile.gps&w=224&h=298&yaw=48.232643&pitch=0&thumbfov=100"
            }
        ],
        "link": "https://www.google.com/maps/place/Jama+masjid/data=!4m7!3m6!1s0x3bcc0b05dfc54ed9:0x2aac93b7ece77902!8m2!3d17.7378302!4d78.2780356!16s%2Fg%2F11qnbqzv4x!19sChIJ2U7F3wULzDsRAnnn7LeTrCo?authuser=0&hl=en&rclk=1",
        "coordinates": {
            "latitude": 17.737830199999998,
            "longitude": 78.2780356
        }
    },
    {
        "name": "MASJID S.BOYANAPALLI",
        "main_category": "Mosque",
        "address": "G2R3+QX3 MASJID S.BOYANAPALLI, Pendekal - Boyanapalli Rd, Narasapuram, Andhra Pradesh 518216",
        "detailed_address": {
            "ward": null,
            "street": "G2R3+QX3, Pendekal - Boyanapalli Rd",
            "city": "Narasapuram",
            "postal_code": null,
            "state": "Andhra Pradesh",
            "country_code": "IN"
        },
        "images": [],
        "link": "https://www.google.com/maps/place/MASJID+S.BOYANAPALLI/data=!4m7!3m6!1s0x3bb5d53303a23b25:0x4ef928e3ac7ec86f!8m2!3d15.5418971!4d78.0049168!16s%2Fg%2F11v9rjgl8k!19sChIJJTuiAzPVtTsRb8h-rOMo-U4?authuser=0&hl=en&rclk=1",
        "coordinates": {
            "latitude": 15.5418971,
            "longitude": 78.00491679999999
        }
    },
    {
        "name": "Masjid e Abu Bakar",
        "main_category": "Mosque",
        "address": "Q5JW+MX9 Masjid e Abu Bakar, Hyderabad - Narsapur Rd, Nagullapally, Naguldevpalle, Telangana 502296",
        "detailed_address": {
            "ward": null,
            "street": "Q5JW+MX9, Hyderabad - Narsapur Rd",
            "city": "Nagullapally, Naguldevpalle",
            "postal_code": null,
            "state": "Telangana",
            "country_code": "IN"
        },
        "images": [
            {
                "about": "All",
                "link": "https://lh5.googleusercontent.com/p/AF1QipMMMElqFajMwYAIqjR-13V_BaKtDTxGD5db-VQy=w224-h298-k-no"
            },
            {
                "about": "Videos",
                "link": "https://lh5.googleusercontent.com/p/AF1QipMLuUB1jOLARF3E6OpSuRdRe4DwEwZ5-E5wuDix=w224-h298-k-no"
            }
        ],
        "link": "https://www.google.com/maps/place/Masjid+e+Abu+Bakar/data=!4m7!3m6!1s0x3bcc09e2721aaf49:0x7e110ebfd2ad1b4f!8m2!3d17.7816591!4d78.1974693!16s%2Fg%2F11fhn70tvn!19sChIJSa8acuIJzDsRTxut0r8OEX4?authuser=0&hl=en&rclk=1",
        "coordinates": {
            "latitude": 17.7816591,
            "longitude": 78.1974693
        }
    },
    {
        "name": "Jama Masjid",
        "main_category": "Mosque",
        "address": "QVQJ+V4X Jama Masjid, Dummugudem, Narasapuram, Telangana 507137",
        "detailed_address": {
            "ward": null,
            "street": "QVQJ+V4X",
            "city": "Dummugudem, Narasapuram",
            "postal_code": "507137",
            "state": "Telangana",
            "country_code": "IN"
        },
        "images": [],
        "link": "https://www.google.com/maps/place/Jama+Masjid/data=!4m7!3m6!1s0x3a36abd2ff3033ff:0x3846586897a2fd45!8m2!3d17.790452!4d80.8795095!16s%2Fg%2F11t312qyf6!19sChIJ_zMw_9KrNjoRRf2il2hYRjg?authuser=0&hl=en&rclk=1",
        "coordinates": {
            "latitude": 17.790452,
            "longitude": 80.8795095
        }
    },
    {
        "name": "Masjid",
        "main_category": "Mosque",
        "address": "M6C3+6X6 Masjid, Chandapur, Telangana 502296",
        "detailed_address": {
            "ward": null,
            "street": "M6C3+6X6",
            "city": "Chandapur",
            "postal_code": "502296",
            "state": "Telangana",
            "country_code": "IN"
        },
        "images": [],
        "link": "https://www.google.com/maps/place/Masjid/data=!4m7!3m6!1s0x3bcbf553a8215f97:0xed4fa993e7c5a751!8m2!3d17.6705279!4d78.2048878!16s%2Fg%2F11h7kwc4dp!19sChIJl18hqFP1yzsRUafF55OpT-0?authuser=0&hl=en&rclk=1",
        "coordinates": {
            "latitude": 17.6705279,
            "longitude": 78.2048878
        }
    },
    {
        "name": "Al Madina Masjid Dhaggloru",
        "main_category": "Mosque",
        "address": "GMJ9+24W Al Madina Masjid Dhaggloru, PP Rd, Tillapudi, Andhra Pradesh 534245",
        "detailed_address": {
            "ward": null,
            "street": "GMJ9+24W, PP Rd",
            "city": "Tillapudi",
            "postal_code": "534245",
            "state": "Andhra Pradesh",
            "country_code": "IN"
        },
        "images": [],
        "link": "https://www.google.com/maps/place/Al+Madina+Masjid+Dhaggloru/data=!4m7!3m6!1s0x3a37d1a9e0c4542b:0xe5f76dac07af470b!8m2!3d16.5303889!4d81.667776!16s%2Fg%2F11vbxwlynq!19sChIJK1TE4KnRNzoRC0evB6xt9-U?authuser=0&hl=en&rclk=1",
        "coordinates": {
            "latitude": 16.5303889,
            "longitude": 81.66777599999999
        }
    }
]