[
    {
        "name": "Masjid Panjesha",
        "main_category": "Mosque",
        "address": "Masjid Panjesha, masjid, panjesha marg, Bhainsa, Telangana 504103",
        "detailed_address": {
            "ward": null,
            "street": "masjid, panjesha marg",
            "city": "Bhainsa",
            "postal_code": null,
            "state": "Telangana",
            "country_code": "IN"
        },
        "images": [
            {
                "about": "All",
                "link": "https://lh5.googleusercontent.com/p/AF1QipO_s7rO64wG93YIcBuS6JQ_1TYMJqeHQFlVg1VY=w397-h298-k-no"
            },
            {
                "about": "Dome",
                "link": "https://lh5.googleusercontent.com/p/AF1QipNHmjHjXgfpP2Zu9d-le8RNY-FJC6BKJpNrJs1L=w397-h298-k-no"
            },
            {
                "about": "Videos",
                "link": "https://lh5.googleusercontent.com/p/AF1QipOXCbPtkew6WuGaOFY_ABwGxvaDcIKzLFKX_hg=w518-h298-k-no"
            },
            {
                "about": "Street View & 360deg",
                "link": "https://streetviewpixels-pa.googleapis.com/v1/thumbnail?panoid=TzWRqkK3svgcJm4jbP1L2g&cb_client=maps_sv.tactile.gps&w=224&h=298&yaw=271.78186&pitch=0&thumbfov=100"
            }
        ],
        "link": "https://www.google.com/maps/place/Masjid+Panjesha/data=!4m7!3m6!1s0x3bcdfe45594b318b:0xa9a4527a0d3bdd4e!8m2!3d19.1114013!4d77.9614446!16s%2Fg%2F11xfvxc4m!19sChIJizFLWUX-zTsRTt07DXpSpKk?authuser=0&hl=en&rclk=1",
        "coordinates": {
            "latitude": 19.1114013,
            "longitude": 77.9614446
        }
    },
    {
        "name": "Osman Masjid",
        "main_category": "Mosque",
        "address": "4X47+RJX Osman Masjid, Asad Baba Nagar, Bhainsa, Telangana 504103",
        "detailed_address": {
            "ward": "Asad Baba Nagar",
            "street": "4X47+RJX",
            "city": "Bhainsa",
            "postal_code": "504103",
            "state": "Telangana",
            "country_code": "IN"
        },
        "images": [
            {
                "about": "All",
                "link": "https://lh5.googleusercontent.com/p/AF1QipMJk-qQCTUMu7cD5Elt9Zqk6YOwEwkijfuR4K7W=w224-h298-k-no"
            }
        ],
        "link": "https://www.google.com/maps/place/Osman+Masjid/data=!4m7!3m6!1s0x3bcdfe5b6bc0025d:0x854fb770d38fd2a3!8m2!3d19.107103!4d77.9641068!16s%2Fg%2F11cn6jvztk!19sChIJXQLAa1v-zTsRo9KP03C3T4U?authuser=0&hl=en&rclk=1",
        "coordinates": {
            "latitude": 19.107103,
            "longitude": 77.9641068
        }
    },
    {
        "name": "Jama Masjid Pardi B",
        "main_category": "Mosque",
        "address": "6XVR+PJM Jama Masjid Pardi B, Pardi busirg Mandal kubeer District nirmal, Pardi Buzurg, Telangana 504103",
        "detailed_address": {
            "ward": null,
            "street": "6XVR+PJM, Pardi busirg Mandal kubeer District nirmal",
            "city": "Pardi Buzurg",
            "postal_code": "504103",
            "state": "Telangana",
            "country_code": "IN"
        },
        "images": [
            {
                "about": "All",
                "link": "https://lh5.googleusercontent.com/p/AF1QipPJ3qccJ-QXe5TW3JkRrj0kNvwcZXMGBunX_LqE=w224-h298-k-no"
            }
        ],
        "link": "https://www.google.com/maps/place/Jama+Masjid+Pardi+B/data=!4m7!3m6!1s0x3bd201e0084b5091:0x17b1e1fad65c2105!8m2!3d19.2443343!4d77.9915575!16s%2Fg%2F11jcjmtwwt!19sChIJkVBLCOAB0jsRBSFc1vrhsRc?authuser=0&hl=en&rclk=1",
        "coordinates": {
            "latitude": 19.2443343,
            "longitude": 77.9915575
        }
    },
    {
        "name": "Jama Masjid Pardi B",
        "main_category": "Mosque",
        "address": "6XCW+6F9 Jama Masjid Pardi B, Pardi Buzurg, Telangana 504103",
        "detailed_address": {
            "ward": null,
            "street": "6XCW+6F9",
            "city": "Pardi Buzurg",
            "postal_code": null,
            "state": "Telangana",
            "country_code": "IN"
        },
        "images": [],
        "link": "https://www.google.com/maps/place/Jama+Masjid+Pardi+B/data=!4m7!3m6!1s0x3bd20148945ee801:0xd11637936393bbec!8m2!3d19.2205263!4d77.9962228!16s%2Fg%2F11fthgbfmp!19sChIJAehelEgB0jsR7LuTY5M3FtE?authuser=0&hl=en&rclk=1",
        "coordinates": {
            "latitude": 19.2205263,
            "longitude": 77.9962228
        }
    }
]