[
    {
        "name": "Sonepur Mosque",
        "main_category": "Mosque",
        "address": "RWW5+65F Sonepur Mosque, Unnamed Rd,, NH 224, Sonepur, Odisha 767017",
        "detailed_address": {
            "ward": null,
            "street": "RWW5+65F, Unnamed Rd,, NH 224",
            "city": "Sonepur",
            "postal_code": "767017",
            "state": "Odisha",
            "country_code": "IN"
        },
        "images": [
            {
                "about": "All",
                "link": "https://lh5.googleusercontent.com/p/AF1QipOEe4KVgsSoazdPQ_EciepQ2weFrhRg33MokiTT=w224-h398-k-no"
            }
        ],
        "link": "https://www.google.com/maps/place/Sonepur+Mosque/data=!4m7!3m6!1s0x3a23e70baceb9c5f:0xcb7a628e03d6c382!8m2!3d20.8455551!4d83.9079305!16s%2Fg%2F11cn3l_k6_!19sChIJX5zrrAvnIzoRgsPWA45iess?authuser=0&hl=en&rclk=1",
        "coordinates": {
            "latitude": 20.8455551,
            "longitude": 83.90793049999999
        }
    },
    {
        "name": "Sunni jama masjid",
        "main_category": "Preschool",
        "address": "Sunni jama masjid, Sonepur, Odisha 767017",
        "detailed_address": {
            "ward": null,
            "street": null,
            "city": "Sonepur",
            "postal_code": "767017",
            "state": "Odisha",
            "country_code": "IN"
        },
        "images": [],
        "link": "https://www.google.com/maps/place/Sunni+jama+masjid/data=!4m7!3m6!1s0x3a23e7296d6cc6c1:0x277bba14e2d2e8ad!8m2!3d20.845795!4d83.9089542!16s%2Fg%2F11l2pk6c98!19sChIJwcZsbSnnIzoRrejS4hS6eyc?authuser=0&hl=en&rclk=1",
        "coordinates": {
            "latitude": 20.845795,
            "longitude": 83.9089542
        }
    },
    {
        "name": "Subornopur Jame Masjid",
        "main_category": "Mosque",
        "address": "RVXW+622 Subornopur Jame Masjid, Sonepur, Odisha 767017",
        "detailed_address": {
            "ward": null,
            "street": "RVXW+622",
            "city": "Sonepur",
            "postal_code": null,
            "state": "Odisha",
            "country_code": "IN"
        },
        "images": [
            {
                "about": "All",
                "link": "https://lh5.googleusercontent.com/p/AF1QipOnBg0_jhN48k8S7zFaxQMexOiLeDz44wa5BjUv=w397-h298-k-no"
            }
        ],
        "link": "https://www.google.com/maps/place/Subornopur+Jame+Masjid/data=!4m7!3m6!1s0x3a23e7e87c7cbb4d:0x3639ed8ac5792423!8m2!3d20.8480141!4d83.8950042!16s%2Fg%2F11szb_wgxz!19sChIJTbt8fOjnIzoRIyR5xYrtOTY?authuser=0&hl=en&rclk=1",
        "coordinates": {
            "latitude": 20.8480141,
            "longitude": 83.8950042
        }
    }
]