[
    {
        "name": "Masjid Muhammad Prince Qamar Aaliya",
        "main_category": "Mosque",
        "address": "H45X+5QQ Masjid Muhammad Prince Qamar Aaliya, Dumraon, Bihar 802119",
        "detailed_address": {
            "ward": null,
            "street": "H45X+5QQ",
            "city": "Dumraon",
            "postal_code": null,
            "state": "Bihar",
            "country_code": "IN"
        },
        "images": [
            {
                "about": "All",
                "link": "https://lh5.googleusercontent.com/p/AF1QipOXpKNyiap1noWzAl20wdHWHZjB2RYsqFXSKYgG=w224-h313-k-no"
            }
        ],
        "link": "https://www.google.com/maps/place/Masjid+Muhammad+Prince+Qamar+Aaliya/data=!4m7!3m6!1s0x399279c0e4acee69:0xc1aae89f37d8cc1a!8m2!3d25.5579595!4d84.1494707!16s%2Fg%2F11jyd__6xg!19sChIJae6s5MB5kjkRGszYN5_oqsE?authuser=0&hl=en&rclk=1",
        "coordinates": {
            "latitude": 25.5579595,
            "longitude": 84.1494707
        }
    },
    {
        "name": "Chhoti Masjid",
        "main_category": "Mosque",
        "address": "Chhoti Masjid, Shahid Mard Rd, Dumraon, Bihar 802119",
        "detailed_address": {
            "ward": null,
            "street": "Chhoti Masjid, Shahid Mard Rd",
            "city": "Dumraon",
            "postal_code": "802119",
            "state": "Bihar",
            "country_code": "IN"
        },
        "images": [],
        "link": "https://www.google.com/maps/place/Chhoti+Masjid/data=!4m7!3m6!1s0x3992790c3d91161b:0x49310380562cf8f7!8m2!3d25.552997!4d84.1559591!16s%2Fg%2F11h7p9rg8s!19sChIJGxaRPQx5kjkR9_gsVoADMUk?authuser=0&hl=en&rclk=1",
        "coordinates": {
            "latitude": 25.552996999999998,
            "longitude": 84.15595909999999
        }
    },
    {
        "name": "Badi masjid, Shahid mard",
        "main_category": "Mosque",
        "address": "H534+PJH Badi masjid, Shahid mard, Shahid Mard Rd, Dumraon, Bihar 802119",
        "detailed_address": {
            "ward": null,
            "street": "H534+PJH, Shahid Mard Rd",
            "city": "Dumraon",
            "postal_code": null,
            "state": "Bihar",
            "country_code": "IN"
        },
        "images": [
            {
                "about": "All",
                "link": "https://lh5.googleusercontent.com/p/AF1QipMtFaRjjvzh9DlS-8Qt9Bw6sLam7uyezvlCW0k5=w662-h298-k-no"
            }
        ],
        "link": "https://www.google.com/maps/place/Badi+masjid,+Shahid+mard/data=!4m7!3m6!1s0x39927970319668b3:0x52101b75eb02c793!8m2!3d25.5543134!4d84.1566041!16s%2Fg%2F11tghskstf!19sChIJs2iWMXB5kjkRk8cC63UbEFI?authuser=0&hl=en&rclk=1",
        "coordinates": {
            "latitude": 25.554313399999998,
            "longitude": 84.1566041
        }
    },
    {
        "name": "Masjid",
        "main_category": "Mosque",
        "address": "H48V+GRR Masjid, Dumraon, Bihar 802133",
        "detailed_address": {
            "ward": null,
            "street": "H48V+GRR",
            "city": "Dumraon",
            "postal_code": "802133",
            "state": "Bihar",
            "country_code": "IN"
        },
        "images": [],
        "link": "https://www.google.com/maps/place/Masjid/data=!4m7!3m6!1s0x399279337014b6c5:0xac058532522557cf!8m2!3d25.5663696!4d84.1444593!16s%2Fg%2F11tnbj1j_p!19sChIJxbYUcDN5kjkRz1clUjKFBaw?authuser=0&hl=en&rclk=1",
        "coordinates": {
            "latitude": 25.566369599999998,
            "longitude": 84.1444593
        }
    },
    {
        "name": "Irsad Kha Khanqahe Chishtiya Amjadiya Dumraon",
        "main_category": "Home help",
        "address": "Irsad Kha Khanqahe Chishtiya Amjadiya Dumraon, masjid ke pas, lalganj karwee, Dumraon, Bihar 802133",
        "detailed_address": {
            "ward": null,
            "street": "masjid ke pas, lalganj karwee",
            "city": "Dumraon",
            "postal_code": null,
            "state": "Bihar",
            "country_code": "IN"
        },
        "images": [],
        "link": "https://www.google.com/maps/place/Irsad+Kha+Khanqahe+Chishtiya+Amjadiya+Dumraon/data=!4m7!3m6!1s0x3992799f4005de3f:0xa67b6a39d0c81097!8m2!3d25.5659131!4d84.1444224!16s%2Fg%2F11jbgj268p!19sChIJP94FQJ95kjkRlxDI0Dlqe6Y?authuser=0&hl=en&rclk=1",
        "coordinates": {
            "latitude": 25.5659131,
            "longitude": 84.1444224
        }
    }
]