[
    {
        "name": "Masjid e bilal u khanapur",
        "main_category": "Mosque",
        "address": "5G93+2RX Masjid e bilal u khanapur, U. Khanapur, Karnataka 591221",
        "detailed_address": {
            "ward": null,
            "street": "5G93+2RX",
            "city": "U. Khanapur",
            "postal_code": "591221",
            "state": "Karnataka",
            "country_code": "IN"
        },
        "images": [
            {
                "about": "All",
                "link": "https://lh5.googleusercontent.com/p/AF1QipNFKxC-UXspMfBESMTZj_U-QOvszakoZGEM7j1J=w224-h339-k-no"
            },
            {
                "about": "Latest",
                "link": "https://lh5.googleusercontent.com/p/AF1QipOKP7BARAZKfFHYg42NKGBUeVVplNR_oz_4AMIc=w224-h398-k-no"
            },
            {
                "about": "Videos",
                "link": "https://lh5.googleusercontent.com/p/AF1QipPluIcnjcHmmNLM6kvXZnm9Fku5bYjubJ14QzoR=w224-h407-k-no"
            }
        ],
        "link": "https://www.google.com/maps/place/Masjid+e+bilal+u+khanapur/data=!4m7!3m6!1s0x3bc0973b201fb745:0x2b826995607f5158!8m2!3d16.167605!4d74.5045951!16s%2Fg%2F11glxxv2ws!19sChIJRbcfIDuXwDsRWFF_YJVpgis?authuser=0&hl=en&rclk=1",
        "coordinates": {
            "latitude": 16.167605,
            "longitude": 74.5045951
        }
    },
    {
        "name": "Jamia Masjid Khanapur",
        "main_category": "Mosque",
        "address": "P267+P4C Jamia Masjid Khanapur, Khanapur, Karnataka 585319",
        "detailed_address": {
            "ward": null,
            "street": "P267+P4C",
            "city": "Khanapur",
            "postal_code": "585319",
            "state": "Karnataka",
            "country_code": "IN"
        },
        "images": [
            {
                "about": "All",
                "link": "https://lh5.googleusercontent.com/p/AF1QipOJaQqP0PGzd78Mff-gsMZ8ftSkPBVpzIgHl-tx=w396-h298-k-no"
            },
            {
                "about": "Street View & 360deg",
                "link": "https://streetviewpixels-pa.googleapis.com/v1/thumbnail?panoid=tQB4ejXm5PUoNenM38aqjQ&cb_client=maps_sv.tactile.gps&w=224&h=298&yaw=16.869467&pitch=0&thumbfov=100"
            },
            {
                "about": "Videos",
                "link": "https://lh5.googleusercontent.com/p/AF1QipPLQe3c3oLoSX4_qU7KnG-3erAxX6_MFXp5deIR=w224-h469-k-no"
            }
        ],
        "link": "https://www.google.com/maps/place/Jamia+Masjid+Khanapur/data=!4m7!3m6!1s0x3bc85167772f126f:0x34cc693cab3e28bd!8m2!3d16.711816!4d77.0127761!16s%2Fg%2F11hzl27m37!19sChIJbxIvd2dRyDsRvSg-qzxpzDQ?authuser=0&hl=en&rclk=1",
        "coordinates": {
            "latitude": 16.711816,
            "longitude": 77.0127761
        }
    },
    {
        "name": "Masjid Khanapur",
        "main_category": "Mosque",
        "address": "3G69+FPG Masjid Khanapur, Khanapur, Karnataka 585421",
        "detailed_address": {
            "ward": null,
            "street": "3G69+FPG",
            "city": "Khanapur",
            "postal_code": "585421",
            "state": "Karnataka",
            "country_code": "IN"
        },
        "images": [
            {
                "about": "All",
                "link": "https://lh5.googleusercontent.com/p/AF1QipOEjn7SC2JLwiP_26cU7-z5LdpInPLMLOtpNDgr=w224-h398-k-no"
            }
        ],
        "link": "https://www.google.com/maps/place/Masjid+Khanapur/data=!4m7!3m6!1s0x3bceeaf92c5ee94b:0x7fc2ca539a43a9bb!8m2!3d18.061195!4d77.5193235!16s%2Fg%2F11f3v084m0!19sChIJS-leLPnqzjsRu6lDmlPKwn8?authuser=0&hl=en&rclk=1",
        "coordinates": {
            "latitude": 18.061194999999998,
            "longitude": 77.5193235
        }
    },
    {
        "name": "Khanapur Masjid",
        "main_category": "Mosque",
        "address": "HHX5+RFF Khanapur Masjid, Khanapur, Maharashtra 431717",
        "detailed_address": {
            "ward": null,
            "street": "HHX5+RFF",
            "city": "Khanapur",
            "postal_code": null,
            "state": "Maharashtra",
            "country_code": "IN"
        },
        "images": [
            {
                "about": "All",
                "link": "https://lh5.googleusercontent.com/p/AF1QipNjsQPpSQS8HFmaT0TJYD4EFcz2dDh1qDpb0OoT=w529-h298-k-no"
            }
        ],
        "link": "https://www.google.com/maps/place/Khanapur+Masjid/data=!4m7!3m6!1s0x3bce43c4ee6ecec1:0xbd00122636ad7f30!8m2!3d18.5995693!4d77.5586563!16s%2Fg%2F11q1r5x86z!19sChIJwc5u7sRDzjsRMH-tNiYSAL0?authuser=0&hl=en&rclk=1",
        "coordinates": {
            "latitude": 18.5995693,
            "longitude": 77.5586563
        }
    }
]