[
    {
        "name": "Moti Masjid Markaz",
        "main_category": "Mosque",
        "address": "496W+G2M Moti Masjid Markaz, Jakhari, Vyara, Gujarat 394650",
        "detailed_address": {
            "ward": "Jakhari",
            "street": "496W+G2M",
            "city": "Vyara",
            "postal_code": "394650",
            "state": "Gujarat",
            "country_code": "IN"
        },
        "images": [
            {
                "about": "All",
                "link": "https://lh5.googleusercontent.com/p/AF1QipPbsczKAIezjf559oXszh4z3DOxWL8Yya4YHZgF=w397-h298-k-no"
            },
            {
                "about": "Street View & 360deg",
                "link": "https://lh5.googleusercontent.com/p/AF1QipNScKRp1Y_XtNrrhXJteIBZDV4xarsS1xfOIpdD=w224-h298-k-no-pi-20-ya259-ro-0-fo100"
            }
        ],
        "link": "https://www.google.com/maps/place/Moti+Masjid+Markaz/data=!4m7!3m6!1s0x3be07ec9db6c5b8b:0x13702e48e1e21e67!8m2!3d21.111331!4d73.395061!16s%2Fg%2F1tpn10cs!19sChIJi1ts28l-4DsRZx7i4UgucBM?authuser=0&hl=en&rclk=1",
        "coordinates": {
            "latitude": 21.111331,
            "longitude": 73.395061
        }
    },
    {
        "name": "Vyara Jumma Masjid",
        "main_category": "Mosque",
        "address": "496R+MPF Vyara Jumma Masjid, Talav Road, VYARA DIST. TAPI, GUJARAT INDIA Talav Road,, Vyara, Gujarat 394650",
        "detailed_address": {
            "ward": null,
            "street": "496R+MPF, Talav Road, VYARA DIST. TAPI, GUJARAT INDIA Talav Road,",
            "city": "Vyara",
            "postal_code": "394650",
            "state": "Gujarat",
            "country_code": "IN"
        },
        "images": [
            {
                "about": "All",
                "link": "https://lh5.googleusercontent.com/p/AF1QipMhvk5VwoRhnYcY_saZODwgs_OzbIWo-H-1E52d=w397-h298-k-no"
            },
            {
                "about": "Dome",
                "link": "https://lh5.googleusercontent.com/p/AF1QipPTl4ELe2SWHr07AgVeevGz_1n0ys9Mid90Ohu-=w397-h298-k-no"
            },
            {
                "about": "Videos",
                "link": "https://lh5.googleusercontent.com/p/AF1QipNeHnqKR2rDgfGwfoFpxhcWtrrWTumFlJeZietR=w224-h398-k-no"
            },
            {
                "about": "Street View & 360deg",
                "link": "https://streetviewpixels-pa.googleapis.com/v1/thumbnail?panoid=NkyBtOBtLEtjrlA9EYniUQ&cb_client=maps_sv.tactile.gps&w=224&h=298&yaw=210.48058&pitch=0&thumbfov=100"
            }
        ],
        "link": "https://www.google.com/maps/place/Vyara+Jumma+Masjid/data=!4m7!3m6!1s0x3be07eb666cde27f:0x6cce73fca6a11949!8m2!3d21.1116891!4d73.3917839!16s%2Fg%2F1trc3dz5!19sChIJf-LNZrZ-4DsRSRmhpvxzzmw?authuser=0&hl=en&rclk=1",
        "coordinates": {
            "latitude": 21.1116891,
            "longitude": 73.3917839
        }
    },
    {
        "name": "Masjid, Mosque",
        "main_category": "Mosque",
        "address": "499W+WC7 Masjid, Mosque, Vyara, Gujarat 394650",
        "detailed_address": {
            "ward": null,
            "street": "499W+WC7",
            "city": "Vyara",
            "postal_code": "394650",
            "state": "Gujarat",
            "country_code": "IN"
        },
        "images": [
            {
                "about": "All",
                "link": "https://lh5.googleusercontent.com/p/AF1QipOm9In2m7aSqltbcinsl5wKnkS395ENItKvthAT=w529-h298-k-no"
            },
            {
                "about": "Street View & 360deg",
                "link": "https://streetviewpixels-pa.googleapis.com/v1/thumbnail?panoid=SccS2UeK0T6lKiAnkivIGw&cb_client=maps_sv.tactile.gps&w=224&h=298&yaw=250.59703&pitch=0&thumbfov=100"
            }
        ],
        "link": "https://www.google.com/maps/place/Masjid,+Mosque/data=!4m7!3m6!1s0x3be079353782e9ef:0xc3f67f2ee9d12f00!8m2!3d21.1197815!4d73.3960504!16s%2Fg%2F11c1wygcwm!19sChIJ7-mCNzV54DsRAC_R6S5_9sM?authuser=0&hl=en&rclk=1",
        "coordinates": {
            "latitude": 21.1197815,
            "longitude": 73.3960504
        }
    },
    {
        "name": "Masjid-e-Zubair",
        "main_category": "Mosque",
        "address": "Masjid-e-Zubair, behind wadiwala complex, Jakhari, Vyara, Gujarat 394650",
        "detailed_address": {
            "ward": "Jakhari",
            "street": "behind wadiwala complex",
            "city": "Vyara",
            "postal_code": "394650",
            "state": "Gujarat",
            "country_code": "IN"
        },
        "images": [
            {
                "about": "All",
                "link": "https://lh5.googleusercontent.com/p/AF1QipNn_qTcvUIy-SdW-S5ZpjIA3nJAf3FetlMB6nhT=w529-h298-k-no"
            },
            {
                "about": "Street View & 360deg",
                "link": "https://streetviewpixels-pa.googleapis.com/v1/thumbnail?panoid=vB6qjz75jklqevLHH0Zcvw&cb_client=maps_sv.tactile.gps&w=224&h=298&yaw=5.2692914&pitch=0&thumbfov=100"
            }
        ],
        "link": "https://www.google.com/maps/place/Masjid-e-Zubair/data=!4m7!3m6!1s0x3be07ec970bab16f:0x7d4652c2a723f2fd!8m2!3d21.1126502!4d73.3977592!16s%2Fg%2F11ddx7qq7q!19sChIJb7G6cMl-4DsR_fIjp8JSRn0?authuser=0&hl=en&rclk=1",
        "coordinates": {
            "latitude": 21.112650199999997,
            "longitude": 73.3977592
        }
    },
    {
        "name": "Masjid Railway Phatak",
        "main_category": "Mosque",
        "address": "498W+7J5 Masjid Railway Phatak, Vyara, Gujarat 394650",
        "detailed_address": {
            "ward": null,
            "street": "498W+7J5",
            "city": "Vyara",
            "postal_code": "394650",
            "state": "Gujarat",
            "country_code": "IN"
        },
        "images": [
            {
                "about": "All",
                "link": "https://streetviewpixels-pa.googleapis.com/v1/thumbnail?panoid=MHTMv52rSvO2Vd1iMUszug&cb_client=maps_sv.tactile.gps&w=224&h=298&yaw=211.22545&pitch=0&thumbfov=100"
            },
            {
                "about": "Street View & 360deg",
                "link": "https://streetviewpixels-pa.googleapis.com/v1/thumbnail?panoid=MHTMv52rSvO2Vd1iMUszug&cb_client=maps_sv.tactile.gps&w=224&h=298&yaw=211.22545&pitch=0&thumbfov=100"
            }
        ],
        "link": "https://www.google.com/maps/place/Masjid+Railway+Phatak/data=!4m7!3m6!1s0x3be07eca5a91a229:0xa859e11e5182066!8m2!3d21.1156374!4d73.3965944!16s%2Fg%2F11g9q92m6v!19sChIJKaKRWsp-4DsRZiAY5RGehQo?authuser=0&hl=en&rclk=1",
        "coordinates": {
            "latitude": 21.1156374,
            "longitude": 73.3965944
        }
    },
    {
        "name": "Masjid e Amna",
        "main_category": "Mosque",
        "address": "498V+C57 Masjid e Amna, Vyara, Gujarat 394650",
        "detailed_address": {
            "ward": null,
            "street": "498V+C57",
            "city": "Vyara",
            "postal_code": "394650",
            "state": "Gujarat",
            "country_code": "IN"
        },
        "images": [],
        "link": "https://www.google.com/maps/place/Masjid+e+Amna/data=!4m7!3m6!1s0x3be07eb50adb6609:0x42925c7f437ca822!8m2!3d21.1160324!4d73.3929107!16s%2Fg%2F11fxxmhg1w!19sChIJCWbbCrV-4DsRIqh8Q39ckkI?authuser=0&hl=en&rclk=1",
        "coordinates": {
            "latitude": 21.116032399999998,
            "longitude": 73.3929107
        }
    },
    {
        "name": "Madarsa Madina-tul-uloom Masjid",
        "main_category": "Mosque",
        "address": "494R+66Q Madarsa Madina-tul-uloom Masjid, Vyara, Gujarat 394650",
        "detailed_address": {
            "ward": null,
            "street": "494R+66Q",
            "city": "Vyara",
            "postal_code": "394650",
            "state": "Gujarat",
            "country_code": "IN"
        },
        "images": [
            {
                "about": "All",
                "link": "https://lh5.googleusercontent.com/p/AF1QipPhZT_beg-9Tn0D8CN_KAuhEnJN4vq4vYLT4XEm=w529-h298-k-no"
            },
            {
                "about": "Street View & 360deg",
                "link": "https://streetviewpixels-pa.googleapis.com/v1/thumbnail?panoid=lfm8uNagBtiPcl1ZTINPFQ&cb_client=maps_sv.tactile.gps&w=224&h=298&yaw=354.0938&pitch=0&thumbfov=100"
            }
        ],
        "link": "https://www.google.com/maps/place/Madarsa+Madina-tul-uloom+Masjid/data=!4m7!3m6!1s0x3be07eb9c784d1df:0xa4a9d342c58a49f!8m2!3d21.1055877!4d73.3906104!16s%2Fg%2F11c6rh353k!19sChIJ39GEx7l-4DsRn6RYLDSdSgo?authuser=0&hl=en&rclk=1",
        "coordinates": {
            "latitude": 21.105587699999997,
            "longitude": 73.3906104
        }
    },
    {
        "name": "Ala Hazrat Masjid",
        "main_category": "Mosque",
        "address": "497W+3C3 Ala Hazrat Masjid, Jakhari, Vyara, Gujarat 394650",
        "detailed_address": {
            "ward": "Jakhari",
            "street": "497W+3C3",
            "city": "Vyara",
            "postal_code": "394650",
            "state": "Gujarat",
            "country_code": "IN"
        },
        "images": [
            {
                "about": "All",
                "link": "https://lh5.googleusercontent.com/p/AF1QipNnbin3w-RGvxthMw_Dpy161C_4kDraFnoRRPDX=w529-h298-k-no"
            },
            {
                "about": "Street View & 360deg",
                "link": "https://streetviewpixels-pa.googleapis.com/v1/thumbnail?panoid=YaS9LA08UdgT1DDibQtlyw&cb_client=maps_sv.tactile.gps&w=224&h=298&yaw=203.58717&pitch=0&thumbfov=100"
            }
        ],
        "link": "https://www.google.com/maps/place/Ala+Hazrat+Masjid/data=!4m7!3m6!1s0x3be07ec98d195ea1:0x1da8a4d526cb7e98!8m2!3d21.1126302!4d73.3960329!16s%2Fg%2F11cjg6hdlq!19sChIJoV4Zjcl-4DsRmH7LJtWkqB0?authuser=0&hl=en&rclk=1",
        "coordinates": {
            "latitude": 21.112630199999998,
            "longitude": 73.3960329
        }
    },
    {
        "name": "Madina Masjid Vyara",
        "main_category": "Mosque",
        "address": "7C47+R9F Madina Masjid Vyara, Vyara, Gujarat 391761",
        "detailed_address": {
            "ward": null,
            "street": "7C47+R9F",
            "city": "Vyara",
            "postal_code": "391761",
            "state": "Gujarat",
            "country_code": "IN"
        },
        "images": [
            {
                "about": "All",
                "link": "https://lh5.googleusercontent.com/p/AF1QipM--T-0HLxtfVYoQeSMATBWNxoUsGtURv4SyTwk=w224-h497-k-no"
            },
            {
                "about": "Dome",
                "link": "https://lh5.googleusercontent.com/p/AF1QipM--T-0HLxtfVYoQeSMATBWNxoUsGtURv4SyTwk=w224-h497-k-no"
            }
        ],
        "link": "https://www.google.com/maps/place/Madina+Masjid+Vyara/data=!4m7!3m6!1s0x395fd9fab53bab11:0x7ed5942f9f3ebc27!8m2!3d22.2570502!4d73.413429!16s%2Fg%2F11l1dg_s4g!19sChIJEas7tfrZXzkRJ7w-ny-U1X4?authuser=0&hl=en&rclk=1",
        "coordinates": {
            "latitude": 22.2570502,
            "longitude": 73.413429
        }
    },
    {
        "name": "Eid Gaah Vyara (iid gaah vyaaaraa)",
        "main_category": "Mosque",
        "address": "496Q+3CG Eid Gaah Vyara (iid gaah vyaaaraa), opposite Shama bakery, beside Star Ice Dish, Vyara, Gujarat 394650",
        "detailed_address": {
            "ward": null,
            "street": "496Q+3CG, opposite Shama bakery, beside Star Ice Dish",
            "city": "Vyara",
            "postal_code": "394650",
            "state": "Gujarat",
            "country_code": "IN"
        },
        "images": [
            {
                "about": "All",
                "link": "https://streetviewpixels-pa.googleapis.com/v1/thumbnail?panoid=eqvoHA00fyGCklvtZiqTHQ&cb_client=maps_sv.tactile.gps&w=224&h=298&yaw=159.40584&pitch=0&thumbfov=100"
            },
            {
                "about": "Street View & 360deg",
                "link": "https://streetviewpixels-pa.googleapis.com/v1/thumbnail?panoid=eqvoHA00fyGCklvtZiqTHQ&cb_client=maps_sv.tactile.gps&w=224&h=298&yaw=159.40584&pitch=0&thumbfov=100"
            }
        ],
        "link": "https://www.google.com/maps/place/Eid+Gaah+Vyara+%28%E0%AA%88%E0%AA%A6+%E0%AA%97%E0%AA%BE%E0%AA%B9+%E0%AA%B5%E0%AB%8D%E0%AA%AF%E0%AA%BE%E0%AA%B0%E0%AA%BE%29/data=!4m7!3m6!1s0x3be07f92bc279bf7:0x5a0dcd05a51cf1!8m2!3d21.1100989!4d73.3884342!16s%2Fg%2F11syr3l73r!19sChIJ95snvJJ_4DsR8RylBc0NWgA?authuser=0&hl=en&rclk=1",
        "coordinates": {
            "latitude": 21.1100989,
            "longitude": 73.38843419999999
        }
    }
]