[
    {
        "name": "Saiyyad Baba",
        "main_category": "Mosque",
        "address": "M9PX+HJ7 Saiyyad Baba, SH36, Jaunpur, Tajuddinpur, Uttar Pradesh 222143",
        "detailed_address": {
            "ward": null,
            "street": "M9PX+HJ7, SH36",
            "city": "Jaunpur, Tajuddinpur",
            "postal_code": null,
            "state": "Uttar Pradesh",
            "country_code": "IN"
        },
        "images": [
            {
                "about": "All",
                "link": "https://lh5.googleusercontent.com/p/AF1QipPip0MFFAfaQ9BmMeW8IKVgcffONz4inKOjHi9-=w529-h298-k-no"
            },
            {
                "about": "Videos",
                "link": "https://lh5.googleusercontent.com/p/AF1QipMZDcmT0FpxQbUVPDWDhuJDE2KhUADNfkX4O50m=w224-h398-k-no"
            }
        ],
        "link": "https://www.google.com/maps/place/Saiyyad+Baba/data=!4m7!3m6!1s0x39901024d4279bd3:0x937c54f72e253da3!8m2!3d25.686406!4d82.3990472!16s%2Fg%2F11_tm11hq!19sChIJ05sn1CQQkDkRoz0lLvdUfJM?authuser=0&hl=en&rclk=1",
        "coordinates": {
            "latitude": 25.686405999999998,
            "longitude": 82.3990472
        }
    },
    {
        "name": "Jama Masjid",
        "main_category": "Mosque",
        "address": "MCP6+J24 Jama Masjid, Shahi Rd, Machhali Shahar, Uttar Pradesh 222143",
        "detailed_address": {
            "ward": null,
            "street": "MCP6+J24, Shahi Rd",
            "city": "Machhali Shahar",
            "postal_code": "222143",
            "state": "Uttar Pradesh",
            "country_code": "IN"
        },
        "images": [
            {
                "about": "All",
                "link": "https://lh5.googleusercontent.com/p/AF1QipNv1qenLB8w4J7fBO2rNcRLZ_2p_zW2-Pr4dn-z=w397-h298-k-no"
            },
            {
                "about": "Dome",
                "link": "https://lh5.googleusercontent.com/p/AF1QipP998r9KHdZaYQMje5vKVHTje9LSGLmUvIA1kY7=w224-h398-k-no"
            },
            {
                "about": "Videos",
                "link": "https://lh5.googleusercontent.com/p/AF1QipMb-TltOP-V8nfdfRwA-IXAb8BIOuTTp_UIxXMV=w224-h401-k-no"
            }
        ],
        "link": "https://www.google.com/maps/place/Jama+Masjid/data=!4m7!3m6!1s0x399010389cadccdb:0x865c29e25cadd40a!8m2!3d25.6865129!4d82.4100837!16s%2Fg%2F11cm413_5_!19sChIJ28ytnDgQkDkRCtStXOIpXIY?authuser=0&hl=en&rclk=1",
        "coordinates": {
            "latitude": 25.6865129,
            "longitude": 82.4100837
        }
    },
    {
        "name": "Shahi Eidgah,Machhali Shahar",
        "main_category": "Mosque",
        "address": "MCR6+2PG Shahi Eidgah,Machhali Shahar, NH 31, near Electrical Sub Station, Machhali Shahar, Kauraha, Uttar Pradesh 222143",
        "detailed_address": {
            "ward": null,
            "street": "MCR6+2PG, NH 31, near Electrical Sub Station",
            "city": "Machhali Shahar, Kauraha",
            "postal_code": "222143",
            "state": "Uttar Pradesh",
            "country_code": "IN"
        },
        "images": [
            {
                "about": "All",
                "link": "https://lh5.googleusercontent.com/p/AF1QipN8pLs_jLB3mslLrRDk4qXq5Vkhd4UnZnwTz6gS=w224-h398-k-no"
            },
            {
                "about": "Videos",
                "link": "https://lh5.googleusercontent.com/p/AF1QipOf0dZn3srKtVPdZksTA0ZgG3hPOjZ3_4uiTbOu=w224-h458-k-no"
            }
        ],
        "link": "https://www.google.com/maps/place/Shahi+Eidgah,Machhali+Shahar/data=!4m7!3m6!1s0x39901024c18eb471:0x83c70feddb665d97!8m2!3d25.6900586!4d82.4118253!16s%2Fg%2F11g9vqh7dw!19sChIJcbSOwSQQkDkRl11m2-0Px4M?authuser=0&hl=en&rclk=1",
        "coordinates": {
            "latitude": 25.6900586,
            "longitude": 82.41182529999999
        }
    },
    {
        "name": "Masjid Subhan Shah R.A.",
        "main_category": "Mosque",
        "address": "MCQ6+246 Masjid Subhan Shah R.A., Mahatwana,, Machhali Shahar, Uttar Pradesh 222143",
        "detailed_address": {
            "ward": null,
            "street": "MCQ6+246, Mahatwana,",
            "city": "Machhali Shahar",
            "postal_code": "222143",
            "state": "Uttar Pradesh",
            "country_code": "IN"
        },
        "images": [],
        "link": "https://www.google.com/maps/place/Masjid+Subhan+Shah+R.A./data=!4m7!3m6!1s0x399010387f3fd495:0x786fe248e92b2b96!8m2!3d25.6875299!4d82.4102802!16s%2Fg%2F11c1vk9q3d!19sChIJldQ_fzgQkDkRlisr6Ujib3g?authuser=0&hl=en&rclk=1",
        "coordinates": {
            "latitude": 25.687529899999998,
            "longitude": 82.4102802
        }
    },
    {
        "name": "Sabji Mandi Masjid",
        "main_category": "Mosque",
        "address": "MCP7+JHM Sabji Mandi Masjid, Shahi Rd, Machhali Shahar, Uttar Pradesh 222143",
        "detailed_address": {
            "ward": null,
            "street": "MCP7+JHM, Shahi Rd",
            "city": "Machhali Shahar",
            "postal_code": "222143",
            "state": "Uttar Pradesh",
            "country_code": "IN"
        },
        "images": [
            {
                "about": "All",
                "link": "https://lh5.googleusercontent.com/p/AF1QipNkFXiII8_zJYaTd66OP6z94kAwY9D2TQU5Il4z=w224-h400-k-no"
            },
            {
                "about": "Videos",
                "link": "https://lh5.googleusercontent.com/p/AF1QipMqNIhjrONDXkZ9qCiLQ5u-bt2DAigOz5kL0nI3=w224-h398-k-no"
            }
        ],
        "link": "https://www.google.com/maps/place/Sabji+Mandi+Masjid/data=!4m7!3m6!1s0x39901046ee6cb751:0xa67abb89e2ffdc83!8m2!3d25.686589!4d82.4139297!16s%2Fg%2F11f0kvj4rw!19sChIJUbds7kYQkDkRg9z_4om7eqY?authuser=0&hl=en&rclk=1",
        "coordinates": {
            "latitude": 25.686588999999998,
            "longitude": 82.4139297
        }
    },
    {
        "name": "Pakka Wali Masjid",
        "main_category": "Mosque",
        "address": "MCP5+5R5 Pakka Wali Masjid, Alviyana, Machhali Shahar, Uttar Pradesh 222143",
        "detailed_address": {
            "ward": "Alviyana",
            "street": "MCP5+5R5",
            "city": "Machhali Shahar",
            "postal_code": "222143",
            "state": "Uttar Pradesh",
            "country_code": "IN"
        },
        "images": [],
        "link": "https://www.google.com/maps/place/Pakka+Wali+Masjid/data=!4m7!3m6!1s0x39901038bca93389:0x9c4aea59c092c88d!8m2!3d25.6853933!4d82.4096113!16s%2Fg%2F11gfh1x5vg!19sChIJiTOpvDgQkDkRjciSwFnqSpw?authuser=0&hl=en&rclk=1",
        "coordinates": {
            "latitude": 25.685393299999998,
            "longitude": 82.4096113
        }
    },
    {
        "name": "Takiya Wali Masjid",
        "main_category": "Mosque",
        "address": "MCP7+7J5 Takiya Wali Masjid, Machhali Shahar, Uttar Pradesh 222143",
        "detailed_address": {
            "ward": null,
            "street": "MCP7+7J5",
            "city": "Machhali Shahar",
            "postal_code": "222143",
            "state": "Uttar Pradesh",
            "country_code": "IN"
        },
        "images": [
            {
                "about": "All",
                "link": "https://lh5.googleusercontent.com/p/AF1QipOlPF1RwtuA69BjhKQQW8LqgQvcSuuoxnoUaMrc=w224-h407-k-no"
            },
            {
                "about": "Videos",
                "link": "https://lh5.googleusercontent.com/p/AF1QipOlPF1RwtuA69BjhKQQW8LqgQvcSuuoxnoUaMrc=w224-h407-k-no"
            }
        ],
        "link": "https://www.google.com/maps/place/Takiya+Wali+Masjid/data=!4m7!3m6!1s0x39901046c13bb117:0x5546fbe978b207cf!8m2!3d25.6856491!4d82.414102!16s%2Fg%2F11fylsrtfq!19sChIJF7E7wUYQkDkRzweyeOn7RlU?authuser=0&hl=en&rclk=1",
        "coordinates": {
            "latitude": 25.6856491,
            "longitude": 82.414102
        }
    },
    {
        "name": "Sarai Masjid",
        "main_category": "Mosque",
        "address": "Sarai Masjid, Sarai Mohalla, Machhali Shahar, Uttar Pradesh 222143",
        "detailed_address": {
            "ward": "Sarai Mohalla",
            "street": null,
            "city": "Machhali Shahar",
            "postal_code": "222143",
            "state": "Uttar Pradesh",
            "country_code": "IN"
        },
        "images": [
            {
                "about": "All",
                "link": "https://lh5.googleusercontent.com/p/AF1QipOV0wEqmpSmbWFg0e7Cb6kQtT1dcS_iY6p25XFL=w319-h298-k-no"
            },
            {
                "about": "By owner",
                "link": "https://lh5.googleusercontent.com/p/AF1QipPyl43wi95VodRJWx2rml8wOsv2ndqgwQebaoKX=w224-h498-k-no"
            }
        ],
        "link": "https://www.google.com/maps/place/Sarai+Masjid/data=!4m7!3m6!1s0x39901047a6555555:0xdc4a7a255e69aae5!8m2!3d25.6875543!4d82.4120379!16s%2Fg%2F11f31ydtl9!19sChIJVVVVpkcQkDkR5appXiV6Stw?authuser=0&hl=en&rclk=1",
        "coordinates": {
            "latitude": 25.6875543,
            "longitude": 82.4120379
        }
    },
    {
        "name": "Dargah Shakur Shah Baba",
        "main_category": "Mosque",
        "address": "MCJ6+89P Dargah Shakur Shah Baba, Machhali Shahar, Uttar Pradesh 222143",
        "detailed_address": {
            "ward": null,
            "street": "MCJ6+89P",
            "city": "Machhali Shahar",
            "postal_code": null,
            "state": "Uttar Pradesh",
            "country_code": "IN"
        },
        "images": [
            {
                "about": "All",
                "link": "https://lh5.googleusercontent.com/p/AF1QipMXHmM-6j2cAi5GupypvDzsS9ku6wUTrZOVGn4y=w397-h298-k-no"
            },
            {
                "about": "Dome",
                "link": "https://lh5.googleusercontent.com/p/AF1QipMNEIGw2dNy9clEUa4r4DAb6oigrvs3Sk2tPV2b=w529-h298-k-no"
            },
            {
                "about": "Videos",
                "link": "https://lh5.googleusercontent.com/p/AF1QipNRXr7oktonnbMUQVpfKUrSiPo1SdhjeJuq-BOA=w224-h398-k-no"
            }
        ],
        "link": "https://www.google.com/maps/place/Dargah+Shakur+Shah+Baba/data=!4m7!3m6!1s0x399011e7eeb0d229:0x72f2532951a2a793!8m2!3d25.680848!4d82.410964!16s%2Fg%2F11gskwpwph!19sChIJKdKw7ucRkDkRk6eiUSlT8nI?authuser=0&hl=en&rclk=1",
        "coordinates": {
            "latitude": 25.680847999999997,
            "longitude": 82.41096399999999
        }
    },
    {
        "name": "Taiba Masjid",
        "main_category": "Mosque",
        "address": "MCH7+47P Taiba Masjid, puradosi, Machhali Shahar, Uttar Pradesh 222143",
        "detailed_address": {
            "ward": "puradosi",
            "street": "MCH7+47P",
            "city": "Machhali Shahar",
            "postal_code": null,
            "state": "Uttar Pradesh",
            "country_code": "IN"
        },
        "images": [
            {
                "about": "All",
                "link": "https://lh5.googleusercontent.com/p/AF1QipM0rQT7yJdVJ9jbAdt1qkMynBdyrFhsUzRGt7KW=w224-h398-k-no"
            },
            {
                "about": "Videos",
                "link": "https://lh5.googleusercontent.com/p/AF1QipPebolP4GE3ZeQN2Io4VCB3JgATJNpbcgu8vXcd=w224-h407-k-no"
            }
        ],
        "link": "https://www.google.com/maps/place/Taiba+Masjid/data=!4m7!3m6!1s0x3990116f305607a9:0x62dd0659f2b18ded!8m2!3d25.6778399!4d82.4132085!16s%2Fg%2F11gs55zgzs!19sChIJqQdWMG8RkDkR7Y2x8lkG3WI?authuser=0&hl=en&rclk=1",
        "coordinates": {
            "latitude": 25.6778399,
            "longitude": 82.4132085
        }
    },
    {
        "name": "Shahi Masjid",
        "main_category": "Mosque",
        "address": "MCP8+7GM Shahi Masjid, Sarai Yusuf, Uttar Pradesh 222143",
        "detailed_address": {
            "ward": null,
            "street": "MCP8+7GM",
            "city": "Sarai Yusuf",
            "postal_code": "222143",
            "state": "Uttar Pradesh",
            "country_code": "IN"
        },
        "images": [
            {
                "about": "All",
                "link": "https://lh5.googleusercontent.com/p/AF1QipPcazxPN8i3AujmfDdR48TTIeUDeMWgFeecgRhk=w447-h298-k-no"
            },
            {
                "about": "Dome",
                "link": "https://lh5.googleusercontent.com/p/AF1QipPcazxPN8i3AujmfDdR48TTIeUDeMWgFeecgRhk=w447-h298-k-no"
            }
        ],
        "link": "https://www.google.com/maps/place/Shahi+Masjid/data=!4m7!3m6!1s0x3990104419f48893:0x96be4ff671acad9b!8m2!3d25.6857231!4d82.4162854!16s%2Fg%2F11cjpf6222!19sChIJk4j0GUQQkDkRm62scfZPvpY?authuser=0&hl=en&rclk=1",
        "coordinates": {
            "latitude": 25.6857231,
            "longitude": 82.41628539999999
        }
    },
    {
        "name": "Shah Asharaf Shah Masjid Mahalla Qaziyna",
        "main_category": "Mosque",
        "address": "MCM6+87R Shah Asharaf Shah Masjid Mahalla Qaziyna, Machhali Shahar, Uttar Pradesh 222143",
        "detailed_address": {
            "ward": null,
            "street": "MCM6+87R",
            "city": "Machhali Shahar",
            "postal_code": "222143",
            "state": "Uttar Pradesh",
            "country_code": "IN"
        },
        "images": [
            {
                "about": "All",
                "link": "https://lh5.googleusercontent.com/p/AF1QipOB-MPGwHt0xo-tceMqfWMB2mUWKWU9PTnEWT3n=w529-h298-k-no"
            },
            {
                "about": "Latest",
                "link": "https://lh5.googleusercontent.com/p/AF1QipOiygs3PhGoWZP6oHPVseKmbns0dMW7-ur8NehV=w529-h298-k-no"
            },
            {
                "about": "Dome",
                "link": "https://lh5.googleusercontent.com/p/AF1QipOB-MPGwHt0xo-tceMqfWMB2mUWKWU9PTnEWT3n=w529-h298-k-no"
            }
        ],
        "link": "https://www.google.com/maps/place/Shah+Asharaf+Shah+Masjid+Mahalla+Qaziyna/data=!4m7!3m6!1s0x39901040a432e887:0x581a3dc6cf58f617!8m2!3d25.6833678!4d82.4106478!16s%2Fg%2F11gfjh1x9s!19sChIJh-gypEAQkDkRF_ZYz8Y9Glg?authuser=0&hl=en&rclk=1",
        "coordinates": {
            "latitude": 25.6833678,
            "longitude": 82.41064779999999
        }
    },
    {
        "name": "Masjid-un-Nakheel (Khajoor Wali Masjid)",
        "main_category": "Mosque",
        "address": "MCP4+FWR Masjid-un-Nakheel (Khajoor Wali Masjid), Shahi Rd, Sadik Ganj, Machhali Shahar, Uttar Pradesh 222143",
        "detailed_address": {
            "ward": "Sadik Ganj",
            "street": "MCP4+FWR, Shahi Rd",
            "city": "Machhali Shahar",
            "postal_code": "222143",
            "state": "Uttar Pradesh",
            "country_code": "IN"
        },
        "images": [],
        "link": "https://www.google.com/maps/place/Masjid-un-Nakheel+%28Khajoor+Wali+Masjid%29/data=!4m7!3m6!1s0x399010391ca1d6cd:0x2e645009fd63dd1d!8m2!3d25.6862361!4d82.4072811!16s%2Fg%2F11f_bz69dh!19sChIJzdahHDkQkDkRHd1j_QlQZC4?authuser=0&hl=en&rclk=1",
        "coordinates": {
            "latitude": 25.6862361,
            "longitude": 82.40728109999999
        }
    },
    {
        "name": "Pokhrewali Masjid",
        "main_category": "Mosque",
        "address": "MCJ6+8G3 Pokhrewali Masjid, Jaunpur, Uttar Pradesh 222143",
        "detailed_address": {
            "ward": null,
            "street": "MCJ6+8G3",
            "city": "Jaunpur",
            "postal_code": "222143",
            "state": "Uttar Pradesh",
            "country_code": "IN"
        },
        "images": [
            {
                "about": "All",
                "link": "https://lh5.googleusercontent.com/p/AF1QipOip-8znpa6J3jx1YJmov6IWJKLtoc3xLF4BKIw=w450-h298-k-no"
            },
            {
                "about": "Dome",
                "link": "https://lh5.googleusercontent.com/p/AF1QipOeAFR00571Wm74p6VAcCSNCYG7Bum2bZKo07St=w397-h298-k-no"
            },
            {
                "about": "Videos",
                "link": "https://lh5.googleusercontent.com/p/AF1QipNQT8ZDyFvcYDKVEn89tuvThbmQ0DTqIB-VY9Zn=w529-h298-k-no"
            }
        ],
        "link": "https://www.google.com/maps/place/Pokhrewali+Masjid/data=!4m7!3m6!1s0x3990104065de0859:0x905b8f5fc39fa6a9!8m2!3d25.6807529!4d82.4112817!16s%2Fg%2F11bwmfd55r!19sChIJWQjeZUAQkDkRqaafw1-PW5A?authuser=0&hl=en&rclk=1",
        "coordinates": {
            "latitude": 25.680752899999998,
            "longitude": 82.41128169999999
        }
    },
    {
        "name": "Masjid Ek Minara",
        "main_category": "Mosque",
        "address": "Masjid Ek Minara, Shukla Gali, Sadik Ganj, Machhali Shahar, Uttar Pradesh 222143",
        "detailed_address": {
            "ward": "Sadik Ganj",
            "street": "Shukla Gali",
            "city": "Machhali Shahar",
            "postal_code": "222143",
            "state": "Uttar Pradesh",
            "country_code": "IN"
        },
        "images": [
            {
                "about": "All",
                "link": "https://lh5.googleusercontent.com/p/AF1QipOLbGdFJmH18pfTmvWkcRzPDhyFi-Z4MW79XVwj=w224-h398-k-no"
            }
        ],
        "link": "https://www.google.com/maps/place/Masjid+Ek+Minara/data=!4m7!3m6!1s0x3990103856594383:0xa47c275657ab6f0!8m2!3d25.6872344!4d82.4079229!16s%2Fg%2F11c5n8s2mb!19sChIJg0NZVjgQkDkR8LZ6ZXXCRwo?authuser=0&hl=en&rclk=1",
        "coordinates": {
            "latitude": 25.687234399999998,
            "longitude": 82.4079229
        }
    },
    {
        "name": "Takiya wali Masjid",
        "main_category": "Mosque",
        "address": "MCQ5+FVW Takiya wali Masjid, BSNL Tower St, Machhali Shahar, Uttar Pradesh 222143",
        "detailed_address": {
            "ward": null,
            "street": "MCQ5+FVW, BSNL Tower St",
            "city": "Machhali Shahar",
            "postal_code": "222143",
            "state": "Uttar Pradesh",
            "country_code": "IN"
        },
        "images": [],
        "link": "https://www.google.com/maps/place/Takiya+wali+Masjid/data=!4m7!3m6!1s0x39901152d0b82b6b:0xe15af316e91dea3!8m2!3d25.6887418!4d82.4097108!16s%2Fg%2F11fl8_fb8r!19sChIJayu40FIRkDkRo96RbjGvFQ4?authuser=0&hl=en&rclk=1",
        "coordinates": {
            "latitude": 25.6887418,
            "longitude": 82.4097108
        }
    },
    {
        "name": "Masjid e JUMA",
        "main_category": "Mosque",
        "address": "PC6G+QVF Masjid e JUMA, Katahit Khas, Uttar Pradesh 222143",
        "detailed_address": {
            "ward": null,
            "street": "PC6G+QVF",
            "city": "Katahit Khas",
            "postal_code": null,
            "state": "Uttar Pradesh",
            "country_code": "IN"
        },
        "images": [
            {
                "about": "All",
                "link": "https://lh5.googleusercontent.com/p/AF1QipMOrEHLtOzBJAg94v54-TBaaWZ9XzFQE855DCMf=w397-h298-k-no"
            }
        ],
        "link": "https://www.google.com/maps/place/Masjid+e+JUMA/data=!4m7!3m6!1s0x399011c065fd0145:0xfd0a1282d6032beb!8m2!3d25.7119444!4d82.4271844!16s%2Fg%2F11hym03674!19sChIJRQH9ZcARkDkR6ysD1oISCv0?authuser=0&hl=en&rclk=1",
        "coordinates": {
            "latitude": 25.7119444,
            "longitude": 82.4271844
        }
    },
    {
        "name": "Masjid Madeena",
        "main_category": "Mosque",
        "address": "MCM5+5HX Masjid Madeena, Mohalla Quaziyana, Machhali Shahar, Uttar Pradesh 222143",
        "detailed_address": {
            "ward": "Mohalla Quaziyana",
            "street": "MCM5+5HX",
            "city": "Machhali Shahar",
            "postal_code": "222143",
            "state": "Uttar Pradesh",
            "country_code": "IN"
        },
        "images": [],
        "link": "https://www.google.com/maps/place/Masjid+Madeena/data=!4m7!3m6!1s0x399011396a23724f:0x97b2dfd0281caf1c!8m2!3d25.6829868!4d82.4089895!16s%2Fg%2F11f7966xy4!19sChIJT3IjajkRkDkRHK8cKNDfspc?authuser=0&hl=en&rclk=1",
        "coordinates": {
            "latitude": 25.6829868,
            "longitude": 82.40898949999999
        }
    },
    {
        "name": "Masjid CHOHATTA",
        "main_category": "Mosque",
        "address": "MCJ6+XVV Masjid CHOHATTA, Machhali Shahar, Uttar Pradesh 222143",
        "detailed_address": {
            "ward": null,
            "street": "MCJ6+XVV",
            "city": "Machhali Shahar",
            "postal_code": null,
            "state": "Uttar Pradesh",
            "country_code": "IN"
        },
        "images": [],
        "link": "https://www.google.com/maps/place/Masjid+CHOHATTA/data=!4m7!3m6!1s0x39901148e95e928d:0xf78d0abc6ab07173!8m2!3d25.6824893!4d82.4121859!16s%2Fg%2F11j4ywgw7c!19sChIJjZJe6UgRkDkRc3GwarwKjfc?authuser=0&hl=en&rclk=1",
        "coordinates": {
            "latitude": 25.6824893,
            "longitude": 82.4121859
        }
    },
    {
        "name": "Masjid Pura Qazi",
        "main_category": "Mosque",
        "address": "MCH6+MRF Masjid Pura Qazi, Unnamed Road, Uttar Pradesh 222143",
        "detailed_address": {
            "ward": null,
            "street": "MCH6+MRF, Unnamed Road",
            "city": null,
            "postal_code": "222143",
            "state": "Uttar Pradesh",
            "country_code": "IN"
        },
        "images": [],
        "link": "https://www.google.com/maps/place/Masjid+Pura+Qazi/data=!4m7!3m6!1s0x399011f26c93aff7:0x8c099f7f6a05e553!8m2!3d25.6791836!4d82.4120364!16s%2Fg%2F11gxtqtfdh!19sChIJ96-TbPIRkDkRU-UFan-fCYw?authuser=0&hl=en&rclk=1",
        "coordinates": {
            "latitude": 25.679183599999998,
            "longitude": 82.41203639999999
        }
    },
    {
        "name": "Jama Masjid",
        "main_category": "Mosque",
        "address": "MCM6+95Q Jama Masjid, Machhali Shahar, Uttar Pradesh 222143",
        "detailed_address": {
            "ward": null,
            "street": "MCM6+95Q",
            "city": "Machhali Shahar",
            "postal_code": "222143",
            "state": "Uttar Pradesh",
            "country_code": "IN"
        },
        "images": [],
        "link": "https://www.google.com/maps/place/Jama+Masjid/data=!4m7!3m6!1s0x39901040a7b49413:0x9770d4c2580d585e!8m2!3d25.6834514!4d82.4104959!16s%2Fg%2F11bwm5cj1t!19sChIJE5S0p0AQkDkRXlgNWMLUcJc?authuser=0&hl=en&rclk=1",
        "coordinates": {
            "latitude": 25.6834514,
            "longitude": 82.4104959
        }
    },
    {
        "name": "Hazrat Belal Masjid",
        "main_category": "Mosque",
        "address": "MCP7+H99 Hazrat Belal Masjid, Shahi Rd, Machhali Shahar, Uttar Pradesh 222143",
        "detailed_address": {
            "ward": null,
            "street": "MCP7+H99, Shahi Rd",
            "city": "Machhali Shahar",
            "postal_code": "222143",
            "state": "Uttar Pradesh",
            "country_code": "IN"
        },
        "images": [
            {
                "about": "All",
                "link": "https://lh5.googleusercontent.com/p/AF1QipPhBmPa64LmlvtgJ0TdEkf1IxVPdpH1avDTldFZ=w224-h298-k-no"
            }
        ],
        "link": "https://www.google.com/maps/place/Hazrat+Belal+Masjid/data=!4m7!3m6!1s0x399011f44abb5439:0x5ebdcfeb654c0756!8m2!3d25.6864047!4d82.4134784!16s%2Fg%2F11ghtdgtsy!19sChIJOVS7SvQRkDkRVgdMZevPvV4?authuser=0&hl=en&rclk=1",
        "coordinates": {
            "latitude": 25.686404699999997,
            "longitude": 82.4134784
        }
    },
    {
        "name": "Madina Masjid",
        "main_category": "Mosque",
        "address": "MCP5+CHX Madina Masjid, Shahi Rd, Khanzada, Machhali Shahar, Uttar Pradesh 222143",
        "detailed_address": {
            "ward": "Khanzada",
            "street": "MCP5+CHX, Shahi Rd",
            "city": "Machhali Shahar",
            "postal_code": "222143",
            "state": "Uttar Pradesh",
            "country_code": "IN"
        },
        "images": [
            {
                "about": "All",
                "link": "https://lh5.googleusercontent.com/p/AF1QipNfaXycFej2TRDAHTC1e594IAjFdnzUDPk7y_YP=w238-h298-k-no"
            },
            {
                "about": "Videos",
                "link": "https://lh5.googleusercontent.com/p/AF1QipOBovSCUJ1zcAUivg_DZcq2eS1d8Hhrlae-V24d=w224-h398-k-no"
            }
        ],
        "link": "https://www.google.com/maps/place/Madina+Masjid/data=!4m7!3m6!1s0x39901038936f2779:0x8578d8107a84565d!8m2!3d25.6861057!4d82.4089963!16s%2Fg%2F11f3v1rsc0!19sChIJeSdvkzgQkDkRXVaEehDYeIU?authuser=0&hl=en&rclk=1",
        "coordinates": {
            "latitude": 25.6861057,
            "longitude": 82.4089963
        }
    },
    {
        "name": "Masjid E ABU-BAKR",
        "main_category": "Mosque",
        "address": "M92F+HW5 Masjid E ABU-BAKR, Unnamed Road, Jamuhar, Uttar Pradesh 222143",
        "detailed_address": {
            "ward": null,
            "street": "M92F+HW5, Unnamed Road",
            "city": "Jamuhar",
            "postal_code": "222143",
            "state": "Uttar Pradesh",
            "country_code": "IN"
        },
        "images": [],
        "link": "https://www.google.com/maps/place/Masjid+E+ABU-BAKR/data=!4m7!3m6!1s0x3990051cc37f07d9:0xcc4e4696deaaefe7!8m2!3d25.6513865!4d82.3748653!16s%2Fg%2F11fl7bzs4k!19sChIJ2Qd_wxwFkDkR5--q3pZGTsw?authuser=0&hl=en&rclk=1",
        "coordinates": {
            "latitude": 25.651386499999997,
            "longitude": 82.3748653
        }
    },
    {
        "name": "Haji Jumman Masjid",
        "main_category": "Mosque",
        "address": "MCJ5+PGF Haji Jumman Masjid, Masjid Street, Mahatwana, Machhali Shahar, Uttar Pradesh 222143",
        "detailed_address": {
            "ward": null,
            "street": "MCJ5+PGF, Masjid Street, Mahatwana",
            "city": "Machhali Shahar",
            "postal_code": "222143",
            "state": "Uttar Pradesh",
            "country_code": "IN"
        },
        "images": [],
        "link": "https://www.google.com/maps/place/Haji+Jumman+Masjid/data=!4m7!3m6!1s0x3990117a8cf0d213:0x2505ac54d40996fe!8m2!3d25.68181!4d82.4087909!16s%2Fg%2F11qh5bhf7g!19sChIJE9LwjHoRkDkR_pYJ1FSsBSU?authuser=0&hl=en&rclk=1",
        "coordinates": {
            "latitude": 25.68181,
            "longitude": 82.4087909
        }
    },
    {
        "name": "Haji Jumman Masjid",
        "main_category": "Mosque",
        "address": "MCQ6+CGQ Haji Jumman Masjid, Machhali Shahar, Uttar Pradesh 222143",
        "detailed_address": {
            "ward": null,
            "street": "MCQ6+CGQ",
            "city": "Machhali Shahar",
            "postal_code": "222143",
            "state": "Uttar Pradesh",
            "country_code": "IN"
        },
        "images": [],
        "link": "https://www.google.com/maps/place/Haji+Jumman+Masjid/data=!4m7!3m6!1s0x399011cd82d96d8d:0x1019dfc1f7c568c!8m2!3d25.6885912!4d82.4113501!16s%2Fg%2F11qh5bc45d!19sChIJjW3Zgs0RkDkRjFZ8H_ydAQE?authuser=0&hl=en&rclk=1",
        "coordinates": {
            "latitude": 25.688591199999998,
            "longitude": 82.41135009999999
        }
    },
    {
        "name": "Paturya ki masjid",
        "main_category": "Mosque",
        "address": "MCP3+7JP Paturya ki masjid, Tajuddinpur, Uttar Pradesh 222143",
        "detailed_address": {
            "ward": null,
            "street": "MCP3+7JP",
            "city": "Tajuddinpur",
            "postal_code": "222143",
            "state": "Uttar Pradesh",
            "country_code": "IN"
        },
        "images": [],
        "link": "https://www.google.com/maps/place/Paturya+ki+masjid/data=!4m7!3m6!1s0x399011cfbca1ec1f:0x206d563e291187d0!8m2!3d25.6857022!4d82.4040796!16s%2Fg%2F11qh8fhy2z!19sChIJH-yhvM8RkDkR0IcRKT5WbSA?authuser=0&hl=en&rclk=1",
        "coordinates": {
            "latitude": 25.685702199999998,
            "longitude": 82.4040796
        }
    },
    {
        "name": "Saiyana Masjid",
        "main_category": "Mosque",
        "address": "P9CW+PMG Saiyana Masjid, Saiyana - Parahit, Machhali Shahar, Uttar Pradesh 222143",
        "detailed_address": {
            "ward": null,
            "street": "P9CW+PMG, Saiyana - Parahit",
            "city": "Machhali Shahar, Parahit",
            "postal_code": "222143",
            "state": "Uttar Pradesh",
            "country_code": "IN"
        },
        "images": [
            {
                "about": "All",
                "link": "https://lh5.googleusercontent.com/p/AF1QipMtiZIDJjJhY3ZDH8WhKxYjPip5S2geCpzBSwsV=w224-h398-k-no"
            }
        ],
        "link": "https://www.google.com/maps/place/Saiyana+Masjid/data=!4m7!3m6!1s0x39901165f158513b:0xb60309d141df4bc3!8m2!3d25.7218114!4d82.3967108!16s%2Fg%2F11rvk0ktg1!19sChIJO1FY8WURkDkRw0vfQdEJA7Y?authuser=0&hl=en&rclk=1",
        "coordinates": {
            "latitude": 25.7218114,
            "longitude": 82.3967108
        }
    },
    {
        "name": "Masjid Kudia",
        "main_category": "Mosque",
        "address": "MCP3+9H9 Masjid Kudia, Tajuddinpur, Uttar Pradesh 222143",
        "detailed_address": {
            "ward": null,
            "street": "MCP3+9H9",
            "city": "Tajuddinpur",
            "postal_code": "222143",
            "state": "Uttar Pradesh",
            "country_code": "IN"
        },
        "images": [],
        "link": "https://www.google.com/maps/place/Masjid+Kudia/data=!4m7!3m6!1s0x399011ee0fdb0369:0xcbdbf951fb4be734!8m2!3d25.6859232!4d82.403979!16s%2Fg%2F11h9h8nzzz!19sChIJaQPbD-4RkDkRNOdL-1H528s?authuser=0&hl=en&rclk=1",
        "coordinates": {
            "latitude": 25.685923199999998,
            "longitude": 82.40397899999999
        }
    },
    {
        "name": "Masjid E Aqsa Jamuhar",
        "main_category": "Mosque",
        "address": "J9QQ+9QR Masjid E Aqsa Jamuhar, Jamuhar, Uttar Pradesh 222143",
        "detailed_address": {
            "ward": null,
            "street": "J9QQ+9QR",
            "city": "Jamuhar",
            "postal_code": "222143",
            "state": "Uttar Pradesh",
            "country_code": "IN"
        },
        "images": [
            {
                "about": "All",
                "link": "https://lh5.googleusercontent.com/p/AF1QipN84P_Qz8rj7HOkq4L7o4WyT4_NFg2HIHvYct-j=w224-h398-k-no"
            }
        ],
        "link": "https://www.google.com/maps/place/Masjid+E+Aqsa+Jamuhar/data=!4m7!3m6!1s0x39901b5784b9dc47:0x34bee531ce71188f!8m2!3d25.6384832!4d82.3893905!16s%2Fg%2F11j0285sp7!19sChIJR9y5hFcbkDkRjxhxzjHlvjQ?authuser=0&hl=en&rclk=1",
        "coordinates": {
            "latitude": 25.6384832,
            "longitude": 82.38939049999999
        }
    },
    {
        "name": "masjid",
        "main_category": "Mosque",
        "address": "PF27+32X masjid, Manikapur, Uttar Pradesh 222135",
        "detailed_address": {
            "ward": null,
            "street": "PF27+32X",
            "city": "Manikapur",
            "postal_code": "222135",
            "state": "Uttar Pradesh",
            "country_code": "IN"
        },
        "images": [
            {
                "about": "All",
                "link": "https://lh5.googleusercontent.com/p/AF1QipOxCFiCmCCwEvxrE9yD3ekdJ42qOAZjSHI3BVv0=w224-h298-k-no"
            },
            {
                "about": "Videos",
                "link": "https://lh5.googleusercontent.com/p/AF1QipOSNUpFCG5ScRA67jtboZX9ABLpMSPPTBboQICE=w224-h407-k-no"
            }
        ],
        "link": "https://www.google.com/maps/place/masjid/data=!4m7!3m6!1s0x399011a8abeae6bd:0x67df562317208b1!8m2!3d25.7002424!4d82.4626138!16s%2Fg%2F11mws95vj8!19sChIJvebqq6gRkDkRsQhyMWL1fQY?authuser=0&hl=en&rclk=1",
        "coordinates": {
            "latitude": 25.7002424,
            "longitude": 82.4626138
        }
    },
    {
        "name": "Juma Masjid Jamuhar",
        "main_category": "Mosque",
        "address": "M92G+J2G Juma Masjid Jamuhar, Unnamed Road, Jamuhar, Uttar Pradesh 222143",
        "detailed_address": {
            "ward": null,
            "street": "M92G+J2G, Unnamed Road",
            "city": "Jamuhar",
            "postal_code": "222143",
            "state": "Uttar Pradesh",
            "country_code": "IN"
        },
        "images": [],
        "link": "https://www.google.com/maps/place/Juma+Masjid+Jamuhar/data=!4m7!3m6!1s0x3990056944351559:0x8787d18743029103!8m2!3d25.6515596!4d82.3750905!16s%2Fg%2F11fl7c329w!19sChIJWRU1RGkFkDkRA5ECQ4fRh4c?authuser=0&hl=en&rclk=1",
        "coordinates": {
            "latitude": 25.6515596,
            "longitude": 82.3750905
        }
    },
    {
        "name": "Juma Masjid PATULKI",
        "main_category": "Mosque",
        "address": "PC6G+H43 Juma Masjid PATULKI, Katahit Khas, Uttar Pradesh 222143",
        "detailed_address": {
            "ward": null,
            "street": "PC6G+H43",
            "city": "Katahit Khas",
            "postal_code": null,
            "state": "Uttar Pradesh",
            "country_code": "IN"
        },
        "images": [],
        "link": "https://www.google.com/maps/place/Juma+Masjid+PATULKI/data=!4m7!3m6!1s0x3990111a5356eb63:0x4380df2023c49887!8m2!3d25.7113773!4d82.4252946!16s%2Fg%2F11fltv91hm!19sChIJY-tWUxoRkDkRh5jEIyDfgEM?authuser=0&hl=en&rclk=1",
        "coordinates": {
            "latitude": 25.7113773,
            "longitude": 82.4252946
        }
    },
    {
        "name": "Parsauni Masjid",
        "main_category": "Restaurant",
        "address": "MCJ5+PGF Parsauni Masjid, Machhali Shahar, Uttar Pradesh 222143",
        "detailed_address": {
            "ward": null,
            "street": "MCJ5+PGF",
            "city": "Machhali Shahar",
            "postal_code": null,
            "state": "Uttar Pradesh",
            "country_code": "IN"
        },
        "images": [],
        "link": "https://www.google.com/maps/place/Parsauni+Masjid/data=!4m7!3m6!1s0x3990114a8d89933b:0x6abb7588232c4769!8m2!3d25.68181!4d82.4087909!16s%2Fg%2F11kqvk2v0b!19sChIJO5OJjUoRkDkRaUcsI4h1u2o?authuser=0&hl=en&rclk=1",
        "coordinates": {
            "latitude": 25.68181,
            "longitude": 82.4087909
        }
    }
]