[
    {
        "name": "Raza Jama Masjid Tarakulawa Masih Khan",
        "main_category": "Mosque",
        "address": "2J95+J4C Raza Jama Masjid Tarakulawa Masih Khan, Tarakulawa, Uttar Pradesh 273302",
        "detailed_address": {
            "ward": null,
            "street": "2J95+J4C",
            "city": "Tarakulawa",
            "postal_code": "273302",
            "state": "Uttar Pradesh",
            "country_code": "IN"
        },
        "images": [
            {
                "about": "All",
                "link": "https://lh5.googleusercontent.com/p/AF1QipOya-jos-03kmy3XmRwf1G6BvLYiEwR49TCzF3B=w224-h298-k-no"
            },
            {
                "about": "Dome",
                "link": "https://lh5.googleusercontent.com/p/AF1QipNA5kfDUpo45VPD3i5vpvsPh8m-h2dcs7Ah93rk=w298-h298-k-no"
            }
        ],
        "link": "https://www.google.com/maps/place/Raza+Jama+Masjid+Tarakulawa+Masih+Khan/data=!4m7!3m6!1s0x3993fff18f9e18eb:0x17e96f6bc5bfa94f!8m2!3d27.0190675!4d83.6077682!16s%2Fg%2F11g8xf_rc4!19sChIJ6xiej_H_kzkRT6m_xWtv6Rc?authuser=0&hl=en&rclk=1",
        "coordinates": {
            "latitude": 27.0190675,
            "longitude": 83.6077682
        }
    },
    {
        "name": "sunni noori masjid",
        "main_category": "Mosque",
        "address": "2JCV+9XJ sunni noori masjid, Jagadishpur, Uttar Pradesh 273151",
        "detailed_address": {
            "ward": null,
            "street": "2JCV+9XJ",
            "city": "Jagadishpur",
            "postal_code": "273151",
            "state": "Uttar Pradesh",
            "country_code": "IN"
        },
        "images": [
            {
                "about": "All",
                "link": "https://lh5.googleusercontent.com/p/AF1QipPEDW2ZcQ6uWIymc_uZBVLru_D2NAu3rLAaHyR3=w224-h354-k-no"
            },
            {
                "about": "Street View & 360deg",
                "link": "https://streetviewpixels-pa.googleapis.com/v1/thumbnail?panoid=j_5Rgm1xD1d_NhuJmHSAzQ&cb_client=maps_sv.tactile.gps&w=224&h=298&yaw=285.76865&pitch=0&thumbfov=100"
            }
        ],
        "link": "https://www.google.com/maps/place/sunni+noori+masjid/data=!4m7!3m6!1s0x3993ff7ad06714d7:0x5fe71588ea2ceba3!8m2!3d27.0209583!4d83.6448869!16s%2Fg%2F11c54cty15!19sChIJ1xRn0Hr_kzkRo-ss6ogV518?authuser=0&hl=en&rclk=1",
        "coordinates": {
            "latitude": 27.0209583,
            "longitude": 83.6448869
        }
    },
    {
        "name": "Nori masjid msjd Rampur Bujurg",
        "main_category": "Mosque",
        "address": "Nori masjid msjd Rampur Bujurg, Maharajganj, Lakhima Tharua, Uttar Pradesh 273303",
        "detailed_address": {
            "ward": null,
            "street": null,
            "city": "Maharajganj, Lakhima Tharua",
            "postal_code": "273303",
            "state": "Uttar Pradesh",
            "country_code": "IN"
        },
        "images": [
            {
                "about": "All",
                "link": "https://lh5.googleusercontent.com/p/AF1QipNS7bRjcSFN_FxAvP7DEOnEZmEyjVziH6vQKr8t=w530-h298-k-no"
            },
            {
                "about": "By owner",
                "link": "https://lh5.googleusercontent.com/p/AF1QipPOTTjMr87bk7ZwQ7F2vFmKmTB5FpS1irlKIgTC=w529-h298-k-no"
            },
            {
                "about": "Videos",
                "link": "https://lh5.googleusercontent.com/p/AF1QipO75NojllQSp_jYR2Vo1d4XHjxZEZaTCBZ5llTz=w224-h448-k-no"
            },
            {
                "about": "Street View & 360deg",
                "link": "https://streetviewpixels-pa.googleapis.com/v1/thumbnail?panoid=ZH38MJZioWa_yZWu1wj3Zw&cb_client=maps_sv.tactile.gps&w=224&h=298&yaw=9.741982&pitch=0&thumbfov=100"
            }
        ],
        "link": "https://www.google.com/maps/place/Nori+masjid+%D9%85%D8%B3%D8%AC%D8%AF+Rampur+Bujurg%E2%80%AD/data=!4m7!3m6!1s0x3996a9a49589c35f:0x29166ace5c23f0e7!8m2!3d27.1758756!4d83.5443366!16s%2Fg%2F11fk86s313!19sChIJX8OJlaSpljkR5_AjXM5qFik?authuser=0&hl=en&rclk=1",
        "coordinates": {
            "latitude": 27.175875599999998,
            "longitude": 83.5443366
        }
    },
    {
        "name": "Partawal Masjid",
        "main_category": "Mosque",
        "address": "XH8Q+P93 Partawal Masjid, SH 81, Partawal, Nagarauli, Uttar Pradesh 273301",
        "detailed_address": {
            "ward": null,
            "street": "XH8Q+P93, SH 81",
            "city": "Partawal, Nagarauli",
            "postal_code": "273301",
            "state": "Uttar Pradesh",
            "country_code": "IN"
        },
        "images": [
            {
                "about": "All",
                "link": "https://lh5.googleusercontent.com/p/AF1QipMXvZzr8EcOyqRT9pxfThSn3KKsvTVqM5KJN_I2=w224-h298-k-no"
            },
            {
                "about": "Street View & 360deg",
                "link": "https://streetviewpixels-pa.googleapis.com/v1/thumbnail?panoid=mr7ToTsrsGtSOVPczNP5sQ&cb_client=maps_sv.tactile.gps&w=224&h=298&yaw=310.27972&pitch=0&thumbfov=100"
            },
            {
                "about": "Videos",
                "link": "https://lh5.googleusercontent.com/p/AF1QipM-6fdy8JF8i4uAh-dfTvUvD1aQNDnUv4fv5kPI=w224-h398-k-no"
            }
        ],
        "link": "https://www.google.com/maps/place/Partawal+Masjid/data=!4m7!3m6!1s0x39915588e652b0c3:0xd6ddc9c1bfb0696b!8m2!3d26.9667585!4d83.5884374!16s%2Fg%2F1trxc315!19sChIJw7BS5ohVkTkRa2mwv8HJ3dY?authuser=0&hl=en&rclk=1",
        "coordinates": {
            "latitude": 26.966758499999997,
            "longitude": 83.58843739999999
        }
    },
    {
        "name": "Old Masjid Siyarhi Bhar",
        "main_category": "Mosque",
        "address": "XHV3+CX3 Old Masjid Siyarhi Bhar, Laxmipur, Uttar Pradesh 273301",
        "detailed_address": {
            "ward": null,
            "street": "XHV3+CX3",
            "city": "Laxmipur",
            "postal_code": "273301",
            "state": "Uttar Pradesh",
            "country_code": "IN"
        },
        "images": [
            {
                "about": "All",
                "link": "https://lh5.googleusercontent.com/p/AF1QipMHa61LHmHV7q-JyMhfjKWhNH8eMkv-AU6akajK=w242-h298-k-no"
            },
            {
                "about": "Videos",
                "link": "https://lh5.googleusercontent.com/p/AF1QipPu9H9hOu0e5QWAKGLNLXF3fYUiQOpYfAEqTLqD=w529-h298-k-no"
            }
        ],
        "link": "https://www.google.com/maps/place/Old+Masjid+Siyarhi+Bhar/data=!4m7!3m6!1s0x3991551c8249696f:0x5d0a7f722fbec507!8m2!3d26.9935166!4d83.554922!16s%2Fg%2F1pt_vc4zn!19sChIJb2lJghxVkTkRB8W-L3J_Cl0?authuser=0&hl=en&rclk=1",
        "coordinates": {
            "latitude": 26.9935166,
            "longitude": 83.55492199999999
        }
    },
    {
        "name": "Jama Masjid",
        "main_category": "Mosque",
        "address": "5H66+F9V Jama Masjid, Gabarua, Maharajganj, Uttar Pradesh 273303",
        "detailed_address": {
            "ward": "Gabarua",
            "street": "5H66+F9V",
            "city": "Maharajganj",
            "postal_code": "273303",
            "state": "Uttar Pradesh",
            "country_code": "IN"
        },
        "images": [
            {
                "about": "All",
                "link": "https://lh5.googleusercontent.com/p/AF1QipNDgXtvLry_GIfuKu9a4KaW7z5lduozzE3k51aq=w461-h298-k-no"
            }
        ],
        "link": "https://www.google.com/maps/place/Jama+Masjid/data=!4m7!3m6!1s0x3996a9b202af896b:0x6860720e9b4b333a!8m2!3d27.1612496!4d83.5609334!16s%2Fg%2F11fx7mvn1v!19sChIJa4mvArKpljkROjNLmw5yYGg?authuser=0&hl=en&rclk=1",
        "coordinates": {
            "latitude": 27.161249599999998,
            "longitude": 83.5609334
        }
    },
    {
        "name": "Noori Jama Masjid",
        "main_category": "Mosque",
        "address": "4HX7+V5W Noori Jama Masjid, Bismil Nagar, Maharajganj, Uttar Pradesh 273303",
        "detailed_address": {
            "ward": "Bismil Nagar",
            "street": "4HX7+V5W",
            "city": "Maharajganj",
            "postal_code": "273303",
            "state": "Uttar Pradesh",
            "country_code": "IN"
        },
        "images": [
            {
                "about": "All",
                "link": "https://lh5.googleusercontent.com/p/AF1QipMRlKeStIYySz-WND9EEufxAfL8GpRKycduDZR3=w253-h298-k-no"
            }
        ],
        "link": "https://www.google.com/maps/place/Noori+Jama+Masjid/data=!4m7!3m6!1s0x3996a9bb7f8f4da5:0x4843da392d1f4bcd!8m2!3d27.1497348!4d83.562953!16s%2Fg%2F11c5xmgqgc!19sChIJpU2Pf7upljkRzUsfLTnaQ0g?authuser=0&hl=en&rclk=1",
        "coordinates": {
            "latitude": 27.149734799999997,
            "longitude": 83.562953
        }
    },
    {
        "name": "Chhapiya Village Masjid",
        "main_category": "Mosque",
        "address": "2H2V+7GV Chhapiya Village Masjid, Chhapiya Village Rd, Uttar Pradesh 273301",
        "detailed_address": {
            "ward": null,
            "street": "2H2V+7GV, Chhapiya Village Rd",
            "city": null,
            "postal_code": "273301",
            "state": "Uttar Pradesh",
            "country_code": "IN"
        },
        "images": [
            {
                "about": "All",
                "link": "https://lh5.googleusercontent.com/p/AF1QipOJP_ewl-BUqyiL6SMztGVyLeHZAJ3eBlrJ9otX=w397-h298-k-no"
            },
            {
                "about": "Street View & 360deg",
                "link": "https://streetviewpixels-pa.googleapis.com/v1/thumbnail?panoid=Lm92YEOinpj-3j8IZynGOw&cb_client=maps_sv.tactile.gps&w=224&h=298&yaw=284.58542&pitch=0&thumbfov=100"
            },
            {
                "about": "Videos",
                "link": "https://lh5.googleusercontent.com/p/AF1QipMW--Qe-xEHO_AqUmM7hUXiMtduXTOIvCv2Gt1y=w529-h298-k-no"
            }
        ],
        "link": "https://www.google.com/maps/place/Chhapiya+Village+Masjid/data=!4m7!3m6!1s0x3993ffdf12f93c15:0xd6fd6b610b0062e3!8m2!3d27.0007251!4d83.5937925!16s%2Fg%2F1ptylq248!19sChIJFTz5Et__kzkR42IAC2Fr_dY?authuser=0&hl=en&rclk=1",
        "coordinates": {
            "latitude": 27.0007251,
            "longitude": 83.59379249999999
        }
    },
    {
        "name": "Pipara Jaddu Masjid",
        "main_category": "Mosque",
        "address": "XHRC+MFQ Pipara Jaddu Masjid, Piparajaddu, Uttar Pradesh 273301",
        "detailed_address": {
            "ward": null,
            "street": "XHRC+MFQ",
            "city": "Piparajaddu",
            "postal_code": "273301",
            "state": "Uttar Pradesh",
            "country_code": "IN"
        },
        "images": [
            {
                "about": "All",
                "link": "https://lh5.googleusercontent.com/p/AF1QipOxIM6xGt0iMEPrxEj-ucrRjjYwXLU2s_lZXRZU=w224-h497-k-no"
            },
            {
                "about": "Videos",
                "link": "https://lh5.googleusercontent.com/p/AF1QipN-ZYNZpsY2zAgY-ZmSq4MNW9cQTgakgpgLsoc9=w224-h398-k-no"
            }
        ],
        "link": "https://www.google.com/maps/place/Pipara+Jaddu+Masjid/data=!4m7!3m6!1s0x39915572aa207993:0x8698d663a44f41d7!8m2!3d26.9917125!4d83.5712344!16s%2Fg%2F11hbr2r3zj!19sChIJk3kgqnJVkTkR10FPpGPWmIY?authuser=0&hl=en&rclk=1",
        "coordinates": {
            "latitude": 26.9917125,
            "longitude": 83.5712344
        }
    },
    {
        "name": "Falak Taj Masjid",
        "main_category": "Mosque",
        "address": "2GXR+X8P Falak Taj Masjid, Laxmipur Deurawa, Uttar Pradesh 273302",
        "detailed_address": {
            "ward": null,
            "street": "2GXR+X8P",
            "city": "Laxmipur Deurawa",
            "postal_code": "273302",
            "state": "Uttar Pradesh",
            "country_code": "IN"
        },
        "images": [
            {
                "about": "All",
                "link": "https://lh5.googleusercontent.com/p/AF1QipMK763s5wEyf9-Ygrxh7hwBt0wAco1c-rmRROFR=w529-h298-k-no"
            }
        ],
        "link": "https://www.google.com/maps/place/Falak+Taj+Masjid/data=!4m7!3m6!1s0x3996ab186efd0d57:0x4bae4f2c749e340!8m2!3d27.0499615!4d83.5408266!16s%2Fg%2F11cn5r6k_f!19sChIJVw39bhirljkRQONJx_LkugQ?authuser=0&hl=en&rclk=1",
        "coordinates": {
            "latitude": 27.0499615,
            "longitude": 83.5408266
        }
    },
    {
        "name": "Neta Surhurawa Jama Masjid",
        "main_category": "Mosque",
        "address": "4G2G+7GP Neta Surhurawa Jama Masjid, Netasurhurawa, Uttar Pradesh 273303",
        "detailed_address": {
            "ward": null,
            "street": "4G2G+7GP",
            "city": "Netasurhurawa",
            "postal_code": null,
            "state": "Uttar Pradesh",
            "country_code": "IN"
        },
        "images": [
            {
                "about": "All",
                "link": "https://lh5.googleusercontent.com/p/AF1QipPj2gSA_Tm3mU2RI6E6xIRm-pi5nzQxsrgr2lQo=w662-h298-k-no"
            }
        ],
        "link": "https://www.google.com/maps/place/Neta+Surhurawa+Jama+Masjid/data=!4m7!3m6!1s0x3996ab9c157df32b:0x65ee68e0f95c9e89!8m2!3d27.100701!4d83.526342!16s%2Fg%2F11gl28mwt8!19sChIJK_N9FZyrljkRiZ5c-eBo7mU?authuser=0&hl=en&rclk=1",
        "coordinates": {
            "latitude": 27.100700999999997,
            "longitude": 83.526342
        }
    },
    {
        "name": "Noori Masjid Derawa",
        "main_category": "Mosque",
        "address": "2HFR+78W Noori Masjid Derawa, Derawa, Uttar Pradesh 273302",
        "detailed_address": {
            "ward": null,
            "street": "2HFR+78W",
            "city": "Derawa",
            "postal_code": "273302",
            "state": "Uttar Pradesh",
            "country_code": "IN"
        },
        "images": [
            {
                "about": "All",
                "link": "https://lh5.googleusercontent.com/p/AF1QipMNnYmCX2m7OunUt3JjvDIAIgeIGxDeP3ytbs8E=w529-h298-k-no"
            },
            {
                "about": "Videos",
                "link": "https://lh5.googleusercontent.com/p/AF1QipPXW86z4ItEO09pJQfpJmD4YTh8JRsDAS8cjV7c=w224-h398-k-no"
            }
        ],
        "link": "https://www.google.com/maps/place/Noori+Masjid+Derawa/data=!4m7!3m6!1s0x39915559b82a8a3d:0xa343b556a0bb25c9!8m2!3d27.0232304!4d83.5908161!16s%2Fg%2F11h234xh4m!19sChIJPYoquFlVkTkRySW7oFa1Q6M?authuser=0&hl=en&rclk=1",
        "coordinates": {
            "latitude": 27.0232304,
            "longitude": 83.5908161
        }
    },
    {
        "name": "Noori Masjid Pipra Babu Ansari Tola",
        "main_category": "Mosque",
        "address": "4HGJ+H8P Noori Masjid Pipra Babu Ansari Tola, Siswa Babu, Uttar Pradesh 273303",
        "detailed_address": {
            "ward": null,
            "street": "4HGJ+H8P",
            "city": "Siswa Babu",
            "postal_code": "273303",
            "state": "Uttar Pradesh",
            "country_code": "IN"
        },
        "images": [
            {
                "about": "All",
                "link": "https://lh5.googleusercontent.com/p/AF1QipP_Rcry6u9iZm5W4nTDiV5wy-5GD1qVTXOCCbGM=w224-h298-k-no"
            },
            {
                "about": "Videos",
                "link": "https://lh5.googleusercontent.com/p/AF1QipP4MoS0_K1UT0iS8t5QfLpgU0UzMGtgcNDY5JY3=w224-h407-k-no"
            }
        ],
        "link": "https://www.google.com/maps/place/Noori+Masjid+Pipra+Babu+Ansari+Tola/data=!4m7!3m6!1s0x3996a9f74e4c025f:0x7c605c967982a49c!8m2!3d27.1264639!4d83.5808428!16s%2Fg%2F11gc9gc_pn!19sChIJXwJMTvepljkRnKSCeZZcYHw?authuser=0&hl=en&rclk=1",
        "coordinates": {
            "latitude": 27.126463899999997,
            "longitude": 83.5808428
        }
    },
    {
        "name": "Gangrai Mosque",
        "main_category": "Mosque",
        "address": "2HMQ+J6J Gangrai Mosque, Gangarai, Uttar Pradesh 273302",
        "detailed_address": {
            "ward": null,
            "street": "2HMQ+J6J",
            "city": "Gangarai",
            "postal_code": "273302",
            "state": "Uttar Pradesh",
            "country_code": "IN"
        },
        "images": [
            {
                "about": "All",
                "link": "https://lh5.googleusercontent.com/p/AF1QipOoLK8yhwPlQlzJT86fOXdCuzKlvvwMtas4Ed8t=w224-h358-k-no"
            },
            {
                "about": "Videos",
                "link": "https://lh5.googleusercontent.com/p/AF1QipMSyXDskgicwDScFoc12c7Pw0kvq_BTj1P7pc6R=w224-h398-k-no"
            }
        ],
        "link": "https://www.google.com/maps/place/Gangrai+Mosque/data=!4m7!3m6!1s0x3996aaa95bf46b03:0xcb196dfe7537c800!8m2!3d27.0340835!4d83.5880042!16s%2Fg%2F11f2xpw0ms!19sChIJA2v0W6mqljkRAMg3df5tGcs?authuser=0&hl=en&rclk=1",
        "coordinates": {
            "latitude": 27.034083499999998,
            "longitude": 83.5880042
        }
    },
    {
        "name": "Kamhariya Masjid",
        "main_category": "Mosque",
        "address": "2H4J+VCX Kamhariya Masjid, Kamhariya Khurd, Uttar Pradesh 273301",
        "detailed_address": {
            "ward": null,
            "street": "2H4J+VCX",
            "city": "Kamhariya Khurd",
            "postal_code": null,
            "state": "Uttar Pradesh",
            "country_code": "IN"
        },
        "images": [
            {
                "about": "All",
                "link": "https://lh5.googleusercontent.com/p/AF1QipMdEzcvN4fyThcmUR1sb_VMKakmBAznv-91bDR2=w224-h298-k-no"
            },
            {
                "about": "Videos",
                "link": "https://lh5.googleusercontent.com/p/AF1QipOJ-kiPdRrR9cXgSreqDHLqqhttdJTpmby0Zyah=w224-h403-k-no"
            }
        ],
        "link": "https://www.google.com/maps/place/Kamhariya+Masjid/data=!4m7!3m6!1s0x3991555bb1d3c945:0x47d114d51a05682b!8m2!3d27.0072261!4d83.5811109!16s%2Fg%2F11gwmdxgp8!19sChIJRcnTsVtVkTkRK2gFGtUU0Uc?authuser=0&hl=en&rclk=1",
        "coordinates": {
            "latitude": 27.0072261,
            "longitude": 83.5811109
        }
    },
    {
        "name": "Jama Masjid",
        "main_category": "Mosque",
        "address": "3937+X8J Jama Masjid, Mohammadpur Urf Hargna, Uttar Pradesh 273158",
        "detailed_address": {
            "ward": null,
            "street": "3937+X8J",
            "city": "Mohammadpur Urf Hargna",
            "postal_code": "273158",
            "state": "Uttar Pradesh",
            "country_code": "IN"
        },
        "images": [
            {
                "about": "All",
                "link": "https://lh5.googleusercontent.com/p/AF1QipNvFWiDClHtohxDYh0xN7wLerPVsmQkTGU55P4Z=w397-h298-k-no"
            },
            {
                "about": "Videos",
                "link": "https://lh5.googleusercontent.com/p/AF1QipM4xgPqGgymL9bPmORou8T_CoxjoHq-3keXoHCw=w529-h298-k-no"
            }
        ],
        "link": "https://www.google.com/maps/place/Jama+Masjid/data=!4m7!3m6!1s0x3996b30e7b9628a3:0x24def2173ff0a383!8m2!3d27.0549572!4d83.3632672!16s%2Fg%2F11c438h7rd!19sChIJoyiWew6zljkRg6PwPxfy3iQ?authuser=0&hl=en&rclk=1",
        "coordinates": {
            "latitude": 27.0549572,
            "longitude": 83.3632672
        }
    },
    {
        "name": "Gausul Wara Masjid",
        "main_category": "Mosque",
        "address": "5HPM+X38 Gausul Wara Masjid, Panewa Panei, Sonara, Uttar Pradesh 273303",
        "detailed_address": {
            "ward": null,
            "street": "5HPM+X38",
            "city": "Panewa Panei, Sonara",
            "postal_code": "273303",
            "state": "Uttar Pradesh",
            "country_code": "IN"
        },
        "images": [
            {
                "about": "All",
                "link": "https://lh5.googleusercontent.com/p/AF1QipPeIYr3Ne6S-wJyU-U1k2hY4BIAQ1PMFgg_nqpk=w224-h407-k-no"
            },
            {
                "about": "Videos",
                "link": "https://lh5.googleusercontent.com/p/AF1QipOZvEjXKemBt34Z29F0LB2ZQHU2iE9Xb800SJbu=w224-h497-k-no"
            }
        ],
        "link": "https://www.google.com/maps/place/Gausul+Wara+Masjid/data=!4m7!3m6!1s0x3996a82339ef5281:0xb30fe23a3e52b2c!8m2!3d27.1874215!4d83.5826893!16s%2Fg%2F11hd1qnhdm!19sChIJgVLvOSOoljkRLCvloyP-MAs?authuser=0&hl=en&rclk=1",
        "coordinates": {
            "latitude": 27.1874215,
            "longitude": 83.5826893
        }
    },
    {
        "name": "Eidgah",
        "main_category": "Mosque",
        "address": "6H7X+9R3 Eidgah, Kasmaria, Uttar Pradesh 273303",
        "detailed_address": {
            "ward": null,
            "street": "6H7X+9R3",
            "city": "Kasmaria",
            "postal_code": "273303",
            "state": "Uttar Pradesh",
            "country_code": "IN"
        },
        "images": [
            {
                "about": "All",
                "link": "https://lh5.googleusercontent.com/p/AF1QipPKrT1z-lTonvgMbiboZgOLo2uVAOh82KmzxSbA=w224-h298-k-no"
            },
            {
                "about": "Videos",
                "link": "https://lh5.googleusercontent.com/p/AF1QipOsUJDYLsW7xmQv-ovAG3B_rqNsHvMf2rvXYVpp=w224-h298-k-no"
            }
        ],
        "link": "https://www.google.com/maps/place/Eidgah/data=!4m7!3m6!1s0x399402acf012bffb:0xc063b2ac72bf56f1!8m2!3d27.2133787!4d83.599551!16s%2Fg%2F11d_d2bg57!19sChIJ-78S8KwClDkR8Va_cqyyY8A?authuser=0&hl=en&rclk=1",
        "coordinates": {
            "latitude": 27.2133787,
            "longitude": 83.59955099999999
        }
    },
    {
        "name": "RUDLAPUR MASJID",
        "main_category": "Mosque",
        "address": "473G+668 RUDLAPUR MASJID, Anand Nagar, Uttar Pradesh 273155",
        "detailed_address": {
            "ward": null,
            "street": "473G+668",
            "city": "Anand Nagar",
            "postal_code": "273155",
            "state": "Uttar Pradesh",
            "country_code": "IN"
        },
        "images": [
            {
                "about": "All",
                "link": "https://lh5.googleusercontent.com/p/AF1QipN_tjU1nolrfXb2I_Mesj7ReEOFxH77lpdbV9xZ=w662-h298-k-no"
            }
        ],
        "link": "https://www.google.com/maps/place/RUDLAPUR+MASJID/data=!4m7!3m6!1s0x3996b5deef1e0811:0xf6c58f898aae51bb!8m2!3d27.1030297!4d83.2755826!16s%2Fg%2F11f3n1tc1s!19sChIJEQge7961ljkRu1GuiomPxfY?authuser=0&hl=en&rclk=1",
        "coordinates": {
            "latitude": 27.1030297,
            "longitude": 83.27558259999999
        }
    },
    {
        "name": "Chhapiya Masjid",
        "main_category": "Mosque",
        "address": "XJW2+RP2 Chhapiya Masjid, Chhapiya, Uttar Pradesh 273301",
        "detailed_address": {
            "ward": null,
            "street": "XJW2+RP2",
            "city": "Chhapiya",
            "postal_code": "273301",
            "state": "Uttar Pradesh",
            "country_code": "IN"
        },
        "images": [
            {
                "about": "All",
                "link": "https://lh5.googleusercontent.com/p/AF1QipPoblMcMeNz4sDT8ItboNoFqI3-wsdhB0kchk9v=w497-h298-k-no"
            },
            {
                "about": "Street View & 360deg",
                "link": "https://streetviewpixels-pa.googleapis.com/v1/thumbnail?panoid=6BGNQwreusG8kyhbeeGNMg&cb_client=maps_sv.tactile.gps&w=224&h=298&yaw=241.26422&pitch=0&thumbfov=100"
            },
            {
                "about": "Videos",
                "link": "https://lh5.googleusercontent.com/p/AF1QipM-B4O612Pl4WTulPXX5n_xfmqtdCHerlj6FaWr=w224-h407-k-no"
            }
        ],
        "link": "https://www.google.com/maps/place/Chhapiya+Masjid/data=!4m7!3m6!1s0x3993ffdb16fed3f1:0x1232b92cf3d373d8!8m2!3d26.997013!4d83.6017666!16s%2Fg%2F1ptyw83kh!19sChIJ8dP-Ftv_kzkR2HPT8yy5MhI?authuser=0&hl=en&rclk=1",
        "coordinates": {
            "latitude": 26.997013,
            "longitude": 83.60176659999999
        }
    },
    {
        "name": "msjid raampur mhuavaa",
        "main_category": "Mosque",
        "address": "4JMC+GGX msjid raampur mhuavaa, Shikarpur - Senduria Rd, Ballo Khas, Uttar Pradesh 273302",
        "detailed_address": {
            "ward": null,
            "street": "4JMC+GGX, Shikarpur - Senduria Rd",
            "city": "Ballo Khas",
            "postal_code": "273302",
            "state": "Uttar Pradesh",
            "country_code": "IN"
        },
        "images": [
            {
                "about": "All",
                "link": "https://lh5.googleusercontent.com/p/AF1QipNHe_mqdx08ZicoQG_lxgAboESOVJUrDdQ_SVlw=w224-h398-k-no"
            },
            {
                "about": "Dome",
                "link": "https://lh5.googleusercontent.com/p/AF1QipP7y88VLVELHToytjJ6Sim3BjT1WzrfNb16DzPs=w227-h298-k-no"
            }
        ],
        "link": "https://www.google.com/maps/place/%E0%A4%AE%E0%A4%B8%E0%A5%8D%E0%A4%9C%E0%A4%BF%E0%A4%A6+%E0%A4%B0%E0%A4%BE%E0%A4%AE%E0%A4%AA%E0%A5%81%E0%A4%B0+%E0%A4%AE%E0%A4%B9%E0%A5%81%E0%A4%85%E0%A4%B5%E0%A4%BE/data=!4m7!3m6!1s0x3994030434393981:0xc794087aa09da770!8m2!3d27.1338562!4d83.6213461!16s%2Fg%2F11fsjf7g55!19sChIJgTk5NAQDlDkRcKedoHoIlMc?authuser=0&hl=en&rclk=1",
        "coordinates": {
            "latitude": 27.1338562,
            "longitude": 83.6213461
        }
    },
    {
        "name": "Madeena Masjid",
        "main_category": "Mosque",
        "address": "5H47+8FX Madeena Masjid, Chowk Rd, Azad Nagar, Bismil Nagar, Maharajganj, Uttar Pradesh 273303",
        "detailed_address": {
            "ward": "Azad Nagar, Bismil Nagar",
            "street": "5H47+8FX, Chowk Rd",
            "city": "Maharajganj",
            "postal_code": "273303",
            "state": "Uttar Pradesh",
            "country_code": "IN"
        },
        "images": [
            {
                "about": "All",
                "link": "https://lh5.googleusercontent.com/p/AF1QipN0lXdBNNYpuC-6wwf6pKxaM_7yHEM1KvdyYTad=w224-h299-k-no"
            },
            {
                "about": "Dome",
                "link": "https://lh5.googleusercontent.com/p/AF1QipPHkU1fEQVehho8AaHFXg_Uzv8mDyPE9jEPZECB=w224-h398-k-no"
            },
            {
                "about": "Videos",
                "link": "https://lh5.googleusercontent.com/p/AF1QipOIluVc0qYFZS-FLfzhbL0cL7TFm_H7H0GRr9wt=w224-h398-k-no"
            }
        ],
        "link": "https://www.google.com/maps/place/Madeena+Masjid/data=!4m7!3m6!1s0x3996a9b09c9fef21:0x1976ac3d7cc9ef35!8m2!3d27.1558549!4d83.5637273!16s%2Fg%2F11dxbd5rw8!19sChIJIe-fnLCpljkRNe_JfD2sdhk?authuser=0&hl=en&rclk=1",
        "coordinates": {
            "latitude": 27.155854899999998,
            "longitude": 83.5637273
        }
    },
    {
        "name": "Al Aqsa Masjid",
        "main_category": "Mosque",
        "address": "4HW4+5GM Al Aqsa Masjid, Unnamed Road, Shastri Nagar, Maharajganj, Uttar Pradesh 273303",
        "detailed_address": {
            "ward": "Shastri Nagar",
            "street": "4HW4+5GM, Unnamed Road",
            "city": "Maharajganj",
            "postal_code": "273303",
            "state": "Uttar Pradesh",
            "country_code": "IN"
        },
        "images": [
            {
                "about": "All",
                "link": "https://lh5.googleusercontent.com/p/AF1QipND2lo5GFTHnWkDgO-b5QXl9sQIcT70Fxd0sdSh=w529-h298-k-no"
            },
            {
                "about": "Street View & 360deg",
                "link": "https://streetviewpixels-pa.googleapis.com/v1/thumbnail?panoid=9JdtJYreby1pEzKnJA_1Uw&cb_client=maps_sv.tactile.gps&w=224&h=298&yaw=230.79012&pitch=0&thumbfov=100"
            }
        ],
        "link": "https://www.google.com/maps/place/Al+Aqsa+Masjid/data=!4m7!3m6!1s0x3996a918851a0aa3:0x1f96573e7cf75e15!8m2!3d27.1454722!4d83.5563124!16s%2Fg%2F11ghtr_m3q!19sChIJowoahRipljkRFV73fD5Xlh8?authuser=0&hl=en&rclk=1",
        "coordinates": {
            "latitude": 27.1454722,
            "longitude": 83.5563124
        }
    },
    {
        "name": "Eidgaah Gabarua",
        "main_category": "Mosque",
        "address": "Eidgaah Gabarua, gabaduan eidgaah, Azad Nagar, Gabarua, Maharajganj, Uttar Pradesh 273303",
        "detailed_address": {
            "ward": "Azad Nagar, Gabarua",
            "street": "gabaduan eidgaah",
            "city": "Maharajganj",
            "postal_code": "273303",
            "state": "Uttar Pradesh",
            "country_code": "IN"
        },
        "images": [],
        "link": "https://www.google.com/maps/place/Eidgaah+Gabarua/data=!4m7!3m6!1s0x3996a9b0653629a9:0x33967a52664bed1a!8m2!3d27.1558281!4d83.5623604!16s%2Fg%2F11cjj1m811!19sChIJqSk2ZbCpljkRGu1LZlJ6ljM?authuser=0&hl=en&rclk=1",
        "coordinates": {
            "latitude": 27.155828099999997,
            "longitude": 83.5623604
        }
    },
    {
        "name": "Masjid",
        "main_category": "Mosque",
        "address": "XJV5+8G6 Masjid, Sohasha Baspaar, Uttar Pradesh 273301",
        "detailed_address": {
            "ward": null,
            "street": "XJV5+8G6",
            "city": "Sohasha Baspaar",
            "postal_code": "273301",
            "state": "Uttar Pradesh",
            "country_code": "IN"
        },
        "images": [
            {
                "about": "All",
                "link": "https://lh5.googleusercontent.com/p/AF1QipPGvMHxkU8D9XlfgwlQe-tgwLWLd8bOw3igMSGE=w224-h298-k-no"
            },
            {
                "about": "Dome",
                "link": "https://lh5.googleusercontent.com/p/AF1QipM8HbjrPlT-62iQh0rxo9CpBFaeJZy_1GIaV9aX=w224-h298-k-no"
            },
            {
                "about": "Street View & 360deg",
                "link": "https://streetviewpixels-pa.googleapis.com/v1/thumbnail?panoid=2EkIN7eCVK7WgDlIX2MI9A&cb_client=maps_sv.tactile.gps&w=224&h=298&yaw=146.64992&pitch=0&thumbfov=100"
            }
        ],
        "link": "https://www.google.com/maps/place/Masjid/data=!4m7!3m6!1s0x3993ffc8a8fb3401:0xaaade1a494c67286!8m2!3d26.9932839!4d83.6087711!16s%2Fg%2F11f10dxb2c!19sChIJATT7qMj_kzkRhnLGlKThrao?authuser=0&hl=en&rclk=1",
        "coordinates": {
            "latitude": 26.993283899999998,
            "longitude": 83.6087711
        }
    },
    {
        "name": "Jamma Masjid",
        "main_category": "Mosque",
        "address": "2HMJ+X2M Jamma Masjid, Sisawa Munshi, Uttar Pradesh 273302",
        "detailed_address": {
            "ward": null,
            "street": "2HMJ+X2M",
            "city": "Sisawa Munshi",
            "postal_code": "273302",
            "state": "Uttar Pradesh",
            "country_code": "IN"
        },
        "images": [
            {
                "about": "All",
                "link": "https://lh5.googleusercontent.com/p/AF1QipOOB0wajC1Rwi_BbDKwhRHuxR10E1Ruj9d4wO3w=w224-h336-k-no"
            },
            {
                "about": "Latest",
                "link": "https://lh5.googleusercontent.com/p/AF1QipO0dlAONEJ0-_3yTFMqAiwQ7MWSP5wfQUQX67Jo=w224-h398-k-no"
            },
            {
                "about": "Videos",
                "link": "https://lh5.googleusercontent.com/p/AF1QipO0dlAONEJ0-_3yTFMqAiwQ7MWSP5wfQUQX67Jo=w224-h398-k-no"
            }
        ],
        "link": "https://www.google.com/maps/place/Jamma+Masjid/data=!4m7!3m6!1s0x3996aab1bee99ffb:0x3ed47c8de128acd5!8m2!3d27.0349528!4d83.5800492!16s%2Fg%2F11gb3n4q0z!19sChIJ-5_pvrGqljkR1awo4Y181D4?authuser=0&hl=en&rclk=1",
        "coordinates": {
            "latitude": 27.0349528,
            "longitude": 83.58004919999999
        }
    },
    {
        "name": "Sahid Baba Majar",
        "main_category": "Mosque",
        "address": "XH95+22M Sahid Baba Majar, Unnamed Road, Budhirampur, Maharajganj, Uttar Pradesh 273301",
        "detailed_address": {
            "ward": "Budhirampur",
            "street": "XH95+22M, Unnamed Road",
            "city": "Maharajganj",
            "postal_code": "273301",
            "state": "Uttar Pradesh",
            "country_code": "IN"
        },
        "images": [
            {
                "about": "All",
                "link": "https://lh5.googleusercontent.com/p/AF1QipMhRUv1ojf2zCwMAUrDLfdZCI-BsoNm__uMHXhZ=w224-h339-k-no"
            },
            {
                "about": "Street View & 360deg",
                "link": "https://streetviewpixels-pa.googleapis.com/v1/thumbnail?panoid=d7JjxbSBVT8nxvkxOor1gQ&cb_client=maps_sv.tactile.gps&w=224&h=298&yaw=292.27686&pitch=0&thumbfov=100"
            },
            {
                "about": "Videos",
                "link": "https://lh5.googleusercontent.com/p/AF1QipM58_FysxG0L1X4FzpEx0fw5xPJt24UkngZr8kR=w224-h398-k-no"
            }
        ],
        "link": "https://www.google.com/maps/place/Sahid+Baba+Majar/data=!4m7!3m6!1s0x39915552cf688c57:0xe067797d2deb98bf!8m2!3d26.9675926!4d83.5575475!16s%2Fg%2F11qh8bh9h3!19sChIJV4xoz1JVkTkRv5jrLX15Z-A?authuser=0&hl=en&rclk=1",
        "coordinates": {
            "latitude": 26.9675926,
            "longitude": 83.5575475
        }
    },
    {
        "name": "Nooran Tola mosque",
        "main_category": "Mosque",
        "address": "2HC8+8F3 Nooran Tola mosque, Maharajganj, Uttar Pradesh 273302",
        "detailed_address": {
            "ward": null,
            "street": "2HC8+8F3",
            "city": "Maharajganj",
            "postal_code": null,
            "state": "Uttar Pradesh",
            "country_code": "IN"
        },
        "images": [
            {
                "about": "All",
                "link": "https://lh5.googleusercontent.com/p/AF1QipPYdqiKlcf5z-PbgdkHJaB_ytIbUuqpeW9vFr68=w224-h298-k-no"
            },
            {
                "about": "Videos",
                "link": "https://lh5.googleusercontent.com/p/AF1QipPdPAS55D2-Ci_clef656Y_OW5_z5bSDUTxHIwr=w224-h977-k-no"
            }
        ],
        "link": "https://www.google.com/maps/place/Nooran+Tola+mosque/data=!4m7!3m6!1s0x3991552c6db20a3b:0xb77efa3b8d53b168!8m2!3d27.0207516!4d83.5661698!16s%2Fg%2F11gw2kjfqn!19sChIJOwqybSxVkTkRaLFTjTv6frc?authuser=0&hl=en&rclk=1",
        "coordinates": {
            "latitude": 27.0207516,
            "longitude": 83.5661698
        }
    },
    {
        "name": "Masjid",
        "main_category": "Mosque",
        "address": "5JQ3+MJC Masjid, Baulia Raja, Uttar Pradesh 273303",
        "detailed_address": {
            "ward": null,
            "street": "5JQ3+MJC",
            "city": "Baulia Raja",
            "postal_code": "273303",
            "state": "Uttar Pradesh",
            "country_code": "IN"
        },
        "images": [
            {
                "about": "All",
                "link": "https://lh5.googleusercontent.com/p/AF1QipPo1XqzFk4TL9LtwwvE51v0s83SZB6WpK74-XAt=w224-h398-k-no"
            }
        ],
        "link": "https://www.google.com/maps/place/Masjid/data=!4m7!3m6!1s0x39940297737bf853:0x748bceddec117a9d!8m2!3d27.1891793!4d83.6040182!16s%2Fg%2F11fxd_ngtv!19sChIJU_h7c5cClDkRnXoR7N3Oi3Q?authuser=0&hl=en&rclk=1",
        "coordinates": {
            "latitude": 27.1891793,
            "longitude": 83.6040182
        }
    },
    {
        "name": "Masjid",
        "main_category": "Mosque",
        "address": "2CFF+RX8 Masjid, Jungal Barahara, Uttar Pradesh 273303",
        "detailed_address": {
            "ward": null,
            "street": "2CFF+RX8",
            "city": "Jungal Barahara",
            "postal_code": "273303",
            "state": "Uttar Pradesh",
            "country_code": "IN"
        },
        "images": [
            {
                "about": "All",
                "link": "https://lh5.googleusercontent.com/p/AF1QipPoPPJfDU9ERSS8IxlIKoaCNoOsd0uc6CXr0mbk=w224-h318-k-no"
            },
            {
                "about": "Videos",
                "link": "https://lh5.googleusercontent.com/p/AF1QipMXO51jZdjTG7EjrShiVa5Tx7THlrRUXSPy7cGk=w541-h298-k-no"
            }
        ],
        "link": "https://www.google.com/maps/place/Masjid/data=!4m7!3m6!1s0x3996ad5448509cff:0xbecfb9939fb47d41!8m2!3d27.024527!4d83.4249577!16s%2Fg%2F11c7146lv0!19sChIJ_5xQSFStljkRQX20n5O5z74?authuser=0&hl=en&rclk=1",
        "coordinates": {
            "latitude": 27.024527,
            "longitude": 83.4249577
        }
    },
    {
        "name": "Rudhauli Masjid",
        "main_category": "Mosque",
        "address": "4GC4+727 Rudhauli Masjid, Rodhauli Bhawachak, Uttar Pradesh 273303",
        "detailed_address": {
            "ward": null,
            "street": "4GC4+727",
            "city": "Rodhauli Bhawachak",
            "postal_code": "273303",
            "state": "Uttar Pradesh",
            "country_code": "IN"
        },
        "images": [
            {
                "about": "All",
                "link": "https://lh5.googleusercontent.com/p/AF1QipP78c0O9dZqi3F2mvokYqy8rt0mJBeSAd628IoV=w241-h298-k-no"
            },
            {
                "about": "Street View & 360deg",
                "link": "https://streetviewpixels-pa.googleapis.com/v1/thumbnail?panoid=YoX6uCgb4xs9ExgZ7FG-iQ&cb_client=maps_sv.tactile.gps&w=224&h=298&yaw=218.1586&pitch=0&thumbfov=100"
            },
            {
                "about": "Videos",
                "link": "https://lh5.googleusercontent.com/p/AF1QipNptTXhZXX9-0-3kHrFsuBVXSLoPC6VWtEYlpmd=w224-h398-k-no"
            }
        ],
        "link": "https://www.google.com/maps/place/Rudhauli+Masjid/data=!4m7!3m6!1s0x3996affc82ed4fc5:0xd7ebd4949a7e7d8e!8m2!3d27.1206502!4d83.5050391!16s%2Fg%2F11h9bfpk7n!19sChIJxU_tgvyvljkRjn1-mpTU69c?authuser=0&hl=en&rclk=1",
        "coordinates": {
            "latitude": 27.1206502,
            "longitude": 83.50503909999999
        }
    },
    {
        "name": "Masjid balua",
        "main_category": "Mosque",
        "address": "2H5V+FJR Masjid balua, Gorakhpur Mahrajganj Marg, Balua, Uttar Pradesh 273302",
        "detailed_address": {
            "ward": null,
            "street": "2H5V+FJR, Gorakhpur Mahrajganj Marg",
            "city": "Balua",
            "postal_code": "273302",
            "state": "Uttar Pradesh",
            "country_code": "IN"
        },
        "images": [],
        "link": "https://www.google.com/maps/place/Masjid+balua/data=!4m7!3m6!1s0x3993fffddfa35a01:0x49af33ca71183d2a!8m2!3d27.0087313!4d83.5940108!16s%2Fg%2F11g1ly05x5!19sChIJAVqj3_3_kzkRKj0Yccozr0k?authuser=0&hl=en&rclk=1",
        "coordinates": {
            "latitude": 27.008731299999997,
            "longitude": 83.59401079999999
        }
    },
    {
        "name": "iidgaah mhdevaa",
        "main_category": "Mosque",
        "address": "XHM6+66G iidgaah mhdevaa, Mahdeva, Uttar Pradesh 273301",
        "detailed_address": {
            "ward": null,
            "street": "XHM6+66G",
            "city": "Mahdeva",
            "postal_code": "273301",
            "state": "Uttar Pradesh",
            "country_code": "IN"
        },
        "images": [
            {
                "about": "All",
                "link": "https://streetviewpixels-pa.googleapis.com/v1/thumbnail?panoid=b6BmDUGg3f7iPqeucNRCqA&cb_client=maps_sv.tactile.gps&w=224&h=298&yaw=266.51297&pitch=0&thumbfov=100"
            },
            {
                "about": "Street View & 360deg",
                "link": "https://streetviewpixels-pa.googleapis.com/v1/thumbnail?panoid=b6BmDUGg3f7iPqeucNRCqA&cb_client=maps_sv.tactile.gps&w=224&h=298&yaw=266.51297&pitch=0&thumbfov=100"
            }
        ],
        "link": "https://www.google.com/maps/place/%E0%A4%88%E0%A4%A6%E0%A4%97%E0%A4%BE%E0%A4%B9+%E0%A4%AE%E0%A4%B9%E0%A4%A6%E0%A5%87%E0%A4%B5%E0%A4%BE/data=!4m7!3m6!1s0x3991550883715d43:0x2a07e4f59c704557!8m2!3d26.9830539!4d83.5605716!16s%2Fg%2F11gbxc0c4d!19sChIJQ11xgwhVkTkRV0VwnPXkByo?authuser=0&hl=en&rclk=1",
        "coordinates": {
            "latitude": 26.983053899999998,
            "longitude": 83.5605716
        }
    },
    {
        "name": "Raza Jama Masjid tarkulwa Tiwari",
        "main_category": "Mosque",
        "address": "2JC4+8FP Raza Jama Masjid tarkulwa Tiwari, Tarakulawa, Uttar Pradesh 273302",
        "detailed_address": {
            "ward": null,
            "street": "2JC4+8FP",
            "city": "Tarakulawa",
            "postal_code": "273302",
            "state": "Uttar Pradesh",
            "country_code": "IN"
        },
        "images": [
            {
                "about": "All",
                "link": "https://lh5.googleusercontent.com/p/AF1QipPajPjX4Vnp2uJ4yCxt77lBRH-hURLz-BbinOIO=w224-h398-k-no"
            }
        ],
        "link": "https://www.google.com/maps/place/Raza+Jama+Masjid+tarkulwa+Tiwari/data=!4m7!3m6!1s0x3993ff26aec3d2a9:0x40b71cc417f72dfb!8m2!3d27.0208454!4d83.6061934!16s%2Fg%2F11h77wm85n!19sChIJqdLDrib_kzkR-y33F8Qct0A?authuser=0&hl=en&rclk=1",
        "coordinates": {
            "latitude": 27.0208454,
            "longitude": 83.6061934
        }
    },
    {
        "name": "Shaheed Tipu Sultan jama maszid",
        "main_category": "Mosque",
        "address": "2J95+8P5 Shaheed Tipu Sultan jama maszid, Tarakulawa, Uttar Pradesh 273302",
        "detailed_address": {
            "ward": null,
            "street": "2J95+8P5",
            "city": "Tarakulawa",
            "postal_code": "273302",
            "state": "Uttar Pradesh",
            "country_code": "IN"
        },
        "images": [
            {
                "about": "All",
                "link": "https://lh5.googleusercontent.com/p/AF1QipNv0lzVY-U5CKu12h1tG1yyG9Asq2cw91FXuypU=w224-h398-k-no"
            }
        ],
        "link": "https://www.google.com/maps/place/Shaheed+Tipu+Sultan+jama+maszid/data=!4m7!3m6!1s0x3993ff830bedeeb9:0xfdfccb3318928786!8m2!3d27.0182529!4d83.6093708!16s%2Fg%2F11g4jz6k3n!19sChIJue7tC4P_kzkRhoeSGDPL_P0?authuser=0&hl=en&rclk=1",
        "coordinates": {
            "latitude": 27.0182529,
            "longitude": 83.6093708
        }
    },
    {
        "name": "msjid raampurvaa",
        "main_category": "Mosque",
        "address": "4HCM+J3G msjid raampurvaa, raampurvaa cauraahaa, Maharajganj, Siswa Babu, Uttar Pradesh 273303",
        "detailed_address": {
            "ward": null,
            "street": "4HCM+J3G raampurvaa cauraahaa",
            "city": "Maharajganj, Siswa Babu",
            "postal_code": "273303",
            "state": "Uttar Pradesh",
            "country_code": "IN"
        },
        "images": [
            {
                "about": "All",
                "link": "https://lh5.googleusercontent.com/p/AF1QipMqT2vbfYOmRzs2_osEImrRTl9_r5if7JXrLWMd=w224-h298-k-no"
            }
        ],
        "link": "https://www.google.com/maps/place/%E0%A4%AE%E0%A4%B8%E0%A5%8D%E0%A4%9C%E0%A4%BF%E0%A4%A6+%E0%A4%B0%E0%A4%BE%E0%A4%AE%E0%A4%AA%E0%A5%81%E0%A4%B0%E0%A4%B5%E0%A4%BE/data=!4m7!3m6!1s0x3996a9f80c6bd317:0x60c7f30d017865af!8m2!3d27.1215625!4d83.5826875!16s%2Fg%2F11gc1sl6y_!19sChIJF9NrDPipljkRr2V4AQ3zx2A?authuser=0&hl=en&rclk=1",
        "coordinates": {
            "latitude": 27.1215625,
            "longitude": 83.58268749999999
        }
    },
    {
        "name": "Umar Ibn Al Khattab Masjid",
        "main_category": "Mosque",
        "address": "2J93+7HJ Umar Ibn Al Khattab Masjid, Gorakhpur-Maharajganj Marg, Tarakulawa Tiwari, Uttar Pradesh 273302",
        "detailed_address": {
            "ward": null,
            "street": "2J93+7HJ, Gorakhpur-Maharajganj Marg",
            "city": "Tarakulawa Tiwari",
            "postal_code": "273302",
            "state": "Uttar Pradesh",
            "country_code": "IN"
        },
        "images": [
            {
                "about": "All",
                "link": "https://streetviewpixels-pa.googleapis.com/v1/thumbnail?panoid=uPhjWWHIB8yACramx79R4g&cb_client=maps_sv.tactile.gps&w=224&h=298&yaw=267.592&pitch=0&thumbfov=100"
            },
            {
                "about": "Street View & 360deg",
                "link": "https://streetviewpixels-pa.googleapis.com/v1/thumbnail?panoid=uPhjWWHIB8yACramx79R4g&cb_client=maps_sv.tactile.gps&w=224&h=298&yaw=267.592&pitch=0&thumbfov=100"
            },
            {
                "about": "Videos",
                "link": "https://lh5.googleusercontent.com/p/AF1QipPpAKjhMijf-nVmQQLWcTCMwHX3bprUugCM14kl=w224-h398-k-no"
            }
        ],
        "link": "https://www.google.com/maps/place/Umar+Ibn+Al+Khattab+Masjid/data=!4m7!3m6!1s0x3993fff06ca9952b:0x841e05f3019d2953!8m2!3d27.0182215!4d83.6039045!16s%2Fg%2F11fzwh2mm7!19sChIJK5WpbPD_kzkRUymdAfMFHoQ?authuser=0&hl=en&rclk=1",
        "coordinates": {
            "latitude": 27.0182215,
            "longitude": 83.6039045
        }
    },
    {
        "name": "NOORI MASJID",
        "main_category": "Mosque",
        "address": "NOORI MASJID, Unnamed Road, Khuruhuri, Uttar Pradesh 273163",
        "detailed_address": {
            "ward": null,
            "street": "Unnamed Road",
            "city": "Khuruhuri",
            "postal_code": "273163",
            "state": "Uttar Pradesh",
            "country_code": "IN"
        },
        "images": [
            {
                "about": "All",
                "link": "https://lh5.googleusercontent.com/p/AF1QipPoRFyuVwslACPwJpE1mDU6PWbALnswg7pIjAqw=w224-h398-k-no"
            },
            {
                "about": "By owner",
                "link": "https://lh5.googleusercontent.com/p/AF1QipMQeVU0uhQkKqTRYiaMrpGDbnzyUbax95ZGTtWj=w447-h298-k-no"
            },
            {
                "about": "Videos",
                "link": "https://lh5.googleusercontent.com/p/AF1QipO6mWP9bbO0Xa9PXWkLg4rFrEQTxMPfsd6H0d28=w224-h298-k-no"
            }
        ],
        "link": "https://www.google.com/maps/place/NOORI+MASJID/data=!4m7!3m6!1s0x3994058b82821f9b:0x7b637f296ba9cefa!8m2!3d27.1267109!4d83.7000458!16s%2Fg%2F11gxthcrpm!19sChIJmx-CgosFlDkR-s6payl_Y3s?authuser=0&hl=en&rclk=1",
        "coordinates": {
            "latitude": 27.1267109,
            "longitude": 83.7000458
        }
    },
    {
        "name": "MASJID-E-MUHAMMADIA",
        "main_category": "Mosque",
        "address": "MASJID-E-MUHAMMADIA, Chaupariya, Maharajganj, Mahuawa, Uttar Pradesh 273303",
        "detailed_address": {
            "ward": "Chaupariya",
            "street": null,
            "city": "Maharajganj, Mahuawa",
            "postal_code": "273303",
            "state": "Uttar Pradesh",
            "country_code": "IN"
        },
        "images": [
            {
                "about": "All",
                "link": "https://lh5.googleusercontent.com/p/AF1QipMoPftXGpDQFlZGn9YJfjEwiSEAF7FtjxxWq2Wt=w397-h298-k-no"
            },
            {
                "about": "By owner",
                "link": "https://lh5.googleusercontent.com/p/AF1QipMznvLCssVZ07AIAeU7Nx4Aiev9ePCutJkf2Uvn=w397-h298-k-no"
            }
        ],
        "link": "https://www.google.com/maps/place/MASJID-E-MUHAMMADIA/data=!4m7!3m6!1s0x3996a90fddf26d63:0x43cca23771de1add!8m2!3d27.1423024!4d83.5371338!16s%2Fg%2F11hz_t3pp_!19sChIJY23y3Q-pljkR3RrecTeizEM?authuser=0&hl=en&rclk=1",
        "coordinates": {
            "latitude": 27.1423024,
            "longitude": 83.53713379999999
        }
    },
    {
        "name": "Laxmipur Jarlahiya Masjid",
        "main_category": "Mosque",
        "address": "Laxmipur Jarlahiya Masjid, Laxmipur Jarlahiya, Harpur Tiwari, Maharajganj Uttar Pradesh 273301 IN, Partawal",
        "detailed_address": {
            "ward": null,
            "street": "Laxmipur Jarlahiya, Harpur Tiwari, Maharajganj Uttar Pradesh 273301 IN",
            "city": "Partawal, Harpur",
            "postal_code": null,
            "state": "Uttar Pradesh",
            "country_code": "IN"
        },
        "images": [
            {
                "about": "All",
                "link": "https://lh5.googleusercontent.com/p/AF1QipPFrLjwATi1Or6cuMOhLXUWT4tbSvyqhbbewsk3=w224-h497-k-no"
            },
            {
                "about": "By owner",
                "link": "https://lh5.googleusercontent.com/p/AF1QipNWWUmCGp-IZ7BIu6DD6oMcwjQarT1dy784bavq=w224-h398-k-no"
            },
            {
                "about": "Videos",
                "link": "https://lh5.googleusercontent.com/p/AF1QipOHrlXln8oajSUMxWvOA7TLHlbV4_XdMuBB8dK3=w529-h298-k-no"
            }
        ],
        "link": "https://www.google.com/maps/place/Laxmipur+Jarlahiya+Masjid/data=!4m7!3m6!1s0x399155425de4b439:0x73ed498edfb6d06f!8m2!3d26.98798!4d83.5580231!16s%2Fg%2F11s1w2glgn!19sChIJObTkXUJVkTkRb9C2345J7XM?authuser=0&hl=en&rclk=1",
        "coordinates": {
            "latitude": 26.98798,
            "longitude": 83.5580231
        }
    },
    {
        "name": "SOHRAUNA RAJA JAMA MASJID",
        "main_category": "Mosque",
        "address": "2JJC+627 SOHRAUNA RAJA JAMA MASJID, Sohrauna, Uttar Pradesh 273302",
        "detailed_address": {
            "ward": null,
            "street": "2JJC+627",
            "city": "Sohrauna",
            "postal_code": null,
            "state": "Uttar Pradesh",
            "country_code": "IN"
        },
        "images": [
            {
                "about": "All",
                "link": "https://lh5.googleusercontent.com/p/AF1QipM58mDD2EOZrCYpWxDZA8sp_OpeLq-MRgEajbAz=w224-h456-k-no"
            },
            {
                "about": "Videos",
                "link": "https://lh5.googleusercontent.com/p/AF1QipPsuMTaGQsie6EQz3gx9sqVY2ICQyULk0T8gUHS=w224-h398-k-no"
            }
        ],
        "link": "https://www.google.com/maps/place/SOHRAUNA+RAJA+JAMA+MASJID/data=!4m7!3m6!1s0x399401f8b97abde3:0x68782f9379554a22!8m2!3d27.0305433!4d83.6200359!16s%2Fg%2F11rxqc4b02!19sChIJ4716ufgBlDkRIkpVeZMveGg?authuser=0&hl=en&rclk=1",
        "coordinates": {
            "latitude": 27.030543299999998,
            "longitude": 83.62003589999999
        }
    },
    {
        "name": "Sunni masjid, Rajmandir",
        "main_category": "Mosque",
        "address": "Sunni masjid, Rajmandir, Rajmandir, Lalakarpur, Uttar Pradesh 273302",
        "detailed_address": {
            "ward": null,
            "street": null,
            "city": "Rajmandir, Lalakarpur",
            "postal_code": "273302",
            "state": "Uttar Pradesh",
            "country_code": "IN"
        },
        "images": [
            {
                "about": "All",
                "link": "https://lh5.googleusercontent.com/p/AF1QipM_CEQW2xtm8tE0Q982S-Uq22-AnesyukIFF6a3=w224-h298-k-no"
            }
        ],
        "link": "https://www.google.com/maps/place/Sunni+masjid,+Rajmandir/data=!4m7!3m6!1s0x3996abde98ea93af:0x6e0345739005d848!8m2!3d27.0786083!4d83.5695015!16s%2Fg%2F11qmrlp6z4!19sChIJr5PqmN6rljkRSNgFkHNFA24?authuser=0&hl=en&rclk=1",
        "coordinates": {
            "latitude": 27.0786083,
            "longitude": 83.5695015
        }
    },
    {
        "name": "Balua Jama Masjid",
        "main_category": "Mosque",
        "address": "2H7W+652 Balua Jama Masjid, Balua, Uttar Pradesh 273302",
        "detailed_address": {
            "ward": null,
            "street": "2H7W+652",
            "city": "Balua",
            "postal_code": "273302",
            "state": "Uttar Pradesh",
            "country_code": "IN"
        },
        "images": [],
        "link": "https://www.google.com/maps/place/Balua+Jama+Masjid/data=!4m7!3m6!1s0x3993ff8e9a23bb1b:0x151be255b943135e!8m2!3d27.0130232!4d83.5954022!16s%2Fg%2F11gsbhd4jw!19sChIJG7sjmo7_kzkRXhNDuVXiGxU?authuser=0&hl=en&rclk=1",
        "coordinates": {
            "latitude": 27.0130232,
            "longitude": 83.5954022
        }
    },
    {
        "name": "Naturi Masjid",
        "main_category": "Mosque",
        "address": "Naturi Masjid, Naturi, Bagahi, Uttar Pradesh 273163",
        "detailed_address": {
            "ward": null,
            "street": null,
            "city": "Naturi, Bagahi",
            "postal_code": "273163",
            "state": "Uttar Pradesh",
            "country_code": "IN"
        },
        "images": [
            {
                "about": "All",
                "link": "https://lh5.googleusercontent.com/p/AF1QipOmVz9fOzX_EMb9Zwtqjc94J9YRkOXRfAZTulQg=w510-h298-k-no"
            },
            {
                "about": "By owner",
                "link": "https://lh5.googleusercontent.com/p/AF1QipMlXQMv6p5IzNefeor5ImOv8wdosyf_SPlIQTuK=w224-h501-k-no"
            }
        ],
        "link": "https://www.google.com/maps/place/Naturi+Masjid/data=!4m7!3m6!1s0x3994058fec43d3bb:0x59eaeb0c5b4522fa!8m2!3d27.2107233!4d83.7193293!16s%2Fg%2F11ry1k2mxl!19sChIJu9ND7I8FlDkR-iJFWwzr6lk?authuser=0&hl=en&rclk=1",
        "coordinates": {
            "latitude": 27.210723299999998,
            "longitude": 83.7193293
        }
    },
    {
        "name": "Jumma Masjid jummaa mszid",
        "main_category": "Mosque",
        "address": "68HG+76V Jumma Masjid jummaa mszid, Rajmandir Khurd, Laxmipur, Uttar Pradesh 273157",
        "detailed_address": {
            "ward": null,
            "street": "68HG+76V, Rajmandir Khurd",
            "city": "Laxmipur, Rajmandir Khurd",
            "postal_code": "273157",
            "state": "Uttar Pradesh",
            "country_code": "IN"
        },
        "images": [
            {
                "about": "All",
                "link": "https://streetviewpixels-pa.googleapis.com/v1/thumbnail?panoid=2mgzcJSkiEWEkzxSlpAi3Q&cb_client=maps_sv.tactile.gps&w=224&h=298&yaw=149.2861&pitch=0&thumbfov=100"
            },
            {
                "about": "Street View & 360deg",
                "link": "https://streetviewpixels-pa.googleapis.com/v1/thumbnail?panoid=2mgzcJSkiEWEkzxSlpAi3Q&cb_client=maps_sv.tactile.gps&w=224&h=298&yaw=149.2861&pitch=0&thumbfov=100"
            }
        ],
        "link": "https://www.google.com/maps/place/Jumma+Masjid+%E0%A4%9C%E0%A5%81%E0%A4%AE%E0%A5%8D%E0%A4%AE%E0%A4%BE+%E0%A4%AE%E0%A4%B8%E0%A5%8D%E0%A5%9B%E0%A4%BF%E0%A4%A6/data=!4m7!3m6!1s0x3996b9399bfdbefd:0x3a6ce3cb28d2769f!8m2!3d27.2282307!4d83.3255453!16s%2Fg%2F11gvzw7235!19sChIJ_b79mzm5ljkRn3bSKMvjbDo?authuser=0&hl=en&rclk=1",
        "coordinates": {
            "latitude": 27.228230699999997,
            "longitude": 83.3255453
        }
    },
    {
        "name": "Madina Masjid Haskhori Mahuawa",
        "main_category": "Mosque",
        "address": "3F5Q+858 Madina Masjid Haskhori Mahuawa, Haskhori, Khaincha, Uttar Pradesh 273310",
        "detailed_address": {
            "ward": null,
            "street": "3F5Q+858",
            "city": "Haskhori, Khaincha",
            "postal_code": "273310",
            "state": "Uttar Pradesh",
            "country_code": "IN"
        },
        "images": [
            {
                "about": "All",
                "link": "https://lh5.googleusercontent.com/p/AF1QipOepxGIZw62obXxq-pgr9b9U6Ou-V9eP1nxBTS_=w629-h298-k-no"
            }
        ],
        "link": "https://www.google.com/maps/place/Madina+Masjid+Haskhori+Mahuawa/data=!4m7!3m6!1s0x3996ada1cab7eb29:0x24c1589ac88d2726!8m2!3d27.0582996!4d83.4879479!16s%2Fg%2F11h3jjdhs6!19sChIJKeu3yqGtljkRJieNyJpYwSQ?authuser=0&hl=en&rclk=1",
        "coordinates": {
            "latitude": 27.058299599999998,
            "longitude": 83.4879479
        }
    },
    {
        "name": "JAAMA MASJID PANIYARA",
        "main_category": "Mosque",
        "address": "XFW8+FHW JAAMA MASJID PANIYARA, Paniyara, Uttar Pradesh 273310",
        "detailed_address": {
            "ward": null,
            "street": "XFW8+FHW",
            "city": "Paniyara",
            "postal_code": "273310",
            "state": "Uttar Pradesh",
            "country_code": "IN"
        },
        "images": [
            {
                "about": "All",
                "link": "https://streetviewpixels-pa.googleapis.com/v1/thumbnail?panoid=gctpedqsqUSfjnb5rX4pYA&cb_client=maps_sv.tactile.gps&w=224&h=298&yaw=22.277796&pitch=0&thumbfov=100"
            },
            {
                "about": "Street View & 360deg",
                "link": "https://streetviewpixels-pa.googleapis.com/v1/thumbnail?panoid=gctpedqsqUSfjnb5rX4pYA&cb_client=maps_sv.tactile.gps&w=224&h=298&yaw=22.277796&pitch=0&thumbfov=100"
            }
        ],
        "link": "https://www.google.com/maps/place/JAAMA+MASJID+PANIYARA/data=!4m7!3m6!1s0x399153701e7d7577:0xb461c99876ed9ee8!8m2!3d26.9962415!4d83.466457!16s%2Fg%2F11hyz8ms45!19sChIJd3V9HnBTkTkR6J7tdpjJYbQ?authuser=0&hl=en&rclk=1",
        "coordinates": {
            "latitude": 26.9962415,
            "longitude": 83.46645699999999
        }
    },
    {
        "name": "RazaJama masjid",
        "main_category": "Mosque",
        "address": "6H7W+QPP RazaJama masjid, Kasmaria Rd, Khajuria, Kasmaria, Uttar Pradesh 273303",
        "detailed_address": {
            "ward": null,
            "street": "6H7W+QPP, Kasmaria Rd",
            "city": "Khajuria, Kasmaria",
            "postal_code": "273303",
            "state": "Uttar Pradesh",
            "country_code": "IN"
        },
        "images": [
            {
                "about": "All",
                "link": "https://lh5.googleusercontent.com/p/AF1QipOOaAz3EKYRPrLC_XRKQrsguKzyXeviPvzxOEw-=w224-h298-k-no"
            },
            {
                "about": "Dome",
                "link": "https://lh5.googleusercontent.com/p/AF1QipO401YMMfmFMHPq-2gXvW0kf2iJmkAQhSOrQtml=w224-h298-k-no"
            }
        ],
        "link": "https://www.google.com/maps/place/RazaJama+masjid/data=!4m7!3m6!1s0x39940319a7e84435:0xa3ec2eacb41ed157!8m2!3d27.2144566!4d83.5968231!16s%2Fg%2F11q_c26wz7!19sChIJNUTopxkDlDkRV9EetKwu7KM?authuser=0&hl=en&rclk=1",
        "coordinates": {
            "latitude": 27.2144566,
            "longitude": 83.5968231
        }
    },
    {
        "name": "Parasameer Sunni Masjid",
        "main_category": "Mosque",
        "address": "6J8V+XM4 Parasameer Sunni Masjid, Unnamed Road, Patarengawan, Uttar Pradesh 273207",
        "detailed_address": {
            "ward": null,
            "street": "6J8V+XM4, Unnamed Road",
            "city": "Patarengawan",
            "postal_code": "273207",
            "state": "Uttar Pradesh",
            "country_code": "IN"
        },
        "images": [
            {
                "about": "All",
                "link": "https://lh5.googleusercontent.com/p/AF1QipPZT6hsdZ4lX5C_pGPLsGrR9YOAfAtk8vFF7H3n=w397-h298-k-no"
            },
            {
                "about": "Videos",
                "link": "https://lh5.googleusercontent.com/p/AF1QipPDXe8doLtLXqBtEjwfh8meK4uo4c5noCnH6B7X=w224-h398-k-no"
            }
        ],
        "link": "https://www.google.com/maps/place/Parasameer+Sunni+Masjid/data=!4m7!3m6!1s0x399403e29dabfdb5:0x8a2855ff82bb6e75!8m2!3d27.217384!4d83.6441953!16s%2Fg%2F11hzx3v5rz!19sChIJtf2rneIDlDkRdW67gv9VKIo?authuser=0&hl=en&rclk=1",
        "coordinates": {
            "latitude": 27.217384,
            "longitude": 83.64419529999999
        }
    },
    {
        "name": "Gopala Masjid",
        "main_category": "Mosque",
        "address": "2H44+HCR Gopala Masjid, Gopala, Uttar Pradesh 273301",
        "detailed_address": {
            "ward": null,
            "street": "2H44+HCR",
            "city": "Gopala",
            "postal_code": "273301",
            "state": "Uttar Pradesh",
            "country_code": "IN"
        },
        "images": [
            {
                "about": "All",
                "link": "https://lh5.googleusercontent.com/p/AF1QipOaFykhaTqcu4rVvgP0WjH7K4ySCW133Rb6IvSz=w224-h298-k-no"
            }
        ],
        "link": "https://www.google.com/maps/place/Gopala+Masjid/data=!4m7!3m6!1s0x399155d6e57100ab:0x230aead0b9253d00!8m2!3d27.0064829!4d83.556022!16s%2Fg%2F11j843g4hy!19sChIJqwBx5dZVkTkRAD0ludDqCiM?authuser=0&hl=en&rclk=1",
        "coordinates": {
            "latitude": 27.006482899999998,
            "longitude": 83.556022
        }
    },
    {
        "name": "BANSPAR BAIJAULI CHAWANI MASJID",
        "main_category": "Mosque",
        "address": "4GGW+363 BANSPAR BAIJAULI CHAWANI MASJID, Kotwali Rode, Baspar Baijauli, Uttar Pradesh 273303",
        "detailed_address": {
            "ward": null,
            "street": "4GGW+363, Kotwali Rode",
            "city": "Baspar Baijauli",
            "postal_code": "273303",
            "state": "Uttar Pradesh",
            "country_code": "IN"
        },
        "images": [
            {
                "about": "All",
                "link": "https://lh5.googleusercontent.com/p/AF1QipMboMtowqDIYwz15009gwDf3JNy9_w9Z24W4doJ=w224-h398-k-no"
            },
            {
                "about": "Street View & 360deg",
                "link": "https://streetviewpixels-pa.googleapis.com/v1/thumbnail?panoid=flu3UB7yX4d4SaGWZUHfew&cb_client=maps_sv.tactile.gps&w=224&h=298&yaw=305.63025&pitch=0&thumbfov=100"
            },
            {
                "about": "Videos",
                "link": "https://lh5.googleusercontent.com/p/AF1QipMyuqbQZSnIBuzgmEcmfnGxKBUXw_8h-Vqy_VNA=w224-h398-k-no"
            }
        ],
        "link": "https://www.google.com/maps/place/BANSPAR+BAIJAULI+CHAWANI+MASJID/data=!4m7!3m6!1s0x3996a9d16e5240ed:0x2408a74a4d5c9771!8m2!3d27.1251294!4d83.5455443!16s%2Fg%2F11h6r2zt9j!19sChIJ7UBSbtGpljkRcZdcTUqnCCQ?authuser=0&hl=en&rclk=1",
        "coordinates": {
            "latitude": 27.1251294,
            "longitude": 83.5455443
        }
    },
    {
        "name": "juma masjid",
        "main_category": "Mosque",
        "address": "2H74+H22 juma masjid, Mirzapur Pakadi, Gopala, Uttar Pradesh 273301",
        "detailed_address": {
            "ward": null,
            "street": "2H74+H22",
            "city": "Mirzapur Pakadi, Gopala",
            "postal_code": "273301",
            "state": "Uttar Pradesh",
            "country_code": "IN"
        },
        "images": [
            {
                "about": "All",
                "link": "https://lh5.googleusercontent.com/p/AF1QipNAToYO2LnRFhuDNI3zfPEvlqomlS82Mcrg7-ao=w224-h448-k-no"
            },
            {
                "about": "Dome",
                "link": "https://lh5.googleusercontent.com/p/AF1QipMbPkaimCJebHQ7rh21-jeJ7RvkTKyOA0cA4HJc=w298-h298-k-no"
            },
            {
                "about": "Videos",
                "link": "https://lh5.googleusercontent.com/p/AF1QipOtH2aJ234MgWFEIZpJSndSeCREiRlStmjqvyC6=w224-h398-k-no"
            }
        ],
        "link": "https://www.google.com/maps/place/juma+masjid/data=!4m7!3m6!1s0x399155f814f93115:0x5b8876e73ebed1e1!8m2!3d27.0138783!4d83.5550221!16s%2Fg%2F11f66zb_46!19sChIJFTH5FPhVkTkR4dG-Pud2iFs?authuser=0&hl=en&rclk=1",
        "coordinates": {
            "latitude": 27.0138783,
            "longitude": 83.5550221
        }
    },
    {
        "name": "nurii msjid",
        "main_category": "Mosque",
        "address": "2MJJ+M7V nurii msjid, Basntpur, Uttar Pradesh 273151",
        "detailed_address": {
            "ward": null,
            "street": "2MJJ+M7V",
            "city": "Basntpur",
            "postal_code": "273151",
            "state": "Uttar Pradesh",
            "country_code": "IN"
        },
        "images": [
            {
                "about": "All",
                "link": "https://lh5.googleusercontent.com/p/AF1QipMwrgsvWqw5B2KPf04jVD-KrBmM_RiffL3iimhH=w224-h298-k-no"
            },
            {
                "about": "Street View & 360deg",
                "link": "https://streetviewpixels-pa.googleapis.com/v1/thumbnail?panoid=q5K-45hTAxh2caum5cdR0w&cb_client=maps_sv.tactile.gps&w=224&h=298&yaw=86.01467&pitch=0&thumbfov=100"
            },
            {
                "about": "Videos",
                "link": "https://lh5.googleusercontent.com/p/AF1QipPLPEZsnlGdc8hcj5asoSQJng6RizxNB7vN6qNr=w529-h298-k-no"
            }
        ],
        "link": "https://www.google.com/maps/place/%E0%A4%A8%E0%A5%81%E0%A4%B0%E0%A5%80+%E0%A4%AE%E0%A4%B8%E0%A5%8D%E0%A4%9C%E0%A4%BF%E0%A4%A6/data=!4m7!3m6!1s0x3993f8aa7832b01d:0x4885ab16efc377bb!8m2!3d27.0317308!4d83.6806716!16s%2Fg%2F11hd062qhs!19sChIJHbAyeKr4kzkRu3fD7xarhUg?authuser=0&hl=en&rclk=1",
        "coordinates": {
            "latitude": 27.0317308,
            "longitude": 83.6806716
        }
    },
    {
        "name": "Khanpur Masjid",
        "main_category": "Mosque",
        "address": "2P66+QJG Khanpur Masjid, Belawa, Uttar Pradesh 273151",
        "detailed_address": {
            "ward": null,
            "street": "2P66+QJG",
            "city": "Belawa",
            "postal_code": "273151",
            "state": "Uttar Pradesh",
            "country_code": "IN"
        },
        "images": [
            {
                "about": "All",
                "link": "https://lh5.googleusercontent.com/p/AF1QipM18py8ToLofEBVdqGHrkoMnvIn4qbYpFLLZ8W6=w224-h298-k-no"
            },
            {
                "about": "Street View & 360deg",
                "link": "https://streetviewpixels-pa.googleapis.com/v1/thumbnail?panoid=oN3HH3iArWL21e_wAMdR0A&cb_client=maps_sv.tactile.gps&w=224&h=298&yaw=216.83382&pitch=0&thumbfov=100"
            }
        ],
        "link": "https://www.google.com/maps/place/Khanpur+Masjid/data=!4m7!3m6!1s0x3993f88d1b6faa77:0x8ea32a1b13208d33!8m2!3d27.0119405!4d83.7115639!16s%2Fg%2F11hcmkc5pn!19sChIJd6pvG434kzkRM40gExsqo44?authuser=0&hl=en&rclk=1",
        "coordinates": {
            "latitude": 27.011940499999998,
            "longitude": 83.7115639
        }
    },
    {
        "name": "mzaar shriiph",
        "main_category": "Mosque",
        "address": "3FGJ+GQ3 mzaar shriiph, Unnamed Road, Murila, Uttar Pradesh 273303",
        "detailed_address": {
            "ward": null,
            "street": "3FGJ+GQ3, Unnamed Road",
            "city": "Murila",
            "postal_code": "273303",
            "state": "Uttar Pradesh",
            "country_code": "IN"
        },
        "images": [
            {
                "about": "All",
                "link": "https://lh5.googleusercontent.com/p/AF1QipPdF-KZwqolOowNn01McgU-byH8QMmTNnkFYDJ0=w224-h298-k-no"
            },
            {
                "about": "Dome",
                "link": "https://lh5.googleusercontent.com/p/AF1QipOmed7n-kbcX-AGGi4m2loN5Ye1BE9nHxzIXPgG=w424-h298-k-no"
            },
            {
                "about": "Street View & 360deg",
                "link": "https://streetviewpixels-pa.googleapis.com/v1/thumbnail?panoid=uEUyDFTuNnW5KQbAWHYY_Q&cb_client=maps_sv.tactile.gps&w=224&h=298&yaw=99.77108&pitch=0&thumbfov=100"
            }
        ],
        "link": "https://www.google.com/maps/place/%E0%A4%AE%E0%A5%9B%E0%A4%BE%E0%A4%B0+%E0%A4%B6%E0%A4%B0%E0%A5%80%E0%A4%AB/data=!4m7!3m6!1s0x3996ad969a349ae5:0xba6e5786df433a63!8m2!3d27.0762567!4d83.4819302!16s%2Fg%2F11j0bp16g8!19sChIJ5Zo0mpatljkRYzpD34ZXbro?authuser=0&hl=en&rclk=1",
        "coordinates": {
            "latitude": 27.0762567,
            "longitude": 83.4819302
        }
    },
    {
        "name": "Masjid_e_ Nizamia Harpur Mahanth ( Darji Tola)",
        "main_category": "Mosque",
        "address": "3J2X+9JV Masjid_e_ Nizamia Harpur Mahanth ( Darji Tola), Harpur, Uttar Pradesh 273151",
        "detailed_address": {
            "ward": null,
            "street": "3J2X+9JV",
            "city": "Harpur",
            "postal_code": "273151",
            "state": "Uttar Pradesh",
            "country_code": "IN"
        },
        "images": [
            {
                "about": "All",
                "link": "https://lh5.googleusercontent.com/p/AF1QipOobG_EUuhCxRCUtd-P_9bOv8j8d2wmT4j9sZpg=w224-h298-k-no"
            },
            {
                "about": "Videos",
                "link": "https://lh5.googleusercontent.com/p/AF1QipNakg7uTQob8Wo_JTriKJLWTUpLRU3UqIVvAaaJ=w224-h398-k-no"
            }
        ],
        "link": "https://www.google.com/maps/place/Masjid_e_+Nizamia+Harpur+Mahanth+%28+Darji+Tola%29/data=!4m7!3m6!1s0x399401ce855ccd11:0xdcfed3c929b48989!8m2!3d27.050998!4d83.6490336!16s%2Fg%2F11s42x6275!19sChIJEc1chc4BlDkRiYm0KcnT_tw?authuser=0&hl=en&rclk=1",
        "coordinates": {
            "latitude": 27.050998,
            "longitude": 83.6490336
        }
    },
    {
        "name": "EIDGAAH PANEWA",
        "main_category": "Mosque",
        "address": "EIDGAAH PANEWA, 165, Panewa Panei, Uttar Pradesh 273303",
        "detailed_address": {
            "ward": null,
            "street": "165",
            "city": "Panewa Panei, Siswania",
            "postal_code": "273303",
            "state": "Uttar Pradesh",
            "country_code": "IN"
        },
        "images": [
            {
                "about": "All",
                "link": "https://lh5.googleusercontent.com/p/AF1QipOERSGasInXHalvnJ0ytrwTh2vpkXVCTBkhbudq=w397-h298-k-no"
            }
        ],
        "link": "https://www.google.com/maps/place/EIDGAAH+PANEWA/data=!4m7!3m6!1s0x3996a9f6068cb0d5:0x47c096a362e9d5ef!8m2!3d27.1903164!4d83.5806661!16s%2Fg%2F11h6nkhzbg!19sChIJ1bCMBvapljkR79XpYqOWwEc?authuser=0&hl=en&rclk=1",
        "coordinates": {
            "latitude": 27.1903164,
            "longitude": 83.5806661
        }
    },
    {
        "name": "Big jama mosque",
        "main_category": "Mosque",
        "address": "3HVM+PFR Big jama mosque, Imlia, Uttar Pradesh 273302",
        "detailed_address": {
            "ward": null,
            "street": "3HVM+PFR",
            "city": "Imlia",
            "postal_code": "273302",
            "state": "Uttar Pradesh",
            "country_code": "IN"
        },
        "images": [
            {
                "about": "All",
                "link": "https://lh5.googleusercontent.com/p/AF1QipOLmdwuLhHQP7Yyzw_oumA8gayIxGdX-yciybsc=w629-h298-k-no"
            },
            {
                "about": "Videos",
                "link": "https://lh5.googleusercontent.com/p/AF1QipMtdTUBq19T4y8mkGpAvzIUIiSaUofPtjMqLx8=w529-h298-k-no"
            }
        ],
        "link": "https://www.google.com/maps/place/Big+jama+mosque/data=!4m7!3m6!1s0x3996ab0eba7228b5:0x9997347bfc36e2c4!8m2!3d27.0943725!4d83.5836441!16s%2Fg%2F11rxj2hm7d!19sChIJtShyug6rljkRxOI2_Hs0l5k?authuser=0&hl=en&rclk=1",
        "coordinates": {
            "latitude": 27.0943725,
            "longitude": 83.5836441
        }
    },
    {
        "name": "BARIGAON JAMA MASJID",
        "main_category": "Mosque",
        "address": "XM6G+4HP BARIGAON JAMA MASJID, Pipara Barhaman Urf Bari, Uttar Pradesh 273301",
        "detailed_address": {
            "ward": null,
            "street": "XM6G+4HP",
            "city": "Pipara Barhaman Urf Bari",
            "postal_code": null,
            "state": "Uttar Pradesh",
            "country_code": "IN"
        },
        "images": [
            {
                "about": "All",
                "link": "https://lh5.googleusercontent.com/p/AF1QipNVtTTXsUW-u1LXNJUl6QBmfxJDHACkvfaXN0of=w224-h477-k-no"
            },
            {
                "about": "Videos",
                "link": "https://lh5.googleusercontent.com/p/AF1QipNbCxUlAXSSmKhaLCkj0NTmQYxBJfrcbWfIWnvT=w224-h389-k-no"
            }
        ],
        "link": "https://www.google.com/maps/place/BARIGAON+JAMA+MASJID/data=!4m7!3m6!1s0x3993ff9ea440637d:0x4bec1294beb45247!8m2!3d26.9603436!4d83.6764589!16s%2Fg%2F11nckd47rw!19sChIJfWNApJ7_kzkRR1K0vpQS7Es?authuser=0&hl=en&rclk=1",
        "coordinates": {
            "latitude": 26.960343599999998,
            "longitude": 83.6764589
        }
    },
    {
        "name": "EID GAAH PIPRIYA",
        "main_category": "Mosque",
        "address": "4P9W+7G2 EID GAAH PIPRIYA, Maharajganj, Barwa Salikram, Uttar Pradesh 273163",
        "detailed_address": {
            "ward": null,
            "street": "4P9W+7G2",
            "city": "Maharajganj, Barwa Salikram",
            "postal_code": null,
            "state": "Uttar Pradesh",
            "country_code": "IN"
        },
        "images": [
            {
                "about": "All",
                "link": "https://lh5.googleusercontent.com/p/AF1QipNND5LTCPYfAr2aoVTU-8y2PWZ4OXptaptMdrpf=w224-h502-k-no"
            },
            {
                "about": "Street View & 360deg",
                "link": "https://streetviewpixels-pa.googleapis.com/v1/thumbnail?panoid=je8V8NjK9CKjE8rKa9e4bA&cb_client=maps_sv.tactile.gps&w=224&h=298&yaw=327.2142&pitch=0&thumbfov=100"
            },
            {
                "about": "Videos",
                "link": "https://lh5.googleusercontent.com/p/AF1QipODggKy8vtI3ZYB3t9S3HFzGy5lguZGAScMEDRz=w224-h497-k-no"
            }
        ],
        "link": "https://www.google.com/maps/place/EID+GAAH+PIPRIYA/data=!4m7!3m6!1s0x399407349ef0cf79:0x4553464b9176a823!8m2!3d27.1181411!4d83.746251!16s%2Fg%2F11swr2gjmp!19sChIJec_wnjQHlDkRI6h2kUtGU0U?authuser=0&hl=en&rclk=1",
        "coordinates": {
            "latitude": 27.1181411,
            "longitude": 83.746251
        }
    },
    {
        "name": "Babhnauli Jama Masjid",
        "main_category": "Mosque",
        "address": "XFRJ+4CV Babhnauli Jama Masjid, Babhnauli, Mahrajganj Forest Range, Uttar Pradesh 273310",
        "detailed_address": {
            "ward": null,
            "street": "XFRJ+4CV",
            "city": "Babhnauli, Mahrajganj Forest Range",
            "postal_code": "273310",
            "state": "Uttar Pradesh",
            "country_code": "IN"
        },
        "images": [],
        "link": "https://www.google.com/maps/place/Babhnauli+Jama+Masjid/data=!4m7!3m6!1s0x399153491281ab87:0xa218976560b59dfd!8m2!3d26.9903522!4d83.4810536!16s%2Fg%2F11tn5bb7r_!19sChIJh6uBEklTkTkR_Z21YGWXGKI?authuser=0&hl=en&rclk=1",
        "coordinates": {
            "latitude": 26.9903522,
            "longitude": 83.4810536
        }
    },
    {
        "name": "Maszid",
        "main_category": "Mosque",
        "address": "2CWG+P4P Maszid, Girgitia, Uttar Pradesh 273303",
        "detailed_address": {
            "ward": null,
            "street": "2CWG+P4P",
            "city": "Girgitia",
            "postal_code": "273303",
            "state": "Uttar Pradesh",
            "country_code": "IN"
        },
        "images": [
            {
                "about": "All",
                "link": "https://lh5.googleusercontent.com/p/AF1QipP-SWYHG9NqGPwqOqyCP1tUbc7NCzE4ar_0US4X=w442-h298-k-no"
            },
            {
                "about": "Videos",
                "link": "https://lh5.googleusercontent.com/p/AF1QipMgrWcx4C8eTaoaEiHOW7CnYJW2XJmcz6sjaF4c=w224-h398-k-no"
            }
        ],
        "link": "https://www.google.com/maps/place/Maszid/data=!4m7!3m6!1s0x3996ad69bc2583d1:0x72f96e04b7ccbe40!8m2!3d27.0468456!4d83.4253327!16s%2Fg%2F11g0ss3kcv!19sChIJ0YMlvGmtljkRQL7MtwRu-XI?authuser=0&hl=en&rclk=1",
        "coordinates": {
            "latitude": 27.046845599999997,
            "longitude": 83.4253327
        }
    },
    {
        "name": "Masjid kauaathor mujuri",
        "main_category": "Mosque",
        "address": "29FX+FJ8 Masjid kauaathor mujuri, Satguru, Uttar Pradesh 273303",
        "detailed_address": {
            "ward": null,
            "street": "29FX+FJ8",
            "city": "Satguru",
            "postal_code": null,
            "state": "Uttar Pradesh",
            "country_code": "IN"
        },
        "images": [
            {
                "about": "All",
                "link": "https://lh5.googleusercontent.com/p/AF1QipMVs_-Ym_gkGuCOPdjWhcfwB-QiJtlGmDzSyBMd=w614-h298-k-no"
            },
            {
                "about": "Street View & 360deg",
                "link": "https://streetviewpixels-pa.googleapis.com/v1/thumbnail?panoid=dFzpQNWdNlAK0wOEMP_3SQ&cb_client=maps_sv.tactile.gps&w=224&h=298&yaw=215.76909&pitch=0&thumbfov=100"
            }
        ],
        "link": "https://www.google.com/maps/place/Masjid+kauaathor+mujuri/data=!4m7!3m6!1s0x3996b3c2ecbed1a7:0x5e7f74cb26f41ec4!8m2!3d27.0237057!4d83.3991276!16s%2Fg%2F11q9cq850x!19sChIJp9G-7MKzljkRxB70Jst0f14?authuser=0&hl=en&rclk=1",
        "coordinates": {
            "latitude": 27.023705699999997,
            "longitude": 83.3991276
        }
    },
    {
        "name": "KARBALA SINDURIA",
        "main_category": "Mosque",
        "address": "6J3W+GGR KARBALA SINDURIA, Senduria, Uttar Pradesh 273207",
        "detailed_address": {
            "ward": null,
            "street": "6J3W+GGR",
            "city": "Senduria",
            "postal_code": "273207",
            "state": "Uttar Pradesh",
            "country_code": "IN"
        },
        "images": [
            {
                "about": "All",
                "link": "https://lh5.googleusercontent.com/p/AF1QipNP-AfezU_Sn4D438ISJ2b4c84HC2z9xjzF1QGN=w662-h298-k-no"
            }
        ],
        "link": "https://www.google.com/maps/place/KARBALA+SINDURIA/data=!4m7!3m6!1s0x39940340649b0989:0x41522f8219077b0b!8m2!3d27.2038624!4d83.6462594!16s%2Fg%2F11fn77rv1k!19sChIJiQmbZEADlDkRC3sHGYIvUkE?authuser=0&hl=en&rclk=1",
        "coordinates": {
            "latitude": 27.2038624,
            "longitude": 83.64625939999999
        }
    },
    {
        "name": "Masjid E Umar",
        "main_category": "Mosque",
        "address": "5HFG+6F5 Masjid E Umar, Ashok Nagar, Dhnewa Dhanei, Uttar Pradesh 273303",
        "detailed_address": {
            "ward": "Ashok Nagar",
            "street": "5HFG+6F5",
            "city": "Dhnewa Dhanei",
            "postal_code": "273303",
            "state": "Uttar Pradesh",
            "country_code": "IN"
        },
        "images": [
            {
                "about": "All",
                "link": "https://lh5.googleusercontent.com/p/AF1QipOlkEgAVEDcyoBgYSlhHVkM0B4Y0_TKttg5nHiN=w224-h336-k-no"
            },
            {
                "about": "Videos",
                "link": "https://lh5.googleusercontent.com/p/AF1QipPDIz_cOQKE7CGG-HNWGN7yDue3MfwcaSCrrdhL=w603-h298-k-no"
            }
        ],
        "link": "https://www.google.com/maps/place/Masjid+E+Umar/data=!4m7!3m6!1s0x3996a94c16486fc9:0x1bd55054780de098!8m2!3d27.173011!4d83.5762422!16s%2Fg%2F11n2bk8_8f!19sChIJyW9IFkypljkRmOANeFRQ1Rs?authuser=0&hl=en&rclk=1",
        "coordinates": {
            "latitude": 27.173011,
            "longitude": 83.5762422
        }
    },
    {
        "name": "Quba Masjid",
        "main_category": "Mosque",
        "address": "5H65+6HW Quba Masjid, Unnamed Road, Gabarua, Maharajganj, Uttar Pradesh 273303",
        "detailed_address": {
            "ward": "Gabarua",
            "street": "5H65+6HW, Unnamed Road",
            "city": "Maharajganj",
            "postal_code": "273303",
            "state": "Uttar Pradesh",
            "country_code": "IN"
        },
        "images": [
            {
                "about": "All",
                "link": "https://lh5.googleusercontent.com/p/AF1QipNSH95e9RkOxtgkZuF4-yWPczd31xAeRoGiJ1bG=w397-h298-k-no"
            },
            {
                "about": "Videos",
                "link": "https://lh5.googleusercontent.com/p/AF1QipPiVSa3oLchlXLtGn6rvGTki5RqpuRvJwd5aDJ0=w224-h398-k-no"
            }
        ],
        "link": "https://www.google.com/maps/place/Quba+Masjid/data=!4m7!3m6!1s0x3996a921a0c8898f:0xc3c5f9430ee6f809!8m2!3d27.1606141!4d83.5589657!16s%2Fg%2F11f9wwpngy!19sChIJj4nIoCGpljkRCfjmDkP5xcM?authuser=0&hl=en&rclk=1",
        "coordinates": {
            "latitude": 27.1606141,
            "longitude": 83.5589657
        }
    },
    {
        "name": "Badahara khash",
        "main_category": "Mosque",
        "address": "house no 85, Badahara khash, Bahara khas, Maharajganj, Barahara, Uttar Pradesh 273303",
        "detailed_address": {
            "ward": null,
            "street": "house no 85, Bahara khas",
            "city": "Maharajganj, Barahara",
            "postal_code": null,
            "state": "Uttar Pradesh",
            "country_code": "IN"
        },
        "images": [
            {
                "about": "All",
                "link": "https://lh5.googleusercontent.com/p/AF1QipOali86Se_0NTMa9kScDAGEw4kTxW5xX0hrANWz=w397-h298-k-no"
            }
        ],
        "link": "https://www.google.com/maps/place/Badahara+khash/data=!4m7!3m6!1s0x3996ad5e07f50f63:0x1a419b58945bb4!8m2!3d27.0809611!4d83.5045212!16s%2Fg%2F11t0rg8rwf!19sChIJYw_1B16tljkRtFuUWJtBGgA?authuser=0&hl=en&rclk=1",
        "coordinates": {
            "latitude": 27.0809611,
            "longitude": 83.5045212
        }
    },
    {
        "name": "Hazarat Saheed Baba",
        "main_category": "Mosque",
        "address": "4HX7+FPH Hazarat Saheed Baba, Bismil Nagar, Maharajganj, Uttar Pradesh 273303",
        "detailed_address": {
            "ward": "Bismil Nagar",
            "street": "4HX7+FPH",
            "city": "Maharajganj",
            "postal_code": "273303",
            "state": "Uttar Pradesh",
            "country_code": "IN"
        },
        "images": [
            {
                "about": "All",
                "link": "https://lh5.googleusercontent.com/p/AF1QipNvLP3r78clx5oBm8fsf3gHqj5p6ecBvJ71ZvKy=w397-h298-k-no"
            }
        ],
        "link": "https://www.google.com/maps/place/Hazarat+Saheed+Baba/data=!4m7!3m6!1s0x3996a9bc1330bd4b:0x23ab512da75a1e13!8m2!3d27.1486864!4d83.5643452!16s%2Fg%2F11hd7flmqr!19sChIJS70wE7ypljkREx5apy1RqyM?authuser=0&hl=en&rclk=1",
        "coordinates": {
            "latitude": 27.1486864,
            "longitude": 83.56434519999999
        }
    },
    {
        "name": "MASJID PIPRIYA (msjid pipriiyaa)",
        "main_category": "Mosque",
        "address": "4P8R+RR2 MASJID PIPRIYA (msjid pipriiyaa), Siswa Bazar, Madhwalia, Uttar Pradesh 273163",
        "detailed_address": {
            "ward": null,
            "street": "4P8R+RR2",
            "city": "Siswa Bazar, Madhwalia",
            "postal_code": "273163",
            "state": "Uttar Pradesh",
            "country_code": "IN"
        },
        "images": [
            {
                "about": "All",
                "link": "https://lh5.googleusercontent.com/p/AF1QipPkJH43pWfFN5a256eSc0UGXWE135yW3Icwja_6=w224-h510-k-no"
            }
        ],
        "link": "https://www.google.com/maps/place/MASJID+PIPRIYA+%28%E0%A4%AE%E0%A4%B8%E0%A5%8D%E0%A4%9C%E0%A4%BF%E0%A4%A6+%E0%A4%AA%E0%A4%BF%E0%A4%AA%E0%A4%B0%E0%A5%80%E0%A4%AF%E0%A4%BE%29/data=!4m7!3m6!1s0x399407032d828c09:0xe8f6d5e2a513e37!8m2!3d27.1170065!4d83.7420121!16s%2Fg%2F11rv36x7ws!19sChIJCYyCLQMHlDkRNz5RKl5tjw4?authuser=0&hl=en&rclk=1",
        "coordinates": {
            "latitude": 27.1170065,
            "longitude": 83.7420121
        }
    },
    {
        "name": "Masjid",
        "main_category": "Mosque",
        "address": "6G38+7W3 Masjid, Bagapar, Uttar Pradesh 273303",
        "detailed_address": {
            "ward": null,
            "street": "6G38+7W3",
            "city": "Bagapar",
            "postal_code": "273303",
            "state": "Uttar Pradesh",
            "country_code": "IN"
        },
        "images": [],
        "link": "https://www.google.com/maps/place/Masjid/data=!4m7!3m6!1s0x3996a8af78a86eaf:0x9c8d2cbc5be7b06f!8m2!3d27.2031333!4d83.517311!16s%2Fg%2F11f_zzxx9f!19sChIJr26oeK-oljkRb7DnW7wsjZw?authuser=0&hl=en&rclk=1",
        "coordinates": {
            "latitude": 27.203133299999998,
            "longitude": 83.51731099999999
        }
    },
    {
        "name": "Masjid pachrukhia",
        "main_category": "Mosque",
        "address": "2JV9+2WG Masjid pachrukhia, Panch Rukhia, Uttar Pradesh 273302",
        "detailed_address": {
            "ward": null,
            "street": "2JV9+2WG",
            "city": "Panch Rukhia",
            "postal_code": "273302",
            "state": "Uttar Pradesh",
            "country_code": "IN"
        },
        "images": [
            {
                "about": "All",
                "link": "https://lh5.googleusercontent.com/p/AF1QipOxahGoPD3u5wRKelRoJO8AQEb4vkmzgGcvAvJh=w529-h298-k-no"
            }
        ],
        "link": "https://www.google.com/maps/place/Masjid+pachrukhia/data=!4m7!3m6!1s0x399401294d074657:0xefbdf9082becf5d0!8m2!3d27.0425623!4d83.6198308!16s%2Fg%2F11rspmrwss!19sChIJV0YHTSkBlDkR0PXsKwj5ve8?authuser=0&hl=en&rclk=1",
        "coordinates": {
            "latitude": 27.0425623,
            "longitude": 83.6198308
        }
    },
    {
        "name": "Masjid Bagapar",
        "main_category": "Mosque",
        "address": "5GX9+HR2 Masjid Bagapar, Bagapar, Uttar Pradesh 273303",
        "detailed_address": {
            "ward": null,
            "street": "5GX9+HR2",
            "city": "Bagapar",
            "postal_code": "273303",
            "state": "Uttar Pradesh",
            "country_code": "IN"
        },
        "images": [],
        "link": "https://www.google.com/maps/place/Masjid+Bagapar/data=!4m7!3m6!1s0x3996a8bac290b20b:0x39d500ac8dc5352f!8m2!3d27.1988898!4d83.5195308!16s%2Fg%2F11g9m96lg0!19sChIJC7KQwrqoljkRLzXFjawA1Tk?authuser=0&hl=en&rclk=1",
        "coordinates": {
            "latitude": 27.1988898,
            "longitude": 83.5195308
        }
    },
    {
        "name": "MASJID-E-BARGADHI (PARTAWAL)",
        "main_category": "Mosque",
        "address": "2H4C+J4V MASJID-E-BARGADHI (PARTAWAL), Bargadahi, Baragadahi, Uttar Pradesh 273301",
        "detailed_address": {
            "ward": null,
            "street": "2H4C+J4V",
            "city": "Bargadahi, Baragadahi",
            "postal_code": "273301",
            "state": "Uttar Pradesh",
            "country_code": "IN"
        },
        "images": [
            {
                "about": "All",
                "link": "https://lh5.googleusercontent.com/p/AF1QipMK4Z9mDWcLvNdqwB1hVuEFKlAuc3SJ2wfbTcN8=w224-h298-k-no"
            },
            {
                "about": "Dome",
                "link": "https://lh5.googleusercontent.com/p/AF1QipOPP5BSGUbhO85TuvEFYVVP8C91zkPyY0K4YKxD=w224-h398-k-no"
            }
        ],
        "link": "https://www.google.com/maps/place/MASJID-E-BARGADHI+%28PARTAWAL%29/data=!4m7!3m6!1s0x39915593e86987bd:0xd721d6fa7301205!8m2!3d27.0066017!4d83.5702959!16s%2Fg%2F11qq69f49q!19sChIJvYdp6JNVkTkRBRIwp28dcg0?authuser=0&hl=en&rclk=1",
        "coordinates": {
            "latitude": 27.006601699999997,
            "longitude": 83.57029589999999
        }
    },
    {
        "name": "msj'id Ausani Dargah",
        "main_category": "Mosque",
        "address": "3F2R+CFC msj'id Ausani Dargah, Khaincha, Uttar Pradesh 273303",
        "detailed_address": {
            "ward": null,
            "street": "3F2R+CFC",
            "city": "Khaincha",
            "postal_code": "273303",
            "state": "Uttar Pradesh",
            "country_code": "IN"
        },
        "images": [
            {
                "about": "All",
                "link": "https://lh5.googleusercontent.com/p/AF1QipO9W13AU-f-IoJ3D2QXAp4leZpF5i0pYByaRcTy=w224-h298-k-no"
            },
            {
                "about": "Dome",
                "link": "https://lh5.googleusercontent.com/p/AF1QipMQrdN4P0HFjfVBZAqCMZBRjI7LVBv6JyBYtF8r=w224-h497-k-no"
            }
        ],
        "link": "https://www.google.com/maps/place/%E0%A4%AE%E0%A4%B8%E0%A5%8D%E0%A4%9C%E0%A4%BC%E0%A4%BF%E0%A4%A6+Ausani+Dargah/data=!4m7!3m6!1s0x3996ad11857b6f55:0x161fb551f9bc786!8m2!3d27.0510523!4d83.4911288!16s%2Fg%2F11qqgjkgh4!19sChIJVW97hRGtljkRhsebH1X7YQE?authuser=0&hl=en&rclk=1",
        "coordinates": {
            "latitude": 27.0510523,
            "longitude": 83.4911288
        }
    },
    {
        "name": "Sunni Soharwardi Jama Masjid",
        "main_category": "Mosque",
        "address": "Sunni Soharwardi Jama Masjid, Front of ssb camp, Chiurahan, Rampur Rd, Uttar Pradesh 273303",
        "detailed_address": {
            "ward": null,
            "street": "Front of ssb camp, Chiurahan, Rampur Rd",
            "city": "Chauparia, Maharajganj",
            "postal_code": "273303",
            "state": "Uttar Pradesh",
            "country_code": "IN"
        },
        "images": [
            {
                "about": "All",
                "link": "https://lh5.googleusercontent.com/p/AF1QipM0cC3Y1i-tF0rer7m7YrnA6hcHRewZ3wiH5o6G=w397-h298-k-no"
            },
            {
                "about": "Dome",
                "link": "https://lh5.googleusercontent.com/p/AF1QipN_s5A00sdnt0pH4P6Zv99aziw-505EPssIpSzK=w390-h298-k-no"
            }
        ],
        "link": "https://www.google.com/maps/place/Sunni+Soharwardi+Jama+Masjid/data=!4m7!3m6!1s0x3996a9d38552e627:0x6f678a63897b5e4c!8m2!3d27.1585442!4d83.5535135!16s%2Fg%2F11q2xx1kgh!19sChIJJ-ZShdOpljkRTF57iWOKZ28?authuser=0&hl=en&rclk=1",
        "coordinates": {
            "latitude": 27.158544199999998,
            "longitude": 83.5535135
        }
    },
    {
        "name": "Mohammadi masjid",
        "main_category": "Mosque",
        "address": "5H22+V32 Mohammadi masjid, Chiuraha Khas, Maharajganj, Uttar Pradesh 273303",
        "detailed_address": {
            "ward": null,
            "street": "5H22+V32, Chiuraha Khas",
            "city": "Maharajganj, Chauparia",
            "postal_code": "273303",
            "state": "Uttar Pradesh",
            "country_code": "IN"
        },
        "images": [],
        "link": "https://www.google.com/maps/place/Mohammadi+masjid/data=!4m7!3m6!1s0x3996a9fca2a586b1:0x58f1b1af38f710c8!8m2!3d27.1521357!4d83.5501276!16s%2Fg%2F11q3nxpfxg!19sChIJsYalovypljkRyBD3OK-x8Vg?authuser=0&hl=en&rclk=1",
        "coordinates": {
            "latitude": 27.1521357,
            "longitude": 83.5501276
        }
    },
    {
        "name": "mosque",
        "main_category": "Mosque",
        "address": "5H26+FW3 mosque, Ward No 11, Maupakar, Maharajganj, Uttar Pradesh 273303",
        "detailed_address": {
            "ward": "Ward No 11, Maupakar",
            "street": "5H26+FW3",
            "city": "Maharajganj",
            "postal_code": "273303",
            "state": "Uttar Pradesh",
            "country_code": "IN"
        },
        "images": [
            {
                "about": "All",
                "link": "https://streetviewpixels-pa.googleapis.com/v1/thumbnail?panoid=TLAuISezt9GcNLVwiTCbvQ&cb_client=maps_sv.tactile.gps&w=224&h=298&yaw=342.9666&pitch=0&thumbfov=100"
            },
            {
                "about": "Street View & 360deg",
                "link": "https://streetviewpixels-pa.googleapis.com/v1/thumbnail?panoid=TLAuISezt9GcNLVwiTCbvQ&cb_client=maps_sv.tactile.gps&w=224&h=298&yaw=342.9666&pitch=0&thumbfov=100"
            }
        ],
        "link": "https://www.google.com/maps/place/mosque/data=!4m7!3m6!1s0x3996a9bb0d5e2bf5:0x38aab5e3c466ae61!8m2!3d27.1511293!4d83.5623007!16s%2Fg%2F11c7ssb20y!19sChIJ9SteDbupljkRYa5mxOO1qjg?authuser=0&hl=en&rclk=1",
        "coordinates": {
            "latitude": 27.151129299999997,
            "longitude": 83.5623007
        }
    },
    {
        "name": "msjid bdd'hraa raanii",
        "main_category": "Mosque",
        "address": "5G56+7VR msjid bdd'hraa raanii, Unnamed Road, Jungal Pharjand Ali, Uttar Pradesh 273303",
        "detailed_address": {
            "ward": null,
            "street": "5G56+7VR, Unnamed Road",
            "city": "Jungal Pharjand Ali",
            "postal_code": "273303",
            "state": "Uttar Pradesh",
            "country_code": "IN"
        },
        "images": [
            {
                "about": "All",
                "link": "https://lh5.googleusercontent.com/p/AF1QipOmtrdfMgVJcNRKJLcf-JlynDHBsPgxhXVCcIsj=w224-h298-k-no"
            }
        ],
        "link": "https://www.google.com/maps/place/%E0%A4%AE%E0%A4%B8%E0%A5%8D%E0%A4%9C%E0%A4%BF%E0%A4%A6+%E0%A4%AC%E0%A4%A1%E0%A4%BC%E0%A4%B9%E0%A4%B0%E0%A4%BE+%E0%A4%B0%E0%A4%BE%E0%A4%A8%E0%A5%80/data=!4m7!3m6!1s0x3996a91dd7638a65:0x87b0e020c598fe67!8m2!3d27.1582349!4d83.512144!16s%2Fg%2F11j34hjbp_!19sChIJZYpj1x2pljkRZ_6YxSDgsIc?authuser=0&hl=en&rclk=1",
        "coordinates": {
            "latitude": 27.1582349,
            "longitude": 83.51214399999999
        }
    },
    {
        "name": "Noori Maszid",
        "main_category": "Mosque",
        "address": "2H6F+HW2 Noori Maszid, Belawa Buzurg, Uttar Pradesh 273302",
        "detailed_address": {
            "ward": null,
            "street": "2H6F+HW2",
            "city": "Belawa Buzurg",
            "postal_code": "273302",
            "state": "Uttar Pradesh",
            "country_code": "IN"
        },
        "images": [],
        "link": "https://www.google.com/maps/place/Noori+Maszid/data=!4m7!3m6!1s0x399155d9cb8c9c31:0xbb16a2284f9fab18!8m2!3d27.011399!4d83.574781!16s%2Fg%2F11rq6kq6vv!19sChIJMZyMy9lVkTkRGKufTyiiFrs?authuser=0&hl=en&rclk=1",
        "coordinates": {
            "latitude": 27.011398999999997,
            "longitude": 83.574781
        }
    },
    {
        "name": "Noori Masjid Rampur Buzurg",
        "main_category": "Mosque",
        "address": "5GFR+7M7 Noori Masjid Rampur Buzurg, Rampur Buzurg, Lakhima Tharua, Uttar Pradesh 273303",
        "detailed_address": {
            "ward": null,
            "street": "5GFR+7M7",
            "city": "Rampur Buzurg, Lakhima Tharua",
            "postal_code": "273303",
            "state": "Uttar Pradesh",
            "country_code": "IN"
        },
        "images": [
            {
                "about": "All",
                "link": "https://streetviewpixels-pa.googleapis.com/v1/thumbnail?panoid=Wsw8oN-1WYJMXF1wCxtrlg&cb_client=maps_sv.tactile.gps&w=224&h=298&yaw=147.93279&pitch=0&thumbfov=100"
            },
            {
                "about": "Street View & 360deg",
                "link": "https://streetviewpixels-pa.googleapis.com/v1/thumbnail?panoid=Wsw8oN-1WYJMXF1wCxtrlg&cb_client=maps_sv.tactile.gps&w=224&h=298&yaw=147.93279&pitch=0&thumbfov=100"
            }
        ],
        "link": "https://www.google.com/maps/place/Noori+Masjid+Rampur+Buzurg/data=!4m7!3m6!1s0x3996a90d3305a45d:0xdb3a1e5c3f1ce394!8m2!3d27.173164!4d83.541661!16s%2Fg%2F11n721bbhp!19sChIJXaQFMw2pljkRlOMcP1weOts?authuser=0&hl=en&rclk=1",
        "coordinates": {
            "latitude": 27.173164,
            "longitude": 83.54166099999999
        }
    },
    {
        "name": "Monusameer",
        "main_category": "Mosque",
        "address": "4PV8+4P7 Monusameer, Belwa - Siswa Rd, Kuiyan, Uttar Pradesh 273163",
        "detailed_address": {
            "ward": null,
            "street": "4PV8+4P7, Belwa - Siswa Rd",
            "city": "Kuiyan",
            "postal_code": "273163",
            "state": "Uttar Pradesh",
            "country_code": "IN"
        },
        "images": [],
        "link": "https://www.google.com/maps/place/Monusameer/data=!4m7!3m6!1s0x399405d5008b4139:0x17ab53098ba2e74!8m2!3d27.1427869!4d83.7167879!16s%2Fg%2F11k9k4rj9d!19sChIJOUGLANUFlDkRdC66mDC1egE?authuser=0&hl=en&rclk=1",
        "coordinates": {
            "latitude": 27.142786899999997,
            "longitude": 83.7167879
        }
    },
    {
        "name": "jama mosque",
        "main_category": "Mosque",
        "address": "2HGH+HRC jama mosque, Sisawa Munshi, Uttar Pradesh 273302",
        "detailed_address": {
            "ward": null,
            "street": "2HGH+HRC",
            "city": "Sisawa Munshi",
            "postal_code": "273302",
            "state": "Uttar Pradesh",
            "country_code": "IN"
        },
        "images": [],
        "link": "https://www.google.com/maps/place/jama+mosque/data=!4m7!3m6!1s0x3991554d251bf6b7:0x10ff0f72e6598e9b!8m2!3d27.0264482!4d83.5795105!16s%2Fg%2F11gfk116k5!19sChIJt_YbJU1VkTkRm45Z5nIP_xA?authuser=0&hl=en&rclk=1",
        "coordinates": {
            "latitude": 27.026448199999997,
            "longitude": 83.5795105
        }
    },
    {
        "name": "Shoaib Alam",
        "main_category": "Mosque",
        "address": "Shoaib Alam, Ashok Nagar, Dhnewa Dhanei, Uttar Pradesh 273303",
        "detailed_address": {
            "ward": "Ashok Nagar",
            "street": null,
            "city": "Dhnewa Dhanei",
            "postal_code": "273303",
            "state": "Uttar Pradesh",
            "country_code": "IN"
        },
        "images": [],
        "link": "https://www.google.com/maps/place/Shoaib+Alam/data=!4m7!3m6!1s0x3996a9648b6b5455:0x68820206d8a636af!8m2!3d27.1730799!4d83.5765674!16s%2Fg%2F11nx19fwkx!19sChIJVVRri2SpljkRrzam2AYCgmg?authuser=0&hl=en&rclk=1",
        "coordinates": {
            "latitude": 27.173079899999998,
            "longitude": 83.5765674
        }
    },
    {
        "name": "Makki masjid mkhy msjd",
        "main_category": "Mosque",
        "address": "4HX5+WV9 Makki masjid mkhy msjd, Unnamed Road, Bismil Nagar, Maharajganj, Uttar Pradesh 273303",
        "detailed_address": {
            "ward": "Bismil Nagar",
            "street": "4HX5+WV9, Unnamed Road",
            "city": "Maharajganj",
            "postal_code": "273303",
            "state": "Uttar Pradesh",
            "country_code": "IN"
        },
        "images": [
            {
                "about": "All",
                "link": "https://lh5.googleusercontent.com/p/AF1QipM-SUC5VifbPQYuTrki0FtBJS1WSl14WPfTi4ZX=w224-h298-k-no"
            }
        ],
        "link": "https://www.google.com/maps/place/Makki+masjid+%D9%85%DA%A9%DB%8C+%D9%85%D8%B3%D8%AC%D8%AF%E2%80%AD/data=!4m7!3m6!1s0x3996a9da95d215b5:0xe3f03f7bcd2475ca!8m2!3d27.1497791!4d83.5597497!16s%2Fg%2F11rxrzbpt1!19sChIJtRXSldqpljkRynUkzXs_8OM?authuser=0&hl=en&rclk=1",
        "coordinates": {
            "latitude": 27.1497791,
            "longitude": 83.5597497
        }
    },
    {
        "name": "Masjid E Rahmaniya",
        "main_category": "Mosque",
        "address": "Masjid E Rahmaniya, Patel Nagar ward number 13, Maharajganj, Uttar Pradesh",
        "detailed_address": {
            "ward": null,
            "street": "Patel Nagar ward number 13",
            "city": "Maharajganj, Chauparia",
            "postal_code": null,
            "state": "Uttar Pradesh",
            "country_code": "IN"
        },
        "images": [],
        "link": "https://www.google.com/maps/place/Masjid+E+Rahmaniya/data=!4m7!3m6!1s0x3996a934ea0c9f19:0xf766f05ab9c0f66!8m2!3d27.1513186!4d83.549257!16s%2Fg%2F11h713ycsf!19sChIJGZ8M6jSpljkRZg-cqwVvdg8?authuser=0&hl=en&rclk=1",
        "coordinates": {
            "latitude": 27.1513186,
            "longitude": 83.549257
        }
    },
    {
        "name": "Azizi Masjid",
        "main_category": "Mosque",
        "address": "5H65+2W4 Azizi Masjid, Gabarua, Maharajganj, Uttar Pradesh 273303",
        "detailed_address": {
            "ward": "Gabarua",
            "street": "5H65+2W4",
            "city": "Maharajganj",
            "postal_code": "273303",
            "state": "Uttar Pradesh",
            "country_code": "IN"
        },
        "images": [],
        "link": "https://www.google.com/maps/place/Azizi+Masjid/data=!4m7!3m6!1s0x3996a9b734e61b5b:0x8008477330245fa5!8m2!3d27.1600148!4d83.559837!16s%2Fg%2F11j5s5w1k9!19sChIJWxvmNLepljkRpV8kMHNHCIA?authuser=0&hl=en&rclk=1",
        "coordinates": {
            "latitude": 27.1600148,
            "longitude": 83.559837
        }
    },
    {
        "name": "Masjid",
        "main_category": "Mosque",
        "address": "Masjid, Pant Nagar Ward No 18 Amrutiya Bazar, Nagar Palika Parishad, Anarutia, Maharajganj, Uttar Pradesh 273303",
        "detailed_address": {
            "ward": "Anarutia",
            "street": "Pant Nagar Ward No 18 Amrutiya Bazar, Nagar Palika Parishad",
            "city": "Maharajganj",
            "postal_code": "273303",
            "state": "Uttar Pradesh",
            "country_code": "IN"
        },
        "images": [
            {
                "about": "All",
                "link": "https://lh5.googleusercontent.com/p/AF1QipMdd7lHH_zfsPfKIfChkeIRvD1cWxjE2MrGCPe6=w224-h298-k-no"
            }
        ],
        "link": "https://www.google.com/maps/place/Masjid/data=!4m7!3m6!1s0x3996a99ad6cebddd:0xb8632c590b2ed258!8m2!3d27.1457297!4d83.5666824!16s%2Fg%2F11rss7sn26!19sChIJ3b3O1pqpljkRWNIuC1ksY7g?authuser=0&hl=en&rclk=1",
        "coordinates": {
            "latitude": 27.1457297,
            "longitude": 83.56668239999999
        }
    },
    {
        "name": "Gausul wara Masjid",
        "main_category": "Mosque",
        "address": "4HV6+RWJ Gausul wara Masjid, Lohia Nagar, Bismil Nagar, Maharajganj, Uttar Pradesh 273303",
        "detailed_address": {
            "ward": "Lohia Nagar, Bismil Nagar",
            "street": "4HV6+RWJ",
            "city": "Maharajganj",
            "postal_code": null,
            "state": "Uttar Pradesh",
            "country_code": "IN"
        },
        "images": [
            {
                "about": "All",
                "link": "https://streetviewpixels-pa.googleapis.com/v1/thumbnail?panoid=Xpj48B0_Wmi2ME7fzYMV4g&cb_client=maps_sv.tactile.gps&w=224&h=298&yaw=322.86478&pitch=0&thumbfov=100"
            },
            {
                "about": "Street View & 360deg",
                "link": "https://streetviewpixels-pa.googleapis.com/v1/thumbnail?panoid=Xpj48B0_Wmi2ME7fzYMV4g&cb_client=maps_sv.tactile.gps&w=224&h=298&yaw=322.86478&pitch=0&thumbfov=100"
            }
        ],
        "link": "https://www.google.com/maps/place/Gausul+wara+Masjid/data=!4m7!3m6!1s0x3996a9bd6fadd2c5:0xe09bf575a2fd7a3!8m2!3d27.1445835!4d83.5622505!16s%2Fg%2F11hd1qn0yl!19sChIJxdKtb72pljkRo9cvWle_CQ4?authuser=0&hl=en&rclk=1",
        "coordinates": {
            "latitude": 27.1445835,
            "longitude": 83.56225049999999
        }
    },
    {
        "name": "Lakhima msjid",
        "main_category": "Mosque",
        "address": "Lakhima msjid, Maharajganj, Lakhima Tharua, Uttar Pradesh 273303",
        "detailed_address": {
            "ward": null,
            "street": null,
            "city": "Maharajganj, Lakhima Tharua",
            "postal_code": "273303",
            "state": "Uttar Pradesh",
            "country_code": "IN"
        },
        "images": [],
        "link": "https://www.google.com/maps/place/Lakhima+%E0%A4%AE%E0%A4%B8%E0%A5%8D%E0%A4%9C%E0%A4%BF%E0%A4%A6/data=!4m7!3m6!1s0x3996a90569b361ff:0x9e6b30d75eceeda9!8m2!3d27.1645475!4d83.5374521!16s%2Fg%2F11pzrmhl4f!19sChIJ_2GzaQWpljkRqe3OXtcwa54?authuser=0&hl=en&rclk=1",
        "coordinates": {
            "latitude": 27.164547499999998,
            "longitude": 83.5374521
        }
    },
    {
        "name": "Paschim Tola Masjid",
        "main_category": "Mosque",
        "address": "XHVH+GC7 Paschim Tola Masjid, Bhargawa Urf Laxmipur, Uttar Pradesh 273301",
        "detailed_address": {
            "ward": null,
            "street": "XHVH+GC7",
            "city": "Bhargawa Urf Laxmipur",
            "postal_code": "273301",
            "state": "Uttar Pradesh",
            "country_code": "IN"
        },
        "images": [
            {
                "about": "All",
                "link": "https://lh5.googleusercontent.com/p/AF1QipODdeoKri_Fq1tXgqbOOl2osvjhVEdwUIgQG5jl=w397-h298-k-no"
            }
        ],
        "link": "https://www.google.com/maps/place/Paschim+Tola+Masjid/data=!4m7!3m6!1s0x399155cb1bac8dc3:0x2154885485feeb42!8m2!3d26.9937936!4d83.5785368!16s%2Fg%2F11t88_r3t2!19sChIJw42sG8tVkTkRQuv-hVSIVCE?authuser=0&hl=en&rclk=1",
        "coordinates": {
            "latitude": 26.9937936,
            "longitude": 83.5785368
        }
    },
    {
        "name": "Masjid Patarengava",
        "main_category": "Mosque",
        "address": "5JWM+25W Masjid Patarengava, Mahrajganj, Narayanpur, Uttar Pradesh 272131",
        "detailed_address": {
            "ward": null,
            "street": "5JWM+25W, Mahrajganj",
            "city": "Narayanpur",
            "postal_code": "272131",
            "state": "Uttar Pradesh",
            "country_code": "IN"
        },
        "images": [
            {
                "about": "All",
                "link": "https://lh5.googleusercontent.com/p/AF1QipPlnfTTo9aTKSbG3ZcdTWXpzmLkBexGYlL57pzh=w224-h496-k-no"
            }
        ],
        "link": "https://www.google.com/maps/place/Masjid+Patarengava/data=!4m7!3m6!1s0x399403edaddccfcf:0x3b837f114abbefb7!8m2!3d27.1951099!4d83.6329672!16s%2Fg%2F11r_wsh7gv!19sChIJz8_cre0DlDkRt--7ShF_gzs?authuser=0&hl=en&rclk=1",
        "coordinates": {
            "latitude": 27.1951099,
            "longitude": 83.6329672
        }
    },
    {
        "name": "Masjid",
        "main_category": "Mosque",
        "address": "594V+P2M Masjid, Talhi, Sinhpur Ayodhya, Uttar Pradesh 273162",
        "detailed_address": {
            "ward": null,
            "street": "594V+P2M",
            "city": "Talhi, Sinhpur Ayodhya",
            "postal_code": "273162",
            "state": "Uttar Pradesh",
            "country_code": "IN"
        },
        "images": [
            {
                "about": "All",
                "link": "https://lh5.googleusercontent.com/p/AF1QipNnIV1_SxmtHtqHw2MVh3t_u7l2GGscI8YalhkO=w224-h298-k-no"
            }
        ],
        "link": "https://www.google.com/maps/place/Masjid/data=!4m7!3m6!1s0x3996b135973b933f:0x22bf034c54ddac2a!8m2!3d27.1568291!4d83.3925402!16s%2Fg%2F11rfp4jr30!19sChIJP5M7lzWxljkRKqzdVEwDvyI?authuser=0&hl=en&rclk=1",
        "coordinates": {
            "latitude": 27.1568291,
            "longitude": 83.3925402
        }
    },
    {
        "name": "Masjid Tola",
        "main_category": "Mosque",
        "address": "2MQ7+HVJ Masjid Tola, Unnamed Road, Baragadwa Madhopur, Uttar Pradesh 273151",
        "detailed_address": {
            "ward": null,
            "street": "2MQ7+HVJ, Unnamed Road",
            "city": "Baragadwa Madhopur",
            "postal_code": "273151",
            "state": "Uttar Pradesh",
            "country_code": "IN"
        },
        "images": [
            {
                "about": "All",
                "link": "https://lh5.googleusercontent.com/p/AF1QipO0ja1kKZuH4d2OASEKSMKalKsK5fCIFbZzB_8=w248-h298-k-no"
            }
        ],
        "link": "https://www.google.com/maps/place/Masjid+Tola/data=!4m7!3m6!1s0x399401e42fef98b1:0xeedee4db6d6171f0!8m2!3d27.0389532!4d83.664636!16s%2Fg%2F11pzkrgf3t!19sChIJsZjvL-QBlDkR8HFhbdvk3u4?authuser=0&hl=en&rclk=1",
        "coordinates": {
            "latitude": 27.038953199999998,
            "longitude": 83.664636
        }
    },
    {
        "name": "Parsameer Masjid",
        "main_category": "Mosque",
        "address": "4G94+3RR Parsameer Masjid, Parsameer, Rodhauli Bhawachak, Uttar Pradesh 273303",
        "detailed_address": {
            "ward": null,
            "street": "4G94+3RR",
            "city": "Parsameer, Rodhauli Bhawachak",
            "postal_code": null,
            "state": "Uttar Pradesh",
            "country_code": "IN"
        },
        "images": [],
        "link": "https://www.google.com/maps/place/Parsameer+Masjid/data=!4m7!3m6!1s0x3996af7e8ee894cd:0x9347ce705e3b9ba8!8m2!3d27.1177463!4d83.5070202!16s%2Fg%2F11f781v0h9!19sChIJzZTojn6vljkRqJs7XnDOR5M?authuser=0&hl=en&rclk=1",
        "coordinates": {
            "latitude": 27.1177463,
            "longitude": 83.5070202
        }
    },
    {
        "name": "Masjide Hera Gopala",
        "main_category": "Mosque",
        "address": "2H33+RJX Masjide Hera Gopala, Barawa Urf Simarahibhar, Uttar Pradesh 273301",
        "detailed_address": {
            "ward": null,
            "street": "2H33+RJX",
            "city": "Barawa Urf Simarahibhar",
            "postal_code": "273301",
            "state": "Uttar Pradesh",
            "country_code": "IN"
        },
        "images": [],
        "link": "https://www.google.com/maps/place/Masjide+Hera+Gopala/data=!4m7!3m6!1s0x399155eba5940f5d:0x3757ecf9523321bb!8m2!3d27.0047143!4d83.5539691!16s%2Fg%2F11ny1rlgky!19sChIJXQ-UpetVkTkRuyEzUvnsVzc?authuser=0&hl=en&rclk=1",
        "coordinates": {
            "latitude": 27.0047143,
            "longitude": 83.5539691
        }
    },
    {
        "name": "MASJID",
        "main_category": "Mosque",
        "address": "5G9J+8J4 MASJID, Lakhima Tharua, Uttar Pradesh 273303",
        "detailed_address": {
            "ward": null,
            "street": "5G9J+8J4",
            "city": "Lakhima Tharua",
            "postal_code": null,
            "state": "Uttar Pradesh",
            "country_code": "IN"
        },
        "images": [
            {
                "about": "All",
                "link": "https://streetviewpixels-pa.googleapis.com/v1/thumbnail?panoid=4fHPhGphlkzMie48cjbDrg&cb_client=maps_sv.tactile.gps&w=224&h=298&yaw=247.32779&pitch=0&thumbfov=100"
            },
            {
                "about": "Street View & 360deg",
                "link": "https://streetviewpixels-pa.googleapis.com/v1/thumbnail?panoid=4fHPhGphlkzMie48cjbDrg&cb_client=maps_sv.tactile.gps&w=224&h=298&yaw=247.32779&pitch=0&thumbfov=100"
            },
            {
                "about": "Videos",
                "link": "https://lh5.googleusercontent.com/p/AF1QipMPCE1ARAbiZeOtEyntJPyFIveVHy6Q7-wjrTv_=w224-h397-k-no"
            }
        ],
        "link": "https://www.google.com/maps/place/MASJID/data=!4m7!3m6!1s0x3996a9842e33783b:0x5698cfca173dd994!8m2!3d27.1682737!4d83.5315689!16s%2Fg%2F11q3yfknkq!19sChIJO3gzLoSpljkRlNk9F8rPmFY?authuser=0&hl=en&rclk=1",
        "coordinates": {
            "latitude": 27.1682737,
            "longitude": 83.5315689
        }
    },
    {
        "name": "Madina Masjid",
        "main_category": "Mosque",
        "address": "4JMC+5XV Madina Masjid, Shikarpur - Senduria Rd, Ballo Khas, Uttar Pradesh 273302",
        "detailed_address": {
            "ward": null,
            "street": "4JMC+5XV, Shikarpur - Senduria Rd",
            "city": "Ballo Khas",
            "postal_code": "273302",
            "state": "Uttar Pradesh",
            "country_code": "IN"
        },
        "images": [
            {
                "about": "All",
                "link": "https://streetviewpixels-pa.googleapis.com/v1/thumbnail?panoid=SyzYlxMS4Z6_mIG4Rwqphg&cb_client=maps_sv.tactile.gps&w=224&h=298&yaw=264.65967&pitch=0&thumbfov=100"
            },
            {
                "about": "Street View & 360deg",
                "link": "https://streetviewpixels-pa.googleapis.com/v1/thumbnail?panoid=SyzYlxMS4Z6_mIG4Rwqphg&cb_client=maps_sv.tactile.gps&w=224&h=298&yaw=264.65967&pitch=0&thumbfov=100"
            }
        ],
        "link": "https://www.google.com/maps/place/Madina+Masjid/data=!4m7!3m6!1s0x39940326ab34869b:0x1f9c53ab960e99ae!8m2!3d27.1329682!4d83.622424!16s%2Fg%2F11rzpb5l6v!19sChIJm4Y0qyYDlDkRrpkOlqtTnB8?authuser=0&hl=en&rclk=1",
        "coordinates": {
            "latitude": 27.1329682,
            "longitude": 83.622424
        }
    },
    {
        "name": "Derwa Eidgah",
        "main_category": "Mosque",
        "address": "2HCP+QJ2 Derwa Eidgah, Unnamed Road, Bishunpur Khurd, Uttar Pradesh 273302",
        "detailed_address": {
            "ward": null,
            "street": "2HCP+QJ2, Unnamed Road",
            "city": "Bishunpur Khurd",
            "postal_code": "273302",
            "state": "Uttar Pradesh",
            "country_code": "IN"
        },
        "images": [],
        "link": "https://www.google.com/maps/place/Derwa+Eidgah/data=!4m7!3m6!1s0x3991553025a67705:0xcfe8deb1dac4144f!8m2!3d27.0218982!4d83.5865114!16s%2Fg%2F11h7ktjr4b!19sChIJBXemJTBVkTkRTxTE2rHe6M8?authuser=0&hl=en&rclk=1",
        "coordinates": {
            "latitude": 27.0218982,
            "longitude": 83.58651139999999
        }
    },
    {
        "name": "Badi Masjid",
        "main_category": "Mosque",
        "address": "4HV6+XV5 Badi Masjid, Veer Bahadur Nagar, Bismil Nagar, Maharajganj, Uttar Pradesh 273303",
        "detailed_address": {
            "ward": "Veer Bahadur Nagar, Bismil Nagar",
            "street": "4HV6+XV5",
            "city": "Maharajganj",
            "postal_code": "273303",
            "state": "Uttar Pradesh",
            "country_code": "IN"
        },
        "images": [
            {
                "about": "All",
                "link": "https://streetviewpixels-pa.googleapis.com/v1/thumbnail?panoid=Rchai0Gy1kkOIT8tZl26Pg&cb_client=maps_sv.tactile.gps&w=224&h=298&yaw=268.7736&pitch=0&thumbfov=100"
            },
            {
                "about": "Street View & 360deg",
                "link": "https://streetviewpixels-pa.googleapis.com/v1/thumbnail?panoid=Rchai0Gy1kkOIT8tZl26Pg&cb_client=maps_sv.tactile.gps&w=224&h=298&yaw=268.7736&pitch=0&thumbfov=100"
            }
        ],
        "link": "https://www.google.com/maps/place/Badi+Masjid/data=!4m7!3m6!1s0x3996a99817e0095b:0x1bcbc00505824bbf!8m2!3d27.1448902!4d83.562232!16s%2Fg%2F11fqcw9fft!19sChIJWwngF5ipljkRv0uCBQXAyxs?authuser=0&hl=en&rclk=1",
        "coordinates": {
            "latitude": 27.1448902,
            "longitude": 83.562232
        }
    },
    {
        "name": "Masjid surhurwa",
        "main_category": "Mosque",
        "address": "4G6G+6GW Masjid surhurwa, Maharajganj, Netasurhurawa, Uttar Pradesh 273303",
        "detailed_address": {
            "ward": null,
            "street": "4G6G+6GW",
            "city": "Maharajganj, Netasurhurawa",
            "postal_code": "273303",
            "state": "Uttar Pradesh",
            "country_code": "IN"
        },
        "images": [],
        "link": "https://www.google.com/maps/place/Masjid+surhurwa/data=!4m7!3m6!1s0x3996ab485e26d4f9:0x1ad7af59d99848f2!8m2!3d27.1106495!4d83.52627!16s%2Fg%2F11sb5bzg2b!19sChIJ-dQmXkirljkR8kiY2Vmv1xo?authuser=0&hl=en&rclk=1",
        "coordinates": {
            "latitude": 27.110649499999997,
            "longitude": 83.52627
        }
    },
    {
        "name": "Islamic house ( Gulamnabi )",
        "main_category": "Mosque",
        "address": "4HV6+RVV Islamic house ( Gulamnabi ), Lohia Nagar, Bismil Nagar, Gopi, Maharajganj, Uttar Pradesh 273303",
        "detailed_address": {
            "ward": "Lohia Nagar, Bismil Nagar",
            "street": "4HV6+RVV",
            "city": "Gopi, Maharajganj",
            "postal_code": "273303",
            "state": "Uttar Pradesh",
            "country_code": "IN"
        },
        "images": [
            {
                "about": "All",
                "link": "https://streetviewpixels-pa.googleapis.com/v1/thumbnail?panoid=6nhCrx-HjTftHlpACi5NZA&cb_client=maps_sv.tactile.gps&w=224&h=298&yaw=51.63318&pitch=0&thumbfov=100"
            },
            {
                "about": "Street View & 360deg",
                "link": "https://streetviewpixels-pa.googleapis.com/v1/thumbnail?panoid=6nhCrx-HjTftHlpACi5NZA&cb_client=maps_sv.tactile.gps&w=224&h=298&yaw=51.63318&pitch=0&thumbfov=100"
            }
        ],
        "link": "https://www.google.com/maps/place/Islamic+house+%28+Gulamnabi+%29/data=!4m7!3m6!1s0x3996a9aef86c11ff:0x9eaf4e5f20e36181!8m2!3d27.1446035!4d83.5621737!16s%2Fg%2F11vhqgm3ct!19sChIJ_xFs-K6pljkRgWHjIF9Or54?authuser=0&hl=en&rclk=1",
        "coordinates": {
            "latitude": 27.1446035,
            "longitude": 83.5621737
        }
    },
    {
        "name": "Aalam ganw Gonda",
        "main_category": "Mosque",
        "address": "4HV6+RVV Aalam ganw Gonda, Lohia Nagar, Bismil Nagar, Maharajganj, Uttar Pradesh 273303",
        "detailed_address": {
            "ward": "Lohia Nagar, Bismil Nagar",
            "street": "4HV6+RVV",
            "city": "Maharajganj",
            "postal_code": null,
            "state": "Uttar Pradesh",
            "country_code": "IN"
        },
        "images": [
            {
                "about": "All",
                "link": "https://streetviewpixels-pa.googleapis.com/v1/thumbnail?panoid=6nhCrx-HjTftHlpACi5NZA&cb_client=maps_sv.tactile.gps&w=224&h=298&yaw=51.63318&pitch=0&thumbfov=100"
            },
            {
                "about": "Street View & 360deg",
                "link": "https://streetviewpixels-pa.googleapis.com/v1/thumbnail?panoid=6nhCrx-HjTftHlpACi5NZA&cb_client=maps_sv.tactile.gps&w=224&h=298&yaw=51.63318&pitch=0&thumbfov=100"
            }
        ],
        "link": "https://www.google.com/maps/place/Aalam+ganw+Gonda/data=!4m7!3m6!1s0x3996a9199c9c21ff:0x43d1fb4bb6e31a56!8m2!3d27.1446035!4d83.5621737!16s%2Fg%2F11tfd8f2f8!19sChIJ_yGcnBmpljkRVhrjtkv70UM?authuser=0&hl=en&rclk=1",
        "coordinates": {
            "latitude": 27.1446035,
            "longitude": 83.5621737
        }
    },
    {
        "name": "Eid Gaaha Patarengava",
        "main_category": "Mosque",
        "address": "5JWM+7GW Eid Gaaha Patarengava, Patarengawa, Maharajganj, Uttar Pradesh 272207",
        "detailed_address": {
            "ward": "Patarengawa",
            "street": "5JWM+7GW",
            "city": "Maharajganj",
            "postal_code": "272207",
            "state": "Uttar Pradesh",
            "country_code": "IN"
        },
        "images": [],
        "link": "https://www.google.com/maps/place/Eid+Gaaha+Patarengava/data=!4m7!3m6!1s0x39940368af2b7915:0xaee07f8990630118!8m2!3d27.1957365!4d83.6338245!16s%2Fg%2F11p66tz8m0!19sChIJFXkrr2gDlDkRGAFjkIl_4K4?authuser=0&hl=en&rclk=1",
        "coordinates": {
            "latitude": 27.1957365,
            "longitude": 83.6338245
        }
    },
    {
        "name": "Amjadi Manzil ( siddiqui family )",
        "main_category": "Mosque",
        "address": "3HV8+G66 Amjadi Manzil ( siddiqui family ), Pakdi Khurd, Maharajganj, Rapur Khurd, Uttar Pradesh 273303",
        "detailed_address": {
            "ward": "Pakdi Khurd",
            "street": "3HV8+G66",
            "city": "Maharajganj, Rapur Khurd",
            "postal_code": "273303",
            "state": "Uttar Pradesh",
            "country_code": "IN"
        },
        "images": [],
        "link": "https://www.google.com/maps/place/Amjadi+Manzil+%28+siddiqui+family+%29/data=!4m7!3m6!1s0x3996aba3159e54ef:0xb029dc8a361a01e!8m2!3d27.0937903!4d83.5655092!16s%2Fg%2F11vhczphxv!19sChIJ71SeFaOrljkRHqBho8idAgs?authuser=0&hl=en&rclk=1",
        "coordinates": {
            "latitude": 27.0937903,
            "longitude": 83.5655092
        }
    },
    {
        "name": "Nijami masjid",
        "main_category": "Mosque",
        "address": "49XP+F6H Nijami masjid, Bargadwa, Uttar Pradesh 273155",
        "detailed_address": {
            "ward": null,
            "street": "49XP+F6H",
            "city": "Bargadwa",
            "postal_code": "273155",
            "state": "Uttar Pradesh",
            "country_code": "IN"
        },
        "images": [
            {
                "about": "All",
                "link": "https://lh5.googleusercontent.com/p/AF1QipO6hYlOJaNjh70kDIJdVYmHNfIstzilsji3ucIw=w662-h298-k-no"
            }
        ],
        "link": "https://www.google.com/maps/place/Nijami+masjid/data=!4m7!3m6!1s0x3996b187cbb601d5:0xdce8e2eabf609cf5!8m2!3d27.1486999!4d83.3856232!16s%2Fg%2F11j0qyh_2r!19sChIJ1QG2y4exljkR9Zxgv-ri6Nw?authuser=0&hl=en&rclk=1",
        "coordinates": {
            "latitude": 27.1486999,
            "longitude": 83.3856232
        }
    },
    {
        "name": "iidgaah baarvaa cmainiyaaN",
        "main_category": "Mosque",
        "address": "2MX7+J6G iidgaah baarvaa cmainiyaaN, Unnamed Road, Barawa Chamainia, Uttar Pradesh 273151",
        "detailed_address": {
            "ward": null,
            "street": "2MX7+J6G, Unnamed Road",
            "city": "Barawa Chamainia",
            "postal_code": "273151",
            "state": "Uttar Pradesh",
            "country_code": "IN"
        },
        "images": [],
        "link": "https://www.google.com/maps/place/%E0%A4%88%E0%A4%A6%E0%A4%97%E0%A4%BE%E0%A4%B9+%E0%A4%AC%E0%A4%BE%E0%A4%B0%E0%A4%B5%E0%A4%BE+%E0%A4%9A%E0%A4%AE%E0%A5%88%E0%A4%A8%E0%A4%BF%E0%A4%AF%E0%A4%BE%E0%A4%82/data=!4m7!3m6!1s0x399401c20ad800cd:0x1b4319132003f552!8m2!3d27.0490633!4d83.663073!16s%2Fg%2F11lfcmq_j0!19sChIJzQDYCsIBlDkRUvUDIBMZQxs?authuser=0&hl=en&rclk=1",
        "coordinates": {
            "latitude": 27.0490633,
            "longitude": 83.663073
        }
    },
    {
        "name": "Masjid Nauka Tola",
        "main_category": "Mosque",
        "address": "2PGR+V8 Masjid Nauka Tola, Nauka Tola, Biraicha, Uttar Pradesh 273151",
        "detailed_address": {
            "ward": null,
            "street": "2PGR+V8 Nauka Tola",
            "city": "Biraicha",
            "postal_code": "273151",
            "state": "Uttar Pradesh",
            "country_code": "IN"
        },
        "images": [],
        "link": "https://www.google.com/maps/place/Masjid+Nauka+Tola/data=!4m7!3m6!1s0x3993f911b9aa8423:0x722260980c5e568e!8m2!3d27.0272226!4d83.7407846!16s%2Fg%2F11p791wnbg!19sChIJI4SquRH5kzkRjlZeDJhgInI?authuser=0&hl=en&rclk=1",
        "coordinates": {
            "latitude": 27.027222599999998,
            "longitude": 83.7407846
        }
    },
    {
        "name": "Gosiya jama masjid",
        "main_category": "Shrine",
        "address": "3GV3+QC9 Gosiya jama masjid, Siswa - Nichlaul Rd, Mahadeva, Siswa, Uttar Pradesh 273303",
        "detailed_address": {
            "ward": null,
            "street": "3GV3+QC9, Siswa - Nichlaul Rd",
            "city": "Mahadeva, Siswa",
            "postal_code": "273303",
            "state": "Uttar Pradesh",
            "country_code": "IN"
        },
        "images": [],
        "link": "https://www.google.com/maps/place/Gosiya+jama+masjid/data=!4m7!3m6!1s0x3996ad121ecb4ae5:0x34d4a0b92590840!8m2!3d27.0944218!4d83.503613!16s%2Fg%2F11rbyypd2d!19sChIJ5UrLHhKtljkRQAhZkgtKTQM?authuser=0&hl=en&rclk=1",
        "coordinates": {
            "latitude": 27.0944218,
            "longitude": 83.503613
        }
    },
    {
        "name": "Jama Masjid Noori Khempipra",
        "main_category": "Mosque",
        "address": "4G3X+QR3 Jama Masjid Noori Khempipra, Khempipara, Kotamukundpur, Uttar Pradesh 273303",
        "detailed_address": {
            "ward": null,
            "street": "4G3X+QR3",
            "city": "Khempipara, Kotamukundpur",
            "postal_code": "273303",
            "state": "Uttar Pradesh",
            "country_code": "IN"
        },
        "images": [
            {
                "about": "All",
                "link": "https://lh5.googleusercontent.com/p/AF1QipPDAi_d5hfEL9kFP-GfbTd9GByYb_RP3z8z3nlz=w397-h298-k-no"
            },
            {
                "about": "Street View & 360deg",
                "link": "https://streetviewpixels-pa.googleapis.com/v1/thumbnail?panoid=Eb59396Lut_UlwtTVCLZTQ&cb_client=maps_sv.tactile.gps&w=224&h=298&yaw=358.34918&pitch=0&thumbfov=100"
            },
            {
                "about": "Videos",
                "link": "https://lh5.googleusercontent.com/p/AF1QipN1gGyfBN4WJ6ybLQsvRHp-gMIE3F_4GBdnViU=w529-h298-k-no"
            }
        ],
        "link": "https://www.google.com/maps/place/Jama+Masjid+Noori+Khempipra/data=!4m7!3m6!1s0x3996abd49862c283:0xeb304b96fa9c9620!8m2!3d27.1043923!4d83.5495465!16s%2Fg%2F11k2c2974y!19sChIJg8JimNSrljkRIJac-pZLMOs?authuser=0&hl=en&rclk=1",
        "coordinates": {
            "latitude": 27.104392299999997,
            "longitude": 83.54954649999999
        }
    },
    {
        "name": "rzaa msjid",
        "main_category": "Mosque",
        "address": "4PWP+VVM rzaa msjid, Belwa, Uttar Pradesh 273163",
        "detailed_address": {
            "ward": null,
            "street": "4PWP+VVM",
            "city": "Belwa",
            "postal_code": null,
            "state": "Uttar Pradesh",
            "country_code": "IN"
        },
        "images": [],
        "link": "https://www.google.com/maps/place/%E0%A4%B0%E0%A5%9B%E0%A4%BE+%E0%A4%AE%E0%A4%B8%E0%A5%8D%E0%A4%9C%E0%A4%BF%E0%A4%A6/data=!4m7!3m6!1s0x3994054c883f57ad:0xd6f106c018764d68!8m2!3d27.1472235!4d83.7371794!16s%2Fg%2F11lsznsbjz!19sChIJrVc_iEwFlDkRaE12GMAG8dY?authuser=0&hl=en&rclk=1",
        "coordinates": {
            "latitude": 27.1472235,
            "longitude": 83.7371794
        }
    },
    {
        "name": "Masjid mohanapur",
        "main_category": "Mosque",
        "address": "5J6H+MWW Masjid mohanapur, Narayanpur, Uttar Pradesh 273207",
        "detailed_address": {
            "ward": null,
            "street": "5J6H+MWW",
            "city": "Narayanpur",
            "postal_code": "273207",
            "state": "Uttar Pradesh",
            "country_code": "IN"
        },
        "images": [
            {
                "about": "All",
                "link": "https://lh5.googleusercontent.com/p/AF1QipMdgrtE5C28lJSKWYeeKf-VwwX7gnvmKIcZAvOm=w529-h298-k-no"
            }
        ],
        "link": "https://www.google.com/maps/place/Masjid+mohanapur/data=!4m7!3m6!1s0x399403dce7403d2d:0x83cda741d13451d1!8m2!3d27.1617497!4d83.6298402!16s%2Fg%2F11m9thhpzm!19sChIJLT1A59wDlDkR0VE00UGnzYM?authuser=0&hl=en&rclk=1",
        "coordinates": {
            "latitude": 27.161749699999998,
            "longitude": 83.62984019999999
        }
    },
    {
        "name": "Katahara khas",
        "main_category": "Mosque",
        "address": "5FCX+XW3 Katahara khas, Katahara Khas, Mahrajganj Forest Range, Uttar Pradesh 273303",
        "detailed_address": {
            "ward": null,
            "street": "5FCX+XW3",
            "city": "Katahara Khas, Mahrajganj Forest Range",
            "postal_code": null,
            "state": "Uttar Pradesh",
            "country_code": "IN"
        },
        "images": [],
        "link": "https://www.google.com/maps/place/Katahara+khas/data=!4m7!3m6!1s0x3996af0cf483b59b:0x55374b14120dfe7b!8m2!3d27.1723842!4d83.4997969!16s%2Fg%2F11tckr0jzb!19sChIJm7WD9AyvljkRe_4NEhRLN1U?authuser=0&hl=en&rclk=1",
        "coordinates": {
            "latitude": 27.1723842,
            "longitude": 83.49979689999999
        }
    },
    {
        "name": "Idgha",
        "main_category": "Mosque",
        "address": "6H4P+4QH Idgha, Panewa Panei, Uttar Pradesh 273303",
        "detailed_address": {
            "ward": null,
            "street": "6H4P+4QH",
            "city": "Panewa Panei",
            "postal_code": "273303",
            "state": "Uttar Pradesh",
            "country_code": "IN"
        },
        "images": [
            {
                "about": "All",
                "link": "https://streetviewpixels-pa.googleapis.com/v1/thumbnail?panoid=SDfxpm0Ua3VKfY2KFo5zmQ&cb_client=maps_sv.tactile.gps&w=224&h=298&yaw=346.9614&pitch=0&thumbfov=100"
            },
            {
                "about": "Street View & 360deg",
                "link": "https://streetviewpixels-pa.googleapis.com/v1/thumbnail?panoid=SDfxpm0Ua3VKfY2KFo5zmQ&cb_client=maps_sv.tactile.gps&w=224&h=298&yaw=346.9614&pitch=0&thumbfov=100"
            }
        ],
        "link": "https://www.google.com/maps/place/Idgha/data=!4m7!3m6!1s0x3996a9261d1b87a5:0xdf1eb3a6ab9d405b!8m2!3d27.2053063!4d83.586998!16s%2Fg%2F11rzgwn714!19sChIJpYcbHSapljkRW0Cdq6azHt8?authuser=0&hl=en&rclk=1",
        "coordinates": {
            "latitude": 27.2053063,
            "longitude": 83.586998
        }
    },
    {
        "name": "Masjid a islamiya",
        "main_category": "Mosque",
        "address": "5J6H+MWX Masjid a islamiya, Mohanapur, Narayanpur, Uttar Pradesh 273207",
        "detailed_address": {
            "ward": null,
            "street": "5J6H+MWX",
            "city": "Mohanapur, Narayanpur",
            "postal_code": "273207",
            "state": "Uttar Pradesh",
            "country_code": "IN"
        },
        "images": [],
        "link": "https://www.google.com/maps/place/Masjid+a+islamiya/data=!4m7!3m6!1s0x3994038a59ed83df:0xa151fca5df5527e9!8m2!3d27.1617349!4d83.629845!16s%2Fg%2F11qyh06l0c!19sChIJ34PtWYoDlDkR6SdV36X8UaE?authuser=0&hl=en&rclk=1",
        "coordinates": {
            "latitude": 27.1617349,
            "longitude": 83.629845
        }
    },
    {
        "name": "Qadri masjid",
        "main_category": "Mosque",
        "address": "4FHV+WC3 Qadri masjid, Pakari Naunia, Uttar Pradesh 273303",
        "detailed_address": {
            "ward": null,
            "street": "4FHV+WC3",
            "city": "Pakari Naunia",
            "postal_code": "273303",
            "state": "Uttar Pradesh",
            "country_code": "IN"
        },
        "images": [],
        "link": "https://www.google.com/maps/place/Qadri+masjid/data=!4m7!3m6!1s0x3996afa44ed79cd7:0x6118b1f9577e2841!8m2!3d27.1297502!4d83.4935426!16s%2Fg%2F11sf41_m3j!19sChIJ15zXTqSvljkRQSh-V_mxGGE?authuser=0&hl=en&rclk=1",
        "coordinates": {
            "latitude": 27.1297502,
            "longitude": 83.4935426
        }
    },
    {
        "name": "Bagapar Lakhanpur Masjid",
        "main_category": "Mosque",
        "address": "6G38+8CP Bagapar Lakhanpur Masjid, Bagapar, Uttar Pradesh 273303",
        "detailed_address": {
            "ward": null,
            "street": "6G38+8CP",
            "city": "Bagapar",
            "postal_code": "273303",
            "state": "Uttar Pradesh",
            "country_code": "IN"
        },
        "images": [
            {
                "about": "All",
                "link": "https://lh5.googleusercontent.com/p/AF1QipPzZvyIZ4zrPYsrrP0J2QDAuCmRy7ip7BSqnGbZ=w403-h298-k-no"
            }
        ],
        "link": "https://www.google.com/maps/place/Bagapar+Lakhanpur+Masjid/data=!4m7!3m6!1s0x3996a91774d683d1:0x31acab141e6cd81b!8m2!3d27.2033325!4d83.5160903!16s%2Fg%2F11tcbrq71v!19sChIJ0YPWdBepljkRG9hsHhSrrDE?authuser=0&hl=en&rclk=1",
        "coordinates": {
            "latitude": 27.2033325,
            "longitude": 83.5160903
        }
    },
    {
        "name": "EIDGAH iidgaah",
        "main_category": "Mosque",
        "address": "2H5M+C5G EIDGAH iidgaah, EIDGAH, Kamhariya Khurd, Uttar Pradesh 273302",
        "detailed_address": {
            "ward": null,
            "street": "2H5M+C5G EIDGAH",
            "city": "Kamhariya Khurd",
            "postal_code": "273302",
            "state": "Uttar Pradesh",
            "country_code": "IN"
        },
        "images": [
            {
                "about": "All",
                "link": "https://lh5.googleusercontent.com/p/AF1QipOye7sXF94iDBKkNMSKv2oZInonCElrEDzyxp9v=w529-h298-k-no"
            }
        ],
        "link": "https://www.google.com/maps/place/EIDGAH+%E0%A4%88%E0%A4%A6%E0%A4%97%E0%A4%BE%E0%A4%B9/data=!4m7!3m6!1s0x399155c2030c718d:0x433aa460e3daf4!8m2!3d27.008557!4d83.582956!16s%2Fg%2F11t5r3w82k!19sChIJjXEMA8JVkTkR9NrjYKQ6QwA?authuser=0&hl=en&rclk=1",
        "coordinates": {
            "latitude": 27.008557,
            "longitude": 83.582956
        }
    }
]