[
    {
        "name": "Makka Masjid",
        "main_category": "Mosque",
        "address": "84PQ+XC7 Makka Masjid, Mahiboob Nagar, Muddebihal, Karnataka 586212",
        "detailed_address": {
            "ward": null,
            "street": "84PQ+XC7, Mahiboob Nagar",
            "city": "Muddebihal",
            "postal_code": "586212",
            "state": "Karnataka",
            "country_code": "IN"
        },
        "images": [
            {
                "about": "All",
                "link": "https://lh5.googleusercontent.com/p/AF1QipPIWIRvUFRJk0s5FM3WVnUfd7cAoFmuLp5lYQk1=w397-h298-k-no"
            },
            {
                "about": "Latest",
                "link": "https://lh5.googleusercontent.com/p/AF1QipNaG7lhg-1M7BlD5KHpqGOGU3g1F0hjQKlO7oFw=w397-h298-k-no"
            },
            {
                "about": "Videos",
                "link": "https://lh5.googleusercontent.com/p/AF1QipNAaOU6sKp_juPptD7saldxz3eCuFtD5iBgtjZ4=w224-h398-k-no"
            },
            {
                "about": "Street View & 360deg",
                "link": "https://streetviewpixels-pa.googleapis.com/v1/thumbnail?panoid=UnyPWVF5J7W2uunq2CPUag&cb_client=maps_sv.tactile.gps&w=224&h=298&yaw=67.09266&pitch=0&thumbfov=100"
            }
        ],
        "link": "https://www.google.com/maps/place/Makka+Masjid/data=!4m7!3m6!1s0x3bc7ec641d4c790f:0xb1d46b6477036c65!8m2!3d16.3374089!4d76.1385315!16s%2Fg%2F11cjpg54wg!19sChIJD3lMHWTsxzsRZWwDd2Rr1LE?authuser=0&hl=en&rclk=1",
        "coordinates": {
            "latitude": 16.3374089,
            "longitude": 76.1385315
        }
    },
    {
        "name": "MASJID E ABUBAKAR",
        "main_category": "Mosque",
        "address": "84MQ+HJF MASJID E ABUBAKAR, Muddebihal, Karnataka 586212",
        "detailed_address": {
            "ward": null,
            "street": "84MQ+HJF",
            "city": "Muddebihal",
            "postal_code": "586212",
            "state": "Karnataka",
            "country_code": "IN"
        },
        "images": [
            {
                "about": "All",
                "link": "https://lh5.googleusercontent.com/p/AF1QipN_PWE7N50_F5GumWC3FwfJqTHHGT-k_XGSXyrv=w529-h298-k-no"
            }
        ],
        "link": "https://www.google.com/maps/place/MASJID+E+ABUBAKAR/data=!4m7!3m6!1s0x3bc7ec6723087ac3:0x95a268c605df299c!8m2!3d16.3339393!4d76.1390541!16s%2Fg%2F11ddzknk7c!19sChIJw3oII2fsxzsRnCnfBcZoopU?authuser=0&hl=en&rclk=1",
        "coordinates": {
            "latitude": 16.3339393,
            "longitude": 76.1390541
        }
    },
    {
        "name": "Madina Masjid",
        "main_category": "Mosque",
        "address": "84VH+HR4 Madina Masjid, Muddebihal, Karnataka 586212",
        "detailed_address": {
            "ward": null,
            "street": "84VH+HR4",
            "city": "Muddebihal",
            "postal_code": "586212",
            "state": "Karnataka",
            "country_code": "IN"
        },
        "images": [
            {
                "about": "All",
                "link": "https://lh5.googleusercontent.com/p/AF1QipMklUi3q39EJakKSi9xbHvz0vuK83c-MF20Cgh4=w397-h298-k-no"
            },
            {
                "about": "Dome",
                "link": "https://lh5.googleusercontent.com/p/AF1QipMklUi3q39EJakKSi9xbHvz0vuK83c-MF20Cgh4=w397-h298-k-no"
            },
            {
                "about": "Street View & 360deg",
                "link": "https://streetviewpixels-pa.googleapis.com/v1/thumbnail?panoid=ahec73GebgJ_sJgWpIcvCA&cb_client=maps_sv.tactile.gps&w=224&h=298&yaw=259.78635&pitch=0&thumbfov=100"
            }
        ],
        "link": "https://www.google.com/maps/place/Madina+Masjid/data=!4m7!3m6!1s0x3bc7ec87c9e678dd:0xf3ddbf73942b5c25!8m2!3d16.3438897!4d76.1295736!16s%2Fg%2F11btvlfp00!19sChIJ3XjmyYfsxzsRJVwrlHO_3fM?authuser=0&hl=en&rclk=1",
        "coordinates": {
            "latitude": 16.3438897,
            "longitude": 76.1295736
        }
    },
    {
        "name": "Jamia Masjid(Markass) Muddrbihal",
        "main_category": "Mosque",
        "address": "84PP+35P Jamia Masjid(Markass) Muddrbihal, Muddebihal, Karnataka 586212",
        "detailed_address": {
            "ward": null,
            "street": "84PP+35P",
            "city": "Muddebihal",
            "postal_code": "586212",
            "state": "Karnataka",
            "country_code": "IN"
        },
        "images": [
            {
                "about": "All",
                "link": "https://lh5.googleusercontent.com/p/AF1QipNHmvltgLTCoGJgRc5WLnUFO-0Aj0nypjA7ckLb=w224-h298-k-no"
            }
        ],
        "link": "https://www.google.com/maps/place/Jamia+Masjid%28Markass%29+Muddrbihal/data=!4m7!3m6!1s0x3bc7ec8900000001:0x866fed7e9ba34309!8m2!3d16.3352095!4d76.1354666!16s%2Fg%2F11f0kswqpx!19sChIJAQAAAInsxzsRCUOjm37tb4Y?authuser=0&hl=en&rclk=1",
        "coordinates": {
            "latitude": 16.335209499999998,
            "longitude": 76.1354666
        }
    },
    {
        "name": "Sanddal Masjid",
        "main_category": "Mosque",
        "address": "84QM+989 Sanddal Masjid, Bharpet Galli, SH 124, Muddebihal, Karnataka 586212",
        "detailed_address": {
            "ward": "Mahantesh Nagar",
            "street": "84QM+989, Bharpet Galli, SH 124",
            "city": "Muddebihal",
            "postal_code": "586212",
            "state": "Karnataka",
            "country_code": "IN"
        },
        "images": [
            {
                "about": "All",
                "link": "https://lh5.googleusercontent.com/p/AF1QipOY-VzVPH49lTXFu7Z7gXWNsG7cH8XJq93ogzvv=w397-h298-k-no"
            },
            {
                "about": "Videos",
                "link": "https://lh5.googleusercontent.com/p/AF1QipORv4M02LglQ3xbRB3npx2Qmq_zvbLk7U-itCHb=w530-h298-k-no"
            }
        ],
        "link": "https://www.google.com/maps/place/Sanddal+Masjid/data=!4m7!3m6!1s0x3bc7ec6215380e81:0x66a28599a718ea93!8m2!3d16.3384026!4d76.1333544!16s%2Fg%2F11bx8965_s!19sChIJgQ44FWLsxzsRk-oYp5mFomY?authuser=0&hl=en&rclk=1",
        "coordinates": {
            "latitude": 16.3384026,
            "longitude": 76.1333544
        }
    },
    {
        "name": "Quba masjid",
        "main_category": "Mosque",
        "address": "84MM+FH4 Quba masjid, Sothe galli, SH 124, Muddebihal, Karnataka 586212",
        "detailed_address": {
            "ward": null,
            "street": "84MM+FH4, Sothe galli, SH 124",
            "city": "Muddebihal",
            "postal_code": "586212",
            "state": "Karnataka",
            "country_code": "IN"
        },
        "images": [
            {
                "about": "All",
                "link": "https://streetviewpixels-pa.googleapis.com/v1/thumbnail?panoid=5uZT9VWmxnjTo3QL4-3OvQ&cb_client=maps_sv.tactile.gps&w=224&h=298&yaw=289.64377&pitch=0&thumbfov=100"
            },
            {
                "about": "Street View & 360deg",
                "link": "https://streetviewpixels-pa.googleapis.com/v1/thumbnail?panoid=5uZT9VWmxnjTo3QL4-3OvQ&cb_client=maps_sv.tactile.gps&w=224&h=298&yaw=289.64377&pitch=0&thumbfov=100"
            }
        ],
        "link": "https://www.google.com/maps/place/Quba+masjid/data=!4m7!3m6!1s0x3bc7ec604ee53599:0x7b5047d79964994!8m2!3d16.3336488!4d76.1339617!16s%2Fg%2F11c6qrlj69!19sChIJmTXlTmDsxzsRlEmWeX0EtQc?authuser=0&hl=en&rclk=1",
        "coordinates": {
            "latitude": 16.3336488,
            "longitude": 76.1339617
        }
    },
    {
        "name": "Masjid E Bilal",
        "main_category": "Mosque",
        "address": "84VR+MRF Masjid E Bilal, Muddebihal, Karnataka 586212",
        "detailed_address": {
            "ward": null,
            "street": "84VR+MRF",
            "city": "Muddebihal",
            "postal_code": "586212",
            "state": "Karnataka",
            "country_code": "IN"
        },
        "images": [
            {
                "about": "All",
                "link": "https://lh5.googleusercontent.com/p/AF1QipM8pp91U5P7mAlgNq29SVm2S6Uoo5Kda67-3WVm=w662-h298-k-no"
            },
            {
                "about": "Dome",
                "link": "https://lh5.googleusercontent.com/p/AF1QipPkmc9Uc0yunFxLyHHCFQbnJxcbA7F5eqhFhq4G=w224-h498-k-no"
            },
            {
                "about": "Street View & 360deg",
                "link": "https://streetviewpixels-pa.googleapis.com/v1/thumbnail?panoid=Cq_nb-ypVpbi6ZEj1twvgA&cb_client=maps_sv.tactile.gps&w=224&h=298&yaw=9.7808485&pitch=0&thumbfov=100"
            }
        ],
        "link": "https://www.google.com/maps/place/Masjid+E+Bilal/data=!4m7!3m6!1s0x3bc7ed7823d9b299:0x3ca0d94fe9245389!8m2!3d16.3441894!4d76.1420578!16s%2Fg%2F11fk899861!19sChIJmbLZI3jtxzsRiVMk6U_ZoDw?authuser=0&hl=en&rclk=1",
        "coordinates": {
            "latitude": 16.344189399999998,
            "longitude": 76.1420578
        }
    },
    {
        "name": "Umar Farooq (Ahle Hadees)",
        "main_category": "Mosque",
        "address": "84QM+R62 Umar Farooq (Ahle Hadees), Mahantesh Nagar, Muddebihal, Karnataka 586212",
        "detailed_address": {
            "ward": "Mahantesh Nagar",
            "street": "84QM+R62",
            "city": "Muddebihal",
            "postal_code": "586212",
            "state": "Karnataka",
            "country_code": "IN"
        },
        "images": [
            {
                "about": "All",
                "link": "https://lh5.googleusercontent.com/p/AF1QipOvi8whG4m-ADbimBql9stwfl7dMcjhO81AdMSw=w629-h298-k-no"
            }
        ],
        "link": "https://www.google.com/maps/place/Umar+Farooq+%28Ahle+Hadees%29/data=!4m7!3m6!1s0x3bc7ed8de29a9d57:0x1b2e0b95816bc21a!8m2!3d16.3395127!4d76.1330217!16s%2Fg%2F11f65cstcd!19sChIJV52a4o3txzsRGsJrgZULLhs?authuser=0&hl=en&rclk=1",
        "coordinates": {
            "latitude": 16.3395127,
            "longitude": 76.1330217
        }
    },
    {
        "name": "Aqsa Masjid",
        "main_category": "Mosque",
        "address": "84PH+578 Aqsa Masjid, Muddebihal, Karnataka 586212",
        "detailed_address": {
            "ward": null,
            "street": "84PH+578",
            "city": "Muddebihal",
            "postal_code": "586212",
            "state": "Karnataka",
            "country_code": "IN"
        },
        "images": [
            {
                "about": "All",
                "link": "https://lh5.googleusercontent.com/p/AF1QipMcpY7rH5UBoDTWwbTk1hcvRDnsWZJKEKvF54Op=w224-h298-k-no"
            },
            {
                "about": "Videos",
                "link": "https://lh5.googleusercontent.com/p/AF1QipNQcrir82CgZKHdUzAJ5UrRvAPzLsw4-xL2pRlt=w224-h398-k-no"
            }
        ],
        "link": "https://www.google.com/maps/place/Aqsa+Masjid/data=!4m7!3m6!1s0x3bc7ec8bc7befb71:0x3885f52e858a6b7a!8m2!3d16.3354015!4d76.1282146!16s%2Fg%2F11cspzm09f!19sChIJcfu-x4vsxzsRemuKhS71hTg?authuser=0&hl=en&rclk=1",
        "coordinates": {
            "latitude": 16.3354015,
            "longitude": 76.12821459999999
        }
    },
    {
        "name": "Meena Masjid",
        "main_category": "Mosque",
        "address": "Meena Masjid, Sangmesh Nagar, Road, near Tangadgi, Muddebihal, Karnataka 586212",
        "detailed_address": {
            "ward": null,
            "street": "Sangmesh Nagar, Road, near Tangadgi",
            "city": "Muddebihal",
            "postal_code": null,
            "state": "Karnataka",
            "country_code": "IN"
        },
        "images": [
            {
                "about": "All",
                "link": "https://streetviewpixels-pa.googleapis.com/v1/thumbnail?panoid=bGhc4yPL2qmZJsdkqKVIPA&cb_client=maps_sv.tactile.gps&w=224&h=298&yaw=336.67307&pitch=0&thumbfov=100"
            },
            {
                "about": "Street View & 360deg",
                "link": "https://streetviewpixels-pa.googleapis.com/v1/thumbnail?panoid=bGhc4yPL2qmZJsdkqKVIPA&cb_client=maps_sv.tactile.gps&w=224&h=298&yaw=336.67307&pitch=0&thumbfov=100"
            }
        ],
        "link": "https://www.google.com/maps/place/Meena+Masjid/data=!4m7!3m6!1s0x3bc7edb40a3fb3d3:0xef902d5e36cb047a!8m2!3d16.3333536!4d76.1295998!16s%2Fg%2F11gyclx5pq!19sChIJ07M_CrTtxzsRegTLNl4tkO8?authuser=0&hl=en&rclk=1",
        "coordinates": {
            "latitude": 16.3333536,
            "longitude": 76.1295998
        }
    },
    {
        "name": "Muzdalifah masjid",
        "main_category": "Housing society",
        "address": "84MP+CHX Muzdalifah masjid, Muddebihal, Karnataka 586212",
        "detailed_address": {
            "ward": null,
            "street": "84MP+CHX",
            "city": "Muddebihal",
            "postal_code": "586212",
            "state": "Karnataka",
            "country_code": "IN"
        },
        "images": [],
        "link": "https://www.google.com/maps/place/Muzdalifah+masjid/data=!4m7!3m6!1s0x3bc7ed26568e7b85:0x756ce0f0a5bd6bb5!8m2!3d16.3336245!4d76.1364872!16s%2Fg%2F11rrq8r26d!19sChIJhXuOVibtxzsRtWu9pfDgbHU?authuser=0&hl=en&rclk=1",
        "coordinates": {
            "latitude": 16.3336245,
            "longitude": 76.13648719999999
        }
    },
    {
        "name": "Bagwan Masjid Muddebihal",
        "main_category": "Mosque",
        "address": "84PM+2H9 Bagwan Masjid Muddebihal, Muddebihal, Karnataka 586212",
        "detailed_address": {
            "ward": null,
            "street": "84PM+2H9",
            "city": "Muddebihal",
            "postal_code": "586212",
            "state": "Karnataka",
            "country_code": "IN"
        },
        "images": [
            {
                "about": "All",
                "link": "https://lh5.googleusercontent.com/p/AF1QipNNWSZcBnOewB6SmWzrWRvemk0Tlv6Aq8D6B4Tm=w224-h398-k-no"
            },
            {
                "about": "Videos",
                "link": "https://lh5.googleusercontent.com/p/AF1QipNOy5KF89n8O2AxloTSMGJeMtH0zopCLsO270Lc=w224-h395-k-no"
            }
        ],
        "link": "https://www.google.com/maps/place/Bagwan+Masjid+Muddebihal/data=!4m7!3m6!1s0x3bc7ed35e07538f9:0x59773f739dd7ccb3!8m2!3d16.3350333!4d76.1339852!16s%2Fg%2F11h7dcyd9w!19sChIJ-Th14DXtxzsRs8zXnXM_d1k?authuser=0&hl=en&rclk=1",
        "coordinates": {
            "latitude": 16.3350333,
            "longitude": 76.1339852
        }
    },
    {
        "name": "Eidgah Maidan Muddebihal",
        "main_category": "Mosque",
        "address": "84RQ+922 Eidgah Maidan Muddebihal, Talikoti Rd, Muddebihal, Karnataka 586212",
        "detailed_address": {
            "ward": null,
            "street": "84RQ+922, Talikoti Rd",
            "city": "Muddebihal",
            "postal_code": "586212",
            "state": "Karnataka",
            "country_code": "IN"
        },
        "images": [
            {
                "about": "All",
                "link": "https://streetviewpixels-pa.googleapis.com/v1/thumbnail?panoid=AcMZdzDHFmcFMeKLZTH-zg&cb_client=maps_sv.tactile.gps&w=224&h=298&yaw=49.734642&pitch=0&thumbfov=100"
            },
            {
                "about": "Street View & 360deg",
                "link": "https://streetviewpixels-pa.googleapis.com/v1/thumbnail?panoid=AcMZdzDHFmcFMeKLZTH-zg&cb_client=maps_sv.tactile.gps&w=224&h=298&yaw=49.734642&pitch=0&thumbfov=100"
            }
        ],
        "link": "https://www.google.com/maps/place/Eidgah+Maidan+Muddebihal/data=!4m7!3m6!1s0x3bc7edd8ac3b7dd1:0x4f488f3654a5dbd7!8m2!3d16.3408758!4d76.1375098!16s%2Fg%2F11sq_z8z0j!19sChIJ0X07rNjtxzsR19ulVDaPSE8?authuser=0&hl=en&rclk=1",
        "coordinates": {
            "latitude": 16.3408758,
            "longitude": 76.13750979999999
        }
    },
    {
        "name": "Masjid-e-Arfat & Arabic Madarsa",
        "main_category": "Mosque",
        "address": "84HH+C84 Masjid-e-Arfat & Arabic Madarsa, Muddebihal, Karnataka 586212",
        "detailed_address": {
            "ward": null,
            "street": "84HH+C84",
            "city": "Muddebihal",
            "postal_code": "586212",
            "state": "Karnataka",
            "country_code": "IN"
        },
        "images": [
            {
                "about": "All",
                "link": "https://lh5.googleusercontent.com/p/AF1QipPW4oBm82NhCE3-H9MX7W2e7eq1_Sk8VoSApnFV=w529-h298-k-no"
            },
            {
                "about": "Street View & 360deg",
                "link": "https://streetviewpixels-pa.googleapis.com/v1/thumbnail?panoid=t1jcz34hBUxQdilSvAZz5w&cb_client=maps_sv.tactile.gps&w=224&h=298&yaw=143.80579&pitch=0&thumbfov=100"
            }
        ],
        "link": "https://www.google.com/maps/place/Masjid-e-Arfat+%26+Arabic+Madarsa/data=!4m7!3m6!1s0x3bc7ed17fc130e5d:0xc7e765f85013afc8!8m2!3d16.327808!4d76.1277742!16s%2Fg%2F11pv257hfz!19sChIJXQ4T_BftxzsRyK8TUPhl58c?authuser=0&hl=en&rclk=1",
        "coordinates": {
            "latitude": 16.327808,
            "longitude": 76.12777419999999
        }
    },
    {
        "name": "Mudddebihal Edga Ground",
        "main_category": "Mosque",
        "address": "84RQ+4XR Mudddebihal Edga Ground, SH 60, Muddebihal, Karnataka 586212",
        "detailed_address": {
            "ward": null,
            "street": "84RQ+4XR, SH 60",
            "city": "Muddebihal",
            "postal_code": "586212",
            "state": "Karnataka",
            "country_code": "IN"
        },
        "images": [
            {
                "about": "All",
                "link": "https://lh5.googleusercontent.com/p/AF1QipM4ZGnSCBrF-MvMe5uj-4g3qWx6d90stpPrf6qa=w224-h298-k-no"
            },
            {
                "about": "Latest",
                "link": "https://lh5.googleusercontent.com/p/AF1QipP1altQiQHcAfZc8kmjTBHzhwUK6xyb7w1hH85U=w224-h398-k-no"
            },
            {
                "about": "Street View & 360deg",
                "link": "https://streetviewpixels-pa.googleapis.com/v1/thumbnail?panoid=NrfLug1ec5fxB8WVzud5GQ&cb_client=maps_sv.tactile.gps&w=224&h=298&yaw=117.58936&pitch=0&thumbfov=100"
            }
        ],
        "link": "https://www.google.com/maps/place/Mudddebihal+Edga+Ground/data=!4m7!3m6!1s0x3bc7edc246d9dc79:0xf03bb33d11179c21!8m2!3d16.3403598!4d76.1399059!16s%2Fg%2F11y1yg3x1l!19sChIJedzZRsLtxzsRIZwXET2zO_A?authuser=0&hl=en&rclk=1",
        "coordinates": {
            "latitude": 16.340359799999998,
            "longitude": 76.1399059
        }
    }
]