[
    {
        "name": "Billanwali Masji blWmsj",
        "main_category": "Mosque",
        "address": "WRR2+JQ2 Billanwali Masji blWmsj, Baddi, Himachal Pradesh 173205",
        "detailed_address": {
            "ward": null,
            "street": "WRR2+JQ2",
            "city": "Baddi",
            "postal_code": "173205",
            "state": "Himachal Pradesh",
            "country_code": "IN"
        },
        "images": [
            {
                "about": "All",
                "link": "https://lh5.googleusercontent.com/p/AF1QipMsMvHfV90diMSsw3HVjD-V3t9CmsBqpAVEy-Ne=w224-h496-k-no"
            },
            {
                "about": "Street View & 360deg",
                "link": "https://streetviewpixels-pa.googleapis.com/v1/thumbnail?panoid=qGjEyfrzye2DFQ3kAm_Vtw&cb_client=maps_sv.tactile.gps&w=224&h=298&yaw=329.3502&pitch=0&thumbfov=100"
            }
        ],
        "link": "https://www.google.com/maps/place/Billanwali+Masji+%D8%A8%D9%84%D9%91%D8%A7%D9%85%D8%B3%D8%AC%E2%80%AD/data=!4m7!3m6!1s0x390ff560b20cedc5:0xc8b970b765b701c8!8m2!3d30.9415085!4d76.8018978!16s%2Fg%2F11by_ymtzd!19sChIJxe0MsmD1DzkRyAG3Zbdwucg?authuser=0&hl=en&rclk=1",
        "coordinates": {
            "latitude": 30.941508499999998,
            "longitude": 76.80189779999999
        }
    },
    {
        "name": "Anwariy",
        "main_category": "Mosque",
        "address": "Anwariy, 132, Haripur Sandoli Bypass Road, Housing Board Phase-3 Haripur Sandoli Bypass Road, Housing Board Phase III St, Baddi, Himachal Pradesh 173205",
        "detailed_address": {
            "ward": null,
            "street": "132, Haripur Sandoli Bypass Road, Housing Board Phase-3 Haripur Sandoli Bypass Road, Housing Board Phase III St",
            "city": "Baddi",
            "postal_code": "173205",
            "state": "Himachal Pradesh",
            "country_code": "IN"
        },
        "images": [
            {
                "about": "All",
                "link": "https://lh5.googleusercontent.com/p/AF1QipOXIKewjHC_ipLh8QRkACHzayS_2R4iJSM7U-UX=w397-h298-k-no"
            },
            {
                "about": "Street View & 360deg",
                "link": "https://streetviewpixels-pa.googleapis.com/v1/thumbnail?panoid=G1rCtvFRfErh42JJP7pO1w&cb_client=maps_sv.tactile.gps&w=224&h=298&yaw=97.49865&pitch=0&thumbfov=100"
            },
            {
                "about": "Videos",
                "link": "https://lh5.googleusercontent.com/p/AF1QipMw5-ZBDMm3WtQNx4jDNUVQ7OgCGkjxvQu0YCmp=w526-h298-k-no"
            }
        ],
        "link": "https://www.google.com/maps/place/Anwariy/data=!4m7!3m6!1s0x390ff56965e5e233:0x2a249e67c9f6d2fc!8m2!3d30.9310078!4d76.7990129!16s%2Fg%2F11g9qfmgg7!19sChIJM-LlZWn1DzkR_NL2yWeeJCo?authuser=0&hl=en&rclk=1",
        "coordinates": {
            "latitude": 30.9310078,
            "longitude": 76.7990129
        }
    },
    {
        "name": "Mosque",
        "main_category": "Mosque",
        "address": "VP5P+7G8 Mosque, Chandigarh Baddi Rd, Siswan, Punjab 140110",
        "detailed_address": {
            "ward": null,
            "street": "VP5P+7G8, Chandigarh Baddi Rd",
            "city": "Siswan",
            "postal_code": "140110",
            "state": "Punjab",
            "country_code": "IN"
        },
        "images": [
            {
                "about": "All",
                "link": "https://lh5.googleusercontent.com/p/AF1QipMx9K-v88CoEM4HRAOHaowoQdDUUqiya6EaIrAd=w224-h298-k-no"
            },
            {
                "about": "Street View & 360deg",
                "link": "https://streetviewpixels-pa.googleapis.com/v1/thumbnail?panoid=2W7iJlRD57WBEPaEreOGfw&cb_client=maps_sv.tactile.gps&w=224&h=298&yaw=281.59775&pitch=0&thumbfov=100"
            }
        ],
        "link": "https://www.google.com/maps/place/Mosque/data=!4m7!3m6!1s0x390ff4024c60cf4b:0xfb2b38c957cbb878!8m2!3d30.8581551!4d76.7363138!16s%2Fg%2F11f4pc3j1j!19sChIJS89gTAL0DzkReLjLV8k4K_s?authuser=0&hl=en&rclk=1",
        "coordinates": {
            "latitude": 30.858155099999998,
            "longitude": 76.73631379999999
        }
    },
    {
        "name": "Jama masjid",
        "main_category": "Mosque",
        "address": "P2HQ+97C Jama masjid, Shahganj, Hindaun, Rajasthan 322230",
        "detailed_address": {
            "ward": "Shahganj",
            "street": "P2HQ+97C",
            "city": "Hindaun",
            "postal_code": "322230",
            "state": "Rajasthan",
            "country_code": "IN"
        },
        "images": [
            {
                "about": "All",
                "link": "https://lh5.googleusercontent.com/p/AF1QipPxsojySxGiak1JygbleyOP-6SseEwE7hjJQ_UX=w224-h398-k-no"
            }
        ],
        "link": "https://www.google.com/maps/place/Jama+masjid/data=!4m7!3m6!1s0x39722fbcb0a74da1:0x43977a226ee4b00!8m2!3d26.7284463!4d77.0381553!16s%2Fg%2F11g719fr22!19sChIJoU2nsLwvcjkRAEvuJqJ3OQQ?authuser=0&hl=en&rclk=1",
        "coordinates": {
            "latitude": 26.728446299999998,
            "longitude": 77.0381553
        }
    },
    {
        "name": "NAGINA MASJID ngiinaa msjid",
        "main_category": "Mosque",
        "address": "P2JM+2R2 NAGINA MASJID ngiinaa msjid, byaaniyaa paaddaa, Hindaun, Rajasthan 322230",
        "detailed_address": {
            "ward": "Baddi Chopar",
            "street": "P2JM+2R2, byaaniyaa paaddaa",
            "city": "Hindaun",
            "postal_code": "322230",
            "state": "Rajasthan",
            "country_code": "IN"
        },
        "images": [
            {
                "about": "All",
                "link": "https://lh5.googleusercontent.com/p/AF1QipMqKASbP-fbwoCc4k0oKWZwYKd5jeS4FYAsKlPM=w529-h298-k-no"
            },
            {
                "about": "Latest",
                "link": "https://lh5.googleusercontent.com/p/AF1QipO0YVpcpHpeqycf5t-DKzOPeV80WRaDvgWtoT0N=w224-h398-k-no"
            }
        ],
        "link": "https://www.google.com/maps/place/NAGINA+MASJID+%E0%A4%A8%E0%A4%97%E0%A5%80%E0%A4%A8%E0%A4%BE+%E0%A4%AE%E0%A4%B8%E0%A5%8D%E0%A4%9C%E0%A4%BF%E0%A4%A6/data=!4m7!3m6!1s0x39722fbd740f3ae5:0x1b76a878cb1db9ee!8m2!3d26.7300094!4d77.0345137!16s%2Fg%2F11f0wnlgmm!19sChIJ5ToPdL0vcjkR7rkdy3iodhs?authuser=0&hl=en&rclk=1",
        "coordinates": {
            "latitude": 26.7300094,
            "longitude": 77.03451369999999
        }
    },
    {
        "name": "MADINA MASJID",
        "main_category": "Mosque",
        "address": "P2JP+44M MADINA MASJID, Madina market Choori Bazaar, Hindaun, Rajasthan 322230",
        "detailed_address": {
            "ward": "Baddi Chopar",
            "street": "P2JP+44M, Madina market Choori Bazaar",
            "city": "Hindaun",
            "postal_code": "322230",
            "state": "Rajasthan",
            "country_code": "IN"
        },
        "images": [
            {
                "about": "All",
                "link": "https://lh5.googleusercontent.com/p/AF1QipPdBJAc-uq_OI-Rsc9QyUBF9CP1RzakRFd_QtbW=w529-h298-k-no"
            }
        ],
        "link": "https://www.google.com/maps/place/MADINA+MASJID/data=!4m7!3m6!1s0x39722fbda75199d9:0xaa7581e0471817ab!8m2!3d26.730347!4d77.0352894!16s%2Fg%2F11gc8jm78s!19sChIJ2ZlRp70vcjkRqxcYR-CBdao?authuser=0&hl=en&rclk=1",
        "coordinates": {
            "latitude": 26.730347,
            "longitude": 77.0352894
        }
    },
    {
        "name": "Madina mosuqe Bhud",
        "main_category": "Mosque",
        "address": "XQ6G+898 Madina mosuqe Bhud, Baddi, Himachal Pradesh 173205",
        "detailed_address": {
            "ward": null,
            "street": "XQ6G+898",
            "city": "Baddi",
            "postal_code": null,
            "state": "Himachal Pradesh",
            "country_code": "IN"
        },
        "images": [
            {
                "about": "All",
                "link": "https://lh5.googleusercontent.com/p/AF1QipOR-kJjAXEr26Gvg1idyiEbSOmzykycCrNtcV2p=w224-h496-k-no"
            },
            {
                "about": "Dome",
                "link": "https://lh5.googleusercontent.com/p/AF1QipMqdC4pU2Jio99Y_QmjP_WeHTOJlLmOD3DRjk2F=w224-h298-k-no"
            },
            {
                "about": "Street View & 360deg",
                "link": "https://streetviewpixels-pa.googleapis.com/v1/thumbnail?panoid=nuPWeNOtYhOSOUh-tHE1RA&cb_client=maps_sv.tactile.gps&w=224&h=298&yaw=239.6688&pitch=0&thumbfov=100"
            }
        ],
        "link": "https://www.google.com/maps/place/Madina+mosuqe+Bhud/data=!4m7!3m6!1s0x39055f6edc5cbefb:0x1a96db1494d5b85a!8m2!3d30.9607815!4d76.7759549!16s%2Fg%2F11fh_wdjc_!19sChIJ-75c3G5fBTkRWrjVlBTblho?authuser=0&hl=en&rclk=1",
        "coordinates": {
            "latitude": 30.9607815,
            "longitude": 76.7759549
        }
    },
    {
        "name": "Peer Baaba",
        "main_category": "Mosque",
        "address": "XQJ3+6J9 Peer Baaba, Kishan Pura, Baddi, Himachal Pradesh 173205",
        "detailed_address": {
            "ward": null,
            "street": "XQJ3+6J9",
            "city": "Kishan Pura, Baddi",
            "postal_code": "173205",
            "state": "Himachal Pradesh",
            "country_code": "IN"
        },
        "images": [],
        "link": "https://www.google.com/maps/place/Peer+Baaba/data=!4m7!3m6!1s0x39055f224a4b587b:0xd34949952d7d026a!8m2!3d30.9805471!4d76.7540995!16s%2Fg%2F11f__b20zg!19sChIJe1hLSiJfBTkRagJ9LZVJSdM?authuser=0&hl=en&rclk=1",
        "coordinates": {
            "latitude": 30.9805471,
            "longitude": 76.7540995
        }
    },
    {
        "name": "Baddi Masjid",
        "main_category": "Mosque",
        "address": "C9JH+4FX Baddi Masjid, Unnamed Road, Sehna, Punjab 148103",
        "detailed_address": {
            "ward": null,
            "street": "C9JH+4FX, Unnamed Road",
            "city": "Sehna",
            "postal_code": "148103",
            "state": "Punjab",
            "country_code": "IN"
        },
        "images": [
            {
                "about": "All",
                "link": "https://lh5.googleusercontent.com/p/AF1QipO5Swdss7_O8nK7eXSAL5GmEvhSKJFAvNMMFGyn=w224-h379-k-no"
            },
            {
                "about": "Dome",
                "link": "https://lh5.googleusercontent.com/p/AF1QipOvf2cEPKAo8AojQldU5tEF90ZZZb_0Dp-JpNdo=w224-h298-k-no"
            }
        ],
        "link": "https://www.google.com/maps/place/Baddi+Masjid/data=!4m7!3m6!1s0x3910ebacd9f2e4df:0xf3ab4f32572d0754!8m2!3d30.4303611!4d75.3787322!16s%2Fg%2F11fd61kjz2!19sChIJ3-Ty2azrEDkRVActVzJPq_M?authuser=0&hl=en&rclk=1",
        "coordinates": {
            "latitude": 30.4303611,
            "longitude": 75.3787322
        }
    },
    {
        "name": "Pilu Wali Masjid Kachhwaya Pada",
        "main_category": "Mosque",
        "address": "P2JP+57W Pilu Wali Masjid Kachhwaya Pada, Baddi Chopar, Hindaun, Rajasthan 322230",
        "detailed_address": {
            "ward": "Baddi Chopar",
            "street": "P2JP+57W",
            "city": "Hindaun",
            "postal_code": "322230",
            "state": "Rajasthan",
            "country_code": "IN"
        },
        "images": [],
        "link": "https://www.google.com/maps/place/Pilu+Wali+Masjid+Kachhwaya+Pada/data=!4m7!3m6!1s0x39722f432e004f15:0xcc9fe571a292ebdb!8m2!3d26.7304909!4d77.0357184!16s%2Fg%2F11fj7_767x!19sChIJFU8ALkMvcjkR2-uSonHln8w?authuser=0&hl=en&rclk=1",
        "coordinates": {
            "latitude": 26.7304909,
            "longitude": 77.0357184
        }
    },
    {
        "name": "MIRZA MASJID",
        "main_category": "Mosque",
        "address": "P2HQ+MG9 MIRZA MASJID, Mirza Para Kumhar mohlla Shahganj, Hindaun, Rajasthan 322230",
        "detailed_address": {
            "ward": "Baddi Chopar",
            "street": "P2HQ+MG9, Mirza Para Kumhar mohlla Shahganj",
            "city": "Hindaun",
            "postal_code": "322230",
            "state": "Rajasthan",
            "country_code": "IN"
        },
        "images": [],
        "link": "https://www.google.com/maps/place/MIRZA+MASJID/data=!4m7!3m6!1s0x39722fbca1bad7f9:0x4b2511144350530c!8m2!3d26.729173!4d77.0388712!16s%2Fg%2F11fx7r8d4h!19sChIJ-de6obwvcjkRDFNQQxQRJUs?authuser=0&hl=en&rclk=1",
        "coordinates": {
            "latitude": 26.729173,
            "longitude": 77.0388712
        }
    },
    {
        "name": "Madina masjid",
        "main_category": "Mosque",
        "address": "WRVM+Q74 Madina masjid, Baddi, Himachal Pradesh 173205",
        "detailed_address": {
            "ward": null,
            "street": "WRVM+Q74",
            "city": "Baddi",
            "postal_code": "173205",
            "state": "Himachal Pradesh",
            "country_code": "IN"
        },
        "images": [
            {
                "about": "All",
                "link": "https://streetviewpixels-pa.googleapis.com/v1/thumbnail?panoid=ZoKw7U0yc8AU7ZE3_4yqZQ&cb_client=maps_sv.tactile.gps&w=224&h=298&yaw=246.32082&pitch=0&thumbfov=100"
            },
            {
                "about": "Street View & 360deg",
                "link": "https://streetviewpixels-pa.googleapis.com/v1/thumbnail?panoid=ZoKw7U0yc8AU7ZE3_4yqZQ&cb_client=maps_sv.tactile.gps&w=224&h=298&yaw=246.32082&pitch=0&thumbfov=100"
            }
        ],
        "link": "https://www.google.com/maps/place/Madina+masjid/data=!4m7!3m6!1s0x390f8b38f4a144d9:0xe4562caad8e8cbe2!8m2!3d30.9443578!4d76.8332451!16s%2Fg%2F11t6r1w4hk!19sChIJ2USh9DiLDzkR4svo2KosVuQ?authuser=0&hl=en&rclk=1",
        "coordinates": {
            "latitude": 30.9443578,
            "longitude": 76.8332451
        }
    },
    {
        "name": "bdd'ii msjid raaypur khurd",
        "main_category": "Mosque",
        "address": "GW25+F5M bdd'ii msjid raaypur khurd, Raipur Khurd, Peepal Khera, Rajasthan 321205",
        "detailed_address": {
            "ward": null,
            "street": "GW25+F5M",
            "city": "Raipur Khurd, Peepal Khera",
            "postal_code": "321205",
            "state": "Rajasthan",
            "country_code": "IN"
        },
        "images": [
            {
                "about": "All",
                "link": "https://lh5.googleusercontent.com/p/AF1QipPYZngch4yMGsNQ8GKql-mucAICexf_j_ror-Oa=w224-h298-k-no"
            },
            {
                "about": "Street View & 360deg",
                "link": "https://streetviewpixels-pa.googleapis.com/v1/thumbnail?panoid=da_LHnSyZ3UPC-smmB0h_A&cb_client=maps_sv.tactile.gps&w=224&h=298&yaw=113.36344&pitch=0&thumbfov=100"
            }
        ],
        "link": "https://www.google.com/maps/place/%E0%A4%AC%E0%A4%A1%E0%A4%BC%E0%A5%80+%E0%A4%AE%E0%A4%B8%E0%A5%8D%E0%A4%9C%E0%A4%BF%E0%A4%A6+%E0%A4%B0%E0%A4%BE%E0%A4%AF%E0%A4%AA%E0%A5%81%E0%A4%B0+%E0%A4%96%E0%A5%81%E0%A4%B0%E0%A5%8D%E0%A4%A6/data=!4m7!3m6!1s0x3972ed7e99be02eb:0x18e60e9a4b15b504!8m2!3d27.5012011!4d76.9079317!16s%2Fg%2F11pxwqtty9!19sChIJ6wK-mX7tcjkRBLUVS5oO5hg?authuser=0&hl=en&rclk=1",
        "coordinates": {
            "latitude": 27.5012011,
            "longitude": 76.90793169999999
        }
    },
    {
        "name": "LAKKAD PUL MOSQUE",
        "main_category": "Mosque",
        "address": "WRJF+HRJ LAKKAD PUL MOSQUE, Baddi - Jhar Majri Rd, Jattimajra, Baddi, Himachal Pradesh 173205",
        "detailed_address": {
            "ward": "Jattimajra",
            "street": "WRJF+HRJ, Baddi - Jhar Majri Rd",
            "city": "Baddi",
            "postal_code": null,
            "state": "Himachal Pradesh",
            "country_code": "IN"
        },
        "images": [],
        "link": "https://www.google.com/maps/place/LAKKAD+PUL+MOSQUE/data=!4m7!3m6!1s0x390ff53985c4a359:0xda28d3144b047604!8m2!3d30.931472!4d76.8245136!16s%2Fg%2F11s662sdw9!19sChIJWaPEhTn1DzkRBHYESxTTKNo?authuser=0&hl=en&rclk=1",
        "coordinates": {
            "latitude": 30.931472,
            "longitude": 76.8245136
        }
    },
    {
        "name": "Masjid msjid",
        "main_category": "Religious destination",
        "address": "Masjid msjid, Auckland Rd, Lohat Baddi, Punjab 148020",
        "detailed_address": {
            "ward": null,
            "street": "Auckland Rd",
            "city": "Lohat Baddi",
            "postal_code": "148020",
            "state": "Punjab",
            "country_code": "IN"
        },
        "images": [
            {
                "about": "All",
                "link": "https://streetviewpixels-pa.googleapis.com/v1/thumbnail?panoid=vtqe1EtB8aVxKFyoI-iXRQ&cb_client=maps_sv.tactile.gps&w=224&h=298&yaw=196.73734&pitch=0&thumbfov=100"
            },
            {
                "about": "Street View & 360deg",
                "link": "https://streetviewpixels-pa.googleapis.com/v1/thumbnail?panoid=vtqe1EtB8aVxKFyoI-iXRQ&cb_client=maps_sv.tactile.gps&w=224&h=298&yaw=196.73734&pitch=0&thumbfov=100"
            }
        ],
        "link": "https://www.google.com/maps/place/Masjid+%E0%A8%AE%E0%A8%B8%E0%A8%9C%E0%A8%BF%E0%A8%A6/data=!4m7!3m6!1s0x3910896aee77279f:0xb24f8d3234a516f4!8m2!3d30.6197525!4d75.7051682!16s%2Fg%2F11j5jrdvwz!19sChIJnyd37mqJEDkR9BalNDKNT7I?authuser=0&hl=en&rclk=1",
        "coordinates": {
            "latitude": 30.619752499999997,
            "longitude": 75.7051682
        }
    },
    {
        "name": "Masjid Dhella",
        "main_category": "Mosque",
        "address": "XQMG+MWQ Masjid Dhella, Dhela, Baddi, Himachal Pradesh 173205",
        "detailed_address": {
            "ward": null,
            "street": "XQMG+MWQ",
            "city": "Dhela, Baddi",
            "postal_code": null,
            "state": "Himachal Pradesh",
            "country_code": "IN"
        },
        "images": [
            {
                "about": "All",
                "link": "https://lh5.googleusercontent.com/p/AF1QipNH2RUC7mAmN4V-mC39dA1MgauUn-etZLlPPbEc=w224-h398-k-no"
            }
        ],
        "link": "https://www.google.com/maps/place/Masjid+Dhella/data=!4m7!3m6!1s0x39055fb58952e711:0xdcc95ca35bb40873!8m2!3d30.9842201!4d76.7773658!16s%2Fg%2F11ryjlbjk8!19sChIJEedSibVfBTkRcwi0W6Ncydw?authuser=0&hl=en&rclk=1",
        "coordinates": {
            "latitude": 30.984220099999998,
            "longitude": 76.7773658
        }
    },
    {
        "name": "Madina masjid",
        "main_category": "Mosque",
        "address": "Madina masjid, Bhatoli kalan, Baddi, Himachal Pradesh 173205",
        "detailed_address": {
            "ward": null,
            "street": "Bhatoli kalan",
            "city": "Baddi",
            "postal_code": "173205",
            "state": "Himachal Pradesh",
            "country_code": "IN"
        },
        "images": [],
        "link": "https://www.google.com/maps/place/Madina+masjid/data=!4m7!3m6!1s0x3905610ccf17bd2f:0xc8fb0ffa866f38f6!8m2!3d30.9587567!4d76.8381303!16s%2Fg%2F11t6mls4s8!19sChIJL70XzwxhBTkR9jhvhvoP-8g?authuser=0&hl=en&rclk=1",
        "coordinates": {
            "latitude": 30.9587567,
            "longitude": 76.8381303
        }
    },
    {
        "name": "Ayesha Masjid",
        "main_category": "Mosque",
        "address": "WRC3+678 Ayesha Masjid, Pinjore - Swarghat Rd, Baddi, Himachal Pradesh 174103",
        "detailed_address": {
            "ward": null,
            "street": "WRC3+678, Pinjore - Swarghat Rd",
            "city": "Baddi",
            "postal_code": "174103",
            "state": "Himachal Pradesh",
            "country_code": "IN"
        },
        "images": [
            {
                "about": "All",
                "link": "https://streetviewpixels-pa.googleapis.com/v1/thumbnail?panoid=tGIvvYiw_GCK1hfJVSkWqg&cb_client=maps_sv.tactile.gps&w=224&h=298&yaw=56.69299&pitch=0&thumbfov=100"
            },
            {
                "about": "Street View & 360deg",
                "link": "https://streetviewpixels-pa.googleapis.com/v1/thumbnail?panoid=tGIvvYiw_GCK1hfJVSkWqg&cb_client=maps_sv.tactile.gps&w=224&h=298&yaw=56.69299&pitch=0&thumbfov=100"
            }
        ],
        "link": "https://www.google.com/maps/place/Ayesha+Masjid/data=!4m7!3m6!1s0x390ff5235a8a3ff3:0x725ebfdd78dbc0f1!8m2!3d30.920892!4d76.8035213!16s%2Fg%2F11vc7tm8_2!19sChIJ8z-KWiP1DzkR8cDbeN2_XnI?authuser=0&hl=en&rclk=1",
        "coordinates": {
            "latitude": 30.920892,
            "longitude": 76.8035213
        }
    },
    {
        "name": "Baddi Masjid Firoj Khan",
        "main_category": "Gym",
        "address": "MR35+G9P Baddi Masjid Firoj Khan, Unnamed Road, Rohira, Punjab 148021",
        "detailed_address": {
            "ward": null,
            "street": "MR35+G9P, Unnamed Road",
            "city": "Rohira",
            "postal_code": "148021",
            "state": "Punjab",
            "country_code": "IN"
        },
        "images": [
            {
                "about": "All",
                "link": "https://lh5.googleusercontent.com/p/AF1QipM8excQpP84zH-5Sifx19WYOyD6q-A4nDLE4Fpq=w224-h298-k-no"
            }
        ],
        "link": "https://www.google.com/maps/place/Baddi+Masjid+Firoj+Khan/data=!4m7!3m6!1s0x391065d16e965b35:0xef1aab2285f9ac20!8m2!3d30.6538357!4d75.8084391!16s%2Fg%2F11hdpbnf9h!19sChIJNVuWbtFlEDkRIKz5hSKrGu8?authuser=0&hl=en&rclk=1",
        "coordinates": {
            "latitude": 30.6538357,
            "longitude": 75.8084391
        }
    },
    {
        "name": "BADI MASZID",
        "main_category": "Mosque",
        "address": "BADI MASZID, Kazi pada, Baddi Chopar, Hindaun, Rajasthan 322230",
        "detailed_address": {
            "ward": "Baddi Chopar",
            "street": "Kazi pada",
            "city": "Hindaun",
            "postal_code": "322230",
            "state": "Rajasthan",
            "country_code": "IN"
        },
        "images": [
            {
                "about": "All",
                "link": "https://lh5.googleusercontent.com/p/AF1QipOsjCKf7SF-D10o5XPeXW9axg3_OiK5scLKat3_=w529-h298-k-no"
            },
            {
                "about": "By owner",
                "link": "https://lh5.googleusercontent.com/p/AF1QipOsjCKf7SF-D10o5XPeXW9axg3_OiK5scLKat3_=w529-h298-k-no"
            }
        ],
        "link": "https://www.google.com/maps/place/BADI+MASZID/data=!4m7!3m6!1s0x39722fef1a8b7cdf:0x6add3551ff035ecd!8m2!3d26.7303331!4d77.039042!16s%2Fg%2F11sxydm1jh!19sChIJ33yLGu8vcjkRzV4D_1E13Wo?authuser=0&hl=en&rclk=1",
        "coordinates": {
            "latitude": 26.7303331,
            "longitude": 77.039042
        }
    }
]