[
    {
        "name": "Haiderpura Masjid",
        "main_category": "Mosque",
        "address": "CF8H+W2Q Haiderpura Masjid, Bari Sadri, Rajasthan 312403",
        "detailed_address": {
            "ward": null,
            "street": "CF8H+W2Q",
            "city": "Bari Sadri",
            "postal_code": "312403",
            "state": "Rajasthan",
            "country_code": "IN"
        },
        "images": [
            {
                "about": "All",
                "link": "https://streetviewpixels-pa.googleapis.com/v1/thumbnail?panoid=J94M1eOARzxJVrU7jm2VUA&cb_client=maps_sv.tactile.gps&w=224&h=298&yaw=111.225624&pitch=0&thumbfov=100"
            },
            {
                "about": "Street View & 360deg",
                "link": "https://streetviewpixels-pa.googleapis.com/v1/thumbnail?panoid=J94M1eOARzxJVrU7jm2VUA&cb_client=maps_sv.tactile.gps&w=224&h=298&yaw=111.225624&pitch=0&thumbfov=100"
            }
        ],
        "link": "https://www.google.com/maps/place/Haiderpura+Masjid/data=!4m7!3m6!1s0x396646ddbdba2b53:0x8b0f7f0e1fc6767f!8m2!3d24.4173481!4d74.4776!16s%2Fg%2F11dxjxrc77!19sChIJUyu6vd1GZjkRf3bGHw5_D4s?authuser=0&hl=en&rclk=1",
        "coordinates": {
            "latitude": 24.417348099999998,
            "longitude": 74.4776
        }
    },
    {
        "name": "Mohammedi Masjid",
        "main_category": "Mosque",
        "address": "CF8H+54M Mohammedi Masjid, Bari Sadri, Rajasthan 312403",
        "detailed_address": {
            "ward": null,
            "street": "CF8H+54M",
            "city": "Bari Sadri",
            "postal_code": "312403",
            "state": "Rajasthan",
            "country_code": "IN"
        },
        "images": [
            {
                "about": "All",
                "link": "https://lh5.googleusercontent.com/p/AF1QipNg_RMaP60tlNiVNXqbkafWN_iaLsfn2KkC-23r=w397-h298-k-no"
            }
        ],
        "link": "https://www.google.com/maps/place/Mohammedi+Masjid/data=!4m7!3m6!1s0x396646dd117940f1:0xb614e779270e32ef!8m2!3d24.4154504!4d74.4777975!16s%2Fg%2F11g6wf21tw!19sChIJ8UB5Ed1GZjkR7zIOJ3nnFLY?authuser=0&hl=en&rclk=1",
        "coordinates": {
            "latitude": 24.415450399999997,
            "longitude": 74.4777975
        }
    },
    {
        "name": "Mansuriyan Masjid",
        "main_category": "Mosque",
        "address": "CF8G+PG6 Mansuriyan Masjid, Bari Sadri, Rajasthan 312403",
        "detailed_address": {
            "ward": null,
            "street": "CF8G+PG6",
            "city": "Bari Sadri",
            "postal_code": "312403",
            "state": "Rajasthan",
            "country_code": "IN"
        },
        "images": [
            {
                "about": "All",
                "link": "https://lh5.googleusercontent.com/p/AF1QipM7Nnxgtd8nv7-VB4xLvCMJJxPEExMqQDDX26Oh=w224-h398-k-no"
            },
            {
                "about": "Street View & 360deg",
                "link": "https://streetviewpixels-pa.googleapis.com/v1/thumbnail?panoid=-LqZ9fP-YgZBMy5-u_xX1Q&cb_client=maps_sv.tactile.gps&w=224&h=298&yaw=148.2122&pitch=0&thumbfov=100"
            },
            {
                "about": "Videos",
                "link": "https://lh5.googleusercontent.com/p/AF1QipPIE_u1lBRwJZA5IeGXS_WyFAv55QcRZr88kOSb=w224-h398-k-no"
            }
        ],
        "link": "https://www.google.com/maps/place/Mansuriyan+Masjid/data=!4m7!3m6!1s0x396646dd8658a007:0xe2a7dade6ca7562b!8m2!3d24.4167793!4d74.476255!16s%2Fg%2F11g723pfr4!19sChIJB6BYht1GZjkRK1anbN7ap-I?authuser=0&hl=en&rclk=1",
        "coordinates": {
            "latitude": 24.416779299999998,
            "longitude": 74.476255
        }
    }
]