[
    {
        "name": "Hazrat Khwaja Hasan Khatib Chishty Rehmatullah Dargah",
        "main_category": "Mosque",
        "address": "Hazrat Khwaja Hasan Khatib Chishty Rehmatullah Dargah, Near Dholka Bus stand, Bekatekri, Maghiya, Dholka, Gujarat 382225",
        "detailed_address": {
            "ward": "Bekatekri, Maghiya",
            "street": "Near Dholka Bus stand",
            "city": "Dholka",
            "postal_code": "382225",
            "state": "Gujarat",
            "country_code": "IN"
        },
        "images": [
            {
                "about": "All",
                "link": "https://lh5.googleusercontent.com/p/AF1QipMUv7RZivJERxrLQRWR6M7W22Es_5OqEIwa9f0R=w529-h298-k-no"
            },
            {
                "about": "Dome",
                "link": "https://lh5.googleusercontent.com/p/AF1QipNZVA1XwCGpXfFIsosEcjx3JDUnYJx3TFpzCUk0=w224-h298-k-no"
            },
            {
                "about": "Videos",
                "link": "https://lh5.googleusercontent.com/p/AF1QipOud3mGSqLMnb995bEM2ZmsAm5gBFdY9hXZoiAJ=w224-h398-k-no"
            },
            {
                "about": "By owner",
                "link": "https://lh5.googleusercontent.com/p/AF1QipPjQiaiw2Zi5gRxMRS7tFDxy8tZxOgwti1KjJCT=w298-h298-k-no"
            },
            {
                "about": "Street View & 360deg",
                "link": "https://lh5.googleusercontent.com/p/AF1QipM0cRo-av9avbeR0XKFZAriXnCjeu0Z9OXloZKk=w224-h298-k-no-pi-10-ya10.999992-ro-0-fo100"
            }
        ],
        "link": "https://www.google.com/maps/place/Hazrat+Khwaja+Hasan+Khatib+Chishty+Rehmatullah+Dargah/data=!4m7!3m6!1s0x395eec85fd3794ed:0x8c91b010da839df3!8m2!3d22.730417!4d72.437095!16s%2Fg%2F12hn2b013!19sChIJ7ZQ3_YXsXjkR852D2hCwkYw?authuser=0&hl=en&rclk=1",
        "coordinates": {
            "latitude": 22.730417,
            "longitude": 72.437095
        }
    },
    {
        "name": "Alif Khan Masjid",
        "main_category": "Historical landmark",
        "address": "Alif Khan Masjid, Maghiya, Dholka, Gujarat 431198",
        "detailed_address": {
            "ward": "Maghiya",
            "street": null,
            "city": "Dholka",
            "postal_code": "431198",
            "state": "Gujarat",
            "country_code": "IN"
        },
        "images": [
            {
                "about": "All",
                "link": "https://lh5.googleusercontent.com/p/AF1QipNmBUYv3HG_iN_M4DV9w_yWhWjqY2BcJNeOF-QG=w397-h298-k-no"
            },
            {
                "about": "Latest",
                "link": "https://lh5.googleusercontent.com/p/AF1QipN-lnHt4p7YtS1je0ycVrhVom8D-g1DRImmO-3r=w397-h298-k-no"
            },
            {
                "about": "Videos",
                "link": "https://lh5.googleusercontent.com/p/AF1QipMkk3oiULmtyYJdg8Qt5jkz3XRoXwR2PLvf8wJ1=w529-h298-k-no"
            },
            {
                "about": "Street View & 360deg",
                "link": "https://lh5.googleusercontent.com/p/AF1QipPTjcWShbYIMvRqWFjDfms0fcvyt81rw-elIweb=w224-h298-k-no-pi-20-ya73.00001-ro-0-fo100"
            }
        ],
        "link": "https://www.google.com/maps/place/Alif+Khan+Masjid/data=!4m7!3m6!1s0x395eec836708b01d:0x7f1c034bf883483e!8m2!3d22.7338556!4d72.4313201!16s%2Fg%2F11f2_v0cy_!19sChIJHbAIZ4PsXjkRPkiD-EsDHH8?authuser=0&hl=en&rclk=1",
        "coordinates": {
            "latitude": 22.7338556,
            "longitude": 72.4313201
        }
    },
    {
        "name": "Bahlol Khan Gazi's Masjid",
        "main_category": "Mosque",
        "address": "Bahlol Khan Gazi's Masjid, Meenaben Tower, Bekatekri, Maghiya, Dholka, Gujarat 382225",
        "detailed_address": {
            "ward": "Bekatekri, Maghiya",
            "street": "Meenaben Tower",
            "city": "Dholka",
            "postal_code": "382225",
            "state": "Gujarat",
            "country_code": "IN"
        },
        "images": [
            {
                "about": "All",
                "link": "https://lh5.googleusercontent.com/p/AF1QipMNMgXYlHcCrErgE61xltD5KnUz4pt3KsJeiyU5=w397-h298-k-no"
            }
        ],
        "link": "https://www.google.com/maps/place/Bahlol+Khan+Gazi%27s+Masjid/data=!4m7!3m6!1s0x395eec8e50f8a81b:0x84d2a5023cdff52a!8m2!3d22.7344765!4d72.4411628!16s%2Fg%2F11clp8dr_q!19sChIJG6j4UI7sXjkRKvXfPAKl0oQ?authuser=0&hl=en&rclk=1",
        "coordinates": {
            "latitude": 22.7344765,
            "longitude": 72.4411628
        }
    },
    {
        "name": "Jumma Masjid Dholka",
        "main_category": "Mosque",
        "address": "PCHR+Q76 Jumma Masjid Dholka, Lilajpur, Dholka, Gujarat 382225",
        "detailed_address": {
            "ward": "Lilajpur",
            "street": "PCHR+Q76",
            "city": "Dholka",
            "postal_code": "382225",
            "state": "Gujarat",
            "country_code": "IN"
        },
        "images": [
            {
                "about": "All",
                "link": "https://lh5.googleusercontent.com/p/AF1QipMnJB1Gj9c2V-EDxv0moRo2yDRABi9BK-3sUT7z=w529-h298-k-no"
            }
        ],
        "link": "https://www.google.com/maps/place/Jumma+Masjid+Dholka/data=!4m7!3m6!1s0x395eec88e008778d:0xf1ce27a5eee67f25!8m2!3d22.7294101!4d72.4406367!16s%2Fg%2F11clw0z8b7!19sChIJjXcI4IjsXjkRJX_m7qUnzvE?authuser=0&hl=en&rclk=1",
        "coordinates": {
            "latitude": 22.7294101,
            "longitude": 72.4406367
        }
    },
    {
        "name": "Babudi Chowk Masjid, Near Mena Ben Tower",
        "main_category": "Mosque",
        "address": "Babudi Chowk Masjid, Near Mena Ben Tower, 382225, Bekatekri, Maghiya, Dholka, Gujarat 382225",
        "detailed_address": {
            "ward": "Bekatekri, Maghiya",
            "street": "382225",
            "city": "Dholka",
            "postal_code": "382225",
            "state": "Gujarat",
            "country_code": "IN"
        },
        "images": [],
        "link": "https://www.google.com/maps/place/Babudi+Chowk+Masjid,+Near+Mena+Ben+Tower/data=!4m7!3m6!1s0x395eec8ee71cfda9:0x683db89201172ca!8m2!3d22.7326573!4d72.4411078!16s%2Fg%2F11fxyrl9hr!19sChIJqf0c547sXjkRynIRIInbgwY?authuser=0&hl=en&rclk=1",
        "coordinates": {
            "latitude": 22.7326573,
            "longitude": 72.4411078
        }
    },
    {
        "name": "Gulliyara Masjid",
        "main_category": "Mosque",
        "address": "PCJV+C5Q Gulliyara Masjid, Muhammadi High School Rd, Lilajpur, Dholka, Gujarat 382225",
        "detailed_address": {
            "ward": "Lilajpur",
            "street": "PCJV+C5Q, Muhammadi High School Rd",
            "city": "Dholka",
            "postal_code": "382225",
            "state": "Gujarat",
            "country_code": "IN"
        },
        "images": [
            {
                "about": "All",
                "link": "https://lh5.googleusercontent.com/p/AF1QipPcWTFFNacGM6t3eJ0WKHWKguv1FfL6HzBgVwKE=w645-h298-k-no"
            },
            {
                "about": "Dome",
                "link": "https://lh5.googleusercontent.com/p/AF1QipPpAPxgTh_2mivciaMWJPKNoqSZYAbFDyru5l8a=w645-h298-k-no"
            }
        ],
        "link": "https://www.google.com/maps/place/Gulliyara+Masjid/data=!4m7!3m6!1s0x395eec8952feefd5:0x5e85c46c4f8a7413!8m2!3d22.7310976!4d72.4429981!16s%2Fg%2F11g6pn7rgn!19sChIJ1e_-UonsXjkRE3SKT2zEhV4?authuser=0&hl=en&rclk=1",
        "coordinates": {
            "latitude": 22.7310976,
            "longitude": 72.4429981
        }
    },
    {
        "name": "Piran Pir Chhilla Masjid",
        "main_category": "Mosque",
        "address": "PCHR+XRW Piran Pir Chhilla Masjid, piran pir chhilla, Muhammadi High School Rd, Lilajpur, Dholka, Gujarat 382225",
        "detailed_address": {
            "ward": "Lilajpur",
            "street": "PCHR+XRW piran pir chhilla, Muhammadi High School Rd",
            "city": "Dholka",
            "postal_code": "382225",
            "state": "Gujarat",
            "country_code": "IN"
        },
        "images": [
            {
                "about": "All",
                "link": "https://lh5.googleusercontent.com/p/AF1QipNE2HnZ_QBuEgj_VAfpenBylOb64HVjhv9vnb_A=w646-h298-k-no"
            },
            {
                "about": "Dome",
                "link": "https://lh5.googleusercontent.com/p/AF1QipNC_gZJB6JaTd4JNzogSv4YL4st6WbPqQSAW0Su=w224-h398-k-no"
            },
            {
                "about": "Videos",
                "link": "https://lh5.googleusercontent.com/p/AF1QipNs9i_jxMzYHszD4cS0SJ1944zbD3Zwn4rBIHU5=w224-h398-k-no"
            },
            {
                "about": "Street View & 360deg",
                "link": "https://streetviewpixels-pa.googleapis.com/v1/thumbnail?panoid=OJK8eS_i8KidQ8mS4Ae5dg&cb_client=maps_sv.tactile.gps&w=224&h=298&yaw=355.88327&pitch=0&thumbfov=100"
            }
        ],
        "link": "https://www.google.com/maps/place/Piran+Pir+Chhilla+Masjid/data=!4m7!3m6!1s0x395eec893f7832f7:0xac8c4fc4ff40174b!8m2!3d22.7299757!4d72.4420932!16s%2Fg%2F11c5b3kgyt!19sChIJ9zJ4P4nsXjkRSxdA_8RPjKw?authuser=0&hl=en&rclk=1",
        "coordinates": {
            "latitude": 22.7299757,
            "longitude": 72.4420932
        }
    },
    {
        "name": "Char Minar Masjid Dholka",
        "main_category": "Mosque",
        "address": "Char Minar Masjid Dholka, G.K, Municipal Hospital Rd, Radhanpuri, Dholka, Gujarat 382225",
        "detailed_address": {
            "ward": "Radhanpuri",
            "street": "G.K, Municipal Hospital Rd",
            "city": "Dholka",
            "postal_code": "382225",
            "state": "Gujarat",
            "country_code": "IN"
        },
        "images": [
            {
                "about": "All",
                "link": "https://lh5.googleusercontent.com/p/AF1QipPOAzs4hjIsJlJ140KuQSBoMYZfDZFUEmKvkfwS=w298-h298-k-no"
            },
            {
                "about": "Videos",
                "link": "https://lh5.googleusercontent.com/p/AF1QipNGrr8bHYwUis9C-R8ihvhOcbLxI6cEOqlhhEUY=w224-h398-k-no"
            }
        ],
        "link": "https://www.google.com/maps/place/Char+Minar+Masjid+Dholka/data=!4m7!3m6!1s0x395eec88451e1cf9:0xba5021df67b71c1a!8m2!3d22.7272064!4d72.4397285!16s%2Fg%2F11dxkxs0nx!19sChIJ-RweRYjsXjkRGhy3Z98hULo?authuser=0&hl=en&rclk=1",
        "coordinates": {
            "latitude": 22.7272064,
            "longitude": 72.4397285
        }
    },
    {
        "name": "Kazi Masjid",
        "main_category": "Mosque",
        "address": "PCGR+4X9 Kazi Masjid, Radhanpuri, Dholka, Gujarat 382225",
        "detailed_address": {
            "ward": "Radhanpuri",
            "street": "PCGR+4X9",
            "city": "Dholka",
            "postal_code": "382225",
            "state": "Gujarat",
            "country_code": "IN"
        },
        "images": [
            {
                "about": "All",
                "link": "https://lh5.googleusercontent.com/p/AF1QipO2C9mfc-KKbGn78kXRl7ZyWIX9jv-27xx3zTxh=w529-h298-k-no"
            },
            {
                "about": "Dome",
                "link": "https://lh5.googleusercontent.com/p/AF1QipMV8FGqKmaG4FfwOuM1P7gmlVN0NXJ5SPlQcEaC=w224-h448-k-no"
            }
        ],
        "link": "https://www.google.com/maps/place/Kazi+Masjid/data=!4m7!3m6!1s0x395eec620983e355:0x115b12eaf5bdccaa!8m2!3d22.7252813!4d72.4424916!16s%2Fg%2F1hm37bb2z!19sChIJVeODCWLsXjkRqsy99eoSWxE?authuser=0&hl=en&rclk=1",
        "coordinates": {
            "latitude": 22.7252813,
            "longitude": 72.4424916
        }
    },
    {
        "name": "Tanka Masjid",
        "main_category": "Mosque",
        "address": "PCGR+443 Tanka Masjid, Lilajpur, Dholka, Gujarat 382225",
        "detailed_address": {
            "ward": "Lilajpur",
            "street": "PCGR+443",
            "city": "Dholka",
            "postal_code": "382225",
            "state": "Gujarat",
            "country_code": "IN"
        },
        "images": [
            {
                "about": "All",
                "link": "https://lh5.googleusercontent.com/p/AF1QipO5Rbv9YSITau1O6ozssLKhcGaE854WpQ5Fkvcm=w397-h298-k-no"
            }
        ],
        "link": "https://www.google.com/maps/place/Tanka+Masjid/data=!4m7!3m6!1s0x395eec8ba326fe21:0xf0ca07f8bfeaaa35!8m2!3d22.7252552!4d72.4403043!16s%2Fg%2F11d_pwt32h!19sChIJIf4mo4vsXjkRNarqv_gHyvA?authuser=0&hl=en&rclk=1",
        "coordinates": {
            "latitude": 22.7252552,
            "longitude": 72.4403043
        }
    },
    {
        "name": "Bhopla Masjid",
        "main_category": "Mosque",
        "address": "PCGP+2XV Bhopla Masjid, Radhanpuri, Dholka, Gujarat 382225",
        "detailed_address": {
            "ward": "Radhanpuri",
            "street": "PCGP+2XV",
            "city": "Dholka",
            "postal_code": "382225",
            "state": "Gujarat",
            "country_code": "IN"
        },
        "images": [
            {
                "about": "All",
                "link": "https://lh5.googleusercontent.com/p/AF1QipM_jrDUax2xvi_E0yroOhLljUW1xBJ2YTSsyaGG=w397-h298-k-no"
            }
        ],
        "link": "https://www.google.com/maps/place/Bhopla+Masjid/data=!4m7!3m6!1s0x395eec87fef083b7:0x8496832f5255e2f6!8m2!3d22.7251029!4d72.4374321!16s%2Fg%2F11crzj45zl!19sChIJt4Pw_ofsXjkR9uJVUi-DloQ?authuser=0&hl=en&rclk=1",
        "coordinates": {
            "latitude": 22.7251029,
            "longitude": 72.4374321
        }
    },
    {
        "name": "Habibi Khadiya Masjid",
        "main_category": "Mosque",
        "address": "PCGR+W79 Habibi Khadiya Masjid, nr.sonarkui, dholka, Radhanpuri, Ahmedabad, Gujarat 382225",
        "detailed_address": {
            "ward": "Radhanpuri",
            "street": "PCGR+W79, nr.sonarkui, dholka",
            "city": "Ahmedabad, Dholka",
            "postal_code": "382225",
            "state": "Gujarat",
            "country_code": "IN"
        },
        "images": [
            {
                "about": "All",
                "link": "https://lh5.googleusercontent.com/p/AF1QipNKssRhEyRHpaI29jynvgOQC98ISqZ4qJ22V21V=w224-h298-k-no"
            },
            {
                "about": "Videos",
                "link": "https://lh5.googleusercontent.com/p/AF1QipOu2K358cAFN-MBT5ZsVuRZRG7NjfvIgXy69Tlv=w224-h398-k-no"
            }
        ],
        "link": "https://www.google.com/maps/place/Habibi+Khadiya+Masjid/data=!4m7!3m6!1s0x395eec89b2ef6a37:0x6cacb5a199d1cf09!8m2!3d22.7272779!4d72.4407306!16s%2Fg%2F11ggs23c22!19sChIJN2rvsonsXjkRCc_RmaG1rGw?authuser=0&hl=en&rclk=1",
        "coordinates": {
            "latitude": 22.7272779,
            "longitude": 72.4407306
        }
    },
    {
        "name": "Moti Masjid Lilajpur",
        "main_category": "Mosque",
        "address": "PCMX+W33 Moti Masjid Lilajpur, Lilajpur, Dholka, Gujarat 382225",
        "detailed_address": {
            "ward": "Lilajpur",
            "street": "PCMX+W33",
            "city": "Dholka",
            "postal_code": "382225",
            "state": "Gujarat",
            "country_code": "IN"
        },
        "images": [
            {
                "about": "All",
                "link": "https://lh5.googleusercontent.com/p/AF1QipN5SheLhyxr3huTwSKMXqNjC1kVAmE8z52WG9I=w397-h298-k-no"
            },
            {
                "about": "Videos",
                "link": "https://lh5.googleusercontent.com/p/AF1QipP7BvSvjI04fpKwPAAnM27u4eemLnIQAqXvd5w9=w541-h298-k-no"
            }
        ],
        "link": "https://www.google.com/maps/place/Moti+Masjid+Lilajpur/data=!4m7!3m6!1s0x395eec8d1e12faef:0xb040ca02d3ee982c!8m2!3d22.7347706!4d72.4476811!16s%2Fg%2F11gczrrmyw!19sChIJ7_oSHo3sXjkRLJju0wLKQLA?authuser=0&hl=en&rclk=1",
        "coordinates": {
            "latitude": 22.734770599999997,
            "longitude": 72.4476811
        }
    },
    {
        "name": "Khadia Masjid Dholka",
        "main_category": "Mosque",
        "address": "PCGR+W7P Khadia Masjid Dholka, Alka Rd, Radhanpuri, Dholka, Gujarat 382225",
        "detailed_address": {
            "ward": "Radhanpuri",
            "street": "PCGR+W7P, Alka Rd",
            "city": "Dholka",
            "postal_code": "382225",
            "state": "Gujarat",
            "country_code": "IN"
        },
        "images": [
            {
                "about": "All",
                "link": "https://lh5.googleusercontent.com/p/AF1QipO2C6S40xHvifWsC1sMptaLIq9OMejwXkKuB2_1=w397-h298-k-no"
            },
            {
                "about": "Dome",
                "link": "https://lh5.googleusercontent.com/p/AF1QipNMyrDSsLf07EPSYyH_Mn5T-YutDTygzpsJRrFc=w397-h298-k-no"
            },
            {
                "about": "Street View & 360deg",
                "link": "https://lh5.googleusercontent.com/p/AF1QipPo8I4oQrR-Ltkeqxqq4dungtXrNuXdSmvtET5R=w224-h298-k-no-pi-10-ya100.49999-ro-0-fo100"
            }
        ],
        "link": "https://www.google.com/maps/place/Khadia+Masjid+Dholka/data=!4m7!3m6!1s0x395eec89add538ed:0xfab13715c562977c!8m2!3d22.7273341!4d72.4406887!16s%2Fg%2F11g6xhg95j!19sChIJ7TjVrYnsXjkRfJdixRU3sfo?authuser=0&hl=en&rclk=1",
        "coordinates": {
            "latitude": 22.7273341,
            "longitude": 72.4406887
        }
    },
    {
        "name": "DADUFALIYA MASJID",
        "main_category": "Mosque",
        "address": "PCFR+J99 DADUFALIYA MASJID, kharakuva, Dholka, Gujarat 382225",
        "detailed_address": {
            "ward": "Radhanpuri",
            "street": "PCFR+J99, kharakuva",
            "city": "Dholka",
            "postal_code": "382225",
            "state": "Gujarat",
            "country_code": "IN"
        },
        "images": [
            {
                "about": "All",
                "link": "https://lh5.googleusercontent.com/p/AF1QipNgh38mulHfgVJZdK1__zO4tY9-JExIlpLj0ncu=w224-h298-k-no"
            }
        ],
        "link": "https://www.google.com/maps/place/DADUFALIYA+MASJID/data=!4m7!3m6!1s0x395eec6267275d73:0xc5d49398a9a409ec!8m2!3d22.7240325!4d72.4409813!16s%2Fg%2F11c2ltmg1v!19sChIJc10nZ2LsXjkR7AmkqZiT1MU?authuser=0&hl=en&rclk=1",
        "coordinates": {
            "latitude": 22.7240325,
            "longitude": 72.44098129999999
        }
    },
    {
        "name": "Hingora Jamadar Masjid",
        "main_category": "Mosque",
        "address": "PCGR+JQP Hingora Jamadar Masjid, Buraj Rd, Radhanpuri, Dholka, Gujarat 382225",
        "detailed_address": {
            "ward": "Radhanpuri",
            "street": "PCGR+JQP, Buraj Rd",
            "city": "Dholka",
            "postal_code": "382225",
            "state": "Gujarat",
            "country_code": "IN"
        },
        "images": [],
        "link": "https://www.google.com/maps/place/Hingora+Jamadar+Masjid/data=!4m7!3m6!1s0x395eec89c1bae2c3:0xce4fb4c296700982!8m2!3d22.7265939!4d72.4419413!16s%2Fg%2F11g8_2zdmt!19sChIJw-K6wYnsXjkRgglwlsK0T84?authuser=0&hl=en&rclk=1",
        "coordinates": {
            "latitude": 22.726593899999997,
            "longitude": 72.4419413
        }
    },
    {
        "name": "QURAISHI MASJID (KASAIWADA)",
        "main_category": "Mosque",
        "address": "PCMR+FF7 QURAISHI MASJID (KASAIWADA), Bekatekri, Maghiya, Dholka, Gujarat 382225",
        "detailed_address": {
            "ward": "Bekatekri, Maghiya",
            "street": "PCMR+FF7",
            "city": "Dholka",
            "postal_code": "382225",
            "state": "Gujarat",
            "country_code": "IN"
        },
        "images": [
            {
                "about": "All",
                "link": "https://lh5.googleusercontent.com/p/AF1QipMEXAUzbPCAwavqC3ho-fHDbK3StZ9gyONz5_UR=w397-h298-k-no"
            }
        ],
        "link": "https://www.google.com/maps/place/QURAISHI+MASJID+%28KASAIWADA%29/data=!4m7!3m6!1s0x395eeda073b67c01:0xb1a2f74fc0711956!8m2!3d22.733667!4d72.441186!16s%2Fg%2F11gv06g0zg!19sChIJAXy2c6DtXjkRVhlxwE_3orE?authuser=0&hl=en&rclk=1",
        "coordinates": {
            "latitude": 22.733667,
            "longitude": 72.441186
        }
    },
    {
        "name": "Dawoodi bohra masjid",
        "main_category": "Mosque",
        "address": "PCHR+HVJ Dawoodi bohra masjid, Moti vohrwad, Dholka, Gujarat 382225",
        "detailed_address": {
            "ward": "Moti vohrwad",
            "street": "PCHR+HVJ",
            "city": "Dholka",
            "postal_code": "382225",
            "state": "Gujarat",
            "country_code": "IN"
        },
        "images": [],
        "link": "https://www.google.com/maps/place/Dawoodi+bohra+masjid/data=!4m7!3m6!1s0x395eed39fbbf0599:0x1edf94a170a8dacb!8m2!3d22.7289698!4d72.4421331!16s%2Fg%2F11gmg1t5vy!19sChIJmQW_-zntXjkRy9qocKGU3x4?authuser=0&hl=en&rclk=1",
        "coordinates": {
            "latitude": 22.728969799999998,
            "longitude": 72.44213309999999
        }
    },
    {
        "name": "Siddiquie Masjid",
        "main_category": "Mosque",
        "address": "PCMQ+WMW Siddiquie Masjid, Bekatekri, Maghiya, Dholka, Gujarat 382225",
        "detailed_address": {
            "ward": "Bekatekri, Maghiya",
            "street": "PCMQ+WMW",
            "city": "Dholka",
            "postal_code": "382225",
            "state": "Gujarat",
            "country_code": "IN"
        },
        "images": [],
        "link": "https://www.google.com/maps/place/Siddiquie+Masjid/data=!4m7!3m6!1s0x395eec8fbe136c07:0x42a5f8d2dcdb251f!8m2!3d22.7348578!4d72.4392145!16s%2Fg%2F11gfgmr09f!19sChIJB2wTvo_sXjkRHyXb3NL4pUI?authuser=0&hl=en&rclk=1",
        "coordinates": {
            "latitude": 22.7348578,
            "longitude": 72.43921449999999
        }
    },
    {
        "name": "Navbaharpir Masjid",
        "main_category": "Mosque",
        "address": "PCGR+7MJ Navbaharpir Masjid, Patelwada, Dholka, Gujarat 382225",
        "detailed_address": {
            "ward": "Patelwada",
            "street": "PCGR+7MJ",
            "city": "Dholka",
            "postal_code": "382225",
            "state": "Gujarat",
            "country_code": "IN"
        },
        "images": [
            {
                "about": "All",
                "link": "https://lh5.googleusercontent.com/p/AF1QipMYyf2p-8Yn8r6t2lJqbu2vqoT8VtQDjZujlac=w397-h298-k-no"
            }
        ],
        "link": "https://www.google.com/maps/place/Navbaharpir+Masjid/data=!4m7!3m6!1s0x395eec8829196e09:0xf34f838dc7af1805!8m2!3d22.7257108!4d72.4416313!16s%2Fg%2F11f3j9z5tl!19sChIJCW4ZKYjsXjkRBRivx42DT_M?authuser=0&hl=en&rclk=1",
        "coordinates": {
            "latitude": 22.725710799999998,
            "longitude": 72.4416313
        }
    },
    {
        "name": "Nagina Sunni Masjid",
        "main_category": "Mosque",
        "address": "Nagina Sunni Masjid, 4/426 piran pir chilla, Tower Bazar Rd, Khamarvada, Dholka, Gujarat 382225",
        "detailed_address": {
            "ward": "Khamarvada",
            "street": "4/426 piran pir chilla, Tower Bazar Rd",
            "city": "Dholka",
            "postal_code": "382225",
            "state": "Gujarat",
            "country_code": "IN"
        },
        "images": [
            {
                "about": "All",
                "link": "https://lh5.googleusercontent.com/p/AF1QipMwWOEi3DIJbeahBExNp-8sGynkkZcwplEmdts4=w661-h298-k-no"
            },
            {
                "about": "Latest",
                "link": "https://lh5.googleusercontent.com/p/AF1QipMwWOEi3DIJbeahBExNp-8sGynkkZcwplEmdts4=w661-h298-k-no"
            }
        ],
        "link": "https://www.google.com/maps/place/Nagina+Sunni+Masjid/data=!4m7!3m6!1s0x395eedb2076c4375:0xbc49ad6cb1318645!8m2!3d22.7305454!4d72.4412016!16s%2Fg%2F11q8pbk6gs!19sChIJdUNsB7LtXjkRRYYxsWytSbw?authuser=0&hl=en&rclk=1",
        "coordinates": {
            "latitude": 22.7305454,
            "longitude": 72.4412016
        }
    },
    {
        "name": "Madarsa Masjid Dholka",
        "main_category": "Place of worship",
        "address": "PCXM+P5M Madarsa Masjid Dholka, Kalikund, Dholka, Gujarat 382225",
        "detailed_address": {
            "ward": "Kalikund",
            "street": "PCXM+P5M",
            "city": "Dholka",
            "postal_code": "382225",
            "state": "Gujarat",
            "country_code": "IN"
        },
        "images": [
            {
                "about": "All",
                "link": "https://streetviewpixels-pa.googleapis.com/v1/thumbnail?panoid=DppTgij3-U41eF_NXI1K1w&cb_client=maps_sv.tactile.gps&w=224&h=298&yaw=106.2552&pitch=0&thumbfov=100"
            },
            {
                "about": "Street View & 360deg",
                "link": "https://streetviewpixels-pa.googleapis.com/v1/thumbnail?panoid=DppTgij3-U41eF_NXI1K1w&cb_client=maps_sv.tactile.gps&w=224&h=298&yaw=106.2552&pitch=0&thumbfov=100"
            }
        ],
        "link": "https://www.google.com/maps/place/Madarsa+Masjid+Dholka/data=!4m7!3m6!1s0x395eeca23973a315:0x74e0565b9c6ffda9!8m2!3d22.7493496!4d72.4329203!16s%2Fg%2F11g8xjwyn1!19sChIJFaNzOaLsXjkRqf1vnFtW4HQ?authuser=0&hl=en&rclk=1",
        "coordinates": {
            "latitude": 22.7493496,
            "longitude": 72.43292029999999
        }
    },
    {
        "name": "Masjid-e-Aman",
        "main_category": "Mosque",
        "address": "Masjid-e-Aman, Aman Park, 12A, Kalikund, Dholka, Gujarat 382225",
        "detailed_address": {
            "ward": "Kalikund",
            "street": "Aman Park, 12A",
            "city": "Dholka",
            "postal_code": "382225",
            "state": "Gujarat",
            "country_code": "IN"
        },
        "images": [
            {
                "about": "All",
                "link": "https://lh5.googleusercontent.com/p/AF1QipP2zz7yZXbWQq2-hP4vlenkFiyDfNlXEFjD-w_M=w397-h298-k-no"
            }
        ],
        "link": "https://www.google.com/maps/place/Masjid-e-Aman/data=!4m7!3m6!1s0x395eed3ae70a3129:0x52b6b6f46c224eba!8m2!3d22.7430926!4d72.4358929!16s%2Fg%2F11s7jv0v01!19sChIJKTEK5zrtXjkRuk4ibPS2tlI?authuser=0&hl=en&rclk=1",
        "coordinates": {
            "latitude": 22.7430926,
            "longitude": 72.4358929
        }
    },
    {
        "name": "Begatekri Masjid",
        "main_category": "Mosque",
        "address": "PCMP+VX3 Begatekri Masjid, near Mamlatdar Office, Bekatekri, Maghiya, Dholka, Gujarat 382225",
        "detailed_address": {
            "ward": "Bekatekri, Maghiya",
            "street": "PCMP+VX3, near Mamlatdar Office",
            "city": "Dholka",
            "postal_code": "382225",
            "state": "Gujarat",
            "country_code": "IN"
        },
        "images": [],
        "link": "https://www.google.com/maps/place/Begatekri+Masjid/data=!4m7!3m6!1s0x395eed0833fb4855:0xd5a3b5a1fc370ce3!8m2!3d22.7345477!4d72.4376263!16s%2Fg%2F11qh413xbr!19sChIJVUj7MwjtXjkR4ww3_KG1o9U?authuser=0&hl=en&rclk=1",
        "coordinates": {
            "latitude": 22.7345477,
            "longitude": 72.43762629999999
        }
    },
    {
        "name": "Madina Masjid",
        "main_category": "Mosque",
        "address": "MFX7+3R3 Madina Masjid, Khokhar Chakla Road,, Dholka, Gujarat 382225",
        "detailed_address": {
            "ward": null,
            "street": "MFX7+3R3, Khokhar Chakla Road,",
            "city": "Dholka, Dholka Rural",
            "postal_code": "382225",
            "state": "Gujarat",
            "country_code": "IN"
        },
        "images": [],
        "link": "https://www.google.com/maps/place/Madina+Masjid/data=!4m7!3m6!1s0x395eec311f6966ad:0xed046ef5ff5fa6b8!8m2!3d22.697633!4d72.4645389!16s%2Fg%2F11c2p5cg84!19sChIJrWZpHzHsXjkRuKZf__VuBO0?authuser=0&hl=en&rclk=1",
        "coordinates": {
            "latitude": 22.697633,
            "longitude": 72.4645389
        }
    },
    {
        "name": "Orda Sunni Masjid",
        "main_category": "Mosque",
        "address": "PCMX+W33 Orda Sunni Masjid, Lilajpur, Dholka, Gujarat 382225",
        "detailed_address": {
            "ward": "Lilajpur",
            "street": "PCMX+W33",
            "city": "Dholka",
            "postal_code": "382225",
            "state": "Gujarat",
            "country_code": "IN"
        },
        "images": [
            {
                "about": "All",
                "link": "https://lh5.googleusercontent.com/p/AF1QipMPzNo5RjH638jnL_thJ4qseB1ZHkYP-60voWo=w397-h298-k-no"
            },
            {
                "about": "Dome",
                "link": "https://lh5.googleusercontent.com/p/AF1QipOiwFBC1glOzBnIz25osoNSHLQflMcOgFFBOJg=w529-h298-k-no"
            }
        ],
        "link": "https://www.google.com/maps/place/Orda+Sunni+Masjid/data=!4m7!3m6!1s0x395eedbae11cb4bf:0x769f234bf5435808!8m2!3d22.7346012!4d72.4472011!16s%2Fg%2F11rpv4q1xc!19sChIJv7Qc4brtXjkRCFhD9Usjn3Y?authuser=0&hl=en&rclk=1",
        "coordinates": {
            "latitude": 22.7346012,
            "longitude": 72.4472011
        }
    },
    {
        "name": "bava fakirat ni masjid (kaji tekra)",
        "main_category": "Mosque",
        "address": "PCFV+HMJ bava fakirat ni masjid (kaji tekra), Diwani Ct Rd, kaji tekra, Dholka, Gujarat 382225",
        "detailed_address": {
            "ward": "kaji tekra",
            "street": "PCFV+HMJ, Diwani Ct Rd",
            "city": "Dholka",
            "postal_code": "382225",
            "state": "Gujarat",
            "country_code": "IN"
        },
        "images": [],
        "link": "https://www.google.com/maps/place/bava+fakirat+ni+masjid+%28kaji+tekra%29/data=!4m7!3m6!1s0x395eed8c36fa5f45:0xb73af2812941172e!8m2!3d22.7239515!4d72.4441463!16s%2Fg%2F11jg1c1df1!19sChIJRV_6NoztXjkRLhdBKYHyOrc?authuser=0&hl=en&rclk=1",
        "coordinates": {
            "latitude": 22.7239515,
            "longitude": 72.4441463
        }
    },
    {
        "name": "Pir Murad Sunni Masjid",
        "main_category": "Mosque",
        "address": "PCMQ+4MR Pir Murad Sunni Masjid, Bekatekri, Munshi Tekra, Dholka, Gujarat 382225",
        "detailed_address": {
            "ward": "Bekatekri, Munshi Tekra",
            "street": "PCMQ+4MR",
            "city": "Dholka",
            "postal_code": "382225",
            "state": "Gujarat",
            "country_code": "IN"
        },
        "images": [
            {
                "about": "All",
                "link": "https://lh5.googleusercontent.com/p/AF1QipMvcc9CBsT2kv8plx8oza6cIsycPjlkxMS_iCo=w529-h298-k-no"
            }
        ],
        "link": "https://www.google.com/maps/place/Pir+Murad+Sunni+Masjid/data=!4m7!3m6!1s0x395eed8086528eb3:0xfb68b578ea8b83fd!8m2!3d22.7328578!4d72.4391801!16s%2Fg%2F11t2z3n_8p!19sChIJs45ShoDtXjkR_YOL6ni1aPs?authuser=0&hl=en&rclk=1",
        "coordinates": {
            "latitude": 22.732857799999998,
            "longitude": 72.4391801
        }
    },
    {
        "name": "Taiwada mosque",
        "main_category": "Mosque",
        "address": "PCGV+F97 Taiwada mosque, Radhanpuri, Dholka, Gujarat 382225",
        "detailed_address": {
            "ward": "Radhanpuri",
            "street": "PCGV+F97",
            "city": "Dholka",
            "postal_code": "382225",
            "state": "Gujarat",
            "country_code": "IN"
        },
        "images": [],
        "link": "https://www.google.com/maps/place/Taiwada+mosque/data=!4m7!3m6!1s0x395eedfa5f3c541f:0xecc525c3f360d377!8m2!3d22.7261604!4d72.4434156!16s%2Fg%2F11qbt7c879!19sChIJH1Q8X_rtXjkRd9Ng88Mlxew?authuser=0&hl=en&rclk=1",
        "coordinates": {
            "latitude": 22.726160399999998,
            "longitude": 72.4434156
        }
    },
    {
        "name": "Fateh Shahid Masjid Sunni",
        "main_category": "Mosque",
        "address": "PCQP+J8C Fateh Shahid Masjid Sunni, Unnamed Road, Maghiya, Dholka, Gujarat 382225",
        "detailed_address": {
            "ward": "Maghiya",
            "street": "PCQP+J8C, Unnamed Road",
            "city": "Dholka",
            "postal_code": "382225",
            "state": "Gujarat",
            "country_code": "IN"
        },
        "images": [
            {
                "about": "All",
                "link": "https://lh5.googleusercontent.com/p/AF1QipM1MyRc5GsGGkWip3UWmTttnupvWmznEHDO0KM=w397-h298-k-no"
            }
        ],
        "link": "https://www.google.com/maps/place/Fateh+Shahid+Masjid+Sunni/data=!4m7!3m6!1s0x395eedcf320c1951:0x7f95af7d7316f584!8m2!3d22.7390635!4d72.4357719!16s%2Fg%2F11rgzkqxst!19sChIJURkMMs_tXjkRhPUWc32vlX8?authuser=0&hl=en&rclk=1",
        "coordinates": {
            "latitude": 22.7390635,
            "longitude": 72.43577189999999
        }
    },
    {
        "name": "Sunahri Masjid Sunni",
        "main_category": "Mosque",
        "address": "PCJQ+HV7 Sunahri Masjid Sunni, LODHI NO LIMADO, Bekatekri, Maghiya, Dholka, Gujarat 382225",
        "detailed_address": {
            "ward": "Bekatekri, Maghiya",
            "street": "PCJQ+HV7 LODHI NO LIMADO",
            "city": "Dholka",
            "postal_code": "382225",
            "state": "Gujarat",
            "country_code": "IN"
        },
        "images": [
            {
                "about": "All",
                "link": "https://lh5.googleusercontent.com/p/AF1QipOro-aYSz_mooubimZ0cvMDLsfBZ-HgJedtWjJO=w224-h397-k-no"
            }
        ],
        "link": "https://www.google.com/maps/place/Sunahri+Masjid+Sunni/data=!4m7!3m6!1s0x395eedebd516bd03:0x5603244238878f99!8m2!3d22.7313728!4d72.4398005!16s%2Fg%2F11tb461kwq!19sChIJA70W1evtXjkRmY-HOEIkA1Y?authuser=0&hl=en&rclk=1",
        "coordinates": {
            "latitude": 22.7313728,
            "longitude": 72.43980049999999
        }
    },
    {
        "name": "Khan Masjid Baithak",
        "main_category": "Historical landmark",
        "address": "PCMJ+HWP Khan Masjid Baithak, Malav Talav Rd, Maghiya, Dholka, Gujarat 382225",
        "detailed_address": {
            "ward": "Maghiya",
            "street": "PCMJ+HWP, Malav Talav Rd",
            "city": "Dholka",
            "postal_code": "382225",
            "state": "Gujarat",
            "country_code": "IN"
        },
        "images": [
            {
                "about": "All",
                "link": "https://lh5.googleusercontent.com/p/AF1QipOOmb_3HiDcEAZ1IHs1ATULcbSLx7Nb1yWDlmMp=w397-h298-k-no"
            },
            {
                "about": "Videos",
                "link": "https://lh5.googleusercontent.com/p/AF1QipPcY01X-GJHCvJ93xDMoyQ24IhLb4YrfWiWPRaZ=w224-h398-k-no"
            }
        ],
        "link": "https://www.google.com/maps/place/Khan+Masjid+Baithak/data=!4m7!3m6!1s0x395eed501fda72b1:0x5394de28ccc9e6bf!8m2!3d22.7332152!4d72.4311561!16s%2Fg%2F11trgtldmp!19sChIJsXLaH1DtXjkRv-bJzCjelFM?authuser=0&hl=en&rclk=1",
        "coordinates": {
            "latitude": 22.7332152,
            "longitude": 72.4311561
        }
    },
    {
        "name": "Kamuvada masjid",
        "main_category": "Mosque",
        "address": "Kamuvada masjid, Main, Atal Sagar Rd, Maghiya, Dholka, Gujarat 382225",
        "detailed_address": {
            "ward": "Maghiya",
            "street": "Main, Atal Sagar Rd",
            "city": "Dholka",
            "postal_code": "382225",
            "state": "Gujarat",
            "country_code": "IN"
        },
        "images": [
            {
                "about": "All",
                "link": "https://lh5.googleusercontent.com/p/AF1QipOFHuc5JHdXqDEvqFA_6FN4vP0DPHUKMv3R6pi8=w662-h298-k-no"
            }
        ],
        "link": "https://www.google.com/maps/place/Kamuvada+masjid/data=!4m7!3m6!1s0x395eed378884e819:0x797ae80dcf00e9d8!8m2!3d22.7358452!4d72.4414548!16s%2Fg%2F11h8b6g9wg!19sChIJGeiEiDftXjkR2OkAzw3oenk?authuser=0&hl=en&rclk=1",
        "coordinates": {
            "latitude": 22.7358452,
            "longitude": 72.4414548
        }
    },
    {
        "name": "Valishah masjid",
        "main_category": "Mosque",
        "address": "PCJW+22F Valishah masjid, Moti Vohrvad, Lilajpur, Dholka, Gujarat 382225",
        "detailed_address": {
            "ward": "Moti Vohrvad, Lilajpur",
            "street": "PCJW+22F",
            "city": "Dholka",
            "postal_code": "382225",
            "state": "Gujarat",
            "country_code": "IN"
        },
        "images": [],
        "link": "https://www.google.com/maps/place/Valishah+masjid/data=!4m7!3m6!1s0x395eed1bfe988149:0x659777ff8184a0ff!8m2!3d22.7300543!4d72.4450467!16s%2Fg%2F11r9vjbqgq!19sChIJSYGY_hvtXjkR_6CEgf93l2U?authuser=0&hl=en&rclk=1",
        "coordinates": {
            "latitude": 22.7300543,
            "longitude": 72.44504669999999
        }
    },
    {
        "name": "Markaj masjid",
        "main_category": "Mosque",
        "address": "PCMR+GQ9 Markaj masjid, Ghanchi Dhal Rd, Bekatekri, Maghiya, Dholka, Gujarat 382225",
        "detailed_address": {
            "ward": "Bekatekri, Maghiya",
            "street": "PCMR+GQ9, Ghanchi Dhal Rd",
            "city": "Dholka",
            "postal_code": "382225",
            "state": "Gujarat",
            "country_code": "IN"
        },
        "images": [
            {
                "about": "All",
                "link": "https://lh5.googleusercontent.com/p/AF1QipNw4bZv4EQctBv0J_iNeZm6HPGf8GhwziqazxXl=w397-h298-k-no"
            }
        ],
        "link": "https://www.google.com/maps/place/Markaj+masjid/data=!4m7!3m6!1s0x395eed08a6e6f837:0x71d87bba5cfaccc8!8m2!3d22.7337918!4d72.4419474!16s%2Fg%2F11txjdc971!19sChIJN_jmpgjtXjkRyMz6XLp72HE?authuser=0&hl=en&rclk=1",
        "coordinates": {
            "latitude": 22.7337918,
            "longitude": 72.4419474
        }
    },
    {
        "name": "Satvata masjid",
        "main_category": "Mosque",
        "address": "PCHW+MHG Satvata masjid, Lilajpur, Dholka, Gujarat 382225",
        "detailed_address": {
            "ward": "Lilajpur",
            "street": "PCHW+MHG",
            "city": "Dholka",
            "postal_code": "382225",
            "state": "Gujarat",
            "country_code": "IN"
        },
        "images": [],
        "link": "https://www.google.com/maps/place/Satvata+masjid/data=!4m7!3m6!1s0x395eed14a1407927:0x8422063ed95fcfba!8m2!3d22.7291883!4d72.4464678!16s%2Fg%2F11jymxbv81!19sChIJJ3lAoRTtXjkRus9f2T4GIoQ?authuser=0&hl=en&rclk=1",
        "coordinates": {
            "latitude": 22.7291883,
            "longitude": 72.4464678
        }
    },
    {
        "name": "Ghazi Masjid , Dholka",
        "main_category": "Mosque",
        "address": "PCQR+66 Ghazi Masjid , Dholka, Maghiya, Dholka, Gujarat 382225",
        "detailed_address": {
            "ward": "Maghiya",
            "street": "PCQR+66",
            "city": "Dholka",
            "postal_code": null,
            "state": "Gujarat",
            "country_code": "IN"
        },
        "images": [
            {
                "about": "All",
                "link": "https://lh5.googleusercontent.com/p/AF1QipP_Cgj3-YpO1Erd8wc_pgQoXIIJ_WDq8XJxJLwW=w662-h298-k-no"
            },
            {
                "about": "Dome",
                "link": "https://lh5.googleusercontent.com/p/AF1QipObi0zBo6r76TVmdqdL5y3JWAxFue3SlfcL5pmG=w662-h298-k-no"
            },
            {
                "about": "Street View & 360deg",
                "link": "https://streetviewpixels-pa.googleapis.com/v1/thumbnail?panoid=e6oEhRQnR3grbb6HuX4XjA&cb_client=maps_sv.tactile.gps&w=224&h=298&yaw=46.953114&pitch=0&thumbfov=100"
            }
        ],
        "link": "https://www.google.com/maps/place/Ghazi+Masjid+,+Dholka/data=!4m7!3m6!1s0x395eed021a078e75:0xbc3750482835f939!8m2!3d22.738015!4d72.440585!16s%2Fg%2F11rn75lsgk!19sChIJdY4HGgLtXjkROfk1KEhQN7w?authuser=0&hl=en&rclk=1",
        "coordinates": {
            "latitude": 22.738014999999997,
            "longitude": 72.440585
        }
    },
    {
        "name": "Sarapur masjid Dholka",
        "main_category": "Mosque",
        "address": "PCHV+7QX Sarapur masjid Dholka, Lilajpur, Sonarkui, Dholka, Gujarat 382225",
        "detailed_address": {
            "ward": "Lilajpur",
            "street": "PCHV+7QX",
            "city": "Sonarkui, Dholka",
            "postal_code": null,
            "state": "Gujarat",
            "country_code": "IN"
        },
        "images": [
            {
                "about": "All",
                "link": "https://lh5.googleusercontent.com/p/AF1QipPoduG2SW3iw5bDMN3Qa_Nf6tie5mvuwI8tHTWx=w662-h298-k-no"
            },
            {
                "about": "Dome",
                "link": "https://lh5.googleusercontent.com/p/AF1QipOYLdsTpMkkGDjJTRHYndVQ_dbLqQlnv0Jte25T=w224-h398-k-no"
            }
        ],
        "link": "https://www.google.com/maps/place/Sarapur+masjid+Dholka/data=!4m7!3m6!1s0x395eeda75f5ee74f:0xc56168adb974ceb3!8m2!3d22.7282404!4d72.4444911!16s%2Fg%2F11v64py1df!19sChIJT-deX6ftXjkRs850ua1oYcU?authuser=0&hl=en&rclk=1",
        "coordinates": {
            "latitude": 22.7282404,
            "longitude": 72.4444911
        }
    },
    {
        "name": "Masjid Islam",
        "main_category": "Mosque",
        "address": "PCPQ+H8 Masjid Islam, Bekatekri, Maghiya, Dholka, Gujarat 382225",
        "detailed_address": {
            "ward": "Bekatekri, Maghiya",
            "street": "PCPQ+H8",
            "city": "Dholka",
            "postal_code": null,
            "state": "Gujarat",
            "country_code": "IN"
        },
        "images": [],
        "link": "https://www.google.com/maps/place/Masjid+Islam/data=!4m7!3m6!1s0x395eed0b56eb9801:0xa05d09f26de651c0!8m2!3d22.7364815!4d72.4383577!16s%2Fg%2F11thk4fmlc!19sChIJAZjrVgvtXjkRwFHmbfIJXaA?authuser=0&hl=en&rclk=1",
        "coordinates": {
            "latitude": 22.7364815,
            "longitude": 72.4383577
        }
    },
    {
        "name": "Valishah masjid lilajpur dholka",
        "main_category": "Mosque",
        "address": "PCMW+MP3 Valishah masjid lilajpur dholka, Lilajpur, Dholka, Gujarat 382225",
        "detailed_address": {
            "ward": "Lilajpur",
            "street": "PCMW+MP3",
            "city": "Dholka",
            "postal_code": "382225",
            "state": "Gujarat",
            "country_code": "IN"
        },
        "images": [],
        "link": "https://www.google.com/maps/place/Valishah+masjid+lilajpur+dholka/data=!4m7!3m6!1s0x395eedc1f7b59161:0xe464d0af4fdcc643!8m2!3d22.7339756!4d72.4467964!16s%2Fg%2F11tbl0vltw!19sChIJYZG198HtXjkRQ8bcT6_QZOQ?authuser=0&hl=en&rclk=1",
        "coordinates": {
            "latitude": 22.733975599999997,
            "longitude": 72.4467964
        }
    },
    {
        "name": "Kamangar Masjid",
        "main_category": "Mosque",
        "address": "Kamangar Masjid, 4/426 piran pir chilla, Tower Bazar Rd, Khamarvada, Dholka, Gujarat 382225",
        "detailed_address": {
            "ward": "Khamarvada",
            "street": "4/426 piran pir chilla, Tower Bazar Rd",
            "city": "Dholka",
            "postal_code": "382225",
            "state": "Gujarat",
            "country_code": "IN"
        },
        "images": [],
        "link": "https://www.google.com/maps/place/Kamangar+Masjid/data=!4m7!3m6!1s0x395eed98a929b9c1:0xe057088f8151053e!8m2!3d22.7307291!4d72.4414221!16s%2Fg%2F11nx66yx6l!19sChIJwbkpqZjtXjkRPgVRgY8IV-A?authuser=0&hl=en&rclk=1",
        "coordinates": {
            "latitude": 22.730729099999998,
            "longitude": 72.4414221
        }
    },
    {
        "name": "Jikariya Masjid",
        "main_category": "Mosque",
        "address": "PCFV+CJ3 Jikariya Masjid, Panarawad, opp. Diwani Court, Dholka, 382225",
        "detailed_address": {
            "ward": "Radhanpuri",
            "street": "PCFV+CJ3, Panarawad, opp. Diwani Court",
            "city": "Dholka",
            "postal_code": "382225",
            "state": "Gujarat",
            "country_code": "IN"
        },
        "images": [],
        "link": "https://www.google.com/maps/place/Jikariya+Masjid/data=!4m7!3m6!1s0x395eed1151ea22ad:0xf5ae651f04bfab86!8m2!3d22.7235123!4d72.4440341!16s%2Fg%2F11kgqzjyf8!19sChIJrSLqURHtXjkRhqu_BB9lrvU?authuser=0&hl=en&rclk=1",
        "coordinates": {
            "latitude": 22.7235123,
            "longitude": 72.4440341
        }
    },
    {
        "name": "Islamia Masjid",
        "main_category": "Mosque",
        "address": "PCMR+9R6 Islamia Masjid, near Behlolkhan Mosque, Khokhar Chakla, Maghiya, Dholka, Gujarat 382225",
        "detailed_address": {
            "ward": "Khokhar Chakla, Maghiya",
            "street": "PCMR+9R6, near Behlolkhan Mosque",
            "city": "Dholka",
            "postal_code": "382225",
            "state": "Gujarat",
            "country_code": "IN"
        },
        "images": [],
        "link": "https://www.google.com/maps/place/Islamia+Masjid/data=!4m7!3m6!1s0x395eed4efc7625a3:0x7822d2eade58943a!8m2!3d22.7334074!4d72.4420162!16s%2Fg%2F11v02tcht4!19sChIJoyV2_E7tXjkROpRY3urSIng?authuser=0&hl=en&rclk=1",
        "coordinates": {
            "latitude": 22.733407399999997,
            "longitude": 72.4420162
        }
    },
    {
        "name": "Ashrafi_92_",
        "main_category": "Mosque",
        "address": "PCMR+X3H Ashrafi_92_, Bekatekri, Maghiya, Dholka, Gujarat 382225",
        "detailed_address": {
            "ward": "Bekatekri, Maghiya",
            "street": "PCMR+X3H",
            "city": "Dholka",
            "postal_code": "382225",
            "state": "Gujarat",
            "country_code": "IN"
        },
        "images": [
            {
                "about": "All",
                "link": "https://streetviewpixels-pa.googleapis.com/v1/thumbnail?panoid=PIHZ051sgoajHl62zl475w&cb_client=maps_sv.tactile.gps&w=224&h=298&yaw=206.98318&pitch=0&thumbfov=100"
            },
            {
                "about": "Street View & 360deg",
                "link": "https://streetviewpixels-pa.googleapis.com/v1/thumbnail?panoid=PIHZ051sgoajHl62zl475w&cb_client=maps_sv.tactile.gps&w=224&h=298&yaw=206.98318&pitch=0&thumbfov=100"
            }
        ],
        "link": "https://www.google.com/maps/place/Ashrafi_92_/data=!4m7!3m6!1s0x395eedacd4e561e7:0x1ceb8dc13d47976d!8m2!3d22.7349352!4d72.4402368!16s%2Fg%2F11kjcqv8h7!19sChIJ52Hl1KztXjkRbZdHPcGN6xw?authuser=0&hl=en&rclk=1",
        "coordinates": {
            "latitude": 22.7349352,
            "longitude": 72.4402368
        }
    },
    {
        "name": "Masjid central dome",
        "main_category": null,
        "address": "PCMJ+HWP Masjid central dome, Malav Talav Rd, Maghiya, Dholka, Gujarat 382225",
        "detailed_address": {
            "ward": "Maghiya",
            "street": "PCMJ+HWP, Malav Talav Rd",
            "city": "Dholka",
            "postal_code": "382225",
            "state": "Gujarat",
            "country_code": "IN"
        },
        "images": [
            {
                "about": "All",
                "link": "https://streetviewpixels-pa.googleapis.com/v1/thumbnail?panoid=Hf8iU9h46sS4kpAJNnVgmw&cb_client=maps_sv.tactile.gps&w=224&h=298&yaw=260.98&pitch=0&thumbfov=100"
            },
            {
                "about": "Street View & 360deg",
                "link": "https://streetviewpixels-pa.googleapis.com/v1/thumbnail?panoid=Hf8iU9h46sS4kpAJNnVgmw&cb_client=maps_sv.tactile.gps&w=224&h=298&yaw=260.98&pitch=0&thumbfov=100"
            }
        ],
        "link": "https://www.google.com/maps/place/Masjid+central+dome/data=!4m7!3m6!1s0x395eed32a8298663:0x2c40b5dba1ed2629!8m2!3d22.733881!4d72.4324023!16s%2Fg%2F11s7w656v4!19sChIJY4YpqDLtXjkRKSbtodu1QCw?authuser=0&hl=en&rclk=1",
        "coordinates": {
            "latitude": 22.733881,
            "longitude": 72.43240229999999
        }
    }
]