[
    {
        "name": "Juma Masjid",
        "main_category": "Mosque",
        "address": "F46Q+RQ3 Juma Masjid, Karera, Madhya Pradesh 473660",
        "detailed_address": {
            "ward": null,
            "street": "F46Q+RQ3",
            "city": "Karera",
            "postal_code": "473660",
            "state": "Madhya Pradesh",
            "country_code": "IN"
        },
        "images": [
            {
                "about": "All",
                "link": "https://lh5.googleusercontent.com/p/AF1QipN7gXQ-2s3m5Fu0meKLzExzEAVLxv9Dpw0hPif5=w397-h298-k-no"
            },
            {
                "about": "Dome",
                "link": "https://lh5.googleusercontent.com/p/AF1QipMHHBkxDsja4wJ-jPg3k-1wu-P8hy18e_VKYDCD=w425-h298-k-no"
            },
            {
                "about": "Street View & 360deg",
                "link": "https://streetviewpixels-pa.googleapis.com/v1/thumbnail?panoid=GosIZ1dWdzHDmCDFhEmjDQ&cb_client=maps_sv.tactile.gps&w=224&h=298&yaw=164.98975&pitch=0&thumbfov=100"
            }
        ],
        "link": "https://www.google.com/maps/place/Juma+Masjid/data=!4m7!3m6!1s0x397745d8ca963143:0x6abd187dd24be86b!8m2!3d25.4620004!4d78.1394258!16s%2Fg%2F11cssncl91!19sChIJQzGWythFdzkRa-hL0n0YvWo?authuser=0&hl=en&rclk=1",
        "coordinates": {
            "latitude": 25.462000399999997,
            "longitude": 78.1394258
        }
    },
    {
        "name": "Moti Masjid",
        "main_category": "Mosque",
        "address": "F46Q+CP2 Moti Masjid, Karera, Madhya Pradesh 473660",
        "detailed_address": {
            "ward": null,
            "street": "F46Q+CP2",
            "city": "Karera",
            "postal_code": "473660",
            "state": "Madhya Pradesh",
            "country_code": "IN"
        },
        "images": [
            {
                "about": "All",
                "link": "https://lh5.googleusercontent.com/p/AF1QipOTxzp9KSu5VFX3D5GDwOnVzvFNVdpQqJfcN0pc=w397-h298-k-no"
            },
            {
                "about": "Dome",
                "link": "https://lh5.googleusercontent.com/p/AF1QipOTxzp9KSu5VFX3D5GDwOnVzvFNVdpQqJfcN0pc=w397-h298-k-no"
            }
        ],
        "link": "https://www.google.com/maps/place/Moti+Masjid/data=!4m7!3m6!1s0x397745df2b30bf25:0xc025f7edeb263533!8m2!3d25.4610198!4d78.1392622!16s%2Fg%2F11cssn8nwy!19sChIJJb8wK99FdzkRMzUm6-33JcA?authuser=0&hl=en&rclk=1",
        "coordinates": {
            "latitude": 25.4610198,
            "longitude": 78.13926219999999
        }
    },
    {
        "name": "Makka Masjid Karera",
        "main_category": "Mosque",
        "address": "Makka Masjid Karera, W-15, Shivpuri Rd, Karera, Madhya Pradesh 473660",
        "detailed_address": {
            "ward": null,
            "street": "W-15, Shivpuri Rd",
            "city": "Karera",
            "postal_code": "473660",
            "state": "Madhya Pradesh",
            "country_code": "IN"
        },
        "images": [],
        "link": "https://www.google.com/maps/place/Makka+Masjid+Karera/data=!4m7!3m6!1s0x397745e7653d882d:0x93d3f897024c8ae!8m2!3d25.4555725!4d78.1329633!16s%2Fg%2F11c605n0x4!19sChIJLYg9ZedFdzkRrsgkcIk_PQk?authuser=0&hl=en&rclk=1",
        "coordinates": {
            "latitude": 25.4555725,
            "longitude": 78.1329633
        }
    },
    {
        "name": "idgah Karera",
        "main_category": "Mosque",
        "address": "F4FQ+JXG idgah Karera, Karera, Madhya Pradesh 473660",
        "detailed_address": {
            "ward": null,
            "street": "F4FQ+JXG",
            "city": "Karera",
            "postal_code": "473660",
            "state": "Madhya Pradesh",
            "country_code": "IN"
        },
        "images": [
            {
                "about": "All",
                "link": "https://lh5.googleusercontent.com/p/AF1QipP5Cbe5QNMpXQeO7RSRh-mbkpOydOWxAY-PCZtd=w448-h298-k-no"
            },
            {
                "about": "Dome",
                "link": "https://lh5.googleusercontent.com/p/AF1QipP5Cbe5QNMpXQeO7RSRh-mbkpOydOWxAY-PCZtd=w448-h298-k-no"
            }
        ],
        "link": "https://www.google.com/maps/place/idgah+Karera/data=!4m7!3m6!1s0x3977467121f011eb:0x84006c06f073ee07!8m2!3d25.4740575!4d78.139947!16s%2Fg%2F11c2p8f4gw!19sChIJ6xHwIXFGdzkRB-5z8AZsAIQ?authuser=0&hl=en&rclk=1",
        "coordinates": {
            "latitude": 25.474057499999997,
            "longitude": 78.13994699999999
        }
    },
    {
        "name": "Jama Masjid Kareda",
        "main_category": "Mosque",
        "address": "G68C+WXC Jama Masjid Kareda, Kund Ka Darwaja Rd, Kund, Karera, Rajasthan 311804",
        "detailed_address": {
            "ward": "Kund",
            "street": "G68C+WXC, Kund Ka Darwaja Rd",
            "city": "Karera",
            "postal_code": "311804",
            "state": "Rajasthan",
            "country_code": "IN"
        },
        "images": [
            {
                "about": "All",
                "link": "https://streetviewpixels-pa.googleapis.com/v1/thumbnail?panoid=Co7WSwYazN-aauQEByX-fg&cb_client=maps_sv.tactile.gps&w=224&h=298&yaw=170.73157&pitch=0&thumbfov=100"
            },
            {
                "about": "Street View & 360deg",
                "link": "https://streetviewpixels-pa.googleapis.com/v1/thumbnail?panoid=Co7WSwYazN-aauQEByX-fg&cb_client=maps_sv.tactile.gps&w=224&h=298&yaw=170.73157&pitch=0&thumbfov=100"
            },
            {
                "about": "Videos",
                "link": "https://lh5.googleusercontent.com/p/AF1QipM0mjkT9Mjyg36eN2-6YDNvmTO2xTFaEtgUop8c=w397-h298-k-no"
            }
        ],
        "link": "https://www.google.com/maps/place/Jama+Masjid+Kareda/data=!4m7!3m6!1s0x3968ffc0ee344c89:0xfc762cd026142a97!8m2!3d25.5173164!4d74.2224037!16s%2Fg%2F11tnjwlpq_!19sChIJiUw07sD_aDkRlyoUJtAsdvw?authuser=0&hl=en&rclk=1",
        "coordinates": {
            "latitude": 25.5173164,
            "longitude": 74.2224037
        }
    },
    {
        "name": "Muhammad Masjid",
        "main_category": "Mosque",
        "address": "F44R+CXW Muhammad Masjid, Police Line, Karera, Madhya Pradesh 473660",
        "detailed_address": {
            "ward": "Police Line",
            "street": "F44R+CXW",
            "city": "Karera",
            "postal_code": "473660",
            "state": "Madhya Pradesh",
            "country_code": "IN"
        },
        "images": [],
        "link": "https://www.google.com/maps/place/Muhammad+Masjid/data=!4m7!3m6!1s0x3977453ef742d01d:0x1fa3a02d6ee400a8!8m2!3d25.4561097!4d78.1424505!16s%2Fg%2F11gr2jx0hx!19sChIJHdBC9z5FdzkRqADkbi2gox8?authuser=0&hl=en&rclk=1",
        "coordinates": {
            "latitude": 25.4561097,
            "longitude": 78.1424505
        }
    },
    {
        "name": "Jama masjid",
        "main_category": "School",
        "address": "F43F+XMQ Jama masjid, Bhitarwar - Karera Rd, Karera, Madhya Pradesh 473660",
        "detailed_address": {
            "ward": null,
            "street": "F43F+XMQ, Bhitarwar - Karera Rd",
            "city": "Karera",
            "postal_code": "473660",
            "state": "Madhya Pradesh",
            "country_code": "IN"
        },
        "images": [
            {
                "about": "All",
                "link": "https://streetviewpixels-pa.googleapis.com/v1/thumbnail?panoid=Bd-ftYWLDx_a2DIG1Gc_ZQ&cb_client=maps_sv.tactile.gps&w=224&h=298&yaw=281.88583&pitch=0&thumbfov=100"
            },
            {
                "about": "Street View & 360deg",
                "link": "https://streetviewpixels-pa.googleapis.com/v1/thumbnail?panoid=Bd-ftYWLDx_a2DIG1Gc_ZQ&cb_client=maps_sv.tactile.gps&w=224&h=298&yaw=281.88583&pitch=0&thumbfov=100"
            }
        ],
        "link": "https://www.google.com/maps/place/Jama+masjid/data=!4m7!3m6!1s0x3977454bbff38a5f:0x4b341a0068ee028c!8m2!3d25.454974!4d78.1242272!16s%2Fg%2F11jlmscz11!19sChIJX4rzv0tFdzkRjALuaAAaNEs?authuser=0&hl=en&rclk=1",
        "coordinates": {
            "latitude": 25.454974,
            "longitude": 78.12422719999999
        }
    }
]