[
    {
        "name": "Markazi Sunni Jaama Masji - mrkhzy sunWy jm` msjd",
        "main_category": "Mosque",
        "address": "275G+H34 Markazi Sunni Jaama Masji - mrkhzy sunWy jm` msjd, Beldar Mohallah, Bhave Galli, Dharangaon, Maharashtra 425105",
        "detailed_address": {
            "ward": "Beldar Mohallah, Bhave Galli",
            "street": "275G+H34",
            "city": "Dharangaon",
            "postal_code": "425105",
            "state": "Maharashtra",
            "country_code": "IN"
        },
        "images": [
            {
                "about": "All",
                "link": "https://lh5.googleusercontent.com/p/AF1QipOe7RX2fN0tKOvCgG9SGkSMt-jOmFnugtKmYZeV=w473-h298-k-no"
            },
            {
                "about": "Dome",
                "link": "https://lh5.googleusercontent.com/p/AF1QipN1Rl5TCyzhyvj0z9iST3oNRWRONJj6KJ3Xg2rf=w224-h336-k-no"
            },
            {
                "about": "Videos",
                "link": "https://lh5.googleusercontent.com/p/AF1QipM2jfDV343slhgvzAEE6-HYSTnMnvVZbWoBJr6s=w518-h298-k-no"
            }
        ],
        "link": "https://www.google.com/maps/place/Markazi+Sunni+Jaama+Masji+-+%D9%85%D8%B1%DA%A9%D8%B2%DB%8C+%D8%B3%D9%8F%D9%86%D9%91%DB%8C+%D8%AC%D8%A7%D9%85%D8%B9+%D9%85%D8%B3%D8%AC%D8%AF%E2%80%AD/data=!4m7!3m6!1s0x3bd93cc91de5041b:0x18db69e56369b9ab!8m2!3d21.0088847!4d75.2752135!16s%2Fg%2F11c5wldzkj!19sChIJGwTlHck82TsRq7lpY-Vp2xg?authuser=0&hl=en&rclk=1",
        "coordinates": {
            "latitude": 21.0088847,
            "longitude": 75.27521349999999
        }
    },
    {
        "name": "Sunni Jama Masjid(Mohalla masjid Ali)",
        "main_category": "Mosque",
        "address": "Sunni Jama Masjid(Mohalla masjid Ali), Mohalla masjid ali, near Ahmad Raza Chowk, Lahan Maliwada, Dharangaon, Maharashtra 425105",
        "detailed_address": {
            "ward": "Lahan Maliwada",
            "street": "Mohalla masjid ali, near Ahmad Raza Chowk",
            "city": "Dharangaon",
            "postal_code": "425105",
            "state": "Maharashtra",
            "country_code": "IN"
        },
        "images": [
            {
                "about": "All",
                "link": "https://lh5.googleusercontent.com/p/AF1QipPlgX7wCMVtPMTQuKd1tUbl2AjWplk6AFKpocBM=w397-h298-k-no"
            },
            {
                "about": "Dome",
                "link": "https://lh5.googleusercontent.com/p/AF1QipMwozG70Rok9ryjXWlHAMmhunlcnBylLHceFxmi=w224-h298-k-no"
            }
        ],
        "link": "https://www.google.com/maps/place/Sunni+Jama+Masjid%28Mohalla+masjid+Ali%29/data=!4m7!3m6!1s0x3bd93cca4eace521:0x43b85fa63acb4597!8m2!3d21.0134364!4d75.2737592!16s%2Fg%2F11c59vhg9g!19sChIJIeWsTso82TsRl0XLOqZfuEM?authuser=0&hl=en&rclk=1",
        "coordinates": {
            "latitude": 21.0134364,
            "longitude": 75.2737592
        }
    },
    {
        "name": "Pillu Masjid",
        "main_category": "Mosque",
        "address": "Pillu Masjid, Landge Galli, Bhave Galli, Dharangaon, Maharashtra 425105",
        "detailed_address": {
            "ward": "Landge Galli, Bhave Galli",
            "street": null,
            "city": "Dharangaon",
            "postal_code": null,
            "state": "Maharashtra",
            "country_code": "IN"
        },
        "images": [
            {
                "about": "All",
                "link": "https://lh5.googleusercontent.com/p/AF1QipPbJotMkOkny4sQDtTyT9TY8NGm9az9ZW8PhlMh=w224-h323-k-no"
            },
            {
                "about": "Dome",
                "link": "https://lh5.googleusercontent.com/p/AF1QipPT06TEgD8-MiEK4P5YVTSFCPgL9rftXFDeT5d7=w224-h407-k-no"
            },
            {
                "about": "Videos",
                "link": "https://lh5.googleusercontent.com/p/AF1QipPT06TEgD8-MiEK4P5YVTSFCPgL9rftXFDeT5d7=w224-h407-k-no"
            }
        ],
        "link": "https://www.google.com/maps/place/Pillu+Masjid/data=!4m7!3m6!1s0x3bd93cc9bee0a55d:0x9c08ffcb24fca5ed!8m2!3d21.0098101!4d75.2728996!16s%2Fg%2F1hhvzk51b!19sChIJXaXgvsk82TsR7aX8JMv_CJw?authuser=0&hl=en&rclk=1",
        "coordinates": {
            "latitude": 21.0098101,
            "longitude": 75.2728996
        }
    },
    {
        "name": "Masjid e Umar (RA), Bhadangpura",
        "main_category": "Mosque",
        "address": "276C+JCG Masjid e Umar (RA), Bhadangpura, Bhave Galli, Dharangaon, Maharashtra 425105",
        "detailed_address": {
            "ward": "Bhave Galli",
            "street": "276C+JCG",
            "city": "Dharangaon",
            "postal_code": "425105",
            "state": "Maharashtra",
            "country_code": "IN"
        },
        "images": [
            {
                "about": "All",
                "link": "https://lh5.googleusercontent.com/p/AF1QipM5LToBgzKEXSsrazSySklt26UtaMvTjRa2d3c3=w400-h298-k-no"
            },
            {
                "about": "Videos",
                "link": "https://lh5.googleusercontent.com/p/AF1QipOV1MdAiHk7__WEe23N75b3Cv5412czyfVmNJW9=w224-h398-k-no"
            }
        ],
        "link": "https://www.google.com/maps/place/Masjid+e+Umar+%28RA%29,+Bhadangpura/data=!4m7!3m6!1s0x3bd93d2cd675453d:0x5e887a5b2eddd6b!8m2!3d21.011566!4d75.2710807!16s%2Fg%2F11hf7ht2kz!19sChIJPUV11iw92TsRa93tsqWH6AU?authuser=0&hl=en&rclk=1",
        "coordinates": {
            "latitude": 21.011566,
            "longitude": 75.2710807
        }
    },
    {
        "name": "Mohammadya masjid",
        "main_category": "Place of worship",
        "address": "275G+WHX Mohammadya masjid, Malakali Mollah, Landge Galli, Bhave Galli, Dharangaon, Maharashtra 425105",
        "detailed_address": {
            "ward": "Landge Galli, Bhave Galli",
            "street": "275G+WHX, Malakali Mollah",
            "city": "Dharangaon",
            "postal_code": "425105",
            "state": "Maharashtra",
            "country_code": "IN"
        },
        "images": [
            {
                "about": "All",
                "link": "https://lh5.googleusercontent.com/p/AF1QipOgJNxdkko0jYPjWqxPH0kUJDlr6AL7yPVg1L-H=w224-h398-k-no"
            },
            {
                "about": "Street View & 360deg",
                "link": "https://streetviewpixels-pa.googleapis.com/v1/thumbnail?panoid=IRJv8dUzcBCBBY-xJ0bG0A&cb_client=maps_sv.tactile.gps&w=224&h=298&yaw=276.41177&pitch=0&thumbfov=100"
            }
        ],
        "link": "https://www.google.com/maps/place/Mohammadya+masjid/data=!4m7!3m6!1s0x3bd93d7f6c596e0b:0x2b26a24578a2e066!8m2!3d21.0098709!4d75.27649!16s%2Fg%2F11v5v92mk0!19sChIJC25ZbH892TsRZuCieEWiJis?authuser=0&hl=en&rclk=1",
        "coordinates": {
            "latitude": 21.0098709,
            "longitude": 75.27649
        }
    },
    {
        "name": "Eidgah Dharangaon",
        "main_category": "Mosque",
        "address": "Eidgah Dharangaon, Eidgah, Dharangaon, Maharashtra 425105",
        "detailed_address": {
            "ward": null,
            "street": "Eidgah",
            "city": "Dharangaon",
            "postal_code": null,
            "state": "Maharashtra",
            "country_code": "IN"
        },
        "images": [],
        "link": "https://www.google.com/maps/place/Eidgah+Dharangaon/data=!4m7!3m6!1s0x3bd93d4cf66b34dd:0x5b1e1c12498abe7b!8m2!3d21.01272!4d75.2606871!16s%2Fg%2F11flk9bgzl!19sChIJ3TRr9kw92TsRe76KSRIcHls?authuser=0&hl=en&rclk=1",
        "coordinates": {
            "latitude": 21.012719999999998,
            "longitude": 75.2606871
        }
    },
    {
        "name": "Sunni Bilal Masjid",
        "main_category": "Mosque",
        "address": "Sunni Bilal Masjid, ghato galli, Dharani Rd, Bhave Galli, Dharangaon, Maharashtra 425105",
        "detailed_address": {
            "ward": "Bhave Galli",
            "street": "ghato galli, Dharani Rd",
            "city": "Dharangaon",
            "postal_code": "425105",
            "state": "Maharashtra",
            "country_code": "IN"
        },
        "images": [
            {
                "about": "All",
                "link": "https://lh5.googleusercontent.com/p/AF1QipPibn7KzJCzzu-gkdLLDrg7t-e4cN4_khU68L4J=w529-h298-k-no"
            }
        ],
        "link": "https://www.google.com/maps/place/Sunni+Bilal+Masjid/data=!4m7!3m6!1s0x3bd93d1d222445b5:0x2c3c385428cb2a05!8m2!3d21.0126717!4d75.2713473!16s%2Fg%2F11j7hyhzs4!19sChIJtUUkIh092TsRBSrLKFQ4PCw?authuser=0&hl=en&rclk=1",
        "coordinates": {
            "latitude": 21.0126717,
            "longitude": 75.2713473
        }
    },
    {
        "name": "Bohra Masjid",
        "main_category": "Mosque",
        "address": "Bohra Masjid, SH185, Vidyut Vihar, Koradi, Dharangaon, Maharashtra 425105",
        "detailed_address": {
            "ward": "Vidyut Vihar, Koradi",
            "street": "SH185",
            "city": "Dharangaon",
            "postal_code": "425105",
            "state": "Maharashtra",
            "country_code": "IN"
        },
        "images": [
            {
                "about": "All",
                "link": "https://streetviewpixels-pa.googleapis.com/v1/thumbnail?panoid=IXPCgzqty6YNM1Wdgw6vaA&cb_client=maps_sv.tactile.gps&w=224&h=298&yaw=236.49707&pitch=0&thumbfov=100"
            },
            {
                "about": "Street View & 360deg",
                "link": "https://streetviewpixels-pa.googleapis.com/v1/thumbnail?panoid=IXPCgzqty6YNM1Wdgw6vaA&cb_client=maps_sv.tactile.gps&w=224&h=298&yaw=236.49707&pitch=0&thumbfov=100"
            },
            {
                "about": "Videos",
                "link": "https://lh5.googleusercontent.com/p/AF1QipNnmmOmt6vs68xjAUoq93IydGaKONR_H6dUKI6X=w224-h407-k-no"
            }
        ],
        "link": "https://www.google.com/maps/place/Bohra+Masjid/data=!4m7!3m6!1s0x3bd93d8f06ecfe4d:0x3f8d5354ec3a90b9!8m2!3d21.004093!4d75.2770731!16s%2Fg%2F11kprx2c7w!19sChIJTf7sBo892TsRuZA67FRTjT8?authuser=0&hl=en&rclk=1",
        "coordinates": {
            "latitude": 21.004092999999997,
            "longitude": 75.2770731
        }
    },
    {
        "name": "Mohammadiya Masjid",
        "main_category": "Mosque",
        "address": "275F+Q94 Mohammadiya Masjid, Landge Galli, Bhave Galli, Dharangaon, Maharashtra 425105",
        "detailed_address": {
            "ward": "Landge Galli, Bhave Galli",
            "street": "275F+Q94",
            "city": "Dharangaon",
            "postal_code": "425105",
            "state": "Maharashtra",
            "country_code": "IN"
        },
        "images": [],
        "link": "https://www.google.com/maps/place/Mohammadiya+Masjid/data=!4m7!3m6!1s0x3bd93dbccac09bf9:0xaef3aa4570dada17!8m2!3d21.0093974!4d75.2734401!16s%2Fg%2F11kr8skty7!19sChIJ-ZvAyrw92TsRF9racEWq864?authuser=0&hl=en&rclk=1",
        "coordinates": {
            "latitude": 21.009397399999997,
            "longitude": 75.2734401
        }
    },
    {
        "name": "Mohammadiya Masjid",
        "main_category": "Place of worship",
        "address": "277F+RMC Mohammadiya Masjid, Malakali mohalla, Gujrati Galli, Dharangaon, Maharashtra 425105",
        "detailed_address": {
            "ward": "Lahan Maliwada",
            "street": "277F+RMC, Malakali mohalla, Gujrati Galli",
            "city": "Dharangaon",
            "postal_code": "425105",
            "state": "Maharashtra",
            "country_code": "IN"
        },
        "images": [],
        "link": "https://www.google.com/maps/place/Mohammadiya+Masjid/data=!4m7!3m6!1s0x3bd93ddf756765b5:0xad2118487826ee61!8m2!3d21.0145539!4d75.2741557!16s%2Fg%2F11v5v6_y1d!19sChIJtWVndd892TsRYe4meEgYIa0?authuser=0&hl=en&rclk=1",
        "coordinates": {
            "latitude": 21.0145539,
            "longitude": 75.2741557
        }
    }
]