[
    {
        "name": "aksa masjid",
        "main_category": "Mosque",
        "address": "F3W3+GH7 aksa masjid, Terdal, Karnataka 587315",
        "detailed_address": {
            "ward": null,
            "street": "F3W3+GH7",
            "city": "Terdal",
            "postal_code": "587315",
            "state": "Karnataka",
            "country_code": "IN"
        },
        "images": [
            {
                "about": "All",
                "link": "https://lh5.googleusercontent.com/p/AF1QipNgLzO7ELtMACd3U3me2eJnKOfg7Z2dWoTMqo2L=w224-h298-k-no"
            },
            {
                "about": "Dome",
                "link": "https://lh5.googleusercontent.com/p/AF1QipNgLzO7ELtMACd3U3me2eJnKOfg7Z2dWoTMqo2L=w224-h298-k-no"
            },
            {
                "about": "Videos",
                "link": "https://lh5.googleusercontent.com/p/AF1QipMKJDsILHWirriH_2b6EyRjo2PAj_UOf_ZVD_xk=w224-h398-k-no"
            },
            {
                "about": "Street View & 360deg",
                "link": "https://streetviewpixels-pa.googleapis.com/v1/thumbnail?panoid=25XjJX7z-U6tGX58zOD3ww&cb_client=maps_sv.tactile.gps&w=224&h=298&yaw=24.095308&pitch=0&thumbfov=100"
            }
        ],
        "link": "https://www.google.com/maps/place/aksa+masjid/data=!4m7!3m6!1s0x3bc733da14beaabd:0xff3e9ba21c034c1c!8m2!3d16.4962817!4d75.0539203!16s%2Fg%2F11g8g0j_vl!19sChIJvaq-FNozxzsRHEwDHKKbPv8?authuser=0&hl=en&rclk=1",
        "coordinates": {
            "latitude": 16.4962817,
            "longitude": 75.0539203
        }
    },
    {
        "name": "Makka Masjid",
        "main_category": "Mosque",
        "address": "F3V5+MJJ Makka Masjid, Khdc Colony, Terdal, Karnataka 587315",
        "detailed_address": {
            "ward": null,
            "street": "F3V5+MJJ, Khdc Colony",
            "city": "Terdal",
            "postal_code": "587315",
            "state": "Karnataka",
            "country_code": "IN"
        },
        "images": [
            {
                "about": "All",
                "link": "https://streetviewpixels-pa.googleapis.com/v1/thumbnail?panoid=NlKUNCqh8tYz-aPAM2s_jg&cb_client=maps_sv.tactile.gps&w=224&h=298&yaw=203.37384&pitch=0&thumbfov=100"
            },
            {
                "about": "Street View & 360deg",
                "link": "https://streetviewpixels-pa.googleapis.com/v1/thumbnail?panoid=NlKUNCqh8tYz-aPAM2s_jg&cb_client=maps_sv.tactile.gps&w=224&h=298&yaw=203.37384&pitch=0&thumbfov=100"
            }
        ],
        "link": "https://www.google.com/maps/place/Makka+Masjid/data=!4m7!3m6!1s0x3bc733d8f0201937:0x23c49ac2f08ae38e!8m2!3d16.4942105!4d75.0590172!16s%2Fg%2F11g8fvt_sm!19sChIJNxkg8NgzxzsRjuOK8MKaxCM?authuser=0&hl=en&rclk=1",
        "coordinates": {
            "latitude": 16.494210499999998,
            "longitude": 75.0590172
        }
    },
    {
        "name": "Bilal Masjid (Mosque)",
        "main_category": "Mosque",
        "address": "Bilal Masjid (Mosque), Bilal Masjid, Terdal, Karnataka 587315",
        "detailed_address": {
            "ward": null,
            "street": "Bilal Masjid",
            "city": "Terdal",
            "postal_code": "587315",
            "state": "Karnataka",
            "country_code": "IN"
        },
        "images": [
            {
                "about": "All",
                "link": "https://streetviewpixels-pa.googleapis.com/v1/thumbnail?panoid=SsFqORIwFHJwcpqK87W7Uw&cb_client=maps_sv.tactile.gps&w=224&h=298&yaw=324.92108&pitch=0&thumbfov=100"
            },
            {
                "about": "Street View & 360deg",
                "link": "https://streetviewpixels-pa.googleapis.com/v1/thumbnail?panoid=SsFqORIwFHJwcpqK87W7Uw&cb_client=maps_sv.tactile.gps&w=224&h=298&yaw=324.92108&pitch=0&thumbfov=100"
            }
        ],
        "link": "https://www.google.com/maps/place/Bilal+Masjid+%28Mosque%29/data=!4m7!3m6!1s0x3bc733ae5b524d85:0x6ef9ef56f77acc78!8m2!3d16.499754!4d75.0563212!16s%2Fg%2F11ft38xd43!19sChIJhU1SW64zxzsReMx691bv-W4?authuser=0&hl=en&rclk=1",
        "coordinates": {
            "latitude": 16.499754,
            "longitude": 75.0563212
        }
    },
    {
        "name": "Markaz Masjid",
        "main_category": "Mosque",
        "address": "F2RW+XVP Markaz Masjid, Terdal, Karnataka 587315",
        "detailed_address": {
            "ward": null,
            "street": "F2RW+XVP",
            "city": "Terdal",
            "postal_code": "587315",
            "state": "Karnataka",
            "country_code": "IN"
        },
        "images": [
            {
                "about": "All",
                "link": "https://lh5.googleusercontent.com/p/AF1QipPye0Xz2lEMEEhUrvFvkQQ526Ze95NPGtmmtXAd=w529-h298-k-no"
            },
            {
                "about": "Street View & 360deg",
                "link": "https://streetviewpixels-pa.googleapis.com/v1/thumbnail?panoid=NkSrvipbywGb7ioEYPKjHg&cb_client=maps_sv.tactile.gps&w=224&h=298&yaw=100.14611&pitch=0&thumbfov=100"
            }
        ],
        "link": "https://www.google.com/maps/place/Markaz+Masjid/data=!4m7!3m6!1s0x3bc733b1042d4d65:0x2bab3a32b325abf7!8m2!3d16.4924659!4d75.0472111!16s%2Fg%2F11s0q03k8v!19sChIJZU0tBLEzxzsR96slszI6qys?authuser=0&hl=en&rclk=1",
        "coordinates": {
            "latitude": 16.4924659,
            "longitude": 75.0472111
        }
    },
    {
        "name": "Noorani masjid",
        "main_category": "Mosque",
        "address": "F2WX+7M3 Noorani masjid, Jamkhandi - Kudachi Rd, Terdal, Karnataka 587315",
        "detailed_address": {
            "ward": null,
            "street": "F2WX+7M3, Jamkhandi - Kudachi Rd",
            "city": "Terdal",
            "postal_code": "587315",
            "state": "Karnataka",
            "country_code": "IN"
        },
        "images": [
            {
                "about": "All",
                "link": "https://streetviewpixels-pa.googleapis.com/v1/thumbnail?panoid=Z5h3ZuSeQmo09BbYudevSA&cb_client=maps_sv.tactile.gps&w=224&h=298&yaw=135.59924&pitch=0&thumbfov=100"
            },
            {
                "about": "Street View & 360deg",
                "link": "https://streetviewpixels-pa.googleapis.com/v1/thumbnail?panoid=Z5h3ZuSeQmo09BbYudevSA&cb_client=maps_sv.tactile.gps&w=224&h=298&yaw=135.59924&pitch=0&thumbfov=100"
            }
        ],
        "link": "https://www.google.com/maps/place/Noorani+masjid/data=!4m7!3m6!1s0x3bc73308609904f7:0x429a797c8100a2e8!8m2!3d16.4956288!4d75.0491782!16s%2Fg%2F11k88lj8by!19sChIJ9wSZYAgzxzsR6KIAgXx5mkI?authuser=0&hl=en&rclk=1",
        "coordinates": {
            "latitude": 16.4956288,
            "longitude": 75.0491782
        }
    },
    {
        "name": "Ayesha Masjid",
        "main_category": "Mosque",
        "address": "F3X3+5MG Ayesha Masjid, Terdal, Karnataka 587315",
        "detailed_address": {
            "ward": null,
            "street": "F3X3+5MG",
            "city": "Terdal",
            "postal_code": "587315",
            "state": "Karnataka",
            "country_code": "IN"
        },
        "images": [
            {
                "about": "All",
                "link": "https://lh5.googleusercontent.com/p/AF1QipPxKj6JDYTM8e_el89rtSj6PnQRhcpCdckshF8c=w224-h298-k-no"
            },
            {
                "about": "Street View & 360deg",
                "link": "https://streetviewpixels-pa.googleapis.com/v1/thumbnail?panoid=4ZviatjKK4skiDvSUfqRPA&cb_client=maps_sv.tactile.gps&w=224&h=298&yaw=178.03467&pitch=0&thumbfov=100"
            }
        ],
        "link": "https://www.google.com/maps/place/Ayesha+Masjid/data=!4m7!3m6!1s0x3bc733d0a47060f7:0x6d9a4c7d7c054505!8m2!3d16.4979484!4d75.054216!16s%2Fg%2F11c7hjw20v!19sChIJ92BwpNAzxzsRBUUFfH1Mmm0?authuser=0&hl=en&rclk=1",
        "coordinates": {
            "latitude": 16.4979484,
            "longitude": 75.054216
        }
    },
    {
        "name": "Makkah Masjid",
        "main_category": "Mosque",
        "address": "F2VW+XQQ Makkah Masjid, Terdal, Karnataka 587315",
        "detailed_address": {
            "ward": null,
            "street": "F2VW+XQQ",
            "city": "Terdal",
            "postal_code": "587315",
            "state": "Karnataka",
            "country_code": "IN"
        },
        "images": [],
        "link": "https://www.google.com/maps/place/Makkah+Masjid/data=!4m7!3m6!1s0x3bc733c50ecbb8e9:0xaee78a8c4d182344!8m2!3d16.4949729!4d75.04698!16s%2Fg%2F11b7llv79v!19sChIJ6bjLDsUzxzsRRCMYTYyK564?authuser=0&hl=en&rclk=1",
        "coordinates": {
            "latitude": 16.4949729,
            "longitude": 75.04697999999999
        }
    },
    {
        "name": "Chinagisha Masjid",
        "main_category": "Mosque",
        "address": "F2RW+WWH Chinagisha Masjid, Terdal, Karnataka 587315",
        "detailed_address": {
            "ward": null,
            "street": "F2RW+WWH",
            "city": "Terdal",
            "postal_code": "587315",
            "state": "Karnataka",
            "country_code": "IN"
        },
        "images": [
            {
                "about": "All",
                "link": "https://streetviewpixels-pa.googleapis.com/v1/thumbnail?panoid=WZoFHD_7if9OmTuuqrFVAA&cb_client=maps_sv.tactile.gps&w=224&h=298&yaw=134.96423&pitch=0&thumbfov=100"
            },
            {
                "about": "Street View & 360deg",
                "link": "https://streetviewpixels-pa.googleapis.com/v1/thumbnail?panoid=WZoFHD_7if9OmTuuqrFVAA&cb_client=maps_sv.tactile.gps&w=224&h=298&yaw=134.96423&pitch=0&thumbfov=100"
            }
        ],
        "link": "https://www.google.com/maps/place/Chinagisha+Masjid/data=!4m7!3m6!1s0x3bc733c4923cae37:0xd4c2ef38aee0afff!8m2!3d16.4923037!4d75.0473475!16s%2Fg%2F11g9w2m2wm!19sChIJN648ksQzxzsR_6_grjjvwtQ?authuser=0&hl=en&rclk=1",
        "coordinates": {
            "latitude": 16.4923037,
            "longitude": 75.0473475
        }
    },
    {
        "name": "Miskinsha Masjid",
        "main_category": "Mosque",
        "address": "F2VW+HQ9 Miskinsha Masjid, Terdal, Karnataka 587315",
        "detailed_address": {
            "ward": null,
            "street": "F2VW+HQ9",
            "city": "Terdal",
            "postal_code": "587315",
            "state": "Karnataka",
            "country_code": "IN"
        },
        "images": [
            {
                "about": "All",
                "link": "https://streetviewpixels-pa.googleapis.com/v1/thumbnail?panoid=0x1hH2BHjFFZyCKpIp4hYw&cb_client=maps_sv.tactile.gps&w=224&h=298&yaw=170.09406&pitch=0&thumbfov=100"
            },
            {
                "about": "Street View & 360deg",
                "link": "https://streetviewpixels-pa.googleapis.com/v1/thumbnail?panoid=0x1hH2BHjFFZyCKpIp4hYw&cb_client=maps_sv.tactile.gps&w=224&h=298&yaw=170.09406&pitch=0&thumbfov=100"
            }
        ],
        "link": "https://www.google.com/maps/place/Miskinsha+Masjid/data=!4m7!3m6!1s0x3bc733a400c4ff6d:0x29da5782f12fa7b0!8m2!3d16.4939141!4d75.0469885!16s%2Fg%2F11g0l4gj1m!19sChIJbf_EAKQzxzsRsKcv8YJX2ik?authuser=0&hl=en&rclk=1",
        "coordinates": {
            "latitude": 16.493914099999998,
            "longitude": 75.0469885
        }
    },
    {
        "name": "Jamiya Masjid Terdal",
        "main_category": "Mosque",
        "address": "F3W2+357 Jamiya Masjid Terdal, Terdal, Karnataka 587315",
        "detailed_address": {
            "ward": null,
            "street": "F3W2+357",
            "city": "Terdal",
            "postal_code": "587315",
            "state": "Karnataka",
            "country_code": "IN"
        },
        "images": [
            {
                "about": "All",
                "link": "https://streetviewpixels-pa.googleapis.com/v1/thumbnail?panoid=967NmsOfUrW---2iE1L62Q&cb_client=maps_sv.tactile.gps&w=224&h=298&yaw=357.02023&pitch=0&thumbfov=100"
            },
            {
                "about": "Street View & 360deg",
                "link": "https://streetviewpixels-pa.googleapis.com/v1/thumbnail?panoid=967NmsOfUrW---2iE1L62Q&cb_client=maps_sv.tactile.gps&w=224&h=298&yaw=357.02023&pitch=0&thumbfov=100"
            }
        ],
        "link": "https://www.google.com/maps/place/Jamiya+Masjid+Terdal/data=!4m7!3m6!1s0x3bc733d96e983d67:0x4b3a8c7792523a37!8m2!3d16.4951061!4d75.0504914!16s%2Fg%2F11q3z6fzgy!19sChIJZz2YbtkzxzsRNzpSkneMOks?authuser=0&hl=en&rclk=1",
        "coordinates": {
            "latitude": 16.4951061,
            "longitude": 75.0504914
        }
    },
    {
        "name": "Masjid Abdul aziziya",
        "main_category": "Mosque",
        "address": "F2VQ+CGF Masjid Abdul aziziya, Terdal, Karnataka 587315",
        "detailed_address": {
            "ward": null,
            "street": "F2VQ+CGF",
            "city": "Terdal",
            "postal_code": "587315",
            "state": "Karnataka",
            "country_code": "IN"
        },
        "images": [
            {
                "about": "All",
                "link": "https://streetviewpixels-pa.googleapis.com/v1/thumbnail?panoid=PCrPgapvCypJwlyAVMBc-w&cb_client=maps_sv.tactile.gps&w=224&h=298&yaw=179.61923&pitch=0&thumbfov=100"
            },
            {
                "about": "Street View & 360deg",
                "link": "https://streetviewpixels-pa.googleapis.com/v1/thumbnail?panoid=PCrPgapvCypJwlyAVMBc-w&cb_client=maps_sv.tactile.gps&w=224&h=298&yaw=179.61923&pitch=0&thumbfov=100"
            }
        ],
        "link": "https://www.google.com/maps/place/Masjid+Abdul+aziziya/data=!4m7!3m6!1s0x3bc733a7bb32bf69:0xb0073f1d974e2f9a!8m2!3d16.493573!4d75.0387933!16s%2Fg%2F11j36vkjfr!19sChIJab8yu6czxzsRmi9Olx0_B7A?authuser=0&hl=en&rclk=1",
        "coordinates": {
            "latitude": 16.493572999999998,
            "longitude": 75.0387933
        }
    },
    {
        "name": "Madina Masjid Bhuvi Galli",
        "main_category": "Mosque",
        "address": "F2WW+CX8 Madina Masjid Bhuvi Galli, Terdal, Karnataka 587315",
        "detailed_address": {
            "ward": null,
            "street": "F2WW+CX8",
            "city": "Terdal",
            "postal_code": "587315",
            "state": "Karnataka",
            "country_code": "IN"
        },
        "images": [],
        "link": "https://www.google.com/maps/place/Madina+Masjid+Bhuvi+Galli/data=!4m7!3m6!1s0x3bc733a4a8584f33:0x86ae2066f844f93d!8m2!3d16.4960391!4d75.0474512!16s%2Fg%2F11gxvnfyhj!19sChIJM09YqKQzxzsRPflE-GYgroY?authuser=0&hl=en&rclk=1",
        "coordinates": {
            "latitude": 16.4960391,
            "longitude": 75.0474512
        }
    }
]