[
    {
        "name": "Ena Islampur Masjid",
        "main_category": "Mosque",
        "address": "QC46+V8H Ena Islampur Masjid, Bhagatdih, Jharkhand 828111",
        "detailed_address": {
            "ward": null,
            "street": "QC46+V8H",
            "city": "Bhagatdih",
            "postal_code": "828111",
            "state": "Jharkhand",
            "country_code": "IN"
        },
        "images": [
            {
                "about": "All",
                "link": "https://lh5.googleusercontent.com/p/AF1QipOi6uFU-nJXjiSB7ZdwT4zyhQEhdd5mQez-d3yo=w224-h398-k-no"
            },
            {
                "about": "Videos",
                "link": "https://lh5.googleusercontent.com/p/AF1QipNF1oys0xVKgp7xMYeJtMCLakujOCaN6Ba31FID=w224-h398-k-no"
            }
        ],
        "link": "https://www.google.com/maps/place/Ena+Islampur+Masjid/data=!4m7!3m6!1s0x39f6a2cfcd3181ff:0xb2523599556c7196!8m2!3d23.7571957!4d86.4108748!16s%2Fg%2F11c526h0k7!19sChIJ_4Exzc-i9jkRlnFsVZk1UrI?authuser=0&hl=en&rclk=1",
        "coordinates": {
            "latitude": 23.7571957,
            "longitude": 86.4108748
        }
    },
    {
        "name": "Horladih Masjid",
        "main_category": "Mosque",
        "address": "PCM2+7HQ Horladih Masjid, horladih, Harladih, Jharkhand 828301",
        "detailed_address": {
            "ward": null,
            "street": "PCM2+7HQ, horladih, Harladih",
            "city": "Jitpur",
            "postal_code": "828301",
            "state": "Jharkhand",
            "country_code": "IN"
        },
        "images": [
            {
                "about": "All",
                "link": "https://lh5.googleusercontent.com/p/AF1QipNtHuUSzfjEdK_McHK56B5ZUczvUxSUin45vJju=w224-h398-k-no"
            }
        ],
        "link": "https://www.google.com/maps/place/Horladih+Masjid/data=!4m7!3m6!1s0x39f6a2a32c4905d1:0x881c0c50d459796!8m2!3d23.7332033!4d86.4014981!16s%2Fg%2F11c328lcsl!19sChIJ0QVJLKOi9jkRlpdFDcXAgQg?authuser=0&hl=en&rclk=1",
        "coordinates": {
            "latitude": 23.7332033,
            "longitude": 86.4014981
        }
    },
    {
        "name": "Noori Masjid",
        "main_category": "Mosque",
        "address": "PCQ7+52V Noori Masjid, Upper Kulhi Rd, Poddar Para, Jharia, Jharkhand 828111",
        "detailed_address": {
            "ward": "Poddar Para",
            "street": "PCQ7+52V, Upper Kulhi Rd",
            "city": "Jharia",
            "postal_code": "828111",
            "state": "Jharkhand",
            "country_code": "IN"
        },
        "images": [
            {
                "about": "All",
                "link": "https://lh5.googleusercontent.com/p/AF1QipM_mM6wYlwhjBSasZuPhce1w1ZZn4UvOR_JtXyt=w224-h378-k-no"
            },
            {
                "about": "Dome",
                "link": "https://lh5.googleusercontent.com/p/AF1QipNCk7bP2AdxtupDKVFETu2QolTNu0AkjSfjiA6t=w666-h298-k-no"
            },
            {
                "about": "Videos",
                "link": "https://lh5.googleusercontent.com/p/AF1QipMRXOMyt0zCZX5pwUwrQRLNMnas29lOBtdnhpoG=w529-h298-k-no"
            }
        ],
        "link": "https://www.google.com/maps/place/Noori+Masjid/data=!4m7!3m6!1s0x39f6a2b16b1aaaab:0xfa068f85ce5adfbf!8m2!3d23.7379992!4d86.4125511!16s%2Fg%2F11bw5_7_r4!19sChIJq6oaa7Gi9jkRv99azoWPBvo?authuser=0&hl=en&rclk=1",
        "coordinates": {
            "latitude": 23.737999199999997,
            "longitude": 86.4125511
        }
    },
    {
        "name": "Jama Masjid",
        "main_category": "Mosque",
        "address": "PCV7+2J9 Jama Masjid, Amla Para Main Rd, Amala Para, Jharia, Jharkhand 828111",
        "detailed_address": {
            "ward": "Amala Para",
            "street": "PCV7+2J9, Amla Para Main Rd",
            "city": "Jharia",
            "postal_code": "828111",
            "state": "Jharkhand",
            "country_code": "IN"
        },
        "images": [],
        "link": "https://www.google.com/maps/place/Jama+Masjid/data=!4m7!3m6!1s0x39f6a2b42c68ad95:0xce651c9a066fbdec!8m2!3d23.7425366!4d86.4140994!16s%2Fg%2F1w4f6j76!19sChIJla1oLLSi9jkR7L1vBpocZc4?authuser=0&hl=en&rclk=1",
        "coordinates": {
            "latitude": 23.742536599999998,
            "longitude": 86.4140994
        }
    },
    {
        "name": "Madinah Masjid",
        "main_category": "Mosque",
        "address": "PCW5+VC9 Madinah Masjid, Unnamed Road, Dhaska Patti, Jharia, Jharkhand 828309",
        "detailed_address": {
            "ward": "Dhaska Patti",
            "street": "PCW5+VC9, Unnamed Road",
            "city": "Jharia",
            "postal_code": "828309",
            "state": "Jharkhand",
            "country_code": "IN"
        },
        "images": [
            {
                "about": "All",
                "link": "https://lh5.googleusercontent.com/p/AF1QipOZfEbu5bGIbfwrHFI80AnnKR2T1FKr4S285STg=w529-h298-k-no"
            }
        ],
        "link": "https://www.google.com/maps/place/Madinah+Masjid/data=!4m7!3m6!1s0x39f6a37daa5f58d9:0xb82fbe6f190e8e2f!8m2!3d23.7471543!4d86.4086091!16s%2Fg%2F11h392n7kd!19sChIJ2Vhfqn2j9jkRL44OGW--L7g?authuser=0&hl=en&rclk=1",
        "coordinates": {
            "latitude": 23.7471543,
            "longitude": 86.40860909999999
        }
    },
    {
        "name": "Masjid E Belal",
        "main_category": "Mosque",
        "address": "PCQ7+5F2 Masjid E Belal, Poddar Para, Jharia, Jharkhand 828309",
        "detailed_address": {
            "ward": "Poddar Para",
            "street": "PCQ7+5F2",
            "city": "Jharia",
            "postal_code": "828309",
            "state": "Jharkhand",
            "country_code": "IN"
        },
        "images": [],
        "link": "https://www.google.com/maps/place/Masjid+E+Belal/data=!4m7!3m6!1s0x39f6a2b16209d345:0x1014675d335282fd!8m2!3d23.7378756!4d86.4136314!16s%2Fg%2F11cm01_r60!19sChIJRdMJYrGi9jkR_YJSM11nFBA?authuser=0&hl=en&rclk=1",
        "coordinates": {
            "latitude": 23.7378756,
            "longitude": 86.4136314
        }
    },
    {
        "name": "Quadri Mosque",
        "main_category": "Mosque",
        "address": "Q92R+8X9 Quadri Mosque, Jharia Khas, Jharkhand 828117",
        "detailed_address": {
            "ward": null,
            "street": "Q92R+8X9",
            "city": "Jharia Khas",
            "postal_code": "828117",
            "state": "Jharkhand",
            "country_code": "IN"
        },
        "images": [
            {
                "about": "All",
                "link": "https://lh5.googleusercontent.com/p/AF1QipNRAD3Mt9An4INgSW-5GDpX86ER2Cygszzwzkbb=w596-h298-k-no"
            },
            {
                "about": "Dome",
                "link": "https://lh5.googleusercontent.com/p/AF1QipP5krGobPxdDNJsL5RKRwrox2Mw0Bnjt25FIzcP=w224-h298-k-no"
            },
            {
                "about": "Videos",
                "link": "https://lh5.googleusercontent.com/p/AF1QipMMsxYDhJ50hPMmWc2YZdgL8MttN21rDTH1xoNJ=w529-h298-k-no"
            }
        ],
        "link": "https://www.google.com/maps/place/Quadri+Mosque/data=!4m7!3m6!1s0x39f6a2ec1c1a591b:0xfbb29e8b3daaaf32!8m2!3d23.7507962!4d86.3924986!16s%2Fg%2F11g81cdwhj!19sChIJG1kaHOyi9jkRMq-qPYuesvs?authuser=0&hl=en&rclk=1",
        "coordinates": {
            "latitude": 23.7507962,
            "longitude": 86.3924986
        }
    },
    {
        "name": "Madrasa Mohammadiya Masjid",
        "main_category": "Mosque",
        "address": "PCQ7+93V Madrasa Mohammadiya Masjid, Uppar Kulli, Jharia, Dhanbad, Jharkhand",
        "detailed_address": {
            "ward": "Poddar Para",
            "street": "PCQ7+93V, Uppar Kulli, Jharia",
            "city": "Dhanbad, Jharia",
            "postal_code": null,
            "state": "Jharkhand",
            "country_code": "IN"
        },
        "images": [
            {
                "about": "All",
                "link": "//lh6.googleusercontent.com/2-lrjKFJmhqKk5fgW01DTZXWkMeiWFWw2076Ru_QhH6V6puRQ-yGby8EfRFzEwMd=w529-h298-k-no"
            }
        ],
        "link": "https://www.google.com/maps/place/Madrasa+Mohammadiya+Masjid/data=!4m7!3m6!1s0x39f6a2b146df725b:0x5a83c95da048b475!8m2!3d23.7384928!4d86.4126779!16s%2Fg%2F11crzql_yz!19sChIJW3LfRrGi9jkRdbRIoF3Jg1o?authuser=0&hl=en&rclk=1",
        "coordinates": {
            "latitude": 23.7384928,
            "longitude": 86.41267789999999
        }
    },
    {
        "name": "Industry Colliery Masjid",
        "main_category": "Mosque",
        "address": "QC64+5P2 Industry Colliery Masjid, Unnamed Road, Dhanbad, Bhagatdih, Jharkhand 828111",
        "detailed_address": {
            "ward": null,
            "street": "QC64+5P2, Unnamed Road",
            "city": "Dhanbad, Bhagatdih",
            "postal_code": "828111",
            "state": "Jharkhand",
            "country_code": "IN"
        },
        "images": [
            {
                "about": "All",
                "link": "https://lh5.googleusercontent.com/p/AF1QipP6BytEGxxwwo02wAgkQtE_2vaHhVxZV5MOW-1x=w447-h298-k-no"
            },
            {
                "about": "Dome",
                "link": "https://lh5.googleusercontent.com/p/AF1QipP6BytEGxxwwo02wAgkQtE_2vaHhVxZV5MOW-1x=w447-h298-k-no"
            },
            {
                "about": "Street View & 360deg",
                "link": "https://streetviewpixels-pa.googleapis.com/v1/thumbnail?panoid=PNrs8oR_PoRMkyRy0bIFbA&cb_client=maps_sv.tactile.gps&w=224&h=298&yaw=23.146418&pitch=0&thumbfov=100"
            }
        ],
        "link": "https://www.google.com/maps/place/Industry+Colliery+Masjid/data=!4m7!3m6!1s0x39f6a3291b9893bb:0xe73f2e77377697a7!8m2!3d23.7603937!4d86.4067726!16s%2Fg%2F11fm49kpy1!19sChIJu5OYGymj9jkRp5d2N3cuP-c?authuser=0&hl=en&rclk=1",
        "coordinates": {
            "latitude": 23.760393699999998,
            "longitude": 86.4067726
        }
    },
    {
        "name": "Husaini Masjid CHHALCHAALIYA DHOURA",
        "main_category": "Mosque",
        "address": "PCJF+75M Husaini Masjid CHHALCHAALIYA DHOURA, N S LODNA CHHAL CHHALIYA DHOURA PO, Lodna, Jharia, Jharkhand 828131",
        "detailed_address": {
            "ward": "Lodna, Nai Duniya Mohlla",
            "street": "PCJF+75M, N S LODNA CHHAL CHHALIYA DHOURA PO",
            "city": "Jharia, Tisra",
            "postal_code": "828131",
            "state": "Jharkhand",
            "country_code": "IN"
        },
        "images": [
            {
                "about": "All",
                "link": "https://lh5.googleusercontent.com/p/AF1QipPbIvliIhZOCNR5vkDb3QdDjYbuCFBTrmdD10ui=w397-h298-k-no"
            }
        ],
        "link": "https://www.google.com/maps/place/Husaini+Masjid+CHHALCHAALIYA+DHOURA/data=!4m7!3m6!1s0x39f6bdea8e3b4bb7:0x44ec9cc3c4c86682!8m2!3d23.7307095!4d86.4229321!16s%2Fg%2F11pptv9l3_!19sChIJt0s7juq99jkRgmbIxMOc7EQ?authuser=0&hl=en&rclk=1",
        "coordinates": {
            "latitude": 23.7307095,
            "longitude": 86.4229321
        }
    },
    {
        "name": "Madarsa Islah-Ul-Muslmin",
        "main_category": "Mosque",
        "address": "PCV5+3W5 Madarsa Islah-Ul-Muslmin, Thana More, Chouthai Kulhi, Jharia, Dhanbad, Jharkhand",
        "detailed_address": {
            "ward": "Dhaska Patti",
            "street": "PCV5+3W5, Thana More, Chouthai Kulhi, Jharia",
            "city": "Dhanbad, Jharia",
            "postal_code": null,
            "state": "Jharkhand",
            "country_code": "IN"
        },
        "images": [
            {
                "about": "All",
                "link": "//lh6.googleusercontent.com/eprvGoTLe7nwiCfV5JCOg2F-RbyI4EgChLQ24UYVTIRhuI8vb91Bh4iSHiziLaU=w529-h298-k-no"
            },
            {
                "about": "Street View & 360deg",
                "link": "https://streetviewpixels-pa.googleapis.com/v1/thumbnail?panoid=LZLR_Nk1xqyFajO72kihHA&cb_client=maps_sv.tactile.gps&w=224&h=298&yaw=278.5618&pitch=0&thumbfov=100"
            },
            {
                "about": "Videos",
                "link": "https://lh5.googleusercontent.com/p/AF1QipPIavp63JlY9x17dKZr4TTIgFTn4GlYjTbux30M=w529-h298-k-no"
            }
        ],
        "link": "https://www.google.com/maps/place/Madarsa+Islah-Ul-Muslmin/data=!4m7!3m6!1s0x39f6a2b7a0621859:0xc9d9d032bc0e30e1!8m2!3d23.7426369!4d86.4098612!16s%2Fg%2F11crzstk46!19sChIJWRhioLei9jkR4TAOvDLQ2ck?authuser=0&hl=en&rclk=1",
        "coordinates": {
            "latitude": 23.742636899999997,
            "longitude": 86.4098612
        }
    },
    {
        "name": "Arnib Nawaz Masjid",
        "main_category": "Mosque",
        "address": "QC36+MJ6 Arnib Nawaz Masjid, East bhagatdih, Rajapur, Dhanbad, Jharkhand 828111",
        "detailed_address": {
            "ward": "Rajapur",
            "street": "QC36+MJ6, East bhagatdih",
            "city": "Dhanbad, Bhagatdih",
            "postal_code": "828111",
            "state": "Jharkhand",
            "country_code": "IN"
        },
        "images": [
            {
                "about": "All",
                "link": "https://lh5.googleusercontent.com/p/AF1QipMj6COqelth1Ub6OiaYaCqaXC_14a2_Q8Q2-Suk=w529-h298-k-no"
            },
            {
                "about": "Videos",
                "link": "https://lh5.googleusercontent.com/p/AF1QipNj4JxAA5A4K-TDh7ZvR_ePUlrKubsz8KSsiDDR=w224-h398-k-no"
            }
        ],
        "link": "https://www.google.com/maps/place/Arnib+Nawaz+Masjid/data=!4m7!3m6!1s0x39f6a3ddb4f504e9:0xc2194527c4b1154f!8m2!3d23.7541747!4d86.4115269!16s%2Fg%2F11flrj3kl1!19sChIJ6QT1tN2j9jkRTxWxxCdFGcI?authuser=0&hl=en&rclk=1",
        "coordinates": {
            "latitude": 23.7541747,
            "longitude": 86.4115269
        }
    },
    {
        "name": "Raza masjid",
        "main_category": "Mosque",
        "address": "PCP7+6PW Raza masjid, Poddar Para, Jharia, Jharkhand 828309",
        "detailed_address": {
            "ward": "Poddar Para",
            "street": "PCP7+6PW",
            "city": "Jharia",
            "postal_code": "828309",
            "state": "Jharkhand",
            "country_code": "IN"
        },
        "images": [
            {
                "about": "All",
                "link": "https://streetviewpixels-pa.googleapis.com/v1/thumbnail?panoid=3Y97Qjq8Ik5wo_tW0J5xrQ&cb_client=maps_sv.tactile.gps&w=224&h=298&yaw=24.62236&pitch=0&thumbfov=100"
            },
            {
                "about": "Street View & 360deg",
                "link": "https://streetviewpixels-pa.googleapis.com/v1/thumbnail?panoid=3Y97Qjq8Ik5wo_tW0J5xrQ&cb_client=maps_sv.tactile.gps&w=224&h=298&yaw=24.62236&pitch=0&thumbfov=100"
            }
        ],
        "link": "https://www.google.com/maps/place/Raza+masjid/data=!4m7!3m6!1s0x39f6a3a94c82edb9:0x8bbd9d737236e8a7!8m2!3d23.7356225!4d86.4143323!16s%2Fg%2F11h58wdlpq!19sChIJue2CTKmj9jkRp-g2cnOdvYs?authuser=0&hl=en&rclk=1",
        "coordinates": {
            "latitude": 23.735622499999998,
            "longitude": 86.4143323
        }
    },
    {
        "name": "MADARSA GHOUSIA",
        "main_category": "Mosque",
        "address": "PCH7+JV8 MADARSA GHOUSIA, Baniyahir-Lodna Rd, 3, Jharia, Jamadoba, Jharkhand 828131",
        "detailed_address": {
            "ward": "3",
            "street": "PCH7+JV8, Baniyahir-Lodna Rd",
            "city": "Jharia, Jamadoba",
            "postal_code": "828131",
            "state": "Jharkhand",
            "country_code": "IN"
        },
        "images": [
            {
                "about": "All",
                "link": "https://streetviewpixels-pa.googleapis.com/v1/thumbnail?panoid=BaC31wt9wtMWfy_IRWZgXQ&cb_client=maps_sv.tactile.gps&w=224&h=298&yaw=250.55542&pitch=0&thumbfov=100"
            },
            {
                "about": "Street View & 360deg",
                "link": "https://streetviewpixels-pa.googleapis.com/v1/thumbnail?panoid=BaC31wt9wtMWfy_IRWZgXQ&cb_client=maps_sv.tactile.gps&w=224&h=298&yaw=250.55542&pitch=0&thumbfov=100"
            },
            {
                "about": "Videos",
                "link": "https://lh5.googleusercontent.com/p/AF1QipMms43qM2YhKvsrNkOXcUz_2V3dRMAVC89CtRbx=w224-h395-k-no"
            }
        ],
        "link": "https://www.google.com/maps/place/MADARSA+GHOUSIA/data=!4m7!3m6!1s0x39f6a35826cebca5:0xa14313d694250fd0!8m2!3d23.7290448!4d86.4147044!16s%2Fg%2F11fpg1rkck!19sChIJpbzOJlij9jkR0A8llNYTQ6E?authuser=0&hl=en&rclk=1",
        "coordinates": {
            "latitude": 23.7290448,
            "longitude": 86.41470439999999
        }
    },
    {
        "name": "Moti Masjid",
        "main_category": "Mosque",
        "address": "PCX8+R4R Moti Masjid, Rajapur, Jharia, Jharkhand 828111",
        "detailed_address": {
            "ward": "Rajapur",
            "street": "PCX8+R4R",
            "city": "Jharia",
            "postal_code": "828111",
            "state": "Jharkhand",
            "country_code": "IN"
        },
        "images": [],
        "link": "https://www.google.com/maps/place/Moti+Masjid/data=!4m7!3m6!1s0x39f6a2cbbbcdc93d:0x1278cb008311c9cf!8m2!3d23.7496211!4d86.4152668!16s%2Fg%2F11gdzftw5f!19sChIJPcnNu8ui9jkRz8kRgwDLeBI?authuser=0&hl=en&rclk=1",
        "coordinates": {
            "latitude": 23.7496211,
            "longitude": 86.4152668
        }
    },
    {
        "name": "Mosque",
        "main_category": "Mosque",
        "address": "PCV6+35J Mosque, Dhanbad - Sindri Rd, Baniahir No.4, Dhaska Patti, Jharia, Jharkhand 828309",
        "detailed_address": {
            "ward": "Baniahir No.4, Dhaska Patti",
            "street": "PCV6+35J, Dhanbad - Sindri Rd",
            "city": "Jharia",
            "postal_code": "828309",
            "state": "Jharkhand",
            "country_code": "IN"
        },
        "images": [],
        "link": "https://www.google.com/maps/place/Mosque/data=!4m7!3m6!1s0x39f6a3f127c09d97:0x20129ad8971964f7!8m2!3d23.742702!4d86.4103923!16s%2Fg%2F11fnqxkm8m!19sChIJl53AJ_Gj9jkR92QZl9iaEiA?authuser=0&hl=en&rclk=1",
        "coordinates": {
            "latitude": 23.742701999999998,
            "longitude": 86.4103923
        }
    },
    {
        "name": "Madarsah ghausiya",
        "main_category": "Mosque",
        "address": "PCP7+37J Madarsah ghausiya, Shah nagar, Jharia, Jharkhand 828309",
        "detailed_address": {
            "ward": "Shah nagar",
            "street": "PCP7+37J",
            "city": "Jharia",
            "postal_code": null,
            "state": "Jharkhand",
            "country_code": "IN"
        },
        "images": [
            {
                "about": "All",
                "link": "https://lh5.googleusercontent.com/p/AF1QipOORx5CibC7D6WYYUt9yHRxkODRVMxI5xD7-EtV=w224-h398-k-no"
            }
        ],
        "link": "https://www.google.com/maps/place/Madarsah+ghausiya/data=!4m7!3m6!1s0x39f6a3705fe49da1:0x1c3065f83fd7c8d9!8m2!3d23.7352208!4d86.413139!16s%2Fg%2F11snt1qrf4!19sChIJoZ3kX3Cj9jkR2cjXP_hlMBw?authuser=0&hl=en&rclk=1",
        "coordinates": {
            "latitude": 23.7352208,
            "longitude": 86.413139
        }
    },
    {
        "name": "Muslim burial ground ( Karbala kabristaan)",
        "main_category": "Mosque",
        "address": "PCP3+4JJ Muslim burial ground ( Karbala kabristaan), Shamsher Nagar, Jharia, Jharkhand 828309",
        "detailed_address": {
            "ward": "Shamsher Nagar",
            "street": "PCP3+4JJ",
            "city": "Jharia",
            "postal_code": "828309",
            "state": "Jharkhand",
            "country_code": "IN"
        },
        "images": [
            {
                "about": "All",
                "link": "https://lh5.googleusercontent.com/p/AF1QipMmcftdMD0xRkUZe3fiYjEiCMuSiI__xIIhasDY=w529-h298-k-no"
            },
            {
                "about": "Street View & 360deg",
                "link": "https://streetviewpixels-pa.googleapis.com/v1/thumbnail?panoid=Yn5QlgBRqgU4zBhdDs6EHQ&cb_client=maps_sv.tactile.gps&w=224&h=298&yaw=287.9192&pitch=0&thumbfov=100"
            }
        ],
        "link": "https://www.google.com/maps/place/Muslim+burial+ground+%28+Karbala+kabristaan%29/data=!4m7!3m6!1s0x39f6a3802dd147b7:0xb67811df50eddd96!8m2!3d23.7353353!4d86.4040039!16s%2Fg%2F11mbv8r_6j!19sChIJt0fRLYCj9jkRlt3tUN8ReLY?authuser=0&hl=en&rclk=1",
        "coordinates": {
            "latitude": 23.7353353,
            "longitude": 86.40400389999999
        }
    },
    {
        "name": "Gosiya Faziya",
        "main_category": "Mosque",
        "address": "P9MQ+X82 Gosiya Faziya, Burragarh - Jharia Road, Shamsher Nagar, Jharia, Jharkhand 828117",
        "detailed_address": {
            "ward": "Shamsher Nagar",
            "street": "P9MQ+X82, Burragarh - Jharia Road",
            "city": "Jharia",
            "postal_code": "828117",
            "state": "Jharkhand",
            "country_code": "IN"
        },
        "images": [
            {
                "about": "All",
                "link": "https://lh5.googleusercontent.com/p/AF1QipOEnAmufOOJEAqm0OFSIl9Ap-qpaT-QehMu00FG=w397-h298-k-no"
            }
        ],
        "link": "https://www.google.com/maps/place/Gosiya+Faziya/data=!4m7!3m6!1s0x39f6a3c521f26e71:0x9ac3003985aa590c!8m2!3d23.7348863!4d86.3882547!16s%2Fg%2F11p4zj1f73!19sChIJcW7yIcWj9jkRDFmqhTkAw5o?authuser=0&hl=en&rclk=1",
        "coordinates": {
            "latitude": 23.7348863,
            "longitude": 86.38825469999999
        }
    },
    {
        "name": "MADARSA BA'BUL ILLM",
        "main_category": "Mosque",
        "address": "PCP6+GP7 MADARSA BA'BUL ILLM, Shamsher Nagar, Jharia, Jharkhand 828309",
        "detailed_address": {
            "ward": "Shamsher Nagar",
            "street": "PCP6+GP7",
            "city": "Jharia",
            "postal_code": "828309",
            "state": "Jharkhand",
            "country_code": "IN"
        },
        "images": [
            {
                "about": "All",
                "link": "https://lh5.googleusercontent.com/p/AF1QipPHIAdVaqZmGhiO0a0eOeJLoKncPWhD0rmqnX-w=w224-h298-k-no"
            },
            {
                "about": "Street View & 360deg",
                "link": "https://streetviewpixels-pa.googleapis.com/v1/thumbnail?panoid=TDCngq2ZSFMQzla4KY4g_w&cb_client=maps_sv.tactile.gps&w=224&h=298&yaw=345.3832&pitch=0&thumbfov=100"
            },
            {
                "about": "Videos",
                "link": "https://lh5.googleusercontent.com/p/AF1QipP2ny3Mn1LkcsDDrLLkVKKedw5GJRRejYv6Qhi3=w224-h398-k-no"
            }
        ],
        "link": "https://www.google.com/maps/place/MADARSA+BA%27BUL+ILLM/data=!4m7!3m6!1s0x39f6a31c03ad2b65:0xcca6fce471668cb2!8m2!3d23.7362918!4d86.4117821!16s%2Fg%2F11h1m577zy!19sChIJZSutAxyj9jkRsoxmceT8psw?authuser=0&hl=en&rclk=1",
        "coordinates": {
            "latitude": 23.7362918,
            "longitude": 86.4117821
        }
    },
    {
        "name": "Naya imam bara",
        "main_category": "Mosque",
        "address": "Q92V+FH4 Naya imam bara, Jharia Khas, Jharkhand 828117",
        "detailed_address": {
            "ward": null,
            "street": "Q92V+FH4",
            "city": "Jharia Khas",
            "postal_code": null,
            "state": "Jharkhand",
            "country_code": "IN"
        },
        "images": [
            {
                "about": "All",
                "link": "https://lh5.googleusercontent.com/p/AF1QipMHyH-xHJ0Z1q2jLrAIOKSz4_RN8v7MKZRQ9gnf=w224-h497-k-no"
            },
            {
                "about": "Dome",
                "link": "https://lh5.googleusercontent.com/p/AF1QipPi1-EGk-nTla-PocrUlp5-iH6swhmGgWJ01BE=w397-h298-k-no"
            },
            {
                "about": "Street View & 360deg",
                "link": "https://streetviewpixels-pa.googleapis.com/v1/thumbnail?panoid=6RidG-_up2VweDoNwvr0ug&cb_client=maps_sv.tactile.gps&w=224&h=298&yaw=284.2443&pitch=0&thumbfov=100"
            }
        ],
        "link": "https://www.google.com/maps/place/Naya+imam+bara/data=!4m7!3m6!1s0x39f6a37def38a02f:0x1c241723d841b90b!8m2!3d23.751129!4d86.3939482!16s%2Fg%2F11mq2sp_gq!19sChIJL6A4732j9jkRC7lB2CMXJBw?authuser=0&hl=en&rclk=1",
        "coordinates": {
            "latitude": 23.751129,
            "longitude": 86.3939482
        }
    },
    {
        "name": "Hujrah E Imam Quadri Masjid",
        "main_category": "Mosque",
        "address": "Hujrah E Imam Quadri Masjid, Shimlabahal Basti, Jharia Khas, Jharkhand 828117",
        "detailed_address": {
            "ward": null,
            "street": "Shimlabahal Basti",
            "city": "Jharia Khas",
            "postal_code": "828117",
            "state": "Jharkhand",
            "country_code": "IN"
        },
        "images": [],
        "link": "https://www.google.com/maps/place/Hujrah+E+Imam+Quadri+Masjid/data=!4m7!3m6!1s0x39f6a2ec1eb24d8b:0x6faee81fbb4dd6e9!8m2!3d23.7508053!4d86.3924265!16s%2Fg%2F11h9qflrhs!19sChIJi02yHuyi9jkR6dZNux_orm8?authuser=0&hl=en&rclk=1",
        "coordinates": {
            "latitude": 23.7508053,
            "longitude": 86.3924265
        }
    },
    {
        "name": "Badi masjid",
        "main_category": "Preschool",
        "address": "Badi masjid, Amala Para, Jharia, Jharkhand 828111",
        "detailed_address": {
            "ward": "Amala Para",
            "street": "Badi masjid",
            "city": "Jharia",
            "postal_code": "828111",
            "state": "Jharkhand",
            "country_code": "IN"
        },
        "images": [],
        "link": "https://www.google.com/maps/place/Badi+masjid/data=!4m7!3m6!1s0x39f6a3fcdfd89357:0xc5324348d86479bf!8m2!3d23.7424715!4d86.414026!16s%2Fg%2F11tjhpydv5!19sChIJV5PY3_yj9jkRv3lk2EhDMsU?authuser=0&hl=en&rclk=1",
        "coordinates": {
            "latitude": 23.7424715,
            "longitude": 86.41402599999999
        }
    }
]