[
    {
        "name": "Kadim Sunni Masjid Main Rd Rfj",
        "main_category": "Mosque",
        "address": "RJ8M+XM3 Kadim Sunni Masjid Main Rd Rfj, Rafiganj Main Rd, Rafiganj, Bihar 824125",
        "detailed_address": {
            "ward": null,
            "street": "RJ8M+XM3, Rafiganj Main Rd",
            "city": "Rafiganj",
            "postal_code": "824125",
            "state": "Bihar",
            "country_code": "IN"
        },
        "images": [],
        "link": "https://www.google.com/maps/place/Kadim+Sunni+Masjid+Main+Rd+Rfj/data=!4m7!3m6!1s0x398d2071a8abdc13:0xcb64de39270aeb44!8m2!3d24.8173935!4d84.6341624!16s%2Fg%2F11c15121vt!19sChIJE9yrqHEgjTkRROsKJzneZMs?authuser=0&hl=en&rclk=1",
        "coordinates": {
            "latitude": 24.817393499999998,
            "longitude": 84.6341624
        }
    },
    {
        "name": "AL-MADINA MASJID",
        "main_category": "Mosque",
        "address": "RJ8Q+QRC AL-MADINA MASJID, Imaam Ahmed Raza Road, Taiba Nagar, New Area, Rafiganj, Bihar 824125",
        "detailed_address": {
            "ward": null,
            "street": "RJ8Q+QRC, Imaam Ahmed Raza Road, Taiba Nagar, New Area",
            "city": "Rafiganj",
            "postal_code": "824125",
            "state": "Bihar",
            "country_code": "IN"
        },
        "images": [
            {
                "about": "All",
                "link": "https://lh5.googleusercontent.com/p/AF1QipPrSYUzoV1ylFo6vq2VtMZUvFLVHUJj_Ps5vcRE=w529-h298-k-no"
            },
            {
                "about": "Videos",
                "link": "https://lh5.googleusercontent.com/p/AF1QipOkrPMXjo8SdsK81wCkmjX6nI3CxfiqSGHwBQvn=w529-h298-k-no"
            }
        ],
        "link": "https://www.google.com/maps/place/AL-MADINA+MASJID/data=!4m7!3m6!1s0x398d207a50ca37bb:0xf245c7ba3721b17a!8m2!3d24.8169274!4d84.6395003!16s%2Fg%2F11clv6xnxg!19sChIJuzfKUHogjTkRerEhN7rHRfI?authuser=0&hl=en&rclk=1",
        "coordinates": {
            "latitude": 24.816927399999997,
            "longitude": 84.6395003
        }
    },
    {
        "name": "Fida Bigha Masjid",
        "main_category": "Mosque",
        "address": "RJF9+WJC Fida Bigha Masjid, Obra - Rafiganj Rd, Rafiganj, Bihar 824125",
        "detailed_address": {
            "ward": null,
            "street": "RJF9+WJC, Obra - Rafiganj Rd",
            "city": "Rafiganj",
            "postal_code": "824125",
            "state": "Bihar",
            "country_code": "IN"
        },
        "images": [
            {
                "about": "All",
                "link": "https://lh5.googleusercontent.com/p/AF1QipOo9Sgc_Fug1JV3RRwNlIF6RpQVt3Y8McjKPR_L=w397-h298-k-no"
            },
            {
                "about": "Street View & 360deg",
                "link": "https://streetviewpixels-pa.googleapis.com/v1/thumbnail?panoid=5KgaQI7jmlWBfo2sUnOlrQ&cb_client=maps_sv.tactile.gps&w=224&h=298&yaw=24.434048&pitch=0&thumbfov=100"
            },
            {
                "about": "Videos",
                "link": "https://lh5.googleusercontent.com/p/AF1QipMvcvPtYaKJnf5BVZP6WmZwC2Rz6PKiIdkfd48=w224-h407-k-no"
            }
        ],
        "link": "https://www.google.com/maps/place/Fida+Bigha+Masjid/data=!4m7!3m6!1s0x398d201140b7f955:0xcc95d69b3cf49e17!8m2!3d24.824813!4d84.6190005!16s%2Fg%2F11g6xsp3r3!19sChIJVfm3QBEgjTkRF570PJvWlcw?authuser=0&hl=en&rclk=1",
        "coordinates": {
            "latitude": 24.824813,
            "longitude": 84.6190005
        }
    },
    {
        "name": "Raza Masjid",
        "main_category": "Mosque",
        "address": "Raza Masjid, ward no -13, ROAD, Raza Nagar, Rafiganj, Bihar 824125",
        "detailed_address": {
            "ward": "Raza Nagar, Charkawan",
            "street": "ward no -13, ROAD",
            "city": "Rafiganj",
            "postal_code": "824125",
            "state": "Bihar",
            "country_code": "IN"
        },
        "images": [
            {
                "about": "All",
                "link": "https://lh5.googleusercontent.com/p/AF1QipMZ1u5B2TwVgB9IFz64yygFuQkYJqVz34cVs-5N=w529-h298-k-no"
            }
        ],
        "link": "https://www.google.com/maps/place/Raza+Masjid/data=!4m7!3m6!1s0x398d206491b728e1:0xa6cac5b9a242b177!8m2!3d24.8224622!4d84.6418315!16s%2Fg%2F11b8_ngkxj!19sChIJ4Si3kWQgjTkRd7FCornFyqY?authuser=0&hl=en&rclk=1",
        "coordinates": {
            "latitude": 24.8224622,
            "longitude": 84.6418315
        }
    },
    {
        "name": "Babuganj Masjid Rafiganj",
        "main_category": "Mosque",
        "address": "RJ9J+583 Babuganj Masjid Rafiganj, Rafiganj, Bihar 824125",
        "detailed_address": {
            "ward": null,
            "street": "RJ9J+583",
            "city": "Rafiganj",
            "postal_code": "824125",
            "state": "Bihar",
            "country_code": "IN"
        },
        "images": [
            {
                "about": "All",
                "link": "https://lh5.googleusercontent.com/p/AF1QipM4adzfWLrvbFp7i2X7Wm9MY4E1v_MjBR-1M0hi=w224-h298-k-no"
            },
            {
                "about": "Videos",
                "link": "https://lh5.googleusercontent.com/p/AF1QipOIjNL44LdUIi_CaTENO7l9rb0fVcU0p6JNOrn6=w529-h298-k-no"
            }
        ],
        "link": "https://www.google.com/maps/place/Babuganj+Masjid+Rafiganj/data=!4m7!3m6!1s0x398d207247bcb9f7:0x99475e4b7688500b!8m2!3d24.8178936!4d84.630811!16s%2Fg%2F11dfgpwb3g!19sChIJ97m8R3IgjTkRC1CIdkteR5k?authuser=0&hl=en&rclk=1",
        "coordinates": {
            "latitude": 24.817893599999998,
            "longitude": 84.630811
        }
    },
    {
        "name": "Hajipur Mosque",
        "main_category": "Mosque",
        "address": "RJFF+R66 Hajipur Mosque, Rafiganj, Bihar 824125",
        "detailed_address": {
            "ward": null,
            "street": "RJFF+R66",
            "city": "Rafiganj",
            "postal_code": "824125",
            "state": "Bihar",
            "country_code": "IN"
        },
        "images": [
            {
                "about": "All",
                "link": "https://lh5.googleusercontent.com/p/AF1QipMNPOO8UCPAUCPP4nlifzQjgwKSYZ6FiWi-ibP-=w397-h298-k-no"
            },
            {
                "about": "Dome",
                "link": "https://lh5.googleusercontent.com/p/AF1QipNHmzbVsABBu8ijoEJwbmd1GtKku-AimFkleDqW=w224-h298-k-no"
            },
            {
                "about": "Videos",
                "link": "https://lh5.googleusercontent.com/p/AF1QipN6b8iPHiacGL1UDvxj50vEVm01_e3V6KrQjfnJ=w298-h298-k-no"
            },
            {
                "about": "Street View & 360deg",
                "link": "https://streetviewpixels-pa.googleapis.com/v1/thumbnail?panoid=qcKfE-P3FGTZ6fgfMro5EQ&cb_client=maps_sv.tactile.gps&w=224&h=298&yaw=21.639748&pitch=0&thumbfov=100"
            }
        ],
        "link": "https://www.google.com/maps/place/Hajipur+Mosque/data=!4m7!3m6!1s0x398d2013ece2d143:0x900a6cb4e6d6dfd2!8m2!3d24.8245387!4d84.6230178!16s%2Fg%2F11fxb1kfqy!19sChIJQ9Hi7BMgjTkR0t_W5rRsCpA?authuser=0&hl=en&rclk=1",
        "coordinates": {
            "latitude": 24.824538699999998,
            "longitude": 84.6230178
        }
    },
    {
        "name": "Nooriya Masjid, Mahavirganj",
        "main_category": "Mosque",
        "address": "RJCH+6F5 Nooriya Masjid, Mahavirganj, Rd, Mahavirganj, Abdulpur, Bihar 824125",
        "detailed_address": {
            "ward": null,
            "street": "RJCH+6F5, Rd",
            "city": "Mahavirganj, Abdulpur",
            "postal_code": "824125",
            "state": "Bihar",
            "country_code": "IN"
        },
        "images": [
            {
                "about": "All",
                "link": "https://lh5.googleusercontent.com/p/AF1QipPbWPYnHtLGY1OZqYbT3jzvUjRNzvlyRCoGOsvX=w224-h298-k-no"
            },
            {
                "about": "Dome",
                "link": "https://lh5.googleusercontent.com/p/AF1QipP9PPcLMn7OhbmkJv7nkB_2GMLZBGkRbNinV91h=w224-h336-k-no"
            },
            {
                "about": "Street View & 360deg",
                "link": "https://streetviewpixels-pa.googleapis.com/v1/thumbnail?panoid=UPVzcNF6AqceHHmi16Vqpg&cb_client=maps_sv.tactile.gps&w=224&h=298&yaw=43.466324&pitch=0&thumbfov=100"
            }
        ],
        "link": "https://www.google.com/maps/place/Nooriya+Masjid,+Mahavirganj/data=!4m7!3m6!1s0x398d206d65d057a7:0x38b3d8c06e8d9569!8m2!3d24.8205172!4d84.628735!16s%2Fg%2F11gcx_vbbv!19sChIJp1fQZW0gjTkRaZWNbsDYszg?authuser=0&hl=en&rclk=1",
        "coordinates": {
            "latitude": 24.820517199999998,
            "longitude": 84.62873499999999
        }
    },
    {
        "name": "Emadpur Jamaa Masjid",
        "main_category": "Mosque",
        "address": "RJ9M+9HP Emadpur Jamaa Masjid, emadpur, Rafiganj, Bihar 824125",
        "detailed_address": {
            "ward": "emadpur",
            "street": "RJ9M+9HP",
            "city": "Rafiganj",
            "postal_code": "824125",
            "state": "Bihar",
            "country_code": "IN"
        },
        "images": [
            {
                "about": "All",
                "link": "https://lh5.googleusercontent.com/p/AF1QipOiLb7g0y1WxztKnZ08aGZ4i3P8NCNTjptBbY3u=w224-h298-k-no"
            },
            {
                "about": "Videos",
                "link": "https://lh5.googleusercontent.com/p/AF1QipNPp7kLSj5J977kmI6iGwG9O-AGsE4h9M6Mkq6L=w224-h398-k-no"
            }
        ],
        "link": "https://www.google.com/maps/place/Emadpur+Jamaa+Masjid/data=!4m7!3m6!1s0x398d2071b8e62397:0x3e81866bd3dda152!8m2!3d24.818455!4d84.633947!16s%2Fg%2F11g8_0s3y_!19sChIJlyPmuHEgjTkRUqHd02uGgT4?authuser=0&hl=en&rclk=1",
        "coordinates": {
            "latitude": 24.818455,
            "longitude": 84.63394699999999
        }
    },
    {
        "name": "MASJID E NABVI KARIM",
        "main_category": "Mosque",
        "address": "RJ7R+9HJ MASJID E NABVI KARIM, Rafiganj, Bihar 824125",
        "detailed_address": {
            "ward": null,
            "street": "RJ7R+9HJ",
            "city": "Rafiganj",
            "postal_code": null,
            "state": "Bihar",
            "country_code": "IN"
        },
        "images": [
            {
                "about": "All",
                "link": "https://lh5.googleusercontent.com/p/AF1QipNoHsxGFE9g21lIL3pSUtqE0FFq7TabfGo6A9gf=w529-h298-k-no"
            },
            {
                "about": "Videos",
                "link": "https://lh5.googleusercontent.com/p/AF1QipNgnh2cqy91kXfUQorBH1aRNRx84wknqLv2GCK3=w529-h298-k-no"
            }
        ],
        "link": "https://www.google.com/maps/place/MASJID+E+NABVI+KARIM/data=!4m7!3m6!1s0x398d21a277504dcd:0xb33bcbd53fb37466!8m2!3d24.8134643!4d84.6414007!16s%2Fg%2F11pzw6bb7v!19sChIJzU1Qd6IhjTkRZnSzP9XLO7M?authuser=0&hl=en&rclk=1",
        "coordinates": {
            "latitude": 24.8134643,
            "longitude": 84.64140069999999
        }
    },
    {
        "name": "Gola Pur City Mosque",
        "main_category": "Mosque",
        "address": "RJCF+CX6 Gola Pur City Mosque, Rafiganj, Bihar 824125",
        "detailed_address": {
            "ward": null,
            "street": "RJCF+CX6",
            "city": "Rafiganj",
            "postal_code": "824125",
            "state": "Bihar",
            "country_code": "IN"
        },
        "images": [
            {
                "about": "All",
                "link": "https://streetviewpixels-pa.googleapis.com/v1/thumbnail?panoid=a4xWMbaMTHie9mw0jMMwuA&cb_client=maps_sv.tactile.gps&w=224&h=298&yaw=234.00624&pitch=0&thumbfov=100"
            },
            {
                "about": "Street View & 360deg",
                "link": "https://streetviewpixels-pa.googleapis.com/v1/thumbnail?panoid=a4xWMbaMTHie9mw0jMMwuA&cb_client=maps_sv.tactile.gps&w=224&h=298&yaw=234.00624&pitch=0&thumbfov=100"
            }
        ],
        "link": "https://www.google.com/maps/place/Gola+Pur+City+Mosque/data=!4m7!3m6!1s0x398d21f8f8bb9c27:0x14b2b3f30df9c51b!8m2!3d24.8210332!4d84.6248856!16s%2Fg%2F11h2fhlfb3!19sChIJJ5y7-PghjTkRG8X5DfOzshQ?authuser=0&hl=en&rclk=1",
        "coordinates": {
            "latitude": 24.8210332,
            "longitude": 84.6248856
        }
    },
    {
        "name": "Islamiya Masjid Mahrajganj Rafiganj",
        "main_category": "Mosque",
        "address": "RJ9M+2RX Islamiya Masjid Mahrajganj Rafiganj, Rafiganj, Bihar 824125",
        "detailed_address": {
            "ward": null,
            "street": "RJ9M+2RX",
            "city": "Rafiganj",
            "postal_code": "824125",
            "state": "Bihar",
            "country_code": "IN"
        },
        "images": [],
        "link": "https://www.google.com/maps/place/Islamiya+Masjid+Mahrajganj+Rafiganj/data=!4m7!3m6!1s0x398d2071ac416e13:0xb891ed8473956c52!8m2!3d24.817617!4d84.6346036!16s%2Fg%2F11g6mv255p!19sChIJE25BrHEgjTkRUmyVc4Ttkbg?authuser=0&hl=en&rclk=1",
        "coordinates": {
            "latitude": 24.817617,
            "longitude": 84.63460359999999
        }
    },
    {
        "name": "Lohar Gali Masjid",
        "main_category": "Place of worship",
        "address": "RJ9P+JJC Lohar Gali Masjid, Rafiganj, Bihar 824125",
        "detailed_address": {
            "ward": null,
            "street": "RJ9P+JJC",
            "city": "Rafiganj",
            "postal_code": "824125",
            "state": "Bihar",
            "country_code": "IN"
        },
        "images": [
            {
                "about": "All",
                "link": "https://lh5.googleusercontent.com/p/AF1QipP53PB4haPsr6CywliCvWIqSo76su22rMgka2pB=w529-h298-k-no"
            }
        ],
        "link": "https://www.google.com/maps/place/Lohar+Gali+Masjid/data=!4m7!3m6!1s0x398d207013e2796d:0x642f7e7d68875559!8m2!3d24.8190564!4d84.6365201!16s%2Fg%2F11b6_knr5n!19sChIJbXniE3AgjTkRWVWHaH1-L2Q?authuser=0&hl=en&rclk=1",
        "coordinates": {
            "latitude": 24.819056399999997,
            "longitude": 84.6365201
        }
    },
    {
        "name": "Jhikatiya Mosque",
        "main_category": "Mosque",
        "address": "RJHX+56 Jhikatiya Mosque, Rafiganj, Bihar 824125",
        "detailed_address": {
            "ward": null,
            "street": "RJHX+56",
            "city": "Rafiganj",
            "postal_code": null,
            "state": "Bihar",
            "country_code": "IN"
        },
        "images": [
            {
                "about": "All",
                "link": "https://lh5.googleusercontent.com/p/AF1QipOZWXb_bJuTIBHcDLXpzxdsocADcF1B4t3X2XWj=w224-h498-k-no"
            },
            {
                "about": "Street View & 360deg",
                "link": "https://streetviewpixels-pa.googleapis.com/v1/thumbnail?panoid=3bYADgghs_cPYLFngHZR6Q&cb_client=maps_sv.tactile.gps&w=224&h=298&yaw=264.6141&pitch=0&thumbfov=100"
            }
        ],
        "link": "https://www.google.com/maps/place/Jhikatiya+Mosque/data=!4m7!3m6!1s0x398d21566ba0c2f3:0x95c201aebb0f34d0!8m2!3d24.8279323!4d84.6481044!16s%2Fg%2F11rtrks69c!19sChIJ88Kga1YhjTkR0DQPu64BwpU?authuser=0&hl=en&rclk=1",
        "coordinates": {
            "latitude": 24.8279323,
            "longitude": 84.6481044
        }
    },
    {
        "name": "MASJID E TAIBA",
        "main_category": "Mosque",
        "address": "RJ9P+HJR MASJID E TAIBA, Rafiganj, Bihar 824125",
        "detailed_address": {
            "ward": null,
            "street": "RJ9P+HJR",
            "city": "Rafiganj",
            "postal_code": "824125",
            "state": "Bihar",
            "country_code": "IN"
        },
        "images": [],
        "link": "https://www.google.com/maps/place/MASJID+E+TAIBA/data=!4m7!3m6!1s0x398d213e73653fb1:0x42381e86686d7630!8m2!3d24.8189919!4d84.6365217!16s%2Fg%2F11qt45vphg!19sChIJsT9lcz4hjTkRMHZtaIYeOEI?authuser=0&hl=en&rclk=1",
        "coordinates": {
            "latitude": 24.8189919,
            "longitude": 84.6365217
        }
    },
    {
        "name": "Choti masjid",
        "main_category": "Mosque",
        "address": "RJ8J+9X8 Choti masjid, Rafiganj, Bihar 824125",
        "detailed_address": {
            "ward": null,
            "street": "RJ8J+9X8",
            "city": "Rafiganj",
            "postal_code": "824125",
            "state": "Bihar",
            "country_code": "IN"
        },
        "images": [],
        "link": "https://www.google.com/maps/place/Choti+masjid/data=!4m7!3m6!1s0x398d2147e0bf51d3:0xd90da7638b036f23!8m2!3d24.8159122!4d84.6324599!16s%2Fg%2F11fm5wz6sb!19sChIJ01G_4EchjTkRI28Di2OnDdk?authuser=0&hl=en&rclk=1",
        "coordinates": {
            "latitude": 24.8159122,
            "longitude": 84.6324599
        }
    },
    {
        "name": "Jama masjid ahmadpur",
        "main_category": "Mosque",
        "address": "RJGW+88V Jama masjid ahmadpur, Charkawan Rd, Sonbarsa, Rafiganj, Bihar 824125",
        "detailed_address": {
            "ward": null,
            "street": "RJGW+88V, Charkawan Rd",
            "city": "Sonbarsa, Rafiganj",
            "postal_code": "824125",
            "state": "Bihar",
            "country_code": "IN"
        },
        "images": [
            {
                "about": "All",
                "link": "https://streetviewpixels-pa.googleapis.com/v1/thumbnail?panoid=yMaTtUbUsO2GJiJQfPaNRA&cb_client=maps_sv.tactile.gps&w=224&h=298&yaw=331.45154&pitch=0&thumbfov=100"
            },
            {
                "about": "Street View & 360deg",
                "link": "https://streetviewpixels-pa.googleapis.com/v1/thumbnail?panoid=yMaTtUbUsO2GJiJQfPaNRA&cb_client=maps_sv.tactile.gps&w=224&h=298&yaw=331.45154&pitch=0&thumbfov=100"
            }
        ],
        "link": "https://www.google.com/maps/place/Jama+masjid+ahmadpur/data=!4m7!3m6!1s0x398d215323fa71f1:0xea046670fe56df8a!8m2!3d24.8258721!4d84.6458106!16s%2Fg%2F11t6fzmnj6!19sChIJ8XH6I1MhjTkRit9W_nBmBOo?authuser=0&hl=en&rclk=1",
        "coordinates": {
            "latitude": 24.825872099999998,
            "longitude": 84.64581059999999
        }
    },
    {
        "name": "Gausiya masjid",
        "main_category": "Mosque",
        "address": "RMH3+69R Gausiya masjid, Unnamed Road, Rafiganj, Sultan pur, Bihar 824125",
        "detailed_address": {
            "ward": null,
            "street": "RMH3+69R, Unnamed Road",
            "city": "Rafiganj, Sultan pur",
            "postal_code": "824125",
            "state": "Bihar",
            "country_code": "IN"
        },
        "images": [
            {
                "about": "All",
                "link": "https://lh5.googleusercontent.com/p/AF1QipN4mGSUMlN5N2dfhOTgUwFVMvTM-RHimBPA7vfZ=w397-h298-k-no"
            }
        ],
        "link": "https://www.google.com/maps/place/Gausiya+masjid/data=!4m7!3m6!1s0x398d216a8aadccad:0x8af579ca6cedb2aa!8m2!3d24.82811!4d84.6533967!16s%2Fg%2F11mqvsn_b_!19sChIJrcytimohjTkRqrLtbMp59Yo?authuser=0&hl=en&rclk=1",
        "coordinates": {
            "latitude": 24.82811,
            "longitude": 84.6533967
        }
    },
    {
        "name": "Maszid maulaganj",
        "main_category": "Mosque",
        "address": "RJCC+MV2 Maszid maulaganj, Rafiganj, Bihar 824125",
        "detailed_address": {
            "ward": null,
            "street": "RJCC+MV2",
            "city": "Rafiganj",
            "postal_code": "824125",
            "state": "Bihar",
            "country_code": "IN"
        },
        "images": [],
        "link": "https://www.google.com/maps/place/Maszid+maulaganj/data=!4m7!3m6!1s0x398d21be7241ef63:0x20af0097f7b96130!8m2!3d24.8216385!4d84.622141!16s%2Fg%2F11svvmm4ng!19sChIJY-9Bcr4hjTkRMGG595cAryA?authuser=0&hl=en&rclk=1",
        "coordinates": {
            "latitude": 24.8216385,
            "longitude": 84.622141
        }
    }
]