[
    {
        "name": "Jamia Masjid Khurban",
        "main_category": "Mosque",
        "address": "Q7P2+WH8 Jamia Masjid Khurban, Badar Ali, Dhariwal, Hafizabad, Punjab, Pakistan",
        "detailed_address": {
            "ward": null,
            "street": "Q7P2+WH8 Badar Ali",
            "city": "Dhariwal",
            "postal_code": null,
            "state": "Hafizabad, Punjab",
            "country_code": "PK"
        },
        "images": [
            {
                "about": "All",
                "link": "https://lh5.googleusercontent.com/p/AF1QipNlWPceKGqtpQ1dNRwX7YMRun7Ru_M0TGknhITS=w397-h298-k-no"
            }
        ],
        "link": "https://www.google.com/maps/place/Jamia+Masjid+Khurban/data=!4m7!3m6!1s0x39221be98ea6040d:0x557a44a87d649040!8m2!3d31.7872925!4d73.2514477!16s%2Fg%2F11p0_czc_l!19sChIJDQSmjukbIjkRQJBkfahEelU?authuser=0&hl=en&rclk=1",
        "coordinates": {
            "latitude": 31.7872925,
            "longitude": 73.2514477
        }
    },
    {
        "name": "Jamia Masjid Rajpotan Wali Dhariwal",
        "main_category": "Mosque",
        "address": "732J+5VR Jamia Masjid Rajpotan Wali Dhariwal, Unnamed Road, Dhariwal Kasur, Dhariwal, Kasur, Punjab, Pakistan",
        "detailed_address": {
            "ward": "Dhariwal Kasur",
            "street": "732J+5VR, Unnamed Road",
            "city": "Dhariwal",
            "postal_code": null,
            "state": "Kasur, Punjab",
            "country_code": "PK"
        },
        "images": [
            {
                "about": "All",
                "link": "https://lh5.googleusercontent.com/p/AF1QipP1nSA9asR0GnHF79R4i07wIRnHyXO-h5Y83WR8=w596-h298-k-no"
            },
            {
                "about": "Videos",
                "link": "https://lh5.googleusercontent.com/p/AF1QipNcl2SUUCWQUfOvXHIdl9ByzxsTdWx9lpIKmkHs=w224-h373-k-no"
            }
        ],
        "link": "https://www.google.com/maps/place/Jamia+Masjid+Rajpotan+Wali+Dhariwal/data=!4m7!3m6!1s0x391851ea4750ed6d:0x6f834492506142fc!8m2!3d31.2504809!4d74.082154!16s%2Fg%2F11h59pwwjb!19sChIJbe1QR-pRGDkR_EJhUJJEg28?authuser=0&hl=en&rclk=1",
        "coordinates": {
            "latitude": 31.2504809,
            "longitude": 74.082154
        }
    },
    {
        "name": "Jamiya Masjid Brailwi",
        "main_category": "Mosque",
        "address": "732M+6F3 Jamiya Masjid Brailwi, Dhariwal Kasur, Dhariwal, Lahore, Punjab, Pakistan",
        "detailed_address": {
            "ward": "Dhariwal Kasur",
            "street": "732M+6F3",
            "city": "Dhariwal",
            "postal_code": null,
            "state": "Lahore, Punjab",
            "country_code": "PK"
        },
        "images": [
            {
                "about": "All",
                "link": "https://lh5.googleusercontent.com/p/AF1QipMToORDR88ddU_bLbEQ1ac77-w3MNxq0GFsPRDC=w397-h298-k-no"
            }
        ],
        "link": "https://www.google.com/maps/place/Jamiya+Masjid+Brailwi/data=!4m7!3m6!1s0x391851c691abd0bf:0xc3e8862f400f96f8!8m2!3d31.2505126!4d74.0836809!16s%2Fg%2F11j84dgjls!19sChIJv9CrkcZRGDkR-JYPQC-G6MM?authuser=0&hl=en&rclk=1",
        "coordinates": {
            "latitude": 31.250512599999997,
            "longitude": 74.08368089999999
        }
    },
    {
        "name": "Noor Masjid",
        "main_category": "Mosque",
        "address": "RQFW+FWX Noor Masjid, Dhariwal, kalair, Punjab",
        "detailed_address": {
            "ward": null,
            "street": "RQFW+FWX, Dhariwal",
            "city": "kalair, Dhariwal",
            "postal_code": null,
            "state": "Punjab",
            "country_code": "IN"
        },
        "images": [],
        "link": "https://www.google.com/maps/place/Noor+Masjid/data=!4m7!3m6!1s0x39195d09a2d8490b:0xc6ad3cc74b3fbb1f!8m2!3d31.823747!4d74.7973647!16s%2Fg%2F11fk3wl_99!19sChIJC0nYogldGTkRH7s_S8c8rcY?authuser=0&hl=en&rclk=1",
        "coordinates": {
            "latitude": 31.823746999999997,
            "longitude": 74.7973647
        }
    },
    {
        "name": "Jamiya masjid Hazrat ayoob ansari",
        "main_category": "Mosque",
        "address": "732M+8H5 Jamiya masjid Hazrat ayoob ansari, Dhariwal Kasur, Dhariwal, Lahore, Punjab, Pakistan",
        "detailed_address": {
            "ward": "Dhariwal Kasur",
            "street": "732M+8H5",
            "city": "Dhariwal",
            "postal_code": null,
            "state": "Lahore, Punjab",
            "country_code": "PK"
        },
        "images": [],
        "link": "https://www.google.com/maps/place/Jamiya+masjid+Hazrat+ayoob+ansari/data=!4m7!3m6!1s0x391851ae90fa985f:0x4a4d9920f1c9ad9a!8m2!3d31.2507502!4d74.0839799!16s%2Fg%2F11q27thqc0!19sChIJX5j6kK5RGDkRmq3J8SCZTUo?authuser=0&hl=en&rclk=1",
        "coordinates": {
            "latitude": 31.2507502,
            "longitude": 74.0839799
        }
    },
    {
        "name": "Jamia Masjid Razaye Mustfa",
        "main_category": "Mosque",
        "address": "Jamia Masjid Razaye Mustfa, Ha, Dhariwal, Hafizabad, Punjab, Pakistan",
        "detailed_address": {
            "ward": null,
            "street": "Ha",
            "city": "Dhariwal",
            "postal_code": null,
            "state": "Hafizabad, Punjab",
            "country_code": "PK"
        },
        "images": [],
        "link": "https://www.google.com/maps/place/Jamia+Masjid+Razaye+Mustfa/data=!4m7!3m6!1s0x3922117d979458cf:0xa9d1527afcdb6baf!8m2!3d31.7686686!4d73.2429341!16s%2Fg%2F11kp2gbrnw!19sChIJz1iUl30RIjkRr2vb_HpS0ak?authuser=0&hl=en&rclk=1",
        "coordinates": {
            "latitude": 31.768668599999998,
            "longitude": 73.2429341
        }
    },
    {
        "name": "Jamia Masjid",
        "main_category": "Mosque",
        "address": "88C4+8V8 Jamia Masjid, Chak 67 GB Dhariwal, Faisalabad, Punjab, Pakistan",
        "detailed_address": {
            "ward": null,
            "street": "88C4+8V8",
            "city": "Chak 67 GB Dhariwal",
            "postal_code": null,
            "state": "Faisalabad, Punjab",
            "country_code": "PK"
        },
        "images": [],
        "link": "https://www.google.com/maps/place/Jamia+Masjid/data=!4m7!3m6!1s0x39227dd0e5ed4cc5:0x185860c8210d236b!8m2!3d31.3207881!4d73.3071904!16s%2Fg%2F11fr6tswyr!19sChIJxUzt5dB9IjkRayMNIchgWBg?authuser=0&hl=en&rclk=1",
        "coordinates": {
            "latitude": 31.320788099999998,
            "longitude": 73.3071904
        }
    }
]