[
    {
        "name": "Dargah Peer Baba Sher Shah Wali Ji",
        "main_category": "Mosque",
        "address": "XXCP+JHG Dargah Peer Baba Sher Shah Wali Ji, Zira Rd, Makhu Gate, Zira, Punjab 142047",
        "detailed_address": {
            "ward": "Makhu Gate",
            "street": "XXCP+JHG, Zira Rd",
            "city": "Zira",
            "postal_code": null,
            "state": "Punjab",
            "country_code": "IN"
        },
        "images": [
            {
                "about": "All",
                "link": "https://lh5.googleusercontent.com/p/AF1QipPmjzW59Dtx-Kzfc3xstOsmXOwkRyvJFIjET-Q0=w238-h298-k-no"
            },
            {
                "about": "Dome",
                "link": "https://lh5.googleusercontent.com/p/AF1QipPmjzW59Dtx-Kzfc3xstOsmXOwkRyvJFIjET-Q0=w238-h298-k-no"
            },
            {
                "about": "Street View & 360deg",
                "link": "https://streetviewpixels-pa.googleapis.com/v1/thumbnail?panoid=k4u3fmUjdlLdeJQipHtlnA&cb_client=maps_sv.tactile.gps&w=224&h=298&yaw=40.73523&pitch=0&thumbfov=100"
            }
        ],
        "link": "https://www.google.com/maps/place/Dargah+Peer+Baba+Sher+Shah+Wali+Ji/data=!4m7!3m6!1s0x391a1d9e81c842db:0xf8e516a1f65168f8!8m2!3d30.9715534!4d74.9864515!16s%2Fg%2F11g027yw9r!19sChIJ20LIgZ4dGjkR-GhR9qEW5fg?authuser=0&hl=en&rclk=1",
        "coordinates": {
            "latitude": 30.971553399999998,
            "longitude": 74.9864515
        }
    },
    {
        "name": "Madina masjid Bibi",
        "main_category": "Religious destination",
        "address": "29CG+X62 Madina masjid Bibi, Reservoir,, Chorpangra, Maharashtra 443202",
        "detailed_address": {
            "ward": null,
            "street": "29CG+X62, Reservoir,",
            "city": "Chorpangra",
            "postal_code": "443202",
            "state": "Maharashtra",
            "country_code": "IN"
        },
        "images": [
            {
                "about": "All",
                "link": "https://lh5.googleusercontent.com/p/AF1QipPDQGZp0eKyFHDUjF4zYjxgXpPZjFCwkv-6zkt2=w394-h298-k-no"
            },
            {
                "about": "Videos",
                "link": "https://lh5.googleusercontent.com/p/AF1QipMlebQhKAGYly4Vu7-fvrB_gPGRiJJHv0Miw1hW=w248-h298-k-no"
            }
        ],
        "link": "https://www.google.com/maps/place/Madina+masjid+Bibi/data=!4m7!3m6!1s0x3bda7734f20dafc7:0xeea9e8d7dee179fd!8m2!3d20.0223943!4d76.3755299!16s%2Fg%2F11c2lb1v0b!19sChIJx68N8jR32jsR_Xnh3tfoqe4?authuser=0&hl=en&rclk=1",
        "coordinates": {
            "latitude": 20.0223943,
            "longitude": 76.3755299
        }
    },
    {
        "name": "Khajoor Wali Masjid Ahle Hadees",
        "main_category": "Mosque",
        "address": "7VH6+W8V Khajoor Wali Masjid Ahle Hadees, Patti, Punjab 143416",
        "detailed_address": {
            "ward": null,
            "street": "7VH6+W8V",
            "city": "Patti",
            "postal_code": null,
            "state": "Punjab",
            "country_code": "IN"
        },
        "images": [],
        "link": "https://www.google.com/maps/place/Khajoor+Wali+Masjid+Ahle+Hadees/data=!4m7!3m6!1s0x3919859bb537ed77:0xf8bf1c295ad3b65d!8m2!3d31.2798744!4d74.8607869!16s%2Fg%2F11fj3cwkb3!19sChIJd-03tZuFGTkRXbbTWikcv_g?authuser=0&hl=en&rclk=1",
        "coordinates": {
            "latitude": 31.279874399999997,
            "longitude": 74.8607869
        }
    },
    {
        "name": "Muslim Masjid",
        "main_category": "Mosque",
        "address": "VMW9+JX8 Muslim Masjid, Bazidpur, Punjab 152004",
        "detailed_address": {
            "ward": null,
            "street": "VMW9+JX8",
            "city": "Bazidpur",
            "postal_code": "152004",
            "state": "Punjab",
            "country_code": "IN"
        },
        "images": [
            {
                "about": "All",
                "link": "https://streetviewpixels-pa.googleapis.com/v1/thumbnail?panoid=x1Ym1KqJrNTrEJdpGCIhLw&cb_client=maps_sv.tactile.gps&w=224&h=298&yaw=109.04568&pitch=0&thumbfov=100"
            },
            {
                "about": "Street View & 360deg",
                "link": "https://streetviewpixels-pa.googleapis.com/v1/thumbnail?panoid=x1Ym1KqJrNTrEJdpGCIhLw&cb_client=maps_sv.tactile.gps&w=224&h=298&yaw=109.04568&pitch=0&thumbfov=100"
            }
        ],
        "link": "https://www.google.com/maps/place/Muslim+Masjid/data=!4m7!3m6!1s0x3919e8a46358f7a7:0xb9cc32a6ff33c6e!8m2!3d30.8965289!4d74.6699482!16s%2Fg%2F11c31scxx7!19sChIJp_dYY6ToGTkRbjzzbyrDnAs?authuser=0&hl=en&rclk=1",
        "coordinates": {
            "latitude": 30.8965289,
            "longitude": 74.6699482
        }
    },
    {
        "name": "Zira Masjid",
        "main_category": "Mosque",
        "address": "794X+47H Zira Masjid, Moti Masjid Road, Peer Gate Road Moti Masjid, Front Of Iqbal Meda, Nakkar Khana, Peer Gate, Bhopal, Madhya Pradesh 462001",
        "detailed_address": {
            "ward": "Nakkar Khana, Peer Gate",
            "street": "794X+47H, Moti Masjid Road, Peer Gate Road Moti Masjid, Front Of Iqbal Meda",
            "city": "Bhopal",
            "postal_code": "462001",
            "state": "Madhya Pradesh",
            "country_code": "IN"
        },
        "images": [
            {
                "about": "All",
                "link": "https://streetviewpixels-pa.googleapis.com/v1/thumbnail?panoid=W4Sady4qU8sn688EBWn3AQ&cb_client=maps_sv.tactile.gps&w=224&h=298&yaw=215.89941&pitch=0&thumbfov=100"
            },
            {
                "about": "Street View & 360deg",
                "link": "https://streetviewpixels-pa.googleapis.com/v1/thumbnail?panoid=W4Sady4qU8sn688EBWn3AQ&cb_client=maps_sv.tactile.gps&w=224&h=298&yaw=215.89941&pitch=0&thumbfov=100"
            }
        ],
        "link": "https://www.google.com/maps/place/Zira+Masjid/data=!4m7!3m6!1s0x397c681eff123147:0x3a5f8422cf07f9d3!8m2!3d23.255303!4d77.3982367!16s%2Fg%2F11bbrgxk5l!19sChIJRzES_x5ofDkR0_kHzyKEXzo?authuser=0&hl=en&rclk=1",
        "coordinates": {
            "latitude": 23.255302999999998,
            "longitude": 77.3982367
        }
    },
    {
        "name": "Jama masjid zira",
        "main_category": "Mosque",
        "address": "X283+7GV Jama masjid zira, Ferozepur, Punjab 142047",
        "detailed_address": {
            "ward": null,
            "street": "X283+7GV",
            "city": "Ferozepur",
            "postal_code": "142047",
            "state": "Punjab",
            "country_code": "IN"
        },
        "images": [],
        "link": "https://www.google.com/maps/place/Jama+masjid+zira/data=!4m7!3m6!1s0x391a1d05913f7a6b:0x5fef7eb5b03bbd87!8m2!3d30.9657379!4d75.0037875!16s%2Fg%2F11fy4tt5xb!19sChIJa3o_kQUdGjkRh707sLV-718?authuser=0&hl=en&rclk=1",
        "coordinates": {
            "latitude": 30.965737899999997,
            "longitude": 75.0037875
        }
    },
    {
        "name": "jamia masjid zaldoora",
        "main_category": "Mosque",
        "address": "J5MR+F65 jamia masjid zaldoora, Zaldoora-Larkipora Rd, Larkipora, Zaldoora, 192211",
        "detailed_address": {
            "ward": null,
            "street": "J5MR+F65, Zaldoora-Larkipora Rd",
            "city": "Larkipora, Zaldoora",
            "postal_code": "192211",
            "state": null,
            "country_code": "IN"
        },
        "images": [
            {
                "about": "All",
                "link": "https://lh5.googleusercontent.com/p/AF1QipM4QZvXpZUgRnam8jXADoTOhBUfchiUYrQRNuxU=w645-h298-k-no"
            }
        ],
        "link": "https://www.google.com/maps/place/jamia+masjid+zaldoora/data=!4m7!3m6!1s0x38e209329a086715:0xf623b002a17538d8!8m2!3d33.6336387!4d75.1905997!16s%2Fg%2F11rxscq7dl!19sChIJFWcImjIJ4jgR2Dh1oQKwI_Y?authuser=0&hl=en&rclk=1",
        "coordinates": {
            "latitude": 33.6336387,
            "longitude": 75.19059969999999
        }
    },
    {
        "name": "MASJID GOSIYA",
        "main_category": "Mosque",
        "address": "5WGP+QW4 MASJID GOSIYA, Khatik Mohalla, Jabalpur, Madhya Pradesh 482002",
        "detailed_address": {
            "ward": "Khatik Mohalla",
            "street": "5WGP+QW4",
            "city": "Jabalpur",
            "postal_code": "482002",
            "state": "Madhya Pradesh",
            "country_code": "IN"
        },
        "images": [],
        "link": "https://www.google.com/maps/place/MASJID+GOSIYA/data=!4m7!3m6!1s0x3981ae15ea84e74f:0x19db503298c21748!8m2!3d23.1768809!4d79.9373366!16s%2Fg%2F11g8_0gt1g!19sChIJT-eE6hWugTkRSBfCmDJQ2xk?authuser=0&hl=en&rclk=1",
        "coordinates": {
            "latitude": 23.1768809,
            "longitude": 79.9373366
        }
    },
    {
        "name": "Panikheti Masjid",
        "main_category": "Mosque",
        "address": "Panikheti, Panikheti Masjid, Zira, Arimara, Assam 783126",
        "detailed_address": {
            "ward": null,
            "street": "Panikheti",
            "city": "Zira, Arimara",
            "postal_code": "783126",
            "state": "Assam",
            "country_code": "IN"
        },
        "images": [],
        "link": "https://www.google.com/maps/place/Panikheti+Masjid/data=!4m7!3m6!1s0x3759b5ec878d316f:0x8afcee6d3d0946f5!8m2!3d26.0421594!4d90.6656852!16s%2Fg%2F11j9ch1n3z!19sChIJbzGNh-y1WTcR9UYJPW3u_Io?authuser=0&hl=en&rclk=1",
        "coordinates": {
            "latitude": 26.0421594,
            "longitude": 90.6656852
        }
    },
    {
        "name": "Jama masjid",
        "main_category": "Mosque",
        "address": "V6J6+QFF Jama masjid, Moga - Jalandhar Rd, Fatehgarh Korotana, Punjab 142001",
        "detailed_address": {
            "ward": null,
            "street": "V6J6+QFF, Moga - Jalandhar Rd",
            "city": "Fatehgarh Korotana",
            "postal_code": "142001",
            "state": "Punjab",
            "country_code": "IN"
        },
        "images": [
            {
                "about": "All",
                "link": "https://lh5.googleusercontent.com/p/AF1QipNJYwy9B7iw5L8d3Ha7Z8njoTAWlAaxcr4wPtJ2=w529-h298-k-no"
            },
            {
                "about": "Street View & 360deg",
                "link": "https://streetviewpixels-pa.googleapis.com/v1/thumbnail?panoid=g3EjKRhXfjmq8UtW395W-Q&cb_client=maps_sv.tactile.gps&w=224&h=298&yaw=293.45135&pitch=0&thumbfov=100"
            }
        ],
        "link": "https://www.google.com/maps/place/Jama+masjid/data=!4m7!3m6!1s0x391a0fa219e3fdc9:0x7b89b4c4f07882a3!8m2!3d30.8819408!4d75.2111594!16s%2Fg%2F11j2r8t2ry!19sChIJyf3jGaIPGjkRo4J48MS0iXs?authuser=0&hl=en&rclk=1",
        "coordinates": {
            "latitude": 30.8819408,
            "longitude": 75.2111594
        }
    },
    {
        "name": "Arimara Masjid",
        "main_category": "Mosque",
        "address": "2MR6+XF2 Arimara Masjid, Krishnai-Garo Bajar Rd, Krishnai Char-Ali, Bujruk Manikpur, Arimara, Assam 783126",
        "detailed_address": {
            "ward": "Krishnai Char-Ali",
            "street": "2MR6+XF2, Krishnai-Garo Bajar Rd",
            "city": "Bujruk Manikpur, Arimara",
            "postal_code": "783126",
            "state": "Assam",
            "country_code": "IN"
        },
        "images": [],
        "link": "https://www.google.com/maps/place/Arimara+Masjid/data=!4m7!3m6!1s0x3759b5ce93be06c1:0xac2e50c5376f9b4f!8m2!3d26.0423979!4d90.6611344!16s%2Fg%2F11rfcwdf1c!19sChIJwQa-k861WTcRT5tvN8VQLqw?authuser=0&hl=en&rclk=1",
        "coordinates": {
            "latitude": 26.042397899999997,
            "longitude": 90.6611344
        }
    },
    {
        "name": "Ahmadiyya Bail Al zira",
        "main_category": "Mosque",
        "address": "Ahmadiyya Bail Al zira, Vij Gym, Makhu Rd, opposite Gurdwara, vishavakarma, Zira, Punjab 142047",
        "detailed_address": {
            "ward": "vishavakarma",
            "street": "Vij Gym, Makhu Rd, opposite Gurdwara",
            "city": "Zira",
            "postal_code": "142047",
            "state": "Punjab",
            "country_code": "IN"
        },
        "images": [
            {
                "about": "All",
                "link": "https://streetviewpixels-pa.googleapis.com/v1/thumbnail?panoid=Dbp_CZn-ldMHAgrO0LVu7g&cb_client=maps_sv.tactile.gps&w=224&h=298&yaw=185.54918&pitch=0&thumbfov=100"
            },
            {
                "about": "Street View & 360deg",
                "link": "https://streetviewpixels-pa.googleapis.com/v1/thumbnail?panoid=Dbp_CZn-ldMHAgrO0LVu7g&cb_client=maps_sv.tactile.gps&w=224&h=298&yaw=185.54918&pitch=0&thumbfov=100"
            }
        ],
        "link": "https://www.google.com/maps/place/Ahmadiyya+Bail+Al+zira/data=!4m7!3m6!1s0x391a1da22da3c27f:0x2f085855efd7e5c4!8m2!3d30.973761!4d74.9861491!16s%2Fg%2F11s5ht9q1z!19sChIJf8KjLaIdGjkRxOXX71VYCC8?authuser=0&hl=en&rclk=1",
        "coordinates": {
            "latitude": 30.973761,
            "longitude": 74.98614909999999
        }
    },
    {
        "name": "Cremation place",
        "main_category": "Cremation Ground",
        "address": "XX6Q+XWJ Cremation place, Smadhi Road, Zira, Punjab 142047",
        "detailed_address": {
            "ward": null,
            "street": "XX6Q+XWJ, Smadhi Road",
            "city": "Zira",
            "postal_code": "142047",
            "state": "Punjab",
            "country_code": "IN"
        },
        "images": [
            {
                "about": "All",
                "link": "https://lh5.googleusercontent.com/p/AF1QipMngDyUQj-pvqExUuzryxmjwMg3AeHRZemoDluz=w238-h298-k-no"
            },
            {
                "about": "Street View & 360deg",
                "link": "https://streetviewpixels-pa.googleapis.com/v1/thumbnail?panoid=dcxN7X4kRS_jZ1cMnE7teA&cb_client=maps_sv.tactile.gps&w=224&h=298&yaw=254.96776&pitch=0&thumbfov=100"
            }
        ],
        "link": "https://www.google.com/maps/place/Cremation+place/data=!4m7!3m6!1s0x391a1dd41097076f:0x68d632727a426de!8m2!3d30.9624712!4d74.9897783!16s%2Fg%2F11h4cfsx_6!19sChIJbweXENQdGjkR3iakJydjjQY?authuser=0&hl=en&rclk=1",
        "coordinates": {
            "latitude": 30.9624712,
            "longitude": 74.9897783
        }
    },
    {
        "name": "Zira",
        "main_category": null,
        "address": "Zira, Punjab 142047",
        "detailed_address": {
            "ward": null,
            "street": null,
            "city": "Zira",
            "postal_code": null,
            "state": "Punjab",
            "country_code": "IN"
        },
        "images": [
            {
                "about": "All",
                "link": "https://lh5.googleusercontent.com/p/AF1QipPPVlGqhioy__FvdP6uygnxLUZmVgh0bQfzdUQR=w224-h298-k-no"
            },
            {
                "about": "Videos",
                "link": "https://lh5.googleusercontent.com/p/AF1QipOaQFZiQlcFmT3VYGgNelk4zrG-mLWLOa9zmhCT=w224-h441-k-no"
            }
        ],
        "link": "https://www.google.com/maps/place/Zira/data=!4m7!3m6!1s0x391a1d7528ccf379:0xff8b80d5144946d9!8m2!3d30.9685312!4d74.9880895!16zL20vMGZtOTlx!19sChIJefPMKHUdGjkR2UZJFNWAi_8?authuser=0&hl=en&rclk=1",
        "coordinates": {
            "latitude": 30.968531199999997,
            "longitude": 74.9880895
        }
    },
    {
        "name": "Noori jama Masjid",
        "main_category": "Mosque",
        "address": "W2FG+M5R Noori jama Masjid, Banwala, 7 Bgs, Rajasthan 335037",
        "detailed_address": {
            "ward": null,
            "street": "W2FG+M5R",
            "city": "Banwala, 7 Bgs",
            "postal_code": "335037",
            "state": "Rajasthan",
            "country_code": "IN"
        },
        "images": [
            {
                "about": "All",
                "link": "https://lh5.googleusercontent.com/p/AF1QipOEWE6_G9SVymgNUvOKMuyqgTPfeIn9lE47S2UD=w224-h398-k-no"
            }
        ],
        "link": "https://www.google.com/maps/place/Noori+jama+Masjid/data=!4m7!3m6!1s0x3917b343db9ec661:0x5e2ebf785a1a02e0!8m2!3d29.924304!4d74.0245932!16s%2Fg%2F11rsrkxbsx!19sChIJYcae20OzFzkR4AIaWni_Ll4?authuser=0&hl=en&rclk=1",
        "coordinates": {
            "latitude": 29.924304,
            "longitude": 74.0245932
        }
    },
    {
        "name": "Farul Store",
        "main_category": "General store",
        "address": "Shop Number 1, Farul Store, Near Bazar Masjid, Noyapara, Krishnai, Zira, Assam 783126",
        "detailed_address": {
            "ward": null,
            "street": "Shop Number 1, Near Bazar Masjid, Noyapara, Krishnai",
            "city": "Zira, Sardarpara",
            "postal_code": "783126",
            "state": "Assam",
            "country_code": "IN"
        },
        "images": [],
        "link": "https://www.google.com/maps/place/Farul+Store/data=!4m7!3m6!1s0x3759b7387b2f31d7:0x7e0cd85e5adc7828!8m2!3d26.0406416!4d90.6780609!16s%2Fg%2F11vlyvq2rb!19sChIJ1zEvezi3WTcRKHjcWl7YDH4?authuser=0&hl=en&rclk=1",
        "coordinates": {
            "latitude": 26.040641599999997,
            "longitude": 90.67806089999999
        }
    }
]