[
    {
        "name": "Sunni Jama Masjid",
        "main_category": "Mosque",
        "address": "MQVC+V78 Sunni Jama Masjid, Kacheri Rd, Vishnu Nagar, Palghar, Maharashtra 401404",
        "detailed_address": {
            "ward": "Vishnu Nagar",
            "street": "MQVC+V78, Kacheri Rd",
            "city": "Palghar",
            "postal_code": "401404",
            "state": "Maharashtra",
            "country_code": "IN"
        },
        "images": [
            {
                "about": "All",
                "link": "https://lh5.googleusercontent.com/p/AF1QipN-N51UNVIirF9iQEasCIYJIR88q3aHH_UfA4uP=w529-h298-k-no"
            },
            {
                "about": "Videos",
                "link": "https://lh5.googleusercontent.com/p/AF1QipO57_oJbGoFnfaHeZVr0Ni_NJ2756NcRU6IKvRv=w224-h298-k-no"
            }
        ],
        "link": "https://www.google.com/maps/place/Sunni+Jama+Masjid/data=!4m7!3m6!1s0x3be71cc295770dd1:0xee18267b8d015a1f!8m2!3d19.6946627!4d72.77071!16s%2Fg%2F1q67qf568!19sChIJ0Q13lcIc5zsRH1oBjXsmGO4?authuser=0&hl=en&rclk=1",
        "coordinates": {
            "latitude": 19.6946627,
            "longitude": 72.77071
        }
    },
    {
        "name": "Bohra Masjid",
        "main_category": "Mosque",
        "address": "MQV9+PWH Bohra Masjid, Vishnu Nagar, Palghar, Maharashtra 401404",
        "detailed_address": {
            "ward": "Vishnu Nagar",
            "street": "MQV9+PWH",
            "city": "Palghar",
            "postal_code": "401404",
            "state": "Maharashtra",
            "country_code": "IN"
        },
        "images": [
            {
                "about": "All",
                "link": "https://lh5.googleusercontent.com/p/AF1QipMHN87Bk_xmY5ri9rxHxRiN-DBgMMKPTDMexVCC=w395-h298-k-no"
            }
        ],
        "link": "https://www.google.com/maps/place/Bohra+Masjid/data=!4m7!3m6!1s0x3be71cc2c75972cb:0x7f461c69a78307e6!8m2!3d19.694301!4d72.7698705!16s%2Fg%2F11fyxd84ht!19sChIJy3JZx8Ic5zsR5geDp2kcRn8?authuser=0&hl=en&rclk=1",
        "coordinates": {
            "latitude": 19.694301,
            "longitude": 72.7698705
        }
    },
    {
        "name": "Khoja Masjid - Shia Mosque",
        "main_category": "Mosque",
        "address": "MQWF+GHQ Khoja Masjid - Shia Mosque, Vevoor, Palghar, Maharashtra 401404",
        "detailed_address": {
            "ward": "Vevoor",
            "street": "MQWF+GHQ",
            "city": "Palghar",
            "postal_code": "401404",
            "state": "Maharashtra",
            "country_code": "IN"
        },
        "images": [
            {
                "about": "All",
                "link": "https://lh5.googleusercontent.com/p/AF1QipOqpf15WAoKApk4LoJJOdLgYN5Ch5oXJnrLcDrc=w397-h298-k-no"
            },
            {
                "about": "Dome",
                "link": "https://lh5.googleusercontent.com/p/AF1QipPFm0H3Crn39GrmBq23eAimZM5jhXVeiXJWFoK5=w451-h298-k-no"
            },
            {
                "about": "Videos",
                "link": "https://lh5.googleusercontent.com/p/AF1QipMdVUKP5WMUsVwvdjvUAEjgYNbmhWAb1TfRM0N5=w224-h398-k-no"
            },
            {
                "about": "Street View & 360deg",
                "link": "https://lh5.googleusercontent.com/p/AF1QipPWkPI82QS4xKwzB8ykXMNw9XsX2AVI7xeO4Z-2=w224-h298-k-no-pi-0-ya15.999993-ro-0-fo100"
            }
        ],
        "link": "https://www.google.com/maps/place/Khoja+Masjid+-+Shia+Mosque/data=!4m7!3m6!1s0x3be71ce9e2d45703:0x62ffd98b833649b5!8m2!3d19.6963272!4d72.7739813!16s%2Fg%2F11c2qx9rgj!19sChIJA1fU4ukc5zsRtUk2g4vZ_2I?authuser=0&hl=en&rclk=1",
        "coordinates": {
            "latitude": 19.6963272,
            "longitude": 72.7739813
        }
    },
    {
        "name": "Banglewali Masjid",
        "main_category": "Mosque",
        "address": "MQV5+8JX Banglewali Masjid, Palghar, Maharashtra 401404",
        "detailed_address": {
            "ward": null,
            "street": "MQV5+8JX",
            "city": "Palghar",
            "postal_code": "401404",
            "state": "Maharashtra",
            "country_code": "IN"
        },
        "images": [],
        "link": "https://www.google.com/maps/place/Banglewali+Masjid/data=!4m7!3m6!1s0x3be71cdfc7bebd41:0xe392d95e10b4d5cb!8m2!3d19.6933654!4d72.7591065!16s%2Fg%2F11g81g5vz_!19sChIJQb2-x98c5zsRy9W0EF7ZkuM?authuser=0&hl=en&rclk=1",
        "coordinates": {
            "latitude": 19.693365399999998,
            "longitude": 72.7591065
        }
    },
    {
        "name": "Gausiyah Madarasah",
        "main_category": "Mosque",
        "address": "Gausiyah Madarasah, near railway station, Juna Palghar, Palghar, Maharashtra 401404",
        "detailed_address": {
            "ward": "Juna Palghar",
            "street": "near railway station",
            "city": "Palghar",
            "postal_code": "401404",
            "state": "Maharashtra",
            "country_code": "IN"
        },
        "images": [],
        "link": "https://www.google.com/maps/place/Gausiyah+Madarasah/data=!4m7!3m6!1s0x3be71ce8ca00c885:0xdbcadb1522a266e8!8m2!3d19.7011518!4d72.7703204!16s%2Fg%2F1q6jzcf95!19sChIJhcgAyugc5zsR6GaiIhXbyts?authuser=0&hl=en&rclk=1",
        "coordinates": {
            "latitude": 19.701151799999998,
            "longitude": 72.7703204
        }
    },
    {
        "name": "Faizane Aala Hazrat Madrasa",
        "main_category": "Mosque",
        "address": "PQ48+FCX Faizane Aala Hazrat Madrasa, Palghar, Boisar Road, Char Rasta, opp. fountain hotel, Palghar",
        "detailed_address": {
            "ward": "Tembhode",
            "street": "PQ48+FCX, Palghar, Boisar Road, Char Rasta, opp. fountain hotel",
            "city": "Palghar",
            "postal_code": null,
            "state": "Maharashtra",
            "country_code": "IN"
        },
        "images": [
            {
                "about": "All",
                "link": "https://lh5.googleusercontent.com/p/AF1QipMAuE-IuhgqRK_A0Fxq3Hz3tFjiuhM9jPlWMhts=w646-h298-k-no"
            }
        ],
        "link": "https://www.google.com/maps/place/Faizane+Aala+Hazrat+Madrasa/data=!4m7!3m6!1s0x3be71d1f0693f2f5:0x369b151bc0cdf22f!8m2!3d19.7062407!4d72.7661027!16s%2Fg%2F11pd0q34dp!19sChIJ9fKTBh8d5zsRL_LNwBsVmzY?authuser=0&hl=en&rclk=1",
        "coordinates": {
            "latitude": 19.7062407,
            "longitude": 72.76610269999999
        }
    },
    {
        "name": "Ahle Hadees Masjid",
        "main_category": "Mosque",
        "address": "PQ47+FR4 Ahle Hadees Masjid, Mahim Road, Pilena Nagar, Palghar, Maharashtra 401404",
        "detailed_address": {
            "ward": "Pilena Nagar",
            "street": "PQ47+FR4, Mahim Road",
            "city": "Palghar",
            "postal_code": "401404",
            "state": "Maharashtra",
            "country_code": "IN"
        },
        "images": [
            {
                "about": "All",
                "link": "https://lh5.googleusercontent.com/p/AF1QipORA8PM86bapqFmEfiKoEc5DFJ7nHOatukohfZP=w397-h298-k-no"
            }
        ],
        "link": "https://www.google.com/maps/place/Ahle+Hadees+Masjid/data=!4m7!3m6!1s0x3be71d064598fefd:0x752b7b29de672a6b!8m2!3d19.7061418!4d72.7645758!16s%2Fg%2F11m7p6dq9k!19sChIJ_f6YRQYd5zsRaypn3il7K3U?authuser=0&hl=en&rclk=1",
        "coordinates": {
            "latitude": 19.706141799999997,
            "longitude": 72.7645758
        }
    },
    {
        "name": "Barelvi Ibadatkhana Palghar",
        "main_category": "Mosque",
        "address": "PQ2C+3QP Barelvi Ibadatkhana Palghar, Vevoor, Palghar, Maharashtra 401404",
        "detailed_address": {
            "ward": "Vevoor",
            "street": "PQ2C+3QP",
            "city": "Palghar",
            "postal_code": "401404",
            "state": "Maharashtra",
            "country_code": "IN"
        },
        "images": [
            {
                "about": "All",
                "link": "https://lh5.googleusercontent.com/p/AF1QipMZve2yZhBHkNFuz1BU43A9Gjcg9aKxhos6ahn5=w224-h398-k-no"
            },
            {
                "about": "Videos",
                "link": "https://lh5.googleusercontent.com/p/AF1QipP4Dm9a1oEXLX7NOVwktTlfmZ5z-CmQypSBX2T0=w224-h398-k-no"
            }
        ],
        "link": "https://www.google.com/maps/place/Barelvi+Ibadatkhana+Palghar/data=!4m7!3m6!1s0x3be71dfd6ee6f86d:0x3891c3539761aa0f!8m2!3d19.7002102!4d72.7719434!16s%2Fg%2F11h3l27tsq!19sChIJbfjmbv0d5zsRD6phl1PDkTg?authuser=0&hl=en&rclk=1",
        "coordinates": {
            "latitude": 19.7002102,
            "longitude": 72.7719434
        }
    },
    {
        "name": "Jashn-e-Shahdaye Karbala",
        "main_category": "Mosque",
        "address": "PQ2C+G6G Jashn-e-Shahdaye Karbala, Juna Palghar, Palghar, Maharashtra 401404",
        "detailed_address": {
            "ward": "Juna Palghar",
            "street": "PQ2C+G6G",
            "city": "Palghar",
            "postal_code": "401404",
            "state": "Maharashtra",
            "country_code": "IN"
        },
        "images": [],
        "link": "https://www.google.com/maps/place/Jashn-e-Shahdaye+Karbala/data=!4m7!3m6!1s0x3be71dd9de8c8d4d:0x76fbb94d45a402da!8m2!3d19.7013051!4d72.7705768!16s%2Fg%2F11g2sgkr5r!19sChIJTY2M3tkd5zsR2gKkRU25-3Y?authuser=0&hl=en&rclk=1",
        "coordinates": {
            "latitude": 19.7013051,
            "longitude": 72.7705768
        }
    },
    {
        "name": "Sunni madrasa faizul islam",
        "main_category": "Mosque",
        "address": "PQ39+M8J Sunni madrasa faizul islam, Juna Palghar, Palghar, Maharashtra 401404",
        "detailed_address": {
            "ward": "Juna Palghar",
            "street": "PQ39+M8J",
            "city": "Palghar",
            "postal_code": "401404",
            "state": "Maharashtra",
            "country_code": "IN"
        },
        "images": [],
        "link": "https://www.google.com/maps/place/Sunni+madrasa+faizul+islam/data=!4m7!3m6!1s0x3be71ddda4ec66fb:0xf33a091d927c3ed8!8m2!3d19.704215!4d72.7682712!16s%2Fg%2F11rgls5hs2!19sChIJ-2bspN0d5zsR2D58kh0JOvM?authuser=0&hl=en&rclk=1",
        "coordinates": {
            "latitude": 19.704214999999998,
            "longitude": 72.7682712
        }
    },
    {
        "name": "Makhdumiya faizane Bukhari Masjid palghar",
        "main_category": "Mosque",
        "address": "Makhdumiya faizane Bukhari Masjid palghar, Pelananagar, Palghar, Maharashtra 401404",
        "detailed_address": {
            "ward": "Tembhode",
            "street": "Pelananagar",
            "city": "Palghar",
            "postal_code": "401404",
            "state": "Maharashtra",
            "country_code": "IN"
        },
        "images": [
            {
                "about": "All",
                "link": "https://lh5.googleusercontent.com/p/AF1QipPvnhSFS1KBUHKKQGD3-_uWH5Ovjrn88K2aE6Ut=w224-h298-k-no"
            }
        ],
        "link": "https://www.google.com/maps/place/Makhdumiya+faizane+Bukhari+Masjid+palghar/data=!4m7!3m6!1s0x3be71dea98d8dbc7:0x3ef124e44039eb2!8m2!3d19.7066897!4d72.7645275!16s%2Fg%2F11ss2932h0!19sChIJx9vYmOod5zsRsp4DRE4S7wM?authuser=0&hl=en&rclk=1",
        "coordinates": {
            "latitude": 19.7066897,
            "longitude": 72.7645275
        }
    }
]