[
    {
        "name": "Ahmadiyya masjid barauli",
        "main_category": "Mosque",
        "address": "HRM3+V7R Ahmadiyya masjid barauli, Unnamed Road, Wajidpur Barauli, Uttar Pradesh 207246",
        "detailed_address": {
            "ward": null,
            "street": "HRM3+V7R, Unnamed Road",
            "city": "Wajidpur Barauli",
            "postal_code": "207246",
            "state": "Uttar Pradesh",
            "country_code": "IN"
        },
        "images": [
            {
                "about": "All",
                "link": "https://lh5.googleusercontent.com/p/AF1QipObLT7O0U28GhSxPxq5xYgXM8wGl9oFWNSCFQ35=w529-h298-k-no"
            },
            {
                "about": "Videos",
                "link": "https://lh5.googleusercontent.com/p/AF1QipNz6Lzh_1gVfbsEY9yogOQdKHperQhuf0x0NsuB=w224-h398-k-no"
            }
        ],
        "link": "https://www.google.com/maps/place/Ahmadiyya+masjid+barauli/data=!4m7!3m6!1s0x3975058eeaca2b19:0x6a8e415f66e57f55!8m2!3d27.5847491!4d78.8031475!16s%2Fg%2F11p9j01b0v!19sChIJGSvK6o4FdTkRVX_lZl9Bjmo?authuser=0&hl=en&rclk=1",
        "coordinates": {
            "latitude": 27.5847491,
            "longitude": 78.8031475
        }
    },
    {
        "name": "Jama Masjid Barauli",
        "main_category": "Mosque",
        "address": "9HJP+3CP Jama Masjid Barauli, Manjhi Barauli Rd, Bihar 841405",
        "detailed_address": {
            "ward": null,
            "street": "9HJP+3CP, Manjhi Barauli Rd",
            "city": null,
            "postal_code": "841405",
            "state": "Bihar",
            "country_code": "IN"
        },
        "images": [
            {
                "about": "All",
                "link": "https://lh5.googleusercontent.com/p/AF1QipN7wPdSPdFWuYIMsMkkMTxGAkugHX7jR9REdYyl=w529-h298-k-no"
            },
            {
                "about": "Street View & 360deg",
                "link": "https://streetviewpixels-pa.googleapis.com/v1/thumbnail?panoid=j_CdwkxFZ0cXq9pBF8NymQ&cb_client=maps_sv.tactile.gps&w=224&h=298&yaw=255.75066&pitch=0&thumbfov=100"
            },
            {
                "about": "Videos",
                "link": "https://lh5.googleusercontent.com/p/AF1QipO0XhcijPPKEut3YKS1ZD4oZ-DcYPY0K0gbFqGT=w541-h298-k-no"
            }
        ],
        "link": "https://www.google.com/maps/place/Jama+Masjid+Barauli/data=!4m7!3m6!1s0x39931f6cc389adbb:0x6bc02a89a8e5b677!8m2!3d26.3802234!4d84.5860898!16s%2Fg%2F11ckddqvtm!19sChIJu62Jw2wfkzkRd7blqIkqwGs?authuser=0&hl=en&rclk=1",
        "coordinates": {
            "latitude": 26.3802234,
            "longitude": 84.5860898
        }
    },
    {
        "name": "Jama Masjid Sisai",
        "main_category": "Mosque",
        "address": "9HWM+MCP Jama Masjid Sisai, Barauli Rd, Barauli, Bihar 841405",
        "detailed_address": {
            "ward": null,
            "street": "9HWM+MCP, Barauli Rd",
            "city": "Barauli",
            "postal_code": "841405",
            "state": "Bihar",
            "country_code": "IN"
        },
        "images": [
            {
                "about": "All",
                "link": "https://lh5.googleusercontent.com/p/AF1QipNWpe6N7M6GQlZZoxvi48UJesgZEu3wRwxpb57j=w224-h298-k-no"
            }
        ],
        "link": "https://www.google.com/maps/place/Jama+Masjid+Sisai/data=!4m7!3m6!1s0x39931f9ad25bc191:0xb765d7c94ffa15d1!8m2!3d26.3967235!4d84.5835827!16s%2Fg%2F11h38lh5cg!19sChIJkcFb0pofkzkR0RX6T8nXZbc?authuser=0&hl=en&rclk=1",
        "coordinates": {
            "latitude": 26.3967235,
            "longitude": 84.5835827
        }
    },
    {
        "name": "Jama Masjid Barauli",
        "main_category": "Mosque",
        "address": "WRR8+7WV Jama Masjid Barauli, Telaha, Uttar Pradesh 271402",
        "detailed_address": {
            "ward": null,
            "street": "WRR8+7WV",
            "city": "Telaha",
            "postal_code": "271402",
            "state": "Uttar Pradesh",
            "country_code": "IN"
        },
        "images": [
            {
                "about": "All",
                "link": "https://lh5.googleusercontent.com/p/AF1QipOQSpASfRJkjhbt7s_89B5EKaI_q8jK6v5sMGk=w224-h398-k-no"
            },
            {
                "about": "Street View & 360deg",
                "link": "https://streetviewpixels-pa.googleapis.com/v1/thumbnail?panoid=iAuaxnEhPdcA3bT1SiGYsg&cb_client=maps_sv.tactile.gps&w=224&h=298&yaw=245.44179&pitch=0&thumbfov=100"
            },
            {
                "about": "Videos",
                "link": "https://lh5.googleusercontent.com/p/AF1QipPJ-HJpqU_RnOup607zhCUHE8UH5n0BLAfo2egq=w224-h398-k-no"
            }
        ],
        "link": "https://www.google.com/maps/place/Jama+Masjid+Barauli/data=!4m7!3m6!1s0x39998a7eb41db42f:0xd837d818257b9723!8m2!3d26.9407257!4d81.8173025!16s%2Fg%2F11dxs5qqw0!19sChIJL7QdtH6KmTkRI5d7JRjYN9g?authuser=0&hl=en&rclk=1",
        "coordinates": {
            "latitude": 26.940725699999998,
            "longitude": 81.8173025
        }
    },
    {
        "name": "Jame Masjid Barwa Barauli",
        "main_category": "Mosque",
        "address": "3GGG+2M7 Jame Masjid Barwa Barauli, Barwa Barauli, Bihar 845451",
        "detailed_address": {
            "ward": null,
            "street": "3GGG+2M7",
            "city": "Barwa Barauli",
            "postal_code": "845451",
            "state": "Bihar",
            "country_code": "IN"
        },
        "images": [
            {
                "about": "All",
                "link": "https://streetviewpixels-pa.googleapis.com/v1/thumbnail?panoid=7-vI5GB_HjNuZ4H-etJtqA&cb_client=maps_sv.tactile.gps&w=224&h=298&yaw=344.13068&pitch=0&thumbfov=100"
            },
            {
                "about": "Street View & 360deg",
                "link": "https://streetviewpixels-pa.googleapis.com/v1/thumbnail?panoid=7-vI5GB_HjNuZ4H-etJtqA&cb_client=maps_sv.tactile.gps&w=224&h=298&yaw=344.13068&pitch=0&thumbfov=100"
            }
        ],
        "link": "https://www.google.com/maps/place/Jame+Masjid+Barwa+Barauli/data=!4m7!3m6!1s0x39949fe6aa1746e9:0x2f06bd4ca846b6a6!8m2!3d27.0750269!4d84.5266563!16s%2Fg%2F11hdzbs4jv!19sChIJ6UYXquaflDkRprZGqEy9Bi8?authuser=0&hl=en&rclk=1",
        "coordinates": {
            "latitude": 27.075026899999997,
            "longitude": 84.5266563
        }
    },
    {
        "name": "Makka masjid barauli",
        "main_category": "Mosque",
        "address": "486W+MRP Makka masjid barauli, Barauli, Madhya Pradesh 210129",
        "detailed_address": {
            "ward": null,
            "street": "486W+MRP",
            "city": "Barauli",
            "postal_code": "210129",
            "state": "Madhya Pradesh",
            "country_code": "IN"
        },
        "images": [
            {
                "about": "All",
                "link": "https://lh5.googleusercontent.com/p/AF1QipMjOBCF7eM3kijrO6rziv0ndMVRnVehH29At7qe=w224-h348-k-no"
            },
            {
                "about": "Videos",
                "link": "https://lh5.googleusercontent.com/p/AF1QipN1L84SP3-kUkQ9Kd3q0fWQXmoRhvH0THLm0Ybp=w529-h298-k-no"
            }
        ],
        "link": "https://www.google.com/maps/place/Makka+masjid+barauli/data=!4m7!3m6!1s0x39833b2e2a27c65d:0x781775ce53646ef5!8m2!3d25.1117084!4d80.3470818!16s%2Fg%2F11fphtw3yp!19sChIJXcYnKi47gzkR9W5kU851F3g?authuser=0&hl=en&rclk=1",
        "coordinates": {
            "latitude": 25.111708399999998,
            "longitude": 80.3470818
        }
    },
    {
        "name": "Barauli Masjid",
        "main_category": "Mosque",
        "address": "R796+29F Barauli Masjid, Barauli Malik, Uttar Pradesh 225121",
        "detailed_address": {
            "ward": null,
            "street": "R796+29F",
            "city": "Barauli Malik",
            "postal_code": "225121",
            "state": "Uttar Pradesh",
            "country_code": "IN"
        },
        "images": [
            {
                "about": "All",
                "link": "https://lh5.googleusercontent.com/p/AF1QipP2BY_7tDku2ncXTG2FtvnjhlFFpLCSfmZcCbdj=w397-h298-k-no"
            }
        ],
        "link": "https://www.google.com/maps/place/Barauli+Masjid/data=!4m7!3m6!1s0x399bd9df6b206e93:0x876bf3aa2e6befd2!8m2!3d26.8175639!4d81.2609288!16s%2Fg%2F11n0klzv18!19sChIJk24ga9_ZmzkR0u9rLqrza4c?authuser=0&hl=en&rclk=1",
        "coordinates": {
            "latitude": 26.8175639,
            "longitude": 81.2609288
        }
    },
    {
        "name": "Pathan Masjid Barauli",
        "main_category": "Mosque",
        "address": "Pathan Masjid Barauli, Pathan Mohalla Village Baruli, Post, Chharra, Atrauli, Uttar Pradesh 202130",
        "detailed_address": {
            "ward": "Chharra",
            "street": "Pathan Mohalla Village Baruli, Post",
            "city": "Atrauli, Chharra Rafatpur",
            "postal_code": "202130",
            "state": "Uttar Pradesh",
            "country_code": "IN"
        },
        "images": [
            {
                "about": "All",
                "link": "https://lh5.googleusercontent.com/p/AF1QipO1ur-rInUXRYh3v2Q2XD-vRv-T4S2Zh5vyN7ux=w308-h298-k-no"
            },
            {
                "about": "By owner",
                "link": "https://lh5.googleusercontent.com/p/AF1QipPcg8ntooO4Hj8Ty7cm-dJHe8LlPgx-kArYhiPb=w224-h398-k-no"
            },
            {
                "about": "Street View & 360deg",
                "link": "https://streetviewpixels-pa.googleapis.com/v1/thumbnail?panoid=T4Xg_lEjpPfOI2k7bf8h0A&cb_client=maps_sv.tactile.gps&w=224&h=298&yaw=343.18896&pitch=0&thumbfov=100"
            }
        ],
        "link": "https://www.google.com/maps/place/Pathan+Masjid+Barauli/data=!4m7!3m6!1s0x3974c5125dc9eb27:0xf73617d931ff81ca!8m2!3d27.9185914!4d78.4058154!16s%2Fg%2F11s4fzfrv5!19sChIJJ-vJXRLFdDkRyoH_MdkXNvc?authuser=0&hl=en&rclk=1",
        "coordinates": {
            "latitude": 27.9185914,
            "longitude": 78.4058154
        }
    },
    {
        "name": "Jama Masjid",
        "main_category": "Mosque",
        "address": "9GMM+X5C Jama Masjid, Maranpur Rd, Barauli, Bihar 841405",
        "detailed_address": {
            "ward": null,
            "street": "9GMM+X5C, Maranpur Rd",
            "city": "Barauli",
            "postal_code": "841405",
            "state": "Bihar",
            "country_code": "IN"
        },
        "images": [
            {
                "about": "All",
                "link": "https://streetviewpixels-pa.googleapis.com/v1/thumbnail?panoid=QceaTenxv8hMf0ylCiSW7Q&cb_client=maps_sv.tactile.gps&w=224&h=298&yaw=157.48444&pitch=0&thumbfov=100"
            },
            {
                "about": "Street View & 360deg",
                "link": "https://streetviewpixels-pa.googleapis.com/v1/thumbnail?panoid=QceaTenxv8hMf0ylCiSW7Q&cb_client=maps_sv.tactile.gps&w=224&h=298&yaw=157.48444&pitch=0&thumbfov=100"
            }
        ],
        "link": "https://www.google.com/maps/place/Jama+Masjid/data=!4m7!3m6!1s0x39931f52d8d95f9d:0x24dff74bfd288196!8m2!3d26.3849393!4d84.5328949!16s%2Fg%2F11fsnbkwks!19sChIJnV_Z2FIfkzkRloEo_Uv33yQ?authuser=0&hl=en&rclk=1",
        "coordinates": {
            "latitude": 26.3849393,
            "longitude": 84.5328949
        }
    },
    {
        "name": "Masjid barauli",
        "main_category": "Mosque",
        "address": "9HGP+327 Masjid barauli, Gopalganj, Bihar 841407",
        "detailed_address": {
            "ward": null,
            "street": "9HGP+327",
            "city": "Gopalganj",
            "postal_code": null,
            "state": "Bihar",
            "country_code": "IN"
        },
        "images": [],
        "link": "https://www.google.com/maps/place/Masjid+barauli/data=!4m7!3m6!1s0x39931fc84834d5c7:0x15eac57047116131!8m2!3d26.3751637!4d84.5850448!16s%2Fg%2F11rfqh1rfk!19sChIJx9U0SMgfkzkRMWERR3DF6hU?authuser=0&hl=en&rclk=1",
        "coordinates": {
            "latitude": 26.375163699999998,
            "longitude": 84.58504479999999
        }
    },
    {
        "name": "Jama masjid Barauli sarmathura",
        "main_category": "Mosque",
        "address": "Jama masjid Barauli sarmathura, sarmathura dholpur, Muslim vasti, Barauli",
        "detailed_address": {
            "ward": null,
            "street": "sarmathura dholpur, Muslim vasti",
            "city": "Barauli",
            "postal_code": null,
            "state": "Bihar",
            "country_code": "IN"
        },
        "images": [
            {
                "about": "All",
                "link": "https://streetviewpixels-pa.googleapis.com/v1/thumbnail?panoid=rKSrk8p1u9vGxgFZ9gCypg&cb_client=maps_sv.tactile.gps&w=224&h=298&yaw=21.304531&pitch=0&thumbfov=100"
            },
            {
                "about": "Street View & 360deg",
                "link": "https://streetviewpixels-pa.googleapis.com/v1/thumbnail?panoid=rKSrk8p1u9vGxgFZ9gCypg&cb_client=maps_sv.tactile.gps&w=224&h=298&yaw=21.304531&pitch=0&thumbfov=100"
            }
        ],
        "link": "https://www.google.com/maps/place/Jama+masjid+Barauli+sarmathura/data=!4m7!3m6!1s0x39931fb214aef5ff:0xe3582efcf635af31!8m2!3d26.396397!4d84.5848309!16s%2Fg%2F11tjcxrqcm!19sChIJ__WuFLIfkzkRMa819vwuWOM?authuser=0&hl=en&rclk=1",
        "coordinates": {
            "latitude": 26.396397,
            "longitude": 84.5848309
        }
    },
    {
        "name": "Jama masjid Barauli sarmathura dholpur",
        "main_category": "Mosque",
        "address": "Jama masjid Barauli sarmathura dholpur, Muslim vasti barauli, Sirmathura, Motipura, Rajasthan 328031",
        "detailed_address": {
            "ward": null,
            "street": "Muslim vasti barauli",
            "city": "Sirmathura, Motipura",
            "postal_code": null,
            "state": "Rajasthan",
            "country_code": "IN"
        },
        "images": [],
        "link": "https://www.google.com/maps/place/Jama+masjid+Barauli+sarmathura+dholpur/data=!4m7!3m6!1s0x397163cd2aa8ae23:0x5bd671a1d24d8670!8m2!3d26.5524321!4d77.4199945!16s%2Fg%2F11jz6dhgtg!19sChIJI66oKs1jcTkRcIZN0qFx1ls?authuser=0&hl=en&rclk=1",
        "coordinates": {
            "latitude": 26.552432099999997,
            "longitude": 77.4199945
        }
    },
    {
        "name": "Masjid siddique Haleempur, Barauli",
        "main_category": "Mosque",
        "address": "4943+FR Masjid siddique Haleempur, Barauli, Barauli, Madhya Pradesh 210129",
        "detailed_address": {
            "ward": null,
            "street": "4943+FR",
            "city": "Barauli",
            "postal_code": null,
            "state": "Madhya Pradesh",
            "country_code": "IN"
        },
        "images": [],
        "link": "https://www.google.com/maps/place/Masjid+siddique+Haleempur,+Barauli/data=!4m7!3m6!1s0x39833ba6e7ba3cf3:0x85e9099f230724cc!8m2!3d25.1061528!4d80.35459!16s%2Fg%2F11rkj36y5n!19sChIJ8zy656Y7gzkRzCQHI58J6YU?authuser=0&hl=en&rclk=1",
        "coordinates": {
            "latitude": 25.1061528,
            "longitude": 80.35459
        }
    },
    {
        "name": "Barwa Barauli West Masjid",
        "main_category": "Mosque",
        "address": "3GFC+9MH Barwa Barauli West Masjid, Barwa Barauli, Bihar 845307",
        "detailed_address": {
            "ward": null,
            "street": "3GFC+9MH",
            "city": "Barwa Barauli",
            "postal_code": null,
            "state": "Bihar",
            "country_code": "IN"
        },
        "images": [
            {
                "about": "All",
                "link": "https://lh5.googleusercontent.com/p/AF1QipMyVpF4n55HqUT9wqqG1XDpSifOSeo5DwpuLozd=w224-h427-k-no"
            }
        ],
        "link": "https://www.google.com/maps/place/Barwa+Barauli+West+Masjid/data=!4m7!3m6!1s0x39949d18be288663:0x93f520487cc02091!8m2!3d27.0734454!4d84.5217322!16s%2Fg%2F11t3dvn8rs!19sChIJY4YovhidlDkRkSDAfEgg9ZM?authuser=0&hl=en&rclk=1",
        "coordinates": {
            "latitude": 27.073445399999997,
            "longitude": 84.5217322
        }
    },
    {
        "name": "Barwa Barauli Masjid Qari Bashir",
        "main_category": "Mosque",
        "address": "3GFF+RRJ Barwa Barauli Masjid Qari Bashir, Barwa Barauli, Bihar 845455",
        "detailed_address": {
            "ward": null,
            "street": "3GFF+RRJ",
            "city": "Barwa Barauli",
            "postal_code": null,
            "state": "Bihar",
            "country_code": "IN"
        },
        "images": [],
        "link": "https://www.google.com/maps/place/Barwa+Barauli+Masjid+Qari+Bashir/data=!4m7!3m6!1s0x39949f5efe7bd651:0xd0099b0fad471fd1!8m2!3d27.0745998!4d84.5245129!16s%2Fg%2F11t3dvtn75!19sChIJUdZ7_l6flDkR0R9HrQ-bCdA?authuser=0&hl=en&rclk=1",
        "coordinates": {
            "latitude": 27.074599799999998,
            "longitude": 84.52451289999999
        }
    },
    {
        "name": "Barwa Barauli Eidgah",
        "main_category": "Mosque",
        "address": "3GG9+GMG Barwa Barauli Eidgah, Barwa Barauli, Bihar 845307",
        "detailed_address": {
            "ward": null,
            "street": "3GG9+GMG",
            "city": "Barwa Barauli",
            "postal_code": null,
            "state": "Bihar",
            "country_code": "IN"
        },
        "images": [],
        "link": "https://www.google.com/maps/place/Barwa+Barauli+Eidgah/data=!4m7!3m6!1s0x39949d7f83986503:0x43258fd2bb9d3dc2!8m2!3d27.0763023!4d84.5192009!16s%2Fg%2F11t2_4drv3!19sChIJA2WYg3-dlDkRwj2du9KPJUM?authuser=0&hl=en&rclk=1",
        "coordinates": {
            "latitude": 27.0763023,
            "longitude": 84.5192009
        }
    }
]