[
    {
        "name": "Dargah Masjid",
        "main_category": "Mosque",
        "address": "82VJ+QQ2 Dargah Masjid, Near PMT Bus Stop, Saswad, Maharashtra 412301",
        "detailed_address": {
            "ward": "Kumbharwada",
            "street": "82VJ+QQ2, Near PMT Bus Stop",
            "city": "Saswad",
            "postal_code": "412301",
            "state": "Maharashtra",
            "country_code": "IN"
        },
        "images": [
            {
                "about": "All",
                "link": "https://lh5.googleusercontent.com/p/AF1QipOi8DBWaPTgabbTLe0vMqz_Qm5y_nQNd7Npw3dk=w596-h298-k-no"
            }
        ],
        "link": "https://www.google.com/maps/place/Dargah+Masjid/data=!4m7!3m6!1s0x3bc2e5623bf85483:0x391da96d4bb44444!8m2!3d18.3443758!4d74.0318861!16s%2Fg%2F11ddxr4pxn!19sChIJg1T4O2LlwjsRRES0S22pHTk?authuser=0&hl=en&rclk=1",
        "coordinates": {
            "latitude": 18.344375799999998,
            "longitude": 74.0318861
        }
    },
    {
        "name": "Badshahi Masjid",
        "main_category": "Mosque",
        "address": "Badshahi Masjid, Kumbharwada, Saswad, Maharashtra 412301",
        "detailed_address": {
            "ward": "Kumbharwada",
            "street": null,
            "city": "Saswad",
            "postal_code": "412301",
            "state": "Maharashtra",
            "country_code": "IN"
        },
        "images": [
            {
                "about": "All",
                "link": "https://lh5.googleusercontent.com/p/AF1QipORMHK-ew_OyIDFUWsFGHbLKtYYNqrS304GtDkF=w224-h398-k-no"
            }
        ],
        "link": "https://www.google.com/maps/place/Badshahi+Masjid/data=!4m7!3m6!1s0x3bc2ef89f9220a8b:0x3b5b37f4fd8bbdeb!8m2!3d18.3433468!4d74.0295535!16s%2Fg%2F1hm5kb5wx!19sChIJiwoi-YnvwjsR672L_fQ3Wzs?authuser=0&hl=en&rclk=1",
        "coordinates": {
            "latitude": 18.3433468,
            "longitude": 74.02955349999999
        }
    },
    {
        "name": "Masjid-e-Noor",
        "main_category": "Mosque",
        "address": "8WXJ+J23 Masjid-e-Noor, Khed Shivapur-Sasvad Link Rd, Garade, Maharashtra 412301",
        "detailed_address": {
            "ward": null,
            "street": "8WXJ+J23, Khed Shivapur-Sasvad Link Rd",
            "city": "Garade",
            "postal_code": "412301",
            "state": "Maharashtra",
            "country_code": "IN"
        },
        "images": [
            {
                "about": "All",
                "link": "https://lh5.googleusercontent.com/p/AF1QipNVIHlVEHcPz8ENzl7GJsITanAw8hAcMdQtfnYs=w224-h398-k-no"
            }
        ],
        "link": "https://www.google.com/maps/place/Masjid-e-Noor/data=!4m7!3m6!1s0x3bc2ed4639fba027:0xab56521dce0cb3e3!8m2!3d18.3490063!4d73.9300353!16s%2Fg%2F11h3cyjrnf!19sChIJJ6D7OUbtwjsR47MMzh1SVqs?authuser=0&hl=en&rclk=1",
        "coordinates": {
            "latitude": 18.3490063,
            "longitude": 73.9300353
        }
    },
    {
        "name": "Muskim Samaj kabaristan saswad",
        "main_category": "Mosque",
        "address": "82WJ+G3F Muskim Samaj kabaristan saswad, Hadako road, Kumbharwada, Saswad, Maharashtra 412301",
        "detailed_address": {
            "ward": "Kumbharwada",
            "street": "82WJ+G3F, Hadako road",
            "city": "Saswad",
            "postal_code": "412301",
            "state": "Maharashtra",
            "country_code": "IN"
        },
        "images": [],
        "link": "https://www.google.com/maps/place/Muskim+Samaj+kabaristan+saswad/data=!4m7!3m6!1s0x3bc2e54c68547473:0x1b4c6bac735d2986!8m2!3d18.3463128!4d74.0301826!16s%2Fg%2F11s2nrysxt!19sChIJc3RUaEzlwjsRhildc6xrTBs?authuser=0&hl=en&rclk=1",
        "coordinates": {
            "latitude": 18.3463128,
            "longitude": 74.0301826
        }
    },
    {
        "name": "Masjid",
        "main_category": "Mosque",
        "address": "83PH+5HR Masjid, Khanavdi, Maharashtra 412303",
        "detailed_address": {
            "ward": null,
            "street": "83PH+5HR",
            "city": "Khanavdi",
            "postal_code": "412303",
            "state": "Maharashtra",
            "country_code": "IN"
        },
        "images": [
            {
                "about": "All",
                "link": "https://lh5.googleusercontent.com/p/AF1QipNi0IuSyChRlPuum52O9NLGMh5m9RvvusAAuHXO=w529-h298-k-no"
            }
        ],
        "link": "https://www.google.com/maps/place/Masjid/data=!4m7!3m6!1s0x3bc2e5dc3cbf0ed9:0x1a1f856605c9eb28!8m2!3d18.335516!4d74.078858!16s%2Fg%2F11sh73k8vz!19sChIJ2Q6_PNzlwjsRKOvJBWaFHxo?authuser=0&hl=en&rclk=1",
        "coordinates": {
            "latitude": 18.335516,
            "longitude": 74.078858
        }
    },
    {
        "name": "Masjid",
        "main_category": "Mosque",
        "address": "9X5X+544 Masjid, hiware, Maharashtra 412301",
        "detailed_address": {
            "ward": null,
            "street": "9X5X+544",
            "city": "hiware",
            "postal_code": "412301",
            "state": "Maharashtra",
            "country_code": "IN"
        },
        "images": [],
        "link": "https://www.google.com/maps/place/Masjid/data=!4m7!3m6!1s0x3bc2efef5c00d213:0x82ca6c88344f2d9f!8m2!3d18.3587788!4d73.997131!16s%2Fg%2F11v3mc8v5d!19sChIJE9IAXO_vwjsRny1PNIhsyoI?authuser=0&hl=en&rclk=1",
        "coordinates": {
            "latitude": 18.3587788,
            "longitude": 73.997131
        }
    }
]