[
    {
        "name": "Jama Masjid",
        "main_category": "Mosque",
        "address": "Jama Masjid, 422402, Ghoti Budruk, Maharashtra",
        "detailed_address": {
            "ward": null,
            "street": "422402",
            "city": "Ghoti Budruk",
            "postal_code": null,
            "state": "Maharashtra",
            "country_code": "IN"
        },
        "images": [
            {
                "about": "All",
                "link": "https://lh5.googleusercontent.com/p/AF1QipOH4MPACkzp8HiLrGCuTETNowd5df1wruwyychh=w529-h298-k-no"
            }
        ],
        "link": "https://www.google.com/maps/place/Jama+Masjid/data=!4m7!3m6!1s0x3bdd85189304461b:0x5bca331409d37e46!8m2!3d19.7166484!4d73.6287548!16s%2Fg%2F11f145sw_m!19sChIJG0YEkxiF3TsRRn7TCRQzyls?authuser=0&hl=en&rclk=1",
        "coordinates": {
            "latitude": 19.7166484,
            "longitude": 73.6287548
        }
    },
    {
        "name": "Shahi Masjid .shhy msjd",
        "main_category": "Mosque",
        "address": "PJ8H+4QC Shahi Masjid .shhy msjd, Ghoti Budruk, Maharashtra 422402",
        "detailed_address": {
            "ward": null,
            "street": "PJ8H+4QC",
            "city": "Ghoti Budruk",
            "postal_code": "422402",
            "state": "Maharashtra",
            "country_code": "IN"
        },
        "images": [
            {
                "about": "All",
                "link": "https://lh5.googleusercontent.com/p/AF1QipP9wGstxkYLc8XWtVZYnqgObdFxZHMooeZIRws_=w529-h298-k-no"
            }
        ],
        "link": "https://www.google.com/maps/place/Shahi+Masjid+.%D8%B4%D8%A7%DB%81%DB%8C+%D9%85%D8%B3%D8%AC%D8%AF%E2%80%AD/data=!4m7!3m6!1s0x3bdd8518afd037b7:0x2ca12487ac24c58c!8m2!3d19.715314!4d73.6293777!16s%2Fg%2F11byyls2fs!19sChIJtzfQrxiF3TsRjMUkrIckoSw?authuser=0&hl=en&rclk=1",
        "coordinates": {
            "latitude": 19.715314,
            "longitude": 73.62937769999999
        }
    },
    {
        "name": "Eid Gha Ghoti",
        "main_category": "Mosque",
        "address": "PJ8G+F5C Eid Gha Ghoti, Sambhaji Nagar, Ghoti Budruk, Maharashtra 422402",
        "detailed_address": {
            "ward": "Sambhaji Nagar",
            "street": "PJ8G+F5C, Sambhaji Nagar",
            "city": "Ghoti Budruk",
            "postal_code": "422402",
            "state": "Maharashtra",
            "country_code": "IN"
        },
        "images": [
            {
                "about": "All",
                "link": "https://lh5.googleusercontent.com/p/AF1QipPD-T69xg1SyKkn4U9HxrN3ahkCZxx8LY701cqi=w224-h398-k-no"
            }
        ],
        "link": "https://www.google.com/maps/place/Eid+Gha+Ghoti/data=!4m7!3m6!1s0x3bdd85196c6d575d:0x71cdc67f0aa3ee4d!8m2!3d19.7161843!4d73.6253862!16s%2Fg%2F11cs7xm0ds!19sChIJXVdtbBmF3TsRTe6jCn_GzXE?authuser=0&hl=en&rclk=1",
        "coordinates": {
            "latitude": 19.7161843,
            "longitude": 73.6253862
        }
    },
    {
        "name": "Jama Masjid",
        "main_category": "Mosque",
        "address": "W68P+7GM Jama Masjid, Ghoti, Maharashtra 413211",
        "detailed_address": {
            "ward": null,
            "street": "W68P+7GM",
            "city": "Ghoti",
            "postal_code": null,
            "state": "Maharashtra",
            "country_code": "IN"
        },
        "images": [
            {
                "about": "All",
                "link": "https://lh5.googleusercontent.com/p/AF1QipOIMkyRnjMNx58ilnXg6XHwV6-HqyVmlPtwLCIC=w529-h298-k-no"
            }
        ],
        "link": "https://www.google.com/maps/place/Jama+Masjid/data=!4m7!3m6!1s0x3bc46d8f0141b925:0x1fd941575401aa54!8m2!3d17.915705!4d75.2362938!16s%2Fg%2F11fl9gmht7!19sChIJJblBAY9txDsRVKoBVFdB2R8?authuser=0&hl=en&rclk=1",
        "coordinates": {
            "latitude": 17.915705,
            "longitude": 75.2362938
        }
    }
]