[
    {
        "name": "Badam Tala Paka Mosque",
        "main_category": "Mosque",
        "address": "Badam Tala Paka Mosque, Sk para, 96, Niva Park Phase I, Bramhapur, Kolkata, West Bengal 700096",
        "detailed_address": {
            "ward": "Niva Park Phase I, Bramhapur",
            "street": "Sk para, 96",
            "city": "Kolkata",
            "postal_code": "700096",
            "state": "West Bengal",
            "country_code": "IN"
        },
        "images": [
            {
                "about": "All",
                "link": "https://lh5.googleusercontent.com/p/AF1QipPzMW4U6uaq0szGCsgyT8aglGDqEYKwOZTxJ1yQ=w224-h354-k-no"
            },
            {
                "about": "Street View & 360deg",
                "link": "https://streetviewpixels-pa.googleapis.com/v1/thumbnail?panoid=8GSghGpv0ACMbjSzNx5nfg&cb_client=maps_sv.tactile.gps&w=224&h=298&yaw=56.521397&pitch=0&thumbfov=100"
            },
            {
                "about": "Videos",
                "link": "https://lh5.googleusercontent.com/p/AF1QipPICK_h77_SjXvs8OemXgxib6iKVKGUhq7nIx_x=w224-h398-k-no"
            }
        ],
        "link": "https://www.google.com/maps/place/Badam+Tala+Paka+Mosque/data=!4m7!3m6!1s0x3a0271ace31baaa5:0x653ee7e7840feb0d!8m2!3d22.4599061!4d88.3645522!16s%2Fg%2F1tm__n27!19sChIJpaob46xxAjoRDesPhOfnPmU?authuser=0&hl=en&rclk=1",
        "coordinates": {
            "latitude": 22.459906099999998,
            "longitude": 88.36455219999999
        }
    },
    {
        "name": "Mete Mosque",
        "main_category": "Mosque",
        "address": "F997+35V Mete Mosque, Rishi Raj Narayan Rd, Madhyapara, Usha Park, Bansdroni, Kolkata, West Bengal 700096",
        "detailed_address": {
            "ward": "Madhyapara, Usha Park, Bansdroni",
            "street": "F997+35V, Rishi Raj Narayan Rd",
            "city": "Kolkata",
            "postal_code": "700096",
            "state": "West Bengal",
            "country_code": "IN"
        },
        "images": [
            {
                "about": "All",
                "link": "https://lh5.googleusercontent.com/p/AF1QipO00sPNCwgui3hbSke8eeTcqRznkb-5Rr4VSSd1=w264-h298-k-no"
            }
        ],
        "link": "https://www.google.com/maps/place/Mete+Mosque/data=!4m7!3m6!1s0x3a0271aab29ff25f:0xdf8f073e79d621b9!8m2!3d22.4677292!4d88.3629278!16s%2Fg%2F1tgf1mqy!19sChIJX_KfsqpxAjoRuSHWeT4Hj98?authuser=0&hl=en&rclk=1",
        "coordinates": {
            "latitude": 22.467729199999997,
            "longitude": 88.3629278
        }
    },
    {
        "name": "Sunhairi Masjid",
        "main_category": "Mosque",
        "address": "M7CG+8Q8 Sunhairi Masjid, Street-6, Neelkanth Mahadev Marg, Kanti Nagar Extension, North Kanti Nagar, Block A, Silampur, Shahdara, New Delhi, Delhi 110031, Neelkanth Mahadev Marg, North Kanti Nagar, Block A, Seelampur, Shahdara, Delhi, 110031",
        "detailed_address": {
            "ward": "North Kanti Nagar, Block A, Seelampur, Shahdara",
            "street": "M7CG+8Q8, Street-6, Neelkanth Mahadev Marg, Kanti Nagar Extension, North Kanti Nagar, Block A, Silampur, Shahdara, New Delhi, Delhi 110031, Neelkanth Mahadev Marg",
            "city": "Delhi",
            "postal_code": "110031",
            "state": "Delhi",
            "country_code": "IN"
        },
        "images": [
            {
                "about": "All",
                "link": "https://lh5.googleusercontent.com/p/AF1QipNfL4OiCdf1pV4qn-3AC3LAtaH-01LcuX6_BYk=w224-h497-k-no"
            }
        ],
        "link": "https://www.google.com/maps/place/Sunhairi+Masjid/data=!4m7!3m6!1s0x390cfc8642532961:0xc12813cabcbf1fcc!8m2!3d28.6708187!4d77.2769654!16s%2Fg%2F11b75hppdf!19sChIJYSlTQob8DDkRzB-_vMoTKME?authuser=0&hl=en&rclk=1",
        "coordinates": {
            "latitude": 28.670818699999998,
            "longitude": 77.2769654
        }
    },
    {
        "name": "Paltan Masjid msjid",
        "main_category": "Mosque",
        "address": "Paltan Masjid msjid, 1st Military Line, Brahmapur, Odisha 760002",
        "detailed_address": {
            "ward": "Baidiya Nath Pur",
            "street": "1st Military Line",
            "city": "Brahmapur",
            "postal_code": "760002",
            "state": "Odisha",
            "country_code": "IN"
        },
        "images": [
            {
                "about": "All",
                "link": "https://lh5.googleusercontent.com/p/AF1QipOuI5Gj8nzM7gpO63TRgkl4xnLJYjmbvErCzzsZ=w397-h298-k-no"
            },
            {
                "about": "Dome",
                "link": "https://lh5.googleusercontent.com/p/AF1QipMpPF_ROaUjtxZioq4OWmIuXZ-HoRzkW_dXDRYF=w224-h398-k-no"
            },
            {
                "about": "Videos",
                "link": "https://lh5.googleusercontent.com/p/AF1QipPRREo_dSkaZyBTTi5QsFhMDPfxi-HQDCXG_44c=w529-h298-k-no"
            },
            {
                "about": "Street View & 360deg",
                "link": "https://streetviewpixels-pa.googleapis.com/v1/thumbnail?panoid=g6-_FXZENp2qz_UD4Dbqtg&cb_client=maps_sv.tactile.gps&w=224&h=298&yaw=25.530394&pitch=0&thumbfov=100"
            }
        ],
        "link": "https://www.google.com/maps/place/Paltan+Masjid+%E0%AC%AE%E0%AC%B8%E0%AC%9C%E0%AC%BF%E0%AC%A6/data=!4m7!3m6!1s0x3a3d500dee54a66d:0xb3ed248b87176513!8m2!3d19.3153405!4d84.7885813!16s%2Fg%2F1ptwb88d7!19sChIJbaZU7g1QPToRE2UXh4sk7bM?authuser=0&hl=en&rclk=1",
        "coordinates": {
            "latitude": 19.315340499999998,
            "longitude": 84.78858129999999
        }
    },
    {
        "name": "JAMIA MASJID AHL E SUNNAT",
        "main_category": "Mosque",
        "address": "8Q7Q+H8V JAMIA MASJID AHL E SUNNAT, Baidiya Nath Pur, Brahmapur, Odisha 760001",
        "detailed_address": {
            "ward": "Baidiya Nath Pur",
            "street": "8Q7Q+H8V",
            "city": "Brahmapur",
            "postal_code": "760001",
            "state": "Odisha",
            "country_code": "IN"
        },
        "images": [],
        "link": "https://www.google.com/maps/place/JAMIA+MASJID+AHL+E+SUNNAT/data=!4m7!3m6!1s0x3a3d500e71c45421:0x9735a7a12cd06dff!8m2!3d19.3139837!4d84.7883109!16s%2Fg%2F11dz567_n1!19sChIJIVTEcQ5QPToR_23QLKGnNZc?authuser=0&hl=en&rclk=1",
        "coordinates": {
            "latitude": 19.313983699999998,
            "longitude": 84.7883109
        }
    },
    {
        "name": "Aqsa Masjid",
        "main_category": "Mosque",
        "address": "Aqsa Masjid, New Delhi Khutba-E-Juma- 1:00 PM, A31-29-B5, Jafrabad, Shahdara, Delhi, 110053",
        "detailed_address": {
            "ward": "Jafrabad, Shahdara",
            "street": "New Delhi Khutba-E-Juma- 1:00 PM, A31-29-B5",
            "city": "Delhi",
            "postal_code": "110053",
            "state": "Delhi",
            "country_code": "IN"
        },
        "images": [
            {
                "about": "All",
                "link": "https://lh5.googleusercontent.com/p/AF1QipOvkVC6T1ZD7HHLSNwyoq5iIAaI_Bp4CVBkBVd4=w529-h298-k-no"
            },
            {
                "about": "Street View & 360deg",
                "link": "https://streetviewpixels-pa.googleapis.com/v1/thumbnail?panoid=bj_AuUvTD1OuZvMJL4QEDQ&cb_client=maps_sv.tactile.gps&w=224&h=298&yaw=278.91818&pitch=0&thumbfov=100"
            },
            {
                "about": "Videos",
                "link": "https://lh5.googleusercontent.com/p/AF1QipORGVQNXDRfWZQt5uS5ZjpuJW00gNv2Jcwx1Dbx=w224-h395-k-no"
            }
        ],
        "link": "https://www.google.com/maps/place/Aqsa+Masjid/data=!4m7!3m6!1s0x390cfc656b85484f:0x76f846cfe088615!8m2!3d28.6848297!4d77.2731549!16s%2Fg%2F11c5ghfhl2!19sChIJT0iFa2X8DDkRFYYI_myEbwc?authuser=0&hl=en&rclk=1",
        "coordinates": {
            "latitude": 28.684829699999998,
            "longitude": 77.2731549
        }
    },
    {
        "name": "Islamia Masjid",
        "main_category": "Mosque",
        "address": "N88, Islamia Masjid, street no 15 & 16, Block N, Brahampuri, Shahdara, Delhi, 110053",
        "detailed_address": {
            "ward": "Block N, Brahampuri, Shahdara",
            "street": "N88, street no 15 & 16",
            "city": "Delhi",
            "postal_code": "110053",
            "state": "Delhi",
            "country_code": "IN"
        },
        "images": [
            {
                "about": "All",
                "link": "https://lh5.googleusercontent.com/p/AF1QipNNvjmxBIX5UHSJdXPD6wgl7rgOwMTbRxQ-3cD7=w528-h298-k-no"
            },
            {
                "about": "Videos",
                "link": "https://lh5.googleusercontent.com/p/AF1QipOCtaw3wZov67B5CPmEfCMrp2mv8CjPDjgXKHxB=w293-h298-k-no"
            }
        ],
        "link": "https://www.google.com/maps/place/Islamia+Masjid/data=!4m7!3m6!1s0x390cfc66fa34a425:0xd084b066765a07be!8m2!3d28.6821301!4d77.2669195!16s%2Fg%2F11g68ymwq8!19sChIJJaQ0-mb8DDkRvgdadmawhNA?authuser=0&hl=en&rclk=1",
        "coordinates": {
            "latitude": 28.6821301,
            "longitude": 77.2669195
        }
    },
    {
        "name": "Masjid Jamal Raza Maslak-e-AlaHazrat",
        "main_category": "Mosque",
        "address": "8QCP+JMP Masjid Jamal Raza Maslak-e-AlaHazrat, 5th Ln, Somanath Nagar, Brahmapur, Odisha 760001",
        "detailed_address": {
            "ward": "Somanath Nagar",
            "street": "8QCP+JMP, 5th Ln",
            "city": "Brahmapur",
            "postal_code": "760001",
            "state": "Odisha",
            "country_code": "IN"
        },
        "images": [
            {
                "about": "All",
                "link": "https://lh5.googleusercontent.com/p/AF1QipPsCRLyHMEZG1B-ouSqeDBFH-CcJonoJhiqFWFB=w397-h298-k-no"
            },
            {
                "about": "Latest",
                "link": "https://lh5.googleusercontent.com/p/AF1QipNhPxXEafaoa4PD3B4Yq8rjFAvcBlDghfZQNZnA=w224-h398-k-no"
            },
            {
                "about": "Videos",
                "link": "https://lh5.googleusercontent.com/p/AF1QipNhPxXEafaoa4PD3B4Yq8rjFAvcBlDghfZQNZnA=w224-h398-k-no"
            }
        ],
        "link": "https://www.google.com/maps/place/Masjid+Jamal+Raza+Maslak-e-AlaHazrat/data=!4m7!3m6!1s0x3a3d50112c25002b:0x689ef9dfcf421028!8m2!3d19.3215868!4d84.7866929!16s%2Fg%2F11ggg1vcpc!19sChIJKwAlLBFQPToRKBBCz9_5nmg?authuser=0&hl=en&rclk=1",
        "coordinates": {
            "latitude": 19.3215868,
            "longitude": 84.78669289999999
        }
    },
    {
        "name": "Masjid E Abrar (Madrasa Kashiful Uloom)",
        "main_category": "Mosque",
        "address": "8Q8Q+M3C Masjid E Abrar (Madrasa Kashiful Uloom), Baidiya Nath Pur, Brahmapur, Odisha 760001",
        "detailed_address": {
            "ward": "Baidiya Nath Pur",
            "street": "8Q8Q+M3C",
            "city": "Brahmapur",
            "postal_code": "760001",
            "state": "Odisha",
            "country_code": "IN"
        },
        "images": [
            {
                "about": "All",
                "link": "https://lh5.googleusercontent.com/p/AF1QipO1lyKmWHEYVv1j5dNB8jAsZwBwMUrmjyG1enH1=w529-h298-k-no"
            },
            {
                "about": "Street View & 360deg",
                "link": "https://streetviewpixels-pa.googleapis.com/v1/thumbnail?panoid=020mmxDEtVIrSo_2jhXlag&cb_client=maps_sv.tactile.gps&w=224&h=298&yaw=258.0605&pitch=0&thumbfov=100"
            }
        ],
        "link": "https://www.google.com/maps/place/Masjid+E+Abrar+%28Madrasa+Kashiful+Uloom%29/data=!4m7!3m6!1s0x3a3d5011dd4f9003:0x3d6fd1b761d7f8d1!8m2!3d19.3166833!4d84.7876377!16s%2Fg%2F11g72g2r9p!19sChIJA5BP3RFQPToR0fjXYbfRbz0?authuser=0&hl=en&rclk=1",
        "coordinates": {
            "latitude": 19.316683299999998,
            "longitude": 84.78763769999999
        }
    },
    {
        "name": "Masjid E Ahle Hadees",
        "main_category": "Mosque",
        "address": "8Q8Q+Q5V Masjid E Ahle Hadees, Baidiya Nath Pur, Brahmapur, Odisha 760001",
        "detailed_address": {
            "ward": "Baidiya Nath Pur",
            "street": "8Q8Q+Q5V",
            "city": "Brahmapur",
            "postal_code": "760001",
            "state": "Odisha",
            "country_code": "IN"
        },
        "images": [
            {
                "about": "All",
                "link": "https://lh5.googleusercontent.com/p/AF1QipPiDfsqopK12KKi0AKDY85qGwGMYIfvTRBq7dJN=w397-h298-k-no"
            },
            {
                "about": "Street View & 360deg",
                "link": "https://streetviewpixels-pa.googleapis.com/v1/thumbnail?panoid=zJH2j-qXs2XTexKvYLfLhQ&cb_client=maps_sv.tactile.gps&w=224&h=298&yaw=212.11949&pitch=0&thumbfov=100"
            }
        ],
        "link": "https://www.google.com/maps/place/Masjid+E+Ahle+Hadees/data=!4m7!3m6!1s0x3a3d5011e8a0a055:0x15c7d60f4b26dc77!8m2!3d19.3169858!4d84.7879126!16s%2Fg%2F11g7zv40wg!19sChIJVaCg6BFQPToRd9wmSw_WxxU?authuser=0&hl=en&rclk=1",
        "coordinates": {
            "latitude": 19.316985799999998,
            "longitude": 84.7879126
        }
    },
    {
        "name": "Auliya Masjid Ahl-e-Sunnatwaljamat & BABA Jot Ali Shah Darga",
        "main_category": "Mosque",
        "address": "8Q8P+JV7 Auliya Masjid Ahl-e-Sunnatwaljamat & BABA Jot Ali Shah Darga, Khaja St, Brahmapur, Baidiya Nath Pur, Brahmapur, Odisha 760001",
        "detailed_address": {
            "ward": "Brahmapur, Baidiya Nath Pur",
            "street": "8Q8P+JV7, Khaja St",
            "city": "Brahmapur",
            "postal_code": "760001",
            "state": "Odisha",
            "country_code": "IN"
        },
        "images": [
            {
                "about": "All",
                "link": "https://lh5.googleusercontent.com/p/AF1QipPJp8EOlsoBiPpAm3lChcPbSSYsy_xOfPNtIZBz=w567-h298-k-no"
            },
            {
                "about": "Dome",
                "link": "https://lh5.googleusercontent.com/p/AF1QipNOmeVkINg7RZTioBK5EMURXfgDjFsJBN1zS7Hd=w400-h298-k-no"
            },
            {
                "about": "Videos",
                "link": "https://lh5.googleusercontent.com/p/AF1QipNa6ma__BpITruU8EN_lUjXGDQHVjEFNPGOkTMp=w397-h298-k-no"
            }
        ],
        "link": "https://www.google.com/maps/place/Auliya+Masjid+Ahl-e-Sunnatwaljamat+%26+BABA+Jot+Ali+Shah+Darga/data=!4m7!3m6!1s0x3a3d5011daf9043f:0x8eaf6a9e64aee951!8m2!3d19.3165415!4d84.7871677!16s%2Fg%2F11dzdt068c!19sChIJPwT52hFQPToRUemuZJ5qr44?authuser=0&hl=en&rclk=1",
        "coordinates": {
            "latitude": 19.3165415,
            "longitude": 84.7871677
        }
    },
    {
        "name": "NAZARANI MASJID AHl-E-SUNNATWAL JAMAT",
        "main_category": "Mosque",
        "address": "8Q7Q+W84 NAZARANI MASJID AHl-E-SUNNATWAL JAMAT, Bhapur Bazar Road, Baidiya Nath Pur, Brahmapur, Odisha 760001",
        "detailed_address": {
            "ward": "Baidiya Nath Pur",
            "street": "8Q7Q+W84, Bhapur Bazar Road",
            "city": "Brahmapur",
            "postal_code": "760001",
            "state": "Odisha",
            "country_code": "IN"
        },
        "images": [
            {
                "about": "All",
                "link": "https://lh5.googleusercontent.com/p/AF1QipMfT8mQn2Bjx91oXX0g8vJgKcDsE-5hPGwltFfe=w397-h298-k-no"
            },
            {
                "about": "Videos",
                "link": "https://lh5.googleusercontent.com/p/AF1QipOU1nMdJ-ABOAE45aeXeMhzVnskghn1EAYXyCEy=w224-h398-k-no"
            }
        ],
        "link": "https://www.google.com/maps/place/NAZARANI+MASJID+AHl-E-SUNNATWAL+JAMAT/data=!4m7!3m6!1s0x3a3d500e72a0fa73:0x392f9e9531f57363!8m2!3d19.3147544!4d84.7883267!16s%2Fg%2F11dfjxz3z0!19sChIJc_qgcg5QPToRY3P1MZWeLzk?authuser=0&hl=en&rclk=1",
        "coordinates": {
            "latitude": 19.314754399999998,
            "longitude": 84.7883267
        }
    },
    {
        "name": "Memon Masjid Ahle-E-Sunnatwal Jamat",
        "main_category": "Mosque",
        "address": "8Q8J+9JM Memon Masjid Ahle-E-Sunnatwal Jamat, Siddharth Clinic Rd, Sano Bazar, Triveni Nagar, Brahmapur, Odisha 760002",
        "detailed_address": {
            "ward": "Sano Bazar, Triveni Nagar",
            "street": "8Q8J+9JM, Siddharth Clinic Rd",
            "city": "Brahmapur",
            "postal_code": "760002",
            "state": "Odisha",
            "country_code": "IN"
        },
        "images": [
            {
                "about": "All",
                "link": "https://lh5.googleusercontent.com/p/AF1QipN7hFo8v7kSG3pBw8W3UxaeLL_z443IY0OGw7S3=w224-h398-k-no"
            },
            {
                "about": "Street View & 360deg",
                "link": "https://streetviewpixels-pa.googleapis.com/v1/thumbnail?panoid=3C9l4sL3OiMC_387nh05Mw&cb_client=maps_sv.tactile.gps&w=224&h=298&yaw=43.637447&pitch=0&thumbfov=100"
            }
        ],
        "link": "https://www.google.com/maps/place/Memon+Masjid+Ahle-E-Sunnatwal+Jamat/data=!4m7!3m6!1s0x3a3d501ad372cc4f:0x6b126a9ff27aa7b1!8m2!3d19.3159616!4d84.7815617!16s%2Fg%2F11dfh388bs!19sChIJT8xy0xpQPToRsad68p9qEms?authuser=0&hl=en&rclk=1",
        "coordinates": {
            "latitude": 19.315961599999998,
            "longitude": 84.7815617
        }
    },
    {
        "name": "Berhampur Madani Masjid",
        "main_category": "Mosque",
        "address": "C624+4G3 Berhampur Madani Masjid, Berhampur, Nemalo, Odisha 754293",
        "detailed_address": {
            "ward": null,
            "street": "C624+4G3, Berhampur",
            "city": "Nemalo, Kusumandal",
            "postal_code": "754293",
            "state": "Odisha",
            "country_code": "IN"
        },
        "images": [
            {
                "about": "All",
                "link": "https://lh5.googleusercontent.com/p/AF1QipNjy_L4BzPV7oC2E0czoqfqjuXmFImUWGQMxB9z=w397-h298-k-no"
            },
            {
                "about": "Videos",
                "link": "https://lh5.googleusercontent.com/p/AF1QipO5_KH_Zja4CMo6WNzFRAWjfZXTwcy2YyeZsIUP=w529-h298-k-no"
            }
        ],
        "link": "https://www.google.com/maps/place/Berhampur+Madani+Masjid/data=!4m7!3m6!1s0x3a197dc8593f3375:0x2e589d3473437195!8m2!3d20.4002657!4d86.2062859!16s%2Fg%2F11rd29_gyz!19sChIJdTM_Wch9GToRlXFDczSdWC4?authuser=0&hl=en&rclk=1",
        "coordinates": {
            "latitude": 20.4002657,
            "longitude": 86.2062859
        }
    },
    {
        "name": "Masjid msjid",
        "main_category": "Mosque",
        "address": "8QFM+93W Masjid msjid, Shanti Marg, Sriramnagar, Brahmapur, Odisha 760002",
        "detailed_address": {
            "ward": "Sriramnagar",
            "street": "8QFM+93W, Shanti Marg",
            "city": "Brahmapur",
            "postal_code": "760002",
            "state": "Odisha",
            "country_code": "IN"
        },
        "images": [
            {
                "about": "All",
                "link": "https://lh5.googleusercontent.com/p/AF1QipOIWCyEajoodhC1ZsHmCDeEMYrW-Xv10R84c5bP=w224-h298-k-no"
            }
        ],
        "link": "https://www.google.com/maps/place/Masjid+%E0%AC%AE%E0%AC%B8%E0%AC%9C%E0%AC%BF%E0%AC%A6/data=!4m7!3m6!1s0x3a3d511d171db3df:0x4e49555432d43a33!8m2!3d19.3234947!4d84.7826928!16s%2Fg%2F11pgdblvmg!19sChIJ37MdFx1RPToRMzrUMlRVSU4?authuser=0&hl=en&rclk=1",
        "coordinates": {
            "latitude": 19.323494699999998,
            "longitude": 84.78269279999999
        }
    },
    {
        "name": "Mominabaad Ibadat Ghar",
        "main_category": "Mosque",
        "address": "8QCP+HF3 Mominabaad Ibadat Ghar, Somanath Nagar, Brahmapur, Odisha 760002",
        "detailed_address": {
            "ward": "Somanath Nagar",
            "street": "8QCP+HF3",
            "city": "Brahmapur",
            "postal_code": "760002",
            "state": "Odisha",
            "country_code": "IN"
        },
        "images": [],
        "link": "https://www.google.com/maps/place/Mominabaad+Ibadat+Ghar/data=!4m7!3m6!1s0x3a3d51fa3cec88d3:0x24cfb816e6ab2608!8m2!3d19.3213993!4d84.7861592!16s%2Fg%2F11r9cqqskr!19sChIJ04jsPPpRPToRCCar5ha4zyQ?authuser=0&hl=en&rclk=1",
        "coordinates": {
            "latitude": 19.3213993,
            "longitude": 84.7861592
        }
    },
    {
        "name": "Brahmapur masjid",
        "main_category": "Mosque",
        "address": "B29, Brahmapur masjid, B29, Brahmapur, Boral, Sonarpur, West Bengal 700096",
        "detailed_address": {
            "ward": "Boral",
            "street": "B29, B29, Brahmapur",
            "city": "Sonarpur",
            "postal_code": "700096",
            "state": "West Bengal",
            "country_code": "IN"
        },
        "images": [],
        "link": "https://www.google.com/maps/place/Brahmapur+masjid/data=!4m7!3m6!1s0x3a0271cbc31914a7:0xd612a05deca4aba!8m2!3d22.4564967!4d88.3697539!16s%2Fg%2F11l25t4tg3!19sChIJpxQZw8txAjoRukrK3gUqYQ0?authuser=0&hl=en&rclk=1",
        "coordinates": {
            "latitude": 22.4564967,
            "longitude": 88.36975389999999
        }
    },
    {
        "name": "Masjid",
        "main_category": "Mosque",
        "address": "8R63+322 Masjid, Ashok Nagar 7th Ln, Aurobinda Nagar, Brahmapur, Odisha 760001",
        "detailed_address": {
            "ward": "Aurobinda Nagar",
            "street": "8R63+322, Ashok Nagar 7th Ln",
            "city": "Brahmapur",
            "postal_code": "760001",
            "state": "Odisha",
            "country_code": "IN"
        },
        "images": [
            {
                "about": "All",
                "link": "https://streetviewpixels-pa.googleapis.com/v1/thumbnail?panoid=KB6lZ9cblT7QVgswRYvtJg&cb_client=maps_sv.tactile.gps&w=224&h=298&yaw=250.66365&pitch=0&thumbfov=100"
            },
            {
                "about": "Street View & 360deg",
                "link": "https://streetviewpixels-pa.googleapis.com/v1/thumbnail?panoid=KB6lZ9cblT7QVgswRYvtJg&cb_client=maps_sv.tactile.gps&w=224&h=298&yaw=250.66365&pitch=0&thumbfov=100"
            }
        ],
        "link": "https://www.google.com/maps/place/Masjid/data=!4m7!3m6!1s0x3a3d51b699c3ce33:0x16636f60d65c54f9!8m2!3d19.3101326!4d84.8025108!16s%2Fg%2F11sqqhnjvg!19sChIJM87DmbZRPToR-VRc1mBvYxY?authuser=0&hl=en&rclk=1",
        "coordinates": {
            "latitude": 19.3101326,
            "longitude": 84.8025108
        }
    }
]