[
    {
        "name": "ThavoorJuma Masjid",
        "main_category": "Mosque",
        "address": "9GVQ+7PP ThavoorJuma Masjid, Kundacheri, Karnataka 571247",
        "detailed_address": {
            "ward": null,
            "street": "9GVQ+7PP",
            "city": "Kundacheri",
            "postal_code": "571247",
            "state": "Karnataka",
            "country_code": "IN"
        },
        "images": [
            {
                "about": "All",
                "link": "https://lh5.googleusercontent.com/p/AF1QipNk6a-spClvsI64m3WbxlXRnk-0Wa0MJFVI3u0G=w397-h298-k-no"
            }
        ],
        "link": "https://www.google.com/maps/place/ThavoorJuma+Masjid/data=!4m7!3m6!1s0x3ba457f278cd281b:0x45f7342476fb2170!8m2!3d12.393204!4d75.5393348!16s%2Fg%2F11bx7lp2vh!19sChIJGyjNePJXpDsRcCH7diQ090U?authuser=0&hl=en&rclk=1",
        "coordinates": {
            "latitude": 12.393203999999999,
            "longitude": 75.53933479999999
        }
    },
    {
        "name": "Jama Maszid Bewar Mainpuri Uttar Pradesh",
        "main_category": "Religious destination",
        "address": "Jama Maszid Bewar Mainpuri Uttar Pradesh, GT road, Aligarh - Kanpur Rd, Bewar, Uttar Pradesh 205301",
        "detailed_address": {
            "ward": null,
            "street": "GT road, Aligarh - Kanpur Rd",
            "city": "Bewar",
            "postal_code": "205301",
            "state": "Uttar Pradesh",
            "country_code": "IN"
        },
        "images": [
            {
                "about": "All",
                "link": "https://lh5.googleusercontent.com/p/AF1QipN0b87JTh3SzlCHe4KPSNSOexI71sebTK_Dlacq=w224-h403-k-no"
            },
            {
                "about": "Videos",
                "link": "https://lh5.googleusercontent.com/p/AF1QipN0b87JTh3SzlCHe4KPSNSOexI71sebTK_Dlacq=w224-h403-k-no"
            }
        ],
        "link": "https://www.google.com/maps/place/Jama+Maszid+Bewar+Mainpuri+Uttar+Pradesh/data=!4m7!3m6!1s0x39758bf1b3f1f8d5:0x41459f2262d90558!8m2!3d27.2176039!4d79.2986014!16s%2Fg%2F11dzssh79g!19sChIJ1fjxs_GLdTkRWAXZYiKfRUE?authuser=0&hl=en&rclk=1",
        "coordinates": {
            "latitude": 27.2176039,
            "longitude": 79.2986014
        }
    },
    {
        "name": "Masjid",
        "main_category": "Mosque",
        "address": "679X+4R9 Masjid, Bewar, Uttar Pradesh 205301",
        "detailed_address": {
            "ward": null,
            "street": "679X+4R9",
            "city": "Bewar",
            "postal_code": null,
            "state": "Uttar Pradesh",
            "country_code": "IN"
        },
        "images": [
            {
                "about": "All",
                "link": "https://lh5.googleusercontent.com/p/AF1QipMauTgbOGlJ9kRKWcwp9YzvItyE4mO-BJTSM8po=w224-h398-k-no"
            },
            {
                "about": "Videos",
                "link": "https://lh5.googleusercontent.com/p/AF1QipMauTgbOGlJ9kRKWcwp9YzvItyE4mO-BJTSM8po=w224-h398-k-no"
            }
        ],
        "link": "https://www.google.com/maps/place/Masjid/data=!4m7!3m6!1s0x39758be84ff93d55:0x9a50d5e2628c0cf5!8m2!3d27.2177798!4d79.2996082!16s%2Fg%2F11s7ngzt4y!19sChIJVT35T-iLdTkR9QyMYuLVUJo?authuser=0&hl=en&rclk=1",
        "coordinates": {
            "latitude": 27.2177798,
            "longitude": 79.2996082
        }
    },
    {
        "name": "Warsi masjid",
        "main_category": "Mosque",
        "address": "676X+72M Warsi masjid, Bewar - Etawah Rd, Bewar, Uttar Pradesh 205301",
        "detailed_address": {
            "ward": null,
            "street": "676X+72M, Bewar - Etawah Rd",
            "city": "Bewar",
            "postal_code": null,
            "state": "Uttar Pradesh",
            "country_code": "IN"
        },
        "images": [],
        "link": "https://www.google.com/maps/place/Warsi+masjid/data=!4m7!3m6!1s0x39758bbef2866d1d:0x9c975047383ac0a5!8m2!3d27.2107063!4d79.297559!16s%2Fg%2F11sx05dcww!19sChIJHW2G8r6LdTkRpcA6OEdQl5w?authuser=0&hl=en&rclk=1",
        "coordinates": {
            "latitude": 27.2107063,
            "longitude": 79.29755899999999
        }
    },
    {
        "name": "Jama Masjid Purana Bazar Beber",
        "main_category": "Mosque",
        "address": "Jama Masjid Purana Bazar Beber, GT road, Aligarh, GT road, Aligarh - Kanpur Rd, Bewar, Uttar Pradesh 205301",
        "detailed_address": {
            "ward": null,
            "street": "GT road, Aligarh, GT road, Aligarh - Kanpur Rd",
            "city": "Bewar",
            "postal_code": "205301",
            "state": "Uttar Pradesh",
            "country_code": "IN"
        },
        "images": [],
        "link": "https://www.google.com/maps/place/Jama+Masjid+Purana+Bazar+Beber/data=!4m7!3m6!1s0x39758b0a569d7f1b:0xe8d32c17987cb7e5!8m2!3d27.217618!4d79.2985024!16s%2Fg%2F11t3nh32v8!19sChIJG3-dVgqLdTkR5bd8mBcs0-g?authuser=0&hl=en&rclk=1",
        "coordinates": {
            "latitude": 27.217617999999998,
            "longitude": 79.29850239999999
        }
    }
]