[
    {
        "name": "Digboi Jame-e-Masjid msjd",
        "main_category": "Mosque",
        "address": "CJ28+2F8 Digboi Jame-e-Masjid msjd, Digboi, Assam 786171",
        "detailed_address": {
            "ward": null,
            "street": "CJ28+2F8",
            "city": "Digboi",
            "postal_code": "786171",
            "state": "Assam",
            "country_code": "IN"
        },
        "images": [
            {
                "about": "All",
                "link": "https://lh5.googleusercontent.com/p/AF1QipPYof-9F-5hJmdd7lGB1hBxT-sZ69Gp_6u0JfI2=w397-h298-k-no"
            },
            {
                "about": "Dome",
                "link": "https://lh5.googleusercontent.com/p/AF1QipNPVYoxUJLGUcjqcmvTJeaBsbXHdncU4sFCFWQi=w395-h298-k-no"
            },
            {
                "about": "Videos",
                "link": "https://lh5.googleusercontent.com/p/AF1QipNQDNuSgD3OaIb0c9f7wAmO_wImKJl6XWL1FBUv=w541-h298-k-no"
            }
        ],
        "link": "https://www.google.com/maps/place/Digboi+Jame-e-Masjid+%D9%85%D8%B3%D8%AC%D8%AF%E2%80%AD/data=!4m7!3m6!1s0x373f224fbd4e335d:0xe544870f928f5f26!8m2!3d27.400045!4d95.616196!16s%2Fg%2F11c60f_28t!19sChIJXTNOvU8iPzcRJl-Pkg-HROU?authuser=0&hl=en&rclk=1",
        "coordinates": {
            "latitude": 27.400045,
            "longitude": 95.616196
        }
    },
    {
        "name": "Digboi Coloni Jalali Masjid",
        "main_category": "Mosque",
        "address": "9JRF+8GG Digboi Coloni Jalali Masjid, Digboi, Assam 786171",
        "detailed_address": {
            "ward": null,
            "street": "9JRF+8GG",
            "city": "Digboi",
            "postal_code": "786171",
            "state": "Assam",
            "country_code": "IN"
        },
        "images": [
            {
                "about": "All",
                "link": "https://lh5.googleusercontent.com/p/AF1QipPTLyao-BW4CVZqAEKFOwgE82ElQqb7Pv8um2Va=w397-h298-k-no"
            },
            {
                "about": "Street View & 360deg",
                "link": "https://streetviewpixels-pa.googleapis.com/v1/thumbnail?panoid=ysGCvu0eBiBRhK5p9QENXA&cb_client=maps_sv.tactile.gps&w=224&h=298&yaw=311.70102&pitch=0&thumbfov=100"
            }
        ],
        "link": "https://www.google.com/maps/place/Digboi+Coloni+Jalali+Masjid/data=!4m7!3m6!1s0x373f224abc322601:0xcfd93b7aab94db6e!8m2!3d27.3908007!4d95.6238302!16s%2Fg%2F11gbtsn1k1!19sChIJASYyvEoiPzcRbtuUq3o72c8?authuser=0&hl=en&rclk=1",
        "coordinates": {
            "latitude": 27.3908007,
            "longitude": 95.6238302
        }
    },
    {
        "name": "Station Masjid",
        "main_category": "Mosque",
        "address": "9JM8+VVW Station Masjid, NH 52B, Digboi, Assam 786171",
        "detailed_address": {
            "ward": null,
            "street": "9JM8+VVW, NH 52B",
            "city": "Digboi",
            "postal_code": "786171",
            "state": "Assam",
            "country_code": "IN"
        },
        "images": [
            {
                "about": "All",
                "link": "https://lh5.googleusercontent.com/p/AF1QipNA4YLEpzhduJkXwbnNPk5MEr2Dy262w_-ydDY-=w224-h298-k-no"
            }
        ],
        "link": "https://www.google.com/maps/place/Station+Masjid/data=!4m7!3m6!1s0x373f232af036cb43:0x924d4bf8ce9647cb!8m2!3d27.3847453!4d95.6172025!16s%2Fg%2F11lsl7kzn8!19sChIJQ8s28CojPzcRy0eWzvhLTZI?authuser=0&hl=en&rclk=1",
        "coordinates": {
            "latitude": 27.3847453,
            "longitude": 95.61720249999999
        }
    }
]