[
    {
        "name": "Chennur Eidgah",
        "main_category": "Mosque",
        "address": "VQ3J+64P Chennur Eidgah, Chennur, Telangana 504201",
        "detailed_address": {
            "ward": null,
            "street": "VQ3J+64P",
            "city": "Chennur",
            "postal_code": "504201",
            "state": "Telangana",
            "country_code": "IN"
        },
        "images": [
            {
                "about": "All",
                "link": "https://lh5.googleusercontent.com/p/AF1QipM3MeUqUkVgblkkD6Kw35fKVMt2Yx8_XU40m0jr=w529-h298-k-no"
            }
        ],
        "link": "https://www.google.com/maps/place/Chennur+Eidgah/data=!4m7!3m6!1s0x3a32eb346e2922d1:0x522bc793d3989cc0!8m2!3d18.8530758!4d79.7803149!16s%2Fg%2F11gr41f9d1!19sChIJ0SIpbjTrMjoRwJyY05PHK1I?authuser=0&hl=en&rclk=1",
        "coordinates": {
            "latitude": 18.8530758,
            "longitude": 79.7803149
        }
    },
    {
        "name": "Chilla Mubarak Gouse e Azam",
        "main_category": "Mosque",
        "address": "VQ4W+X4G Chilla Mubarak Gouse e Azam, Chennur, Telangana 504201",
        "detailed_address": {
            "ward": null,
            "street": "VQ4W+X4G",
            "city": "Chennur",
            "postal_code": "504201",
            "state": "Telangana",
            "country_code": "IN"
        },
        "images": [
            {
                "about": "All",
                "link": "https://streetviewpixels-pa.googleapis.com/v1/thumbnail?panoid=P-r0F8WQTwJJ6-M7p2Enkg&cb_client=maps_sv.tactile.gps&w=224&h=298&yaw=25.806948&pitch=0&thumbfov=100"
            },
            {
                "about": "Street View & 360deg",
                "link": "https://streetviewpixels-pa.googleapis.com/v1/thumbnail?panoid=P-r0F8WQTwJJ6-M7p2Enkg&cb_client=maps_sv.tactile.gps&w=224&h=298&yaw=25.806948&pitch=0&thumbfov=100"
            },
            {
                "about": "Videos",
                "link": "https://lh5.googleusercontent.com/p/AF1QipNepR61KLSb3e1v7d6k-DZTRMV8dZPbgsw1bvgs=w224-h398-k-no"
            }
        ],
        "link": "https://www.google.com/maps/place/Chilla+Mubarak+Gouse+e+Azam/data=!4m7!3m6!1s0x3a32eb21ab958ad5:0x3ae6b59a4b6f5e6f!8m2!3d18.8574495!4d79.7953405!16s%2Fg%2F11h6gc2ps0!19sChIJ1YqVqyHrMjoRb15vS5q15jo?authuser=0&hl=en&rclk=1",
        "coordinates": {
            "latitude": 18.857449499999998,
            "longitude": 79.7953405
        }
    },
    {
        "name": "Chennur kabrasthan",
        "main_category": "Mosque",
        "address": "VQ4R+FW8 Chennur kabrasthan, Chennur, Telangana 504201",
        "detailed_address": {
            "ward": null,
            "street": "VQ4R+FW8",
            "city": "Chennur",
            "postal_code": "504201",
            "state": "Telangana",
            "country_code": "IN"
        },
        "images": [
            {
                "about": "All",
                "link": "https://streetviewpixels-pa.googleapis.com/v1/thumbnail?panoid=gxY1k1HsAkRBmiRFPK_HhQ&cb_client=maps_sv.tactile.gps&w=224&h=298&yaw=324.74295&pitch=0&thumbfov=100"
            },
            {
                "about": "Street View & 360deg",
                "link": "https://streetviewpixels-pa.googleapis.com/v1/thumbnail?panoid=gxY1k1HsAkRBmiRFPK_HhQ&cb_client=maps_sv.tactile.gps&w=224&h=298&yaw=324.74295&pitch=0&thumbfov=100"
            }
        ],
        "link": "https://www.google.com/maps/place/Chennur+kabrasthan/data=!4m7!3m6!1s0x3a32eba0a7c7ff67:0xe404c258bc15105d!8m2!3d18.8561847!4d79.7923442!16s%2Fg%2F11pzmp4fjp!19sChIJZ__Hp6DrMjoRXRAVvFjCBOQ?authuser=0&hl=en&rclk=1",
        "coordinates": {
            "latitude": 18.8561847,
            "longitude": 79.7923442
        }
    }
]