[
    {
        "name": "Pardi Sunni Muslim Jama Masjid-Pardi",
        "main_category": "Mosque",
        "address": "Pardi Sunni Muslim Jama Masjid-Pardi, 396125, Kumbharwad, Valsadi Zampa, Killa-pardi, Gujarat 396125",
        "detailed_address": {
            "ward": "Kumbharwad, Valsadi Zampa",
            "street": "396125",
            "city": "Killa-pardi",
            "postal_code": "396125",
            "state": "Gujarat",
            "country_code": "IN"
        },
        "images": [
            {
                "about": "All",
                "link": "https://streetviewpixels-pa.googleapis.com/v1/thumbnail?panoid=F6UL1tjgyGVsHX_K_P3qyg&cb_client=maps_sv.tactile.gps&w=224&h=298&yaw=322.72308&pitch=0&thumbfov=100"
            },
            {
                "about": "Street View & 360deg",
                "link": "https://streetviewpixels-pa.googleapis.com/v1/thumbnail?panoid=F6UL1tjgyGVsHX_K_P3qyg&cb_client=maps_sv.tactile.gps&w=224&h=298&yaw=322.72308&pitch=0&thumbfov=100"
            }
        ],
        "link": "https://www.google.com/maps/place/Pardi+Sunni+Muslim+Jama+Masjid-Pardi/data=!4m7!3m6!1s0x3be0c47db89c1535:0x208e53f4af1a7fc8!8m2!3d20.5126782!4d72.9480232!16s%2Fg%2F11g8682fbz!19sChIJNRWcuH3E4DsRyH8ar_RTjiA?authuser=0&hl=en&rclk=1",
        "coordinates": {
            "latitude": 20.5126782,
            "longitude": 72.9480232
        }
    },
    {
        "name": "Pardi Kande Masjid E Aqdas",
        "main_category": "Mosque",
        "address": "3VQH+Q78 Pardi Kande Masjid E Aqdas, Pardi Kande, Sachin, Surat, Gujarat 394230",
        "detailed_address": {
            "ward": "Pardi Kande, Sachin",
            "street": "3VQH+Q78",
            "city": "Surat",
            "postal_code": "394230",
            "state": "Gujarat",
            "country_code": "IN"
        },
        "images": [
            {
                "about": "All",
                "link": "https://streetviewpixels-pa.googleapis.com/v1/thumbnail?panoid=zv8sfj4pS72BN3XQsBczrQ&cb_client=maps_sv.tactile.gps&w=224&h=298&yaw=129.49776&pitch=0&thumbfov=100"
            },
            {
                "about": "Street View & 360deg",
                "link": "https://streetviewpixels-pa.googleapis.com/v1/thumbnail?panoid=zv8sfj4pS72BN3XQsBczrQ&cb_client=maps_sv.tactile.gps&w=224&h=298&yaw=129.49776&pitch=0&thumbfov=100"
            }
        ],
        "link": "https://www.google.com/maps/place/Pardi+Kande+Masjid+E+Aqdas/data=!4m7!3m6!1s0x3be050be2aa3620d:0x7bd414f4a01179dd!8m2!3d21.0894199!4d72.8782016!16s%2Fg%2F11c6zy845k!19sChIJDWKjKr5Q4DsR3XkRoPQU1Hs?authuser=0&hl=en&rclk=1",
        "coordinates": {
            "latitude": 21.0894199,
            "longitude": 72.8782016
        }
    },
    {
        "name": "Baba kalandershahi masjid pardi",
        "main_category": "Mosque",
        "address": "45X4+MM8 Baba kalandershahi masjid pardi, Navin Nagar, Pardi, Nagpur, Maharashtra 440035",
        "detailed_address": {
            "ward": "Navin Nagar, Pardi",
            "street": "45X4+MM8",
            "city": "Nagpur",
            "postal_code": "440035",
            "state": "Maharashtra",
            "country_code": "IN"
        },
        "images": [
            {
                "about": "All",
                "link": "https://lh5.googleusercontent.com/p/AF1QipNnf69LxFeMKRQkkvcE09-xsyf_RHf9vjzV6Cg2=w397-h298-k-no"
            },
            {
                "about": "Street View & 360deg",
                "link": "https://streetviewpixels-pa.googleapis.com/v1/thumbnail?panoid=jBd-kUaU8_U_NF68dFFefg&cb_client=maps_sv.tactile.gps&w=224&h=298&yaw=223.21503&pitch=0&thumbfov=100"
            }
        ],
        "link": "https://www.google.com/maps/place/Baba+kalandershahi+masjid+pardi/data=!4m7!3m6!1s0x3bd4c79f8941390f:0xd5f21677bd1b880e!8m2!3d21.1491742!4d79.1566896!16s%2Fg%2F11d_7frjzj!19sChIJDzlBiZ_H1DsRDogbvXcW8tU?authuser=0&hl=en&rclk=1",
        "coordinates": {
            "latitude": 21.149174199999997,
            "longitude": 79.15668959999999
        }
    },
    {
        "name": "Masjid Bagal pardi",
        "main_category": "Mosque",
        "address": "97VM+W6W Masjid Bagal pardi, Pardi Bk., Maharashtra 431512",
        "detailed_address": {
            "ward": null,
            "street": "97VM+W6W",
            "city": "Pardi Bk.",
            "postal_code": "431512",
            "state": "Maharashtra",
            "country_code": "IN"
        },
        "images": [],
        "link": "https://www.google.com/maps/place/Masjid+Bagal+pardi/data=!4m7!3m6!1s0x3bd1cda4d3c123e9:0x6a46ee5eefa44682!8m2!3d19.3948034!4d77.2830141!16s%2Fg%2F11q42rplq1!19sChIJ6SPB06TN0TsRgkak717uRmo?authuser=0&hl=en&rclk=1",
        "coordinates": {
            "latitude": 19.3948034,
            "longitude": 77.2830141
        }
    },
    {
        "name": "Jama Masjid Pardi",
        "main_category": "Mosque",
        "address": "72VF+MH9 Jama Masjid Pardi, Pardi, Maharashtra 444905",
        "detailed_address": {
            "ward": null,
            "street": "72VF+MH9",
            "city": "Pardi",
            "postal_code": null,
            "state": "Maharashtra",
            "country_code": "IN"
        },
        "images": [],
        "link": "https://www.google.com/maps/place/Jama+Masjid+Pardi/data=!4m7!3m6!1s0x3bd42febb84edab3:0xcff63d13668fb012!8m2!3d21.2941749!4d78.0239795!16s%2Fg%2F11q2tpgr8f!19sChIJs9pOuOsv1DsRErCPZhM99s8?authuser=0&hl=en&rclk=1",
        "coordinates": {
            "latitude": 21.294174899999998,
            "longitude": 78.0239795
        }
    },
    {
        "name": "Jama masjid pardi",
        "main_category": "Mosque",
        "address": "9VJX+7Q9 Jama masjid pardi, Pardi, Maharashtra 431802",
        "detailed_address": {
            "ward": null,
            "street": "9VJX+7Q9",
            "city": "Pardi",
            "postal_code": "431802",
            "state": "Maharashtra",
            "country_code": "IN"
        },
        "images": [
            {
                "about": "All",
                "link": "https://streetviewpixels-pa.googleapis.com/v1/thumbnail?panoid=aGRAJ6YDITdT-ezV5D7ctQ&cb_client=maps_sv.tactile.gps&w=224&h=298&yaw=2.1363006&pitch=0&thumbfov=100"
            },
            {
                "about": "Street View & 360deg",
                "link": "https://streetviewpixels-pa.googleapis.com/v1/thumbnail?panoid=aGRAJ6YDITdT-ezV5D7ctQ&cb_client=maps_sv.tactile.gps&w=224&h=298&yaw=2.1363006&pitch=0&thumbfov=100"
            }
        ],
        "link": "https://www.google.com/maps/place/Jama+masjid+pardi/data=!4m7!3m6!1s0x3bd1f767857300cf:0x83ec0d7e83d5f025!8m2!3d19.3806658!4d77.8994822!16s%2Fg%2F11fnr8hcr5!19sChIJzwBzhWf30TsRJfDVg34N7IM?authuser=0&hl=en&rclk=1",
        "coordinates": {
            "latitude": 19.3806658,
            "longitude": 77.8994822
        }
    }
]