[
    {
        "name": "MeeraPalli",
        "main_category": "Mosque",
        "address": "WRHH+5VF MeeraPalli, Yanam Vengadasalam Pillai St, MG Road Area, Puducherry, 605001",
        "detailed_address": {
            "ward": "MG Road Area",
            "street": "WRHH+5VF, Yanam Vengadasalam Pillai St",
            "city": "Puducherry",
            "postal_code": "605001",
            "state": "Puducherry",
            "country_code": "IN"
        },
        "images": [
            {
                "about": "All",
                "link": "https://lh5.googleusercontent.com/p/AF1QipMQd4z2JWrUs8xHb7brNzA3q8WQoPULgcoXgleN=w397-h298-k-no"
            },
            {
                "about": "Latest",
                "link": "https://lh5.googleusercontent.com/p/AF1QipNEYl0mAF2Qxf9LfI0w-uXZ3RS_8HpeZlJlkCW5=w224-h298-k-no"
            },
            {
                "about": "Street View & 360deg",
                "link": "https://streetviewpixels-pa.googleapis.com/v1/thumbnail?panoid=eF9ew4rYeadL_fni_HGAvw&cb_client=maps_sv.tactile.gps&w=224&h=298&yaw=306.12665&pitch=0&thumbfov=100"
            }
        ],
        "link": "https://www.google.com/maps/place/MeeraPalli/data=!4m7!3m6!1s0x3a53622a081d5929:0xab2e830b04f12627!8m2!3d11.9279412!4d79.8296582!16s%2Fg%2F1tftzznv!19sChIJKVkdCCpiUzoRJybxBAuDLqs?authuser=0&hl=en&rclk=1",
        "coordinates": {
            "latitude": 11.9279412,
            "longitude": 79.8296582
        }
    },
    {
        "name": "Dargah",
        "main_category": "Mosque",
        "address": "P6J6+FJH Dargah, Yanam, Puducherry 533464",
        "detailed_address": {
            "ward": null,
            "street": "P6J6+FJH",
            "city": "Yanam",
            "postal_code": "533464",
            "state": "Puducherry",
            "country_code": "IN"
        },
        "images": [
            {
                "about": "All",
                "link": "https://streetviewpixels-pa.googleapis.com/v1/thumbnail?panoid=eN_WGLyAEDYuLpe7m8-NAw&cb_client=maps_sv.tactile.gps&w=224&h=298&yaw=343.65375&pitch=0&thumbfov=100"
            },
            {
                "about": "Street View & 360deg",
                "link": "https://streetviewpixels-pa.googleapis.com/v1/thumbnail?panoid=eN_WGLyAEDYuLpe7m8-NAw&cb_client=maps_sv.tactile.gps&w=224&h=298&yaw=343.65375&pitch=0&thumbfov=100"
            }
        ],
        "link": "https://www.google.com/maps/place/Dargah/data=!4m7!3m6!1s0x3a37f56322f8ea97:0x1f6c92d8c5e2c693!8m2!3d16.7311994!4d82.2116147!16s%2Fg%2F124ypgl3t!19sChIJl-r4ImP1NzoRk8bixdiSbB8?authuser=0&hl=en&rclk=1",
        "coordinates": {
            "latitude": 16.731199399999998,
            "longitude": 82.2116147
        }
    },
    {
        "name": "Nagore Valli Jhanda",
        "main_category": "Mosque",
        "address": "P6F7+X36 Nagore Valli Jhanda, Yanam, Puducherry 533463",
        "detailed_address": {
            "ward": null,
            "street": "P6F7+X36",
            "city": "Yanam",
            "postal_code": "533463",
            "state": "Puducherry",
            "country_code": "IN"
        },
        "images": [
            {
                "about": "All",
                "link": "https://lh5.googleusercontent.com/p/AF1QipPmpEWoOXfALQfKWuQPD2E_gYFpGbe2_wzD7-4b=w529-h298-k-no"
            }
        ],
        "link": "https://www.google.com/maps/place/Nagore+Valli+Jhanda/data=!4m7!3m6!1s0x3a37f57dcfadb607:0x31d062219907ca3b!8m2!3d16.7249075!4d82.2126367!16s%2Fg%2F1hd_bc2td!19sChIJB7atz331NzoRO8oHmSFi0DE?authuser=0&hl=en&rclk=1",
        "coordinates": {
            "latitude": 16.7249075,
            "longitude": 82.21263669999999
        }
    },
    {
        "name": "mosque",
        "main_category": "Mosque",
        "address": "P6F7+X3R mosque, Yanam, Puducherry 533464",
        "detailed_address": {
            "ward": null,
            "street": "P6F7+X3R",
            "city": "Yanam",
            "postal_code": null,
            "state": "Puducherry",
            "country_code": "IN"
        },
        "images": [
            {
                "about": "All",
                "link": "https://lh5.googleusercontent.com/p/AF1QipNawWxJw9Nk9mAejLgyUxEU4Gyypdly2Mi9eI6S=w529-h298-k-no"
            },
            {
                "about": "Videos",
                "link": "https://lh5.googleusercontent.com/p/AF1QipOR1BhsJOlc9NtFOJsCWdTkGjdDhsRHbubE8S5N=w529-h298-k-no"
            }
        ],
        "link": "https://www.google.com/maps/place/mosque/data=!4m7!3m6!1s0x3a37f57dce5699b7:0x5b537dbc71151286!8m2!3d16.7249755!4d82.2126282!16s%2Fg%2F11f542vrpc!19sChIJt5lWzn31NzoRhhIVcbx9U1s?authuser=0&hl=en&rclk=1",
        "coordinates": {
            "latitude": 16.7249755,
            "longitude": 82.2126282
        }
    },
    {
        "name": "Masjid E-Quba",
        "main_category": "Mosque",
        "address": "P6G6+HRJ Masjid E-Quba, Ferry Rd, Yanam, Puducherry 533464",
        "detailed_address": {
            "ward": null,
            "street": "P6G6+HRJ, Ferry Rd",
            "city": "Yanam",
            "postal_code": "533464",
            "state": "Puducherry",
            "country_code": "IN"
        },
        "images": [
            {
                "about": "All",
                "link": "https://lh5.googleusercontent.com/p/AF1QipNa7zlUjpeiEghazLUgUK_WgmNOcAqhQo_bTNzb=w224-h498-k-no"
            }
        ],
        "link": "https://www.google.com/maps/place/Masjid+E-Quba/data=!4m7!3m6!1s0x3a37f52b47390e2b:0x6a61f2fa6762ff2c!8m2!3d16.7264534!4d82.2120268!16s%2Fg%2F11sy731cty!19sChIJKw45Ryv1NzoRLP9iZ_ryYWo?authuser=0&hl=en&rclk=1",
        "coordinates": {
            "latitude": 16.7264534,
            "longitude": 82.21202679999999
        }
    },
    {
        "name": "Jamia - Masjid -yanam",
        "main_category": "Mosque",
        "address": "P6J7+93J Jamia - Masjid -yanam, Mosque St, Yanam, Puducherry 533464",
        "detailed_address": {
            "ward": null,
            "street": "P6J7+93J, Mosque St",
            "city": "Yanam",
            "postal_code": null,
            "state": "Puducherry",
            "country_code": "IN"
        },
        "images": [],
        "link": "https://www.google.com/maps/place/Jamia+-+Masjid+-yanam/data=!4m7!3m6!1s0x3a37f52b898d84f7:0xd719a0a29012a862!8m2!3d16.7309515!4d82.2126528!16s%2Fg%2F11s4g2sbjw!19sChIJ94SNiSv1NzoRYqgSkKKgGdc?authuser=0&hl=en&rclk=1",
        "coordinates": {
            "latitude": 16.7309515,
            "longitude": 82.2126528
        }
    },
    {
        "name": "MASJID E USMANIA ( Ahle Hadees) ( msjd `thmnyh( hlHdyth",
        "main_category": "Mosque",
        "address": "P5QV+GP6 MASJID E USMANIA ( Ahle Hadees) ( msjd `thmnyh( hlHdyth, Draksharam, Injaram - Yanam Rd, Sunkara Palem, 533464",
        "detailed_address": {
            "ward": null,
            "street": "P5QV+GP6, Draksharam, Injaram - Yanam Rd",
            "city": "Sunkara Palem",
            "postal_code": "533464",
            "state": "Puducherry",
            "country_code": "IN"
        },
        "images": [],
        "link": "https://www.google.com/maps/place/MASJID+E+USMANIA+%28+Ahle+Hadees%29+%28+%D9%85%D8%B3%D8%AC%D8%AF+%D8%B9%D8%AB%D9%85%D8%A7%D9%86%DB%8C%DB%81%28+%D8%A7%DB%81%D9%84%D8%AD%D8%AF%DB%8C%D8%AB%E2%80%AD/data=!4m7!3m6!1s0x3a37f52f916990a1:0x430686a83e72ef97!8m2!3d16.7387899!4d82.1942751!16s%2Fg%2F11j1zn5lxr!19sChIJoZBpkS_1NzoRl-9yPqiGBkM?authuser=0&hl=en&rclk=1",
        "coordinates": {
            "latitude": 16.7387899,
            "longitude": 82.1942751
        }
    },
    {
        "name": "Masjid Al Yanam",
        "main_category": "Mosque",
        "address": "XRHG+96Q Masjid Al Yanam, Cikancung, Kec. Cikancung, Kabupaten Bandung, Jawa Barat 40396, Indonesia",
        "detailed_address": {
            "ward": "Cikancung",
            "street": "XRHG+96Q",
            "city": "Bandung Regency",
            "postal_code": "40396",
            "state": "West Java",
            "country_code": "ID"
        },
        "images": [
            {
                "about": "All",
                "link": "https://streetviewpixels-pa.googleapis.com/v1/thumbnail?panoid=chMfwYAom244gxERzPcp0w&cb_client=maps_sv.tactile.gps&w=224&h=298&yaw=22.351902&pitch=0&thumbfov=100"
            },
            {
                "about": "Street View & 360deg",
                "link": "https://streetviewpixels-pa.googleapis.com/v1/thumbnail?panoid=chMfwYAom244gxERzPcp0w&cb_client=maps_sv.tactile.gps&w=224&h=298&yaw=22.351902&pitch=0&thumbfov=100"
            }
        ],
        "link": "https://www.google.com/maps/place/Masjid+Al+Yanam/data=!4m7!3m6!1s0x2e68c6684a5ec443:0x7a843da40c0c58a9!8m2!3d-7.021532!4d107.825607!16s%2Fg%2F1pzw46771!19sChIJQ8ReSmjGaC4RqVgMDKQ9hHo?authuser=0&hl=en&rclk=1",
        "coordinates": {
            "latitude": -7.021532,
            "longitude": 107.82560699999999
        }
    }
]