[
    {
        "name": "Ahmadiya Masjid Nagla Ghanu",
        "main_category": "Mosque",
        "address": "G37C+Q4Q Ahmadiya Masjid Nagla Ghanu, Kukrayan Ratanpur, Uttar Pradesh 207249",
        "detailed_address": {
            "ward": null,
            "street": "G37C+Q4Q",
            "city": "Kukrayan Ratanpur",
            "postal_code": "207249",
            "state": "Uttar Pradesh",
            "country_code": "IN"
        },
        "images": [
            {
                "about": "All",
                "link": "https://lh5.googleusercontent.com/p/AF1QipNFxrCIfHcLGdctsMaleBVAwXQ28o8W7tr3lYlc=w298-h298-k-no"
            },
            {
                "about": "Videos",
                "link": "https://lh5.googleusercontent.com/p/AF1QipN0hPp7aFD06nfMlw_QxGLlQZZEL99OroOAVdI2=w224-h398-k-no"
            }
        ],
        "link": "https://www.google.com/maps/place/Ahmadiya+Masjid+Nagla+Ghanu/data=!4m7!3m6!1s0x397575f7d44bf2d1:0x18181616346b029c!8m2!3d27.5144566!4d79.0703533!16s%2Fg%2F11fn049_4t!19sChIJ0fJL1Pd1dTkRnAJrNBYWGBg?authuser=0&hl=en&rclk=1",
        "coordinates": {
            "latitude": 27.5144566,
            "longitude": 79.0703533
        }
    },
    {
        "name": "Firdous Masjid",
        "main_category": "Mosque",
        "address": "Firdous Masjid, 51, Jannaji Masjid Rd, Garima Garden, Ashok Vatika, Hindon Residential Area, Ghaziabad, Uttar Pradesh 201005",
        "detailed_address": {
            "ward": "Garima Garden, Ashok Vatika, Hindon Residential Area",
            "street": "51, Jannaji Masjid Rd",
            "city": "Ghaziabad",
            "postal_code": "201005",
            "state": "Uttar Pradesh",
            "country_code": "IN"
        },
        "images": [
            {
                "about": "All",
                "link": "https://lh5.googleusercontent.com/p/AF1QipMn3v42wqV0eJ_4xO4DF0xqwur8PI0-yXoi1-QF=w224-h485-k-no"
            }
        ],
        "link": "https://www.google.com/maps/place/Firdous+Masjid/data=!4m7!3m6!1s0x390cfa43749a5227:0x27470cf841e6dc11!8m2!3d28.6959757!4d77.3510932!16s%2Fg%2F11dfld1x9y!19sChIJJ1KadEP6DDkREdzmQfgMRyc?authuser=0&hl=en&rclk=1",
        "coordinates": {
            "latitude": 28.695975699999998,
            "longitude": 77.3510932
        }
    },
    {
        "name": "mohsin-millat sunni hanfi jama masjid ratanpur",
        "main_category": "Mosque",
        "address": "75H5+956 mohsin-millat sunni hanfi jama masjid ratanpur, Ratanpur, Chhattisgarh 495442",
        "detailed_address": {
            "ward": null,
            "street": "75H5+956",
            "city": "Ratanpur",
            "postal_code": "495442",
            "state": "Chhattisgarh",
            "country_code": "IN"
        },
        "images": [
            {
                "about": "All",
                "link": "https://streetviewpixels-pa.googleapis.com/v1/thumbnail?panoid=6gSjWbDmJEl547A00fbv4A&cb_client=maps_sv.tactile.gps&w=224&h=298&yaw=142.17073&pitch=0&thumbfov=100"
            },
            {
                "about": "Street View & 360deg",
                "link": "https://streetviewpixels-pa.googleapis.com/v1/thumbnail?panoid=6gSjWbDmJEl547A00fbv4A&cb_client=maps_sv.tactile.gps&w=224&h=298&yaw=142.17073&pitch=0&thumbfov=100"
            }
        ],
        "link": "https://www.google.com/maps/place/mohsin-millat+sunni+hanfi+jama+masjid+ratanpur/data=!4m7!3m6!1s0x3a28065a5564d62d:0xd94c95b7c8f190b4!8m2!3d22.2784195!4d82.1579029!16s%2Fg%2F11g6qr33_f!19sChIJLdZkVVoGKDoRtJDxyLeVTNk?authuser=0&hl=en&rclk=1",
        "coordinates": {
            "latitude": 22.2784195,
            "longitude": 82.1579029
        }
    },
    {
        "name": "Asif Ansari Beechwali Masjid",
        "main_category": "Mosque",
        "address": "Asif Ansari Beechwali Masjid, 384, Ratanpur, Uttar Pradesh 244102",
        "detailed_address": {
            "ward": null,
            "street": "384",
            "city": "Ratanpur",
            "postal_code": "244102",
            "state": "Uttar Pradesh",
            "country_code": "IN"
        },
        "images": [
            {
                "about": "All",
                "link": "https://lh5.googleusercontent.com/p/AF1QipOPaQLI5JwdtP7wujhzTyttz-LZ37GNeZkfP1-X=w397-h298-k-no"
            }
        ],
        "link": "https://www.google.com/maps/place/Asif+Ansari+Beechwali+Masjid/data=!4m7!3m6!1s0x390afd1ba80cba37:0x8d34523860c529a1!8m2!3d28.7876351!4d78.6944447!16s%2Fg%2F1tdmhvv4!19sChIJN7oMqBv9CjkRoSnFYDhSNI0?authuser=0&hl=en&rclk=1",
        "coordinates": {
            "latitude": 28.7876351,
            "longitude": 78.69444469999999
        }
    },
    {
        "name": "Markaz Masjid Ratanpur",
        "main_category": "Mosque",
        "address": "5PGR+VXP Markaz Masjid Ratanpur, Pujapur, Balvantpura, Gujarat 385120",
        "detailed_address": {
            "ward": null,
            "street": "5PGR+VXP",
            "city": "Pujapur, Balvantpura",
            "postal_code": "385120",
            "state": "Gujarat",
            "country_code": "IN"
        },
        "images": [
            {
                "about": "All",
                "link": "https://lh5.googleusercontent.com/p/AF1QipPDBClxEcGc1JJ2V-OMIdUZxoAi1Lu7pN4UcEi9=w397-h298-k-no"
            },
            {
                "about": "Dome",
                "link": "https://lh5.googleusercontent.com/p/AF1QipNEJ4lEVnYloLTXjKa2CYp9cYqdcCpXXBq9zHJH=w397-h298-k-no"
            },
            {
                "about": "Videos",
                "link": "https://lh5.googleusercontent.com/p/AF1QipOe_U6IhgXaSqNmdOa216903akhQS8-JPzRLQk2=w224-h467-k-no"
            }
        ],
        "link": "https://www.google.com/maps/place/Markaz+Masjid+Ratanpur/data=!4m7!3m6!1s0x395d1ddade510db9:0x32dd464c89885015!8m2!3d24.177217!4d72.742441!16s%2Fg%2F11hcklr_vw!19sChIJuQ1R3todXTkRFVCIiUxG3TI?authuser=0&hl=en&rclk=1",
        "coordinates": {
            "latitude": 24.177217,
            "longitude": 72.742441
        }
    },
    {
        "name": "Ahle Hadees Masjid",
        "main_category": "Mosque",
        "address": "QMQW+762 Ahle Hadees Masjid, Ratanpur, Uttar Pradesh 244102",
        "detailed_address": {
            "ward": null,
            "street": "QMQW+762",
            "city": "Ratanpur",
            "postal_code": "244102",
            "state": "Uttar Pradesh",
            "country_code": "IN"
        },
        "images": [
            {
                "about": "All",
                "link": "https://lh5.googleusercontent.com/p/AF1QipNDJmCtslH32s8CBP7fVBdDVZDaIILzRs4zrTqS=w529-h298-k-no"
            },
            {
                "about": "Street View & 360deg",
                "link": "https://streetviewpixels-pa.googleapis.com/v1/thumbnail?panoid=gwqCsU5Q-NCdFu5T5BcKgw&cb_client=maps_sv.tactile.gps&w=224&h=298&yaw=285.01096&pitch=0&thumbfov=100"
            }
        ],
        "link": "https://www.google.com/maps/place/Ahle+Hadees+Masjid/data=!4m7!3m6!1s0x390afd1b76a32913:0xb2587d160d3c875d!8m2!3d28.7881364!4d78.695529!16s%2Fg%2F11fxw6lks_!19sChIJEymjdhv9CjkRXYc8DRZ9WLI?authuser=0&hl=en&rclk=1",
        "coordinates": {
            "latitude": 28.7881364,
            "longitude": 78.695529
        }
    },
    {
        "name": "Ms MD.Gulam Nabi enterprises",
        "main_category": "Mosque",
        "address": "Ms MD.Gulam Nabi enterprises, Ratanpur, Uttar Pradesh 244102",
        "detailed_address": {
            "ward": null,
            "street": null,
            "city": "Ratanpur",
            "postal_code": "244102",
            "state": "Uttar Pradesh",
            "country_code": "IN"
        },
        "images": [
            {
                "about": "All",
                "link": "https://lh5.googleusercontent.com/p/AF1QipNL3M5QnLNOMCALRT19EEVeGKki4V264Jb0vSnL=w224-h373-k-no"
            },
            {
                "about": "By owner",
                "link": "https://lh5.googleusercontent.com/p/AF1QipOoFWVg2-dWVCnP13pWh0NVcMQtp-VCU953e5Xn=w224-h492-k-no"
            },
            {
                "about": "Street View & 360deg",
                "link": "https://streetviewpixels-pa.googleapis.com/v1/thumbnail?panoid=KgA-tdyh-C6-u_PfZOZpNQ&cb_client=maps_sv.tactile.gps&w=224&h=298&yaw=343.12357&pitch=0&thumbfov=100"
            }
        ],
        "link": "https://www.google.com/maps/place/Ms+MD.Gulam+Nabi+enterprises/data=!4m7!3m6!1s0x390afd1b18096f07:0xceda7c1d375b9fc3!8m2!3d28.7892532!4d78.694487!16s%2Fg%2F11cjphcgjl!19sChIJB28JGBv9CjkRw59bNx182s4?authuser=0&hl=en&rclk=1",
        "coordinates": {
            "latitude": 28.789253199999997,
            "longitude": 78.694487
        }
    },
    {
        "name": "Ek Minar Bali Masjid",
        "main_category": "Mosque",
        "address": "QMRV+5W7 Ek Minar Bali Masjid, Unnamed Road, Bakania, Uttar Pradesh 244102",
        "detailed_address": {
            "ward": null,
            "street": "QMRV+5W7, Unnamed Road",
            "city": "Bakania, Ratanpur",
            "postal_code": "244102",
            "state": "Uttar Pradesh",
            "country_code": "IN"
        },
        "images": [
            {
                "about": "All",
                "link": "https://streetviewpixels-pa.googleapis.com/v1/thumbnail?panoid=PI9PvJUT7r8n3AzckDyv8w&cb_client=maps_sv.tactile.gps&w=224&h=298&yaw=327.31137&pitch=0&thumbfov=100"
            },
            {
                "about": "Street View & 360deg",
                "link": "https://streetviewpixels-pa.googleapis.com/v1/thumbnail?panoid=PI9PvJUT7r8n3AzckDyv8w&cb_client=maps_sv.tactile.gps&w=224&h=298&yaw=327.31137&pitch=0&thumbfov=100"
            }
        ],
        "link": "https://www.google.com/maps/place/Ek+Minar+Bali+Masjid/data=!4m7!3m6!1s0x390afd1b338e830f:0x5a6b869d51e6d11c!8m2!3d28.7904084!4d78.6948044!16s%2Fg%2F11c6vlfp32!19sChIJD4OOMxv9CjkRHNHmUZ2Ga1o?authuser=0&hl=en&rclk=1",
        "coordinates": {
            "latitude": 28.7904084,
            "longitude": 78.6948044
        }
    },
    {
        "name": "Masjid Ek Minar Wali",
        "main_category": "Mosque",
        "address": "QMRV+2V3 Masjid Ek Minar Wali, Ratanpur, Uttar Pradesh 244102",
        "detailed_address": {
            "ward": null,
            "street": "QMRV+2V3",
            "city": "Ratanpur",
            "postal_code": "244102",
            "state": "Uttar Pradesh",
            "country_code": "IN"
        },
        "images": [
            {
                "about": "All",
                "link": "https://streetviewpixels-pa.googleapis.com/v1/thumbnail?panoid=JTUvueVn5mMbFD9q2sOdHg&cb_client=maps_sv.tactile.gps&w=224&h=298&yaw=117.01531&pitch=0&thumbfov=100"
            },
            {
                "about": "Street View & 360deg",
                "link": "https://streetviewpixels-pa.googleapis.com/v1/thumbnail?panoid=JTUvueVn5mMbFD9q2sOdHg&cb_client=maps_sv.tactile.gps&w=224&h=298&yaw=117.01531&pitch=0&thumbfov=100"
            }
        ],
        "link": "https://www.google.com/maps/place/Masjid+Ek+Minar+Wali/data=!4m7!3m6!1s0x390afd1b30f1b8af:0x220b1a97c094f5d5!8m2!3d28.7900178!4d78.6946865!16s%2Fg%2F11fzfbxk0g!19sChIJr7jxMBv9CjkR1fWUwJcaCyI?authuser=0&hl=en&rclk=1",
        "coordinates": {
            "latitude": 28.790017799999998,
            "longitude": 78.6946865
        }
    },
    {
        "name": "Masjid",
        "main_category": "Religious destination",
        "address": "QMPV+PJP Masjid, Ratanpur, Uttar Pradesh 244102",
        "detailed_address": {
            "ward": null,
            "street": "QMPV+PJP",
            "city": "Ratanpur",
            "postal_code": "244102",
            "state": "Uttar Pradesh",
            "country_code": "IN"
        },
        "images": [
            {
                "about": "All",
                "link": "https://lh5.googleusercontent.com/p/AF1QipMfsGmkt1iLFC49cES-q__szCFYOHz-x_7052lB=w298-h298-k-no"
            },
            {
                "about": "Street View & 360deg",
                "link": "https://streetviewpixels-pa.googleapis.com/v1/thumbnail?panoid=QYiKMzor67DZ0ErEhz8PmQ&cb_client=maps_sv.tactile.gps&w=224&h=298&yaw=181.81158&pitch=0&thumbfov=100"
            },
            {
                "about": "Videos",
                "link": "https://lh5.googleusercontent.com/p/AF1QipMDW7u79FI3ch45SSxymZqeiPmP70I4USqfxOIo=w224-h398-k-no"
            }
        ],
        "link": "https://www.google.com/maps/place/Masjid/data=!4m7!3m6!1s0x390afd1d9cc6fca3:0x2331ea07f5e647f7!8m2!3d28.7868359!4d78.6940743!16s%2Fg%2F11f65g10kz!19sChIJo_zGnB39CjkR90fm9QfqMSM?authuser=0&hl=en&rclk=1",
        "coordinates": {
            "latitude": 28.7868359,
            "longitude": 78.6940743
        }
    },
    {
        "name": "Markazi jama masjid Syed Afroz Miya",
        "main_category": "Mosque",
        "address": "QMRW+4MJ Markazi jama masjid Syed Afroz Miya, Ratanpur, Uttar Pradesh 244102",
        "detailed_address": {
            "ward": null,
            "street": "QMRW+4MJ",
            "city": "Ratanpur",
            "postal_code": "244102",
            "state": "Uttar Pradesh",
            "country_code": "IN"
        },
        "images": [],
        "link": "https://www.google.com/maps/place/Markazi+jama+masjid+Syed+Afroz+Miya/data=!4m7!3m6!1s0x390afd671e2e0b55:0x840358ad97b64caf!8m2!3d28.7903445!4d78.6966522!16s%2Fg%2F11t_sq8cbq!19sChIJVQsuHmf9CjkRr0y2l61YA4Q?authuser=0&hl=en&rclk=1",
        "coordinates": {
            "latitude": 28.7903445,
            "longitude": 78.6966522
        }
    },
    {
        "name": "masjid raja e mushtafa latifi nagar",
        "main_category": "Mosque",
        "address": "QMQR+JF8 masjid raja e mushtafa latifi nagar, Ratanpur, Uttar Pradesh 244102",
        "detailed_address": {
            "ward": null,
            "street": "QMQR+JF8",
            "city": "Ratanpur",
            "postal_code": "244102",
            "state": "Uttar Pradesh",
            "country_code": "IN"
        },
        "images": [
            {
                "about": "All",
                "link": "https://streetviewpixels-pa.googleapis.com/v1/thumbnail?panoid=9ZWbh9vN8UvQ6APb5Xoh9Q&cb_client=maps_sv.tactile.gps&w=224&h=298&yaw=323.26105&pitch=0&thumbfov=100"
            },
            {
                "about": "Street View & 360deg",
                "link": "https://streetviewpixels-pa.googleapis.com/v1/thumbnail?panoid=9ZWbh9vN8UvQ6APb5Xoh9Q&cb_client=maps_sv.tactile.gps&w=224&h=298&yaw=323.26105&pitch=0&thumbfov=100"
            }
        ],
        "link": "https://www.google.com/maps/place/masjid+raja+e+mushtafa+latifi+nagar/data=!4m7!3m6!1s0x390afd1aa19f41bd:0x9b6fd7cf68dda294!8m2!3d28.7890474!4d78.6911967!16s%2Fg%2F11d_z7_19b!19sChIJvUGfoRr9CjkRlKLdaM_Xb5s?authuser=0&hl=en&rclk=1",
        "coordinates": {
            "latitude": 28.789047399999998,
            "longitude": 78.69119669999999
        }
    },
    {
        "name": "Pathan's house",
        "main_category": "Housing society",
        "address": "M62P+J48 Pathan's house, Chakla fali near jama masjid ratanpur kheda gujrta, Delhi",
        "detailed_address": {
            "ward": "Meena Bazaar, Jama Masjid, Chandni Chowk",
            "street": "M62P+J48, Chakla fali near jama masjid ratanpur kheda gujrta",
            "city": "Delhi",
            "postal_code": null,
            "state": "Delhi",
            "country_code": "IN"
        },
        "images": [
            {
                "about": "All",
                "link": "https://lh5.googleusercontent.com/p/AF1QipPdS073uKDJEWgrR3SCkMgEz9W176kOqTHjpoHv=w529-h298-k-no"
            }
        ],
        "link": "https://www.google.com/maps/place/Pathan%27s+house/data=!4m7!3m6!1s0x390cfd7d1295076d:0xa1d0dab8b5f7dee9!8m2!3d28.6515325!4d77.2353367!16s%2Fg%2F11shw1ht3t!19sChIJbQeVEn39DDkR6d73tbja0KE?authuser=0&hl=en&rclk=1",
        "coordinates": {
            "latitude": 28.6515325,
            "longitude": 77.23533669999999
        }
    },
    {
        "name": "Markazi jama masjid Mufti Syed Afroz",
        "main_category": "Mosque",
        "address": "QMQW+WJC Markazi jama masjid Mufti Syed Afroz, Ratanpur, Uttar Pradesh 244102",
        "detailed_address": {
            "ward": null,
            "street": "QMQW+WJC",
            "city": "Ratanpur",
            "postal_code": null,
            "state": "Uttar Pradesh",
            "country_code": "IN"
        },
        "images": [],
        "link": "https://www.google.com/maps/place/Markazi+jama+masjid+Mufti+Syed+Afroz/data=!4m7!3m6!1s0x390afda207a05551:0xf753b6419e5eb867!8m2!3d28.7898154!4d78.6965169!16s%2Fg%2F11s95ndpmb!19sChIJUVWgB6L9CjkRZ7henkG2U_c?authuser=0&hl=en&rclk=1",
        "coordinates": {
            "latitude": 28.7898154,
            "longitude": 78.69651689999999
        }
    },
    {
        "name": "Kalsiya Jama Masjid",
        "main_category": "Mosque",
        "address": "4JR9+96J Kalsiya Jama Masjid, Kalsiya, Ratanpur Kalyanpur, Uttar Pradesh 247129",
        "detailed_address": {
            "ward": null,
            "street": "4JR9+96J",
            "city": "Kalsiya, Ratanpur Kalyanpur",
            "postal_code": "247129",
            "state": "Uttar Pradesh",
            "country_code": "IN"
        },
        "images": [
            {
                "about": "All",
                "link": "https://streetviewpixels-pa.googleapis.com/v1/thumbnail?panoid=_wTCEdcZJ0tsVhKDqLRPiQ&cb_client=maps_sv.tactile.gps&w=224&h=298&yaw=243.03465&pitch=0&thumbfov=100"
            },
            {
                "about": "Street View & 360deg",
                "link": "https://streetviewpixels-pa.googleapis.com/v1/thumbnail?panoid=_wTCEdcZJ0tsVhKDqLRPiQ&cb_client=maps_sv.tactile.gps&w=224&h=298&yaw=243.03465&pitch=0&thumbfov=100"
            }
        ],
        "link": "https://www.google.com/maps/place/Kalsiya+Jama+Masjid/data=!4m7!3m6!1s0x390edd62dcff8d2d:0x151f1290de19826a!8m2!3d30.1410109!4d77.6178912!16s%2Fg%2F11vkr4hjqc!19sChIJLY3_3GLdDjkRaoIZ3pASHxU?authuser=0&hl=en&rclk=1",
        "coordinates": {
            "latitude": 30.141010899999998,
            "longitude": 77.6178912
        }
    },
    {
        "name": "Al mustafai masjid(mini) ",
        "main_category": "Mosque",
        "address": "H5C5+82W Al mustafai masjid(mini) , Ratanpur, Uttar Pradesh 212656",
        "detailed_address": {
            "ward": null,
            "street": "H5C5+82W",
            "city": "Ratanpur",
            "postal_code": "212656",
            "state": "Uttar Pradesh",
            "country_code": "IN"
        },
        "images": [],
        "link": "https://www.google.com/maps/place/Al+mustafai+masjid%28mini%29+%F0%9F%95%8C/data=!4m7!3m6!1s0x399b49313f3d1ec1:0x2b93c48f767a237f!8m2!3d25.5708599!4d81.15757!16s%2Fg%2F11v1448044!19sChIJwR49PzFJmzkRfyN6do_Ekys?authuser=0&hl=en&rclk=1",
        "coordinates": {
            "latitude": 25.5708599,
            "longitude": 81.15756999999999
        }
    },
    {
        "name": "Masjid ratanpur",
        "main_category": "Mosque",
        "address": "M979+VG Masjid ratanpur, Karman Basantpur, Bihar 824202",
        "detailed_address": {
            "ward": null,
            "street": "M979+VG",
            "city": "Karman Basantpur",
            "postal_code": null,
            "state": "Bihar",
            "country_code": "IN"
        },
        "images": [
            {
                "about": "All",
                "link": "https://streetviewpixels-pa.googleapis.com/v1/thumbnail?panoid=xzeqzJU8MyyYrEf2J2LRtg&cb_client=maps_sv.tactile.gps&w=224&h=298&yaw=80.44777&pitch=0&thumbfov=100"
            },
            {
                "about": "Street View & 360deg",
                "link": "https://streetviewpixels-pa.googleapis.com/v1/thumbnail?panoid=xzeqzJU8MyyYrEf2J2LRtg&cb_client=maps_sv.tactile.gps&w=224&h=298&yaw=80.44777&pitch=0&thumbfov=100"
            }
        ],
        "link": "https://www.google.com/maps/place/Masjid+ratanpur/data=!4m7!3m6!1s0x398cfbd54d1ab635:0x50482a16f5c9b802!8m2!3d24.6647327!4d84.3686937!16s%2Fg%2F11tc_wz7f6!19sChIJNbYaTdX7jDkRArjJ9RYqSFA?authuser=0&hl=en&rclk=1",
        "coordinates": {
            "latitude": 24.6647327,
            "longitude": 84.3686937
        }
    }
]