[
    {
        "name": "Jama Masjid Doraha",
        "main_category": "Mosque",
        "address": "C526+H38 Jama Masjid Doraha, Duraha, Sikandarganj, Madhya Pradesh 466661",
        "detailed_address": {
            "ward": null,
            "street": "C526+H38",
            "city": "Duraha, Sikandarganj",
            "postal_code": "466661",
            "state": "Madhya Pradesh",
            "country_code": "IN"
        },
        "images": [
            {
                "about": "All",
                "link": "https://lh5.googleusercontent.com/p/AF1QipNDRLRjOs4SCjL5Uuwzokb_UFtfU9tzpMbLHvra=w224-h448-k-no"
            }
        ],
        "link": "https://www.google.com/maps/place/Jama+Masjid+Doraha/data=!4m7!3m6!1s0x397c8868a6fe01ad:0xbdd7d115ebe395e2!8m2!3d23.4014227!4d77.1602004!16s%2Fg%2F11fxzm4x4d!19sChIJrQH-pmiIfDkR4pXj6xXR170?authuser=0&hl=en&rclk=1",
        "coordinates": {
            "latitude": 23.401422699999998,
            "longitude": 77.1602004
        }
    },
    {
        "name": "Masjid in Kila",
        "main_category": "Mosque",
        "address": "Masjid in Kila, Mughal Saran, Saran Rd, Ward No. 13, Doraha, Punjab 141122",
        "detailed_address": {
            "ward": "Ward No. 13",
            "street": "Mughal Saran, Saran Rd",
            "city": "Doraha",
            "postal_code": "141122",
            "state": "Punjab",
            "country_code": "IN"
        },
        "images": [
            {
                "about": "All",
                "link": "https://lh5.googleusercontent.com/p/AF1QipO79mmx7kx9TRM0VPuo1Zg8MGMSMSLKODm_c47s=w440-h298-k-no"
            },
            {
                "about": "Street View & 360deg",
                "link": "https://streetviewpixels-pa.googleapis.com/v1/thumbnail?panoid=GTpv7l5oMvfHRh0e1zucfQ&cb_client=maps_sv.tactile.gps&w=224&h=298&yaw=190.02475&pitch=0&thumbfov=100"
            }
        ],
        "link": "https://www.google.com/maps/place/Masjid+in+Kila/data=!4m7!3m6!1s0x3910750979e06189:0x51b55a0f3360d628!8m2!3d30.7980946!4d76.0214894!16s%2Fg%2F11j2ysst98!19sChIJiWHgeQl1EDkRKNZgMw9atVE?authuser=0&hl=en&rclk=1",
        "coordinates": {
            "latitude": 30.7980946,
            "longitude": 76.0214894
        }
    },
    {
        "name": "Chand Masjid",
        "main_category": "Mosque",
        "address": "RRQG+H2M Chand Masjid, Near Police Station, Doraha, Uttar Pradesh",
        "detailed_address": {
            "ward": null,
            "street": "RRQG+H2M, Near Police Station",
            "city": "Doraha, Moradabad",
            "postal_code": null,
            "state": "Uttar Pradesh",
            "country_code": "IN"
        },
        "images": [
            {
                "about": "All",
                "link": "https://streetviewpixels-pa.googleapis.com/v1/thumbnail?panoid=36ZXC-F51StBA6GLVQdnkA&cb_client=maps_sv.tactile.gps&w=224&h=298&yaw=256.4121&pitch=0&thumbfov=100"
            },
            {
                "about": "Street View & 360deg",
                "link": "https://streetviewpixels-pa.googleapis.com/v1/thumbnail?panoid=36ZXC-F51StBA6GLVQdnkA&cb_client=maps_sv.tactile.gps&w=224&h=298&yaw=256.4121&pitch=0&thumbfov=100"
            }
        ],
        "link": "https://www.google.com/maps/place/Chand+Masjid/data=!4m7!3m6!1s0x390afa1258998489:0x6bf67413fca5a90d!8m2!3d28.8389713!4d78.8250602!16s%2Fg%2F11gglsfprt!19sChIJiYSZWBL6CjkRDaml_BN09ms?authuser=0&hl=en&rclk=1",
        "coordinates": {
            "latitude": 28.838971299999997,
            "longitude": 78.8250602
        }
    },
    {
        "name": "Allama Iqbal Jama Masjid",
        "main_category": "Mosque",
        "address": "Q2XP+43F Allama Iqbal Jama Masjid, Street Number 3, SBS Nagar, Doraha, Punjab 141421",
        "detailed_address": {
            "ward": "SBS Nagar",
            "street": "Q2XP+43F, Street Number 3",
            "city": "Doraha",
            "postal_code": "141421",
            "state": "Punjab",
            "country_code": "IN"
        },
        "images": [
            {
                "about": "All",
                "link": "https://lh5.googleusercontent.com/p/AF1QipOfky-WvfH_RBgjT02LMqWEdOWcXgWb5RY1nfRG=w224-h398-k-no"
            }
        ],
        "link": "https://www.google.com/maps/place/Allama+Iqbal+Jama+Masjid/data=!4m7!3m6!1s0x391075618b3e8fcf:0x66dbe335b02cb00f!8m2!3d30.7975926!4d76.0347864!16s%2Fg%2F11t3vbr7n3!19sChIJz48-i2F1EDkRD7AssDXj22Y?authuser=0&hl=en&rclk=1",
        "coordinates": {
            "latitude": 30.797592599999998,
            "longitude": 76.0347864
        }
    },
    {
        "name": "Doraha Jame Masjid",
        "main_category": "Mosque",
        "address": "FR46+7HM Doraha Jame Masjid, Doraha, West Bengal 733141",
        "detailed_address": {
            "ward": null,
            "street": "FR46+7HM",
            "city": "Doraha",
            "postal_code": null,
            "state": "West Bengal",
            "country_code": "IN"
        },
        "images": [],
        "link": "https://www.google.com/maps/place/Doraha+Jame+Masjid/data=!4m7!3m6!1s0x39fca70045b108c9:0xe5d62d664511944!8m2!3d25.4557186!4d88.8114219!16s%2Fg%2F11j137z0hf!19sChIJyQixRQCn_DkRRBlRZNZiXQ4?authuser=0&hl=en&rclk=1",
        "coordinates": {
            "latitude": 25.455718599999997,
            "longitude": 88.8114219
        }
    },
    {
        "name": "Masjid",
        "main_category": "Mosque",
        "address": "R24C+6M Masjid, Doraha, Punjab 141421",
        "detailed_address": {
            "ward": null,
            "street": "R24C+6M",
            "city": "Doraha",
            "postal_code": null,
            "state": "Punjab",
            "country_code": "IN"
        },
        "images": [
            {
                "about": "All",
                "link": "https://streetviewpixels-pa.googleapis.com/v1/thumbnail?panoid=PL1rfcnx_mbzvz8BpEA2dA&cb_client=maps_sv.tactile.gps&w=224&h=298&yaw=289.90216&pitch=0&thumbfov=100"
            },
            {
                "about": "Street View & 360deg",
                "link": "https://streetviewpixels-pa.googleapis.com/v1/thumbnail?panoid=PL1rfcnx_mbzvz8BpEA2dA&cb_client=maps_sv.tactile.gps&w=224&h=298&yaw=289.90216&pitch=0&thumbfov=100"
            },
            {
                "about": "Videos",
                "link": "https://lh5.googleusercontent.com/p/AF1QipO1XtVW97qyIu2eBMox0yBFx-DH8jxxRxXpNpDB=w224-h467-k-no"
            }
        ],
        "link": "https://www.google.com/maps/place/Masjid/data=!4m7!3m6!1s0x39107504ce9f988d:0x45e82b6d068a495b!8m2!3d30.8056219!4d76.0216828!16s%2Fg%2F11pw18b5n2!19sChIJjZifzgR1EDkRW0mKBm0r6EU?authuser=0&hl=en&rclk=1",
        "coordinates": {
            "latitude": 30.8056219,
            "longitude": 76.0216828
        }
    },
    {
        "name": "Jannat masjid Siddiqui colony bagiya rampur doraha moradabad",
        "main_category": "Mosque",
        "address": "RRVF+7PM Jannat masjid Siddiqui colony bagiya rampur doraha moradabad, Unnamed Road, Railway Harthala Colony, Moradabad, Uttar Pradesh 244001",
        "detailed_address": {
            "ward": "Railway Harthala Colony",
            "street": "RRVF+7PM, Unnamed Road",
            "city": "Moradabad",
            "postal_code": "244001",
            "state": "Uttar Pradesh",
            "country_code": "IN"
        },
        "images": [
            {
                "about": "All",
                "link": "https://lh5.googleusercontent.com/p/AF1QipOa20Pjm_1PQG7qmVlOat4d_KJ7UzN8BQrwjOwH=w298-h298-k-no"
            },
            {
                "about": "Videos",
                "link": "https://lh5.googleusercontent.com/p/AF1QipMCjlVrjcOTFT-INz8UDe2HCxtbDrZePJCkqnku=w541-h298-k-no"
            }
        ],
        "link": "https://www.google.com/maps/place/Jannat+masjid+Siddiqui+colony+bagiya+rampur+doraha+moradabad/data=!4m7!3m6!1s0x390afb30202e065d:0xd6fd75c81e23c203!8m2!3d28.8432095!4d78.8243025!16s%2Fg%2F11ngz85nn4!19sChIJXQYuIDD7CjkRA8IjHsh1_dY?authuser=0&hl=en&rclk=1",
        "coordinates": {
            "latitude": 28.8432095,
            "longitude": 78.8243025
        }
    },
    {
        "name": "Masjid and Madarsa Doraha",
        "main_category": "Mosque",
        "address": "95P8+JF3 Masjid and Madarsa Doraha, Unnamed Road, Duraha, Madhya Pradesh 466661",
        "detailed_address": {
            "ward": null,
            "street": "95P8+JF3, Unnamed Road",
            "city": "Duraha",
            "postal_code": "466661",
            "state": "Madhya Pradesh",
            "country_code": "IN"
        },
        "images": [
            {
                "about": "All",
                "link": "https://lh5.googleusercontent.com/p/AF1QipMgskud_mHf9g_Y2N-jP03IsFqR4t8HFzVv1q2u=w224-h398-k-no"
            }
        ],
        "link": "https://www.google.com/maps/place/Masjid+and+Madarsa+Doraha/data=!4m7!3m6!1s0x397c89e72c34bef5:0x447d8dba275b7639!8m2!3d23.3865238!4d77.1661824!16s%2Fg%2F11lm118ktk!19sChIJ9b40LOeJfDkROXZbJ7qNfUQ?authuser=0&hl=en&rclk=1",
        "coordinates": {
            "latitude": 23.3865238,
            "longitude": 77.1661824
        }
    },
    {
        "name": "Madina Masjid Doraha Jod",
        "main_category": "Mosque",
        "address": "95J8+2QR Madina Masjid Doraha Jod, Chhatri, Madhya Pradesh 466661",
        "detailed_address": {
            "ward": null,
            "street": "95J8+2QR",
            "city": "Chhatri",
            "postal_code": "466661",
            "state": "Madhya Pradesh",
            "country_code": "IN"
        },
        "images": [
            {
                "about": "All",
                "link": "https://streetviewpixels-pa.googleapis.com/v1/thumbnail?panoid=tTtMvui3uP1fR1gLEb57wQ&cb_client=maps_sv.tactile.gps&w=224&h=298&yaw=343.08505&pitch=0&thumbfov=100"
            },
            {
                "about": "Street View & 360deg",
                "link": "https://streetviewpixels-pa.googleapis.com/v1/thumbnail?panoid=tTtMvui3uP1fR1gLEb57wQ&cb_client=maps_sv.tactile.gps&w=224&h=298&yaw=343.08505&pitch=0&thumbfov=100"
            }
        ],
        "link": "https://www.google.com/maps/place/Madina+Masjid+Doraha+Jod/data=!4m7!3m6!1s0x397c8981e1529601:0x77f5b16fd9a68d97!8m2!3d23.3801766!4d77.1672161!16s%2Fg%2F11k51xvzsd!19sChIJAZZS4YGJfDkRl42m2W-x9Xc?authuser=0&hl=en&rclk=1",
        "coordinates": {
            "latitude": 23.3801766,
            "longitude": 77.16721609999999
        }
    }
]