[
    {
        "name": "Khanqah Madarsa",
        "main_category": "Mosque",
        "address": "HCR8+33W Khanqah Madarsa, Station Rd, Thanabhawan, Uttar Pradesh 247777",
        "detailed_address": {
            "ward": null,
            "street": "HCR8+33W, Station Rd",
            "city": "Thanabhawan",
            "postal_code": "247777",
            "state": "Uttar Pradesh",
            "country_code": "IN"
        },
        "images": [
            {
                "about": "All",
                "link": "https://lh5.googleusercontent.com/p/AF1QipOgUvPW425Xdtr2lkakeqQN2gKdDkOsYlJ6zvf4=w224-h485-k-no"
            },
            {
                "about": "Street View & 360deg",
                "link": "https://streetviewpixels-pa.googleapis.com/v1/thumbnail?panoid=GeEqM-0fwKv962rIq9Q4_A&cb_client=maps_sv.tactile.gps&w=224&h=298&yaw=266.63794&pitch=0&thumbfov=100"
            },
            {
                "about": "Videos",
                "link": "https://lh5.googleusercontent.com/p/AF1QipNwzygPXGDndgnFph-FaJDENux_yeKt0xR7R7k=w224-h398-k-no"
            }
        ],
        "link": "https://www.google.com/maps/place/Khanqah+Madarsa/data=!4m7!3m6!1s0x390e9d0f98ed1b33:0x8a9f1ef4f88df376!8m2!3d29.5902255!4d77.4152051!16s%2Fg%2F11ckf5hvlc!19sChIJMxvtmA-dDjkRdvON-PQen4o?authuser=0&hl=en&rclk=1",
        "coordinates": {
            "latitude": 29.5902255,
            "longitude": 77.4152051
        }
    },
    {
        "name": "Jama Masjid",
        "main_category": "Mosque",
        "address": "HCP9+C3R Jama Masjid, Thanabhawan, Uttar Pradesh 247777",
        "detailed_address": {
            "ward": null,
            "street": "HCP9+C3R",
            "city": "Thanabhawan",
            "postal_code": "247777",
            "state": "Uttar Pradesh",
            "country_code": "IN"
        },
        "images": [
            {
                "about": "All",
                "link": "https://lh5.googleusercontent.com/p/AF1QipPARe2RkvFeJlRv3Dnn0XA1dVOPhH7JyHlKfsNt=w397-h298-k-no"
            }
        ],
        "link": "https://www.google.com/maps/place/Jama+Masjid/data=!4m7!3m6!1s0x390e9d0ea7790151:0xddcf4148ec06f742!8m2!3d29.586118!4d77.4176492!16s%2Fg%2F11cjpbxlrz!19sChIJUQF5pw6dDjkRQvcG7EhBz90?authuser=0&hl=en&rclk=1",
        "coordinates": {
            "latitude": 29.586118,
            "longitude": 77.4176492
        }
    },
    {
        "name": "Madeena masjid masavi",
        "main_category": "Mosque",
        "address": "HCFV+HW5 Madeena masjid masavi, Unnamed Road, Thanabhawan, Uttar Pradesh 247777",
        "detailed_address": {
            "ward": null,
            "street": "HCFV+HW5, Unnamed Road",
            "city": "Thanabhawan",
            "postal_code": "247777",
            "state": "Uttar Pradesh",
            "country_code": "IN"
        },
        "images": [
            {
                "about": "All",
                "link": "https://lh5.googleusercontent.com/p/AF1QipOSAWNYVGTxesdCB5JYdmpw4FMUEPCCp3A2NHQ9=w224-h460-k-no"
            },
            {
                "about": "Latest",
                "link": "https://lh5.googleusercontent.com/p/AF1QipO2Mu0qhgZW5Rg5PWyDtZHytphSvE3erjFtYilE=w224-h398-k-no"
            },
            {
                "about": "Videos",
                "link": "https://lh5.googleusercontent.com/p/AF1QipN7L5I8asPJuZd7H5kv8FlJzMyU_Wp4ve4qcwk=w224-h398-k-no"
            },
            {
                "about": "Street View & 360deg",
                "link": "https://streetviewpixels-pa.googleapis.com/v1/thumbnail?panoid=I0dLuDGZ5ip9tK4VnQZb_w&cb_client=maps_sv.tactile.gps&w=224&h=298&yaw=23.26345&pitch=0&thumbfov=100"
            }
        ],
        "link": "https://www.google.com/maps/place/Madeena+masjid+masavi/data=!4m7!3m6!1s0x390e9d19cc82a825:0x7ad595ced96ebe39!8m2!3d29.5738854!4d77.4448696!16s%2Fg%2F11gy4t4h28!19sChIJJaiCzBmdDjkROb5u2c6V1Xo?authuser=0&hl=en&rclk=1",
        "coordinates": {
            "latitude": 29.573885399999998,
            "longitude": 77.44486959999999
        }
    },
    {
        "name": "Markaz Mosque",
        "main_category": "Mosque",
        "address": "HCQ9+FJG Markaz Mosque, Retti Colony Circle, Rahi Colony, Thanabhawan, Uttar Pradesh 247777",
        "detailed_address": {
            "ward": "Retti Colony Circle, Rahi Colony",
            "street": "HCQ9+FJG",
            "city": "Thanabhawan",
            "postal_code": "247777",
            "state": "Uttar Pradesh",
            "country_code": "IN"
        },
        "images": [
            {
                "about": "All",
                "link": "https://lh5.googleusercontent.com/p/AF1QipPY49Sgm5KWo13zl7Z7_AIIm09bEGtweYgFUfaJ=w388-h298-k-no"
            }
        ],
        "link": "https://www.google.com/maps/place/Markaz+Mosque/data=!4m7!3m6!1s0x390e9d09292bffa5:0x2647afc1170a8949!8m2!3d29.5886755!4d77.419085!16s%2Fg%2F11ckdd48v9!19sChIJpf8rKQmdDjkRSYkKF8GvRyY?authuser=0&hl=en&rclk=1",
        "coordinates": {
            "latitude": 29.588675499999997,
            "longitude": 77.419085
        }
    },
    {
        "name": "Masjid Aisha",
        "main_category": "Mosque",
        "address": "HCR8+2PG Masjid Aisha, Mohalla Hafiz dost, Thanabhawan, Uttar Pradesh 247777",
        "detailed_address": {
            "ward": null,
            "street": "HCR8+2PG Mohalla Hafiz dost",
            "city": "Thanabhawan",
            "postal_code": "247777",
            "state": "Uttar Pradesh",
            "country_code": "IN"
        },
        "images": [],
        "link": "https://www.google.com/maps/place/Masjid+Aisha/data=!4m7!3m6!1s0x390e9d0f15b0def3:0xce2b5c8c437c719f!8m2!3d29.5900688!4d77.416832!16s%2Fg%2F11hbnkwt9k!19sChIJ896wFQ-dDjkRn3F8Q4xcK84?authuser=0&hl=en&rclk=1",
        "coordinates": {
            "latitude": 29.590068799999997,
            "longitude": 77.416832
        }
    },
    {
        "name": "Haji Sibtain Imambara",
        "main_category": "Mosque",
        "address": "Haji Sibtain Imambara, Mohalla Hafiz dost, Rahi Colony, Thanabhawan, Uttar Pradesh 247777",
        "detailed_address": {
            "ward": "Rahi Colony",
            "street": "Mohalla Hafiz dost",
            "city": "Thanabhawan",
            "postal_code": "247777",
            "state": "Uttar Pradesh",
            "country_code": "IN"
        },
        "images": [
            {
                "about": "All",
                "link": "https://lh5.googleusercontent.com/p/AF1QipOycnSNiICMpbU22EyIVs-uamCj4PLYt3g5pZAi=w397-h298-k-no"
            },
            {
                "about": "By owner",
                "link": "https://lh5.googleusercontent.com/p/AF1QipMMY9ZUu660TJ3mb82tMgwol8EDasQ1_6IWuH_3=w529-h298-k-no"
            }
        ],
        "link": "https://www.google.com/maps/place/Haji+Sibtain+Imambara/data=!4m7!3m6!1s0x390e9d0f79944a01:0xb26ff70eeba62a89!8m2!3d29.5910199!4d77.4159705!16s%2Fg%2F11hcdtfh_9!19sChIJAUqUeQ-dDjkRiSqm6w73b7I?authuser=0&hl=en&rclk=1",
        "coordinates": {
            "latitude": 29.5910199,
            "longitude": 77.4159705
        }
    },
    {
        "name": "Molana Ashraf Ali Thanvi",
        "main_category": "Mosque",
        "address": "HCR6+6M5 Molana Ashraf Ali Thanvi, Thanabhawan, Uttar Pradesh 247777",
        "detailed_address": {
            "ward": null,
            "street": "HCR6+6M5",
            "city": "Thanabhawan",
            "postal_code": null,
            "state": "Uttar Pradesh",
            "country_code": "IN"
        },
        "images": [
            {
                "about": "All",
                "link": "https://lh5.googleusercontent.com/p/AF1QipP9MDgnRYhanBAxILYQXw21UfW7Rd4aGjeA8v78=w363-h298-k-no"
            }
        ],
        "link": "https://www.google.com/maps/place/Molana+Ashraf+Ali+Thanvi/data=!4m7!3m6!1s0x390e9dedc51a3e7b:0x792a3e2bed2fa4f7!8m2!3d29.5905199!4d77.4117457!16s%2Fg%2F11frkr6p84!19sChIJez4axe2dDjkR96Qv7Ss-Knk?authuser=0&hl=en&rclk=1",
        "coordinates": {
            "latitude": 29.5905199,
            "longitude": 77.4117457
        }
    },
    {
        "name": "Hakimaan Mosque",
        "main_category": "Mosque",
        "address": "HCP8+WCJ Hakimaan Mosque, Thanabhawan, Uttar Pradesh 247777",
        "detailed_address": {
            "ward": null,
            "street": "HCP8+WCJ",
            "city": "Thanabhawan",
            "postal_code": null,
            "state": "Uttar Pradesh",
            "country_code": "IN"
        },
        "images": [],
        "link": "https://www.google.com/maps/place/Hakimaan+Mosque/data=!4m7!3m6!1s0x390e9d0e8b57ad07:0x2137b9c9c906cda7!8m2!3d29.5873326!4d77.4160081!16s%2Fg%2F11gdkxqkgw!19sChIJB61Xiw6dDjkRp80Gycm5NyE?authuser=0&hl=en&rclk=1",
        "coordinates": {
            "latitude": 29.5873326,
            "longitude": 77.4160081
        }
    },
    {
        "name": "Masjid Hakimul Ummat",
        "main_category": "Mosque",
        "address": "HCR6+3HH Masjid Hakimul Ummat, Thanabhawan, Uttar Pradesh 247777",
        "detailed_address": {
            "ward": null,
            "street": "HCR6+3HH",
            "city": "Thanabhawan",
            "postal_code": null,
            "state": "Uttar Pradesh",
            "country_code": "IN"
        },
        "images": [
            {
                "about": "All",
                "link": "https://lh5.googleusercontent.com/p/AF1QipNIe0TSvUOImuBgSjGsQTWkXONMCJoRZMxxKhOJ=w529-h298-k-no"
            },
            {
                "about": "Street View & 360deg",
                "link": "https://streetviewpixels-pa.googleapis.com/v1/thumbnail?panoid=13Vj-0wUz-Fzkj_cTXLsjg&cb_client=maps_sv.tactile.gps&w=224&h=298&yaw=16.518585&pitch=0&thumbfov=100"
            }
        ],
        "link": "https://www.google.com/maps/place/Masjid+Hakimul+Ummat/data=!4m7!3m6!1s0x390e9dd39d0558d5:0x3d046bbc373bd125!8m2!3d29.5901899!4d77.4114943!16s%2Fg%2F11grv2mwgc!19sChIJ1VgFndOdDjkRJdE7N7xrBD0?authuser=0&hl=en&rclk=1",
        "coordinates": {
            "latitude": 29.5901899,
            "longitude": 77.4114943
        }
    },
    {
        "name": "Eidgah",
        "main_category": "Mosque",
        "address": "HCV7+59V Eidgah, Station Rd, Station Workers Colony, Thanabhawan, Uttar Pradesh 247777",
        "detailed_address": {
            "ward": "Station Workers Colony",
            "street": "HCV7+59V, Station Rd",
            "city": "Thanabhawan",
            "postal_code": "247777",
            "state": "Uttar Pradesh",
            "country_code": "IN"
        },
        "images": [
            {
                "about": "All",
                "link": "https://lh5.googleusercontent.com/p/AF1QipMaICTV-z6eiYncqRaO8LGU8oKd1IQSuR6OfF_K=w224-h399-k-no"
            },
            {
                "about": "Street View & 360deg",
                "link": "https://streetviewpixels-pa.googleapis.com/v1/thumbnail?panoid=l7zlq0nUPXvLBC0baK1CFA&cb_client=maps_sv.tactile.gps&w=224&h=298&yaw=37.642998&pitch=0&thumbfov=100"
            },
            {
                "about": "Videos",
                "link": "https://lh5.googleusercontent.com/p/AF1QipOeHijYGmoO1Q5e5-cB2XCwO2rJHvCwc3ky10vc=w224-h407-k-no"
            }
        ],
        "link": "https://www.google.com/maps/place/Eidgah/data=!4m7!3m6!1s0x390e9dacda8b6a0d:0x9ffa51045f78cdf2!8m2!3d29.5929771!4d77.4134147!16s%2Fg%2F11jhv6q6vf!19sChIJDWqL2qydDjkR8s14XwRR-p8?authuser=0&hl=en&rclk=1",
        "coordinates": {
            "latitude": 29.5929771,
            "longitude": 77.41341469999999
        }
    },
    {
        "name": "Lal Masjid Red Mosque",
        "main_category": "Mosque",
        "address": "HCQ8+GXG Lal Masjid Red Mosque, Thanabhawan, Uttar Pradesh 247777",
        "detailed_address": {
            "ward": null,
            "street": "HCQ8+GXG",
            "city": "Thanabhawan",
            "postal_code": null,
            "state": "Uttar Pradesh",
            "country_code": "IN"
        },
        "images": [],
        "link": "https://www.google.com/maps/place/Lal+Masjid+Red+Mosque/data=!4m7!3m6!1s0x390e9dd67dc967ef:0x6b37223b5645c5d9!8m2!3d29.5888236!4d77.4174436!16s%2Fg%2F11g_n9j5lg!19sChIJ72fJfdadDjkR2cVFVjsiN2s?authuser=0&hl=en&rclk=1",
        "coordinates": {
            "latitude": 29.588823599999998,
            "longitude": 77.4174436
        }
    },
    {
        "name": "Chhatte wali Masjid (Gada Chowk).",
        "main_category": "Mosque",
        "address": "HCQ8+WPV Chhatte wali Masjid (Gada Chowk)., Mohalla Hafiz dost, Rahi Colony, Thanabhawan, Uttar Pradesh 247777",
        "detailed_address": {
            "ward": "Rahi Colony",
            "street": "HCQ8+WPV Mohalla Hafiz dost",
            "city": "Thanabhawan",
            "postal_code": "247777",
            "state": "Uttar Pradesh",
            "country_code": "IN"
        },
        "images": [
            {
                "about": "All",
                "link": "https://lh5.googleusercontent.com/p/AF1QipOB_8XnPNWO_nOJMMMjUQUhrpxzzWyth5hJIt_5=w224-h398-k-no"
            },
            {
                "about": "Videos",
                "link": "https://lh5.googleusercontent.com/p/AF1QipMWCcGuR1XAw5lNnNjPaRaA3gf5YIflo2jHKenj=w224-h398-k-no"
            }
        ],
        "link": "https://www.google.com/maps/place/Chhatte+wali+Masjid+%28Gada+Chowk%29./data=!4m7!3m6!1s0x390e9d66bf2fb8a1:0xdb0cc24a7b01631f!8m2!3d29.589855!4d77.416792!16s%2Fg%2F11rfq34g7d!19sChIJobgvv2adDjkRH2MBe0rCDNs?authuser=0&hl=en&rclk=1",
        "coordinates": {
            "latitude": 29.589855,
            "longitude": 77.416792
        }
    },
    {
        "name": "Masjid (Amroodowali)& Madarsa",
        "main_category": "Mosque",
        "address": "HCP9+FP7 Masjid (Amroodowali)& Madarsa, Thanabhawan, Uttar Pradesh 247777",
        "detailed_address": {
            "ward": null,
            "street": "HCP9+FP7",
            "city": "Thanabhawan",
            "postal_code": "247777",
            "state": "Uttar Pradesh",
            "country_code": "IN"
        },
        "images": [
            {
                "about": "All",
                "link": "https://lh5.googleusercontent.com/p/AF1QipP7eg8DlFV0u8pHHARTklDVrlLYFiedVnCAeVi2=w224-h458-k-no"
            }
        ],
        "link": "https://www.google.com/maps/place/Masjid+%28Amroodowali%29%26+Madarsa/data=!4m7!3m6!1s0x390e9d25f8ec3f27:0x54744ebcb5b6cec0!8m2!3d29.5861668!4d77.4193112!16s%2Fg%2F11gv19n5_c!19sChIJJz_s-CWdDjkRwM62tbxOdFQ?authuser=0&hl=en&rclk=1",
        "coordinates": {
            "latitude": 29.586166799999997,
            "longitude": 77.4193112
        }
    },
    {
        "name": "Aaysha Masjid",
        "main_category": "Mosque",
        "address": "HCVC+8PH Aaysha Masjid, Thanabhawan, Uttar Pradesh 247777",
        "detailed_address": {
            "ward": null,
            "street": "HCVC+8PH",
            "city": "Thanabhawan",
            "postal_code": null,
            "state": "Uttar Pradesh",
            "country_code": "IN"
        },
        "images": [
            {
                "about": "All",
                "link": "https://streetviewpixels-pa.googleapis.com/v1/thumbnail?panoid=dEmOyj2DMm0GTmzPAqSYiA&cb_client=maps_sv.tactile.gps&w=224&h=298&yaw=2.3013458&pitch=0&thumbfov=100"
            },
            {
                "about": "Street View & 360deg",
                "link": "https://streetviewpixels-pa.googleapis.com/v1/thumbnail?panoid=dEmOyj2DMm0GTmzPAqSYiA&cb_client=maps_sv.tactile.gps&w=224&h=298&yaw=2.3013458&pitch=0&thumbfov=100"
            }
        ],
        "link": "https://www.google.com/maps/place/Aaysha+Masjid/data=!4m7!3m6!1s0x390e9d73ccc03f95:0xb28e7ef133dd44ed!8m2!3d29.5933152!4d77.4218506!16s%2Fg%2F11g1lxk979!19sChIJlT_AzHOdDjkR7UTdM_F-jrI?authuser=0&hl=en&rclk=1",
        "coordinates": {
            "latitude": 29.5933152,
            "longitude": 77.4218506
        }
    },
    {
        "name": "Masjid-E-Sharif msjid-e-shriiph",
        "main_category": "Mosque",
        "address": "HCMC+732 Masjid-E-Sharif msjid-e-shriiph, Saharanpur - Delhi Rd, Thanabhawan, Uttar Pradesh 247777",
        "detailed_address": {
            "ward": null,
            "street": "HCMC+732, Saharanpur - Delhi Rd",
            "city": "Thanabhawan",
            "postal_code": "247777",
            "state": "Uttar Pradesh",
            "country_code": "IN"
        },
        "images": [
            {
                "about": "All",
                "link": "https://lh5.googleusercontent.com/p/AF1QipNUYwFiFK7cDavc8UYjjP8oE3y6AdP0Qp8ZIlJq=w529-h298-k-no"
            },
            {
                "about": "Street View & 360deg",
                "link": "https://streetviewpixels-pa.googleapis.com/v1/thumbnail?panoid=9AWR46tOa1wjVCku8jsD4w&cb_client=maps_sv.tactile.gps&w=224&h=298&yaw=155.63646&pitch=0&thumbfov=100"
            }
        ],
        "link": "https://www.google.com/maps/place/Masjid-E-Sharif+%E0%A4%AE%E0%A4%B8%E0%A5%8D%E0%A4%9C%E0%A4%BF%E0%A4%A6-%E0%A4%8F-%E0%A4%B6%E0%A4%B0%E0%A5%80%E0%A4%AB/data=!4m7!3m6!1s0x390e9d288e47be27:0x3d471e39eeec935b!8m2!3d29.5831482!4d77.4201311!16s%2Fg%2F11h3bnjx0v!19sChIJJ75HjiidDjkRW5Ps7jkeRz0?authuser=0&hl=en&rclk=1",
        "coordinates": {
            "latitude": 29.5831482,
            "longitude": 77.42013109999999
        }
    },
    {
        "name": "Luharo Wali Masjid Thana Bhawan",
        "main_category": "Mosque",
        "address": "HCQ8+624 Luharo Wali Masjid Thana Bhawan, mohallah, Shahvilayat Rd, Thanabhawan, Uttar Pradesh",
        "detailed_address": {
            "ward": null,
            "street": "HCQ8+624, mohallah, Shahvilayat Rd",
            "city": "Thanabhawan",
            "postal_code": null,
            "state": "Uttar Pradesh",
            "country_code": "IN"
        },
        "images": [],
        "link": "https://www.google.com/maps/place/Luharo+Wali+Masjid+Thana+Bhawan/data=!4m7!3m6!1s0x390e9d725424c193:0x2af3d28daf70a91c!8m2!3d29.588005!4d77.41509!16s%2Fg%2F11fll7fxnl!19sChIJk8EkVHKdDjkRHKlwr43S8yo?authuser=0&hl=en&rclk=1",
        "coordinates": {
            "latitude": 29.588005,
            "longitude": 77.41508999999999
        }
    },
    {
        "name": "Masjid",
        "main_category": "Mosque",
        "address": "JC7M+PM4 Masjid, Thanabhawan, Uttar Pradesh 247772",
        "detailed_address": {
            "ward": null,
            "street": "JC7M+PM4",
            "city": "Thanabhawan",
            "postal_code": null,
            "state": "Uttar Pradesh",
            "country_code": "IN"
        },
        "images": [
            {
                "about": "All",
                "link": "https://streetviewpixels-pa.googleapis.com/v1/thumbnail?panoid=fT8eV4RMhtp2fHx1LBXBJA&cb_client=maps_sv.tactile.gps&w=224&h=298&yaw=168.57591&pitch=0&thumbfov=100"
            },
            {
                "about": "Street View & 360deg",
                "link": "https://streetviewpixels-pa.googleapis.com/v1/thumbnail?panoid=fT8eV4RMhtp2fHx1LBXBJA&cb_client=maps_sv.tactile.gps&w=224&h=298&yaw=168.57591&pitch=0&thumbfov=100"
            }
        ],
        "link": "https://www.google.com/maps/place/Masjid/data=!4m7!3m6!1s0x390e9da9eab10727:0x89e5c08a15977d97!8m2!3d29.6142665!4d77.4341978!16s%2Fg%2F11gswr2g1l!19sChIJJwex6qmdDjkRl32XFYrA5Yk?authuser=0&hl=en&rclk=1",
        "coordinates": {
            "latitude": 29.6142665,
            "longitude": 77.43419779999999
        }
    },
    {
        "name": "Ashrafiyya Masjid & Madarsa",
        "main_category": "Mosque",
        "address": "HCM9+WJJ Ashrafiyya Masjid & Madarsa, Thanabhawan, Uttar Pradesh 247777",
        "detailed_address": {
            "ward": null,
            "street": "HCM9+WJJ",
            "city": "Thanabhawan",
            "postal_code": null,
            "state": "Uttar Pradesh",
            "country_code": "IN"
        },
        "images": [
            {
                "about": "All",
                "link": "https://streetviewpixels-pa.googleapis.com/v1/thumbnail?panoid=tpyg1kyuljxJDhtnnw3spw&cb_client=maps_sv.tactile.gps&w=224&h=298&yaw=24.67959&pitch=0&thumbfov=100"
            },
            {
                "about": "Street View & 360deg",
                "link": "https://streetviewpixels-pa.googleapis.com/v1/thumbnail?panoid=tpyg1kyuljxJDhtnnw3spw&cb_client=maps_sv.tactile.gps&w=224&h=298&yaw=24.67959&pitch=0&thumbfov=100"
            }
        ],
        "link": "https://www.google.com/maps/place/Ashrafiyya+Masjid+%26+Madarsa/data=!4m7!3m6!1s0x390e9df71310b6ab:0xc0e7e1878bc5ee91!8m2!3d29.5848311!4d77.4190061!16s%2Fg%2F11g3zchkpp!19sChIJq7YQE_edDjkRke7Fi4fh58A?authuser=0&hl=en&rclk=1",
        "coordinates": {
            "latitude": 29.5848311,
            "longitude": 77.41900609999999
        }
    },
    {
        "name": "Quraishyan Masjid",
        "main_category": "Mosque",
        "address": "HCM9+P8X Quraishyan Masjid, kassaban1, Thanabhawan, Uttar Pradesh 247777",
        "detailed_address": {
            "ward": "kassaban1",
            "street": "HCM9+P8X",
            "city": "Thanabhawan",
            "postal_code": "247777",
            "state": "Uttar Pradesh",
            "country_code": "IN"
        },
        "images": [
            {
                "about": "All",
                "link": "https://streetviewpixels-pa.googleapis.com/v1/thumbnail?panoid=OD5Ao8cAU_54M0UODOgFOQ&cb_client=maps_sv.tactile.gps&w=224&h=298&yaw=128.77975&pitch=0&thumbfov=100"
            },
            {
                "about": "Street View & 360deg",
                "link": "https://streetviewpixels-pa.googleapis.com/v1/thumbnail?panoid=OD5Ao8cAU_54M0UODOgFOQ&cb_client=maps_sv.tactile.gps&w=224&h=298&yaw=128.77975&pitch=0&thumbfov=100"
            }
        ],
        "link": "https://www.google.com/maps/place/Quraishyan+Masjid/data=!4m7!3m6!1s0x390e9d45bfcda841:0x49955c457e5711ec!8m2!3d29.5843547!4d77.4183483!16s%2Fg%2F11h5_t70b8!19sChIJQajNv0WdDjkR7BFXfkVclUk?authuser=0&hl=en&rclk=1",
        "coordinates": {
            "latitude": 29.5843547,
            "longitude": 77.41834829999999
        }
    },
    {
        "name": "Chand masjid chnd msjd",
        "main_category": "Mosque",
        "address": "Chand masjid chnd msjd, ke peeche, Bijli Ghar, and, Thanabhawan, Thana Bhawan, Uttar Pradesh 247777",
        "detailed_address": {
            "ward": null,
            "street": "ke peeche, Bijli Ghar, and",
            "city": "Thanabhawan",
            "postal_code": null,
            "state": "Uttar Pradesh",
            "country_code": "IN"
        },
        "images": [
            {
                "about": "All",
                "link": "https://lh5.googleusercontent.com/p/AF1QipMby12zSAQ-lqXiSh8PnUdnxP_Mgc2ZYTZ9-OA6=w299-h298-k-no"
            },
            {
                "about": "Latest",
                "link": "https://lh5.googleusercontent.com/p/AF1QipMYclE6c8fQzSXyCwEB3X5vjYvWz9ye1anihL4z=w224-h398-k-no"
            },
            {
                "about": "Videos",
                "link": "https://lh5.googleusercontent.com/p/AF1QipMYclE6c8fQzSXyCwEB3X5vjYvWz9ye1anihL4z=w224-h398-k-no"
            },
            {
                "about": "Street View & 360deg",
                "link": "https://streetviewpixels-pa.googleapis.com/v1/thumbnail?panoid=XTocn5FNpfgaD_oGAYBDXQ&cb_client=maps_sv.tactile.gps&w=224&h=298&yaw=119.92258&pitch=0&thumbfov=100"
            }
        ],
        "link": "https://www.google.com/maps/place/Chand+masjid+%DA%86%D8%A7%D9%86%D8%AF+%D9%85%D8%B3%D8%AC%D8%AF%E2%80%AD/data=!4m7!3m6!1s0x390e9dceebe7298d:0x4be43e7710a5da2a!8m2!3d29.5936292!4d77.4250313!16s%2Fg%2F11rxm4x48z!19sChIJjSnn686dDjkRKtqlEHc-5Es?authuser=0&hl=en&rclk=1",
        "coordinates": {
            "latitude": 29.5936292,
            "longitude": 77.4250313
        }
    },
    {
        "name": "Masjid",
        "main_category": "Mosque",
        "address": "HCV6+2JC Masjid, Thanabhawan, Uttar Pradesh 247777",
        "detailed_address": {
            "ward": null,
            "street": "HCV6+2JC",
            "city": "Thanabhawan",
            "postal_code": null,
            "state": "Uttar Pradesh",
            "country_code": "IN"
        },
        "images": [],
        "link": "https://www.google.com/maps/place/Masjid/data=!4m7!3m6!1s0x390e9d62143d8609:0x6364183fa902cdf7!8m2!3d29.5925511!4d77.4115163!16s%2Fg%2F11hgqx44t0!19sChIJCYY9FGKdDjkR980CqT8YZGM?authuser=0&hl=en&rclk=1",
        "coordinates": {
            "latitude": 29.592551099999998,
            "longitude": 77.4115163
        }
    },
    {
        "name": "msjid vlii muhmmd Masjid Wali Muhammad",
        "main_category": "Mosque",
        "address": "HCRF+FXG msjid vlii muhmmd Masjid Wali Muhammad, Thanabhawan, Uttar Pradesh 247777",
        "detailed_address": {
            "ward": null,
            "street": "HCRF+FXG",
            "city": "Thanabhawan",
            "postal_code": null,
            "state": "Uttar Pradesh",
            "country_code": "IN"
        },
        "images": [
            {
                "about": "All",
                "link": "https://lh5.googleusercontent.com/p/AF1QipNCv8i8Ort1u7pjYgRyej3m0j3eYc6osx6b0NIa=w224-h298-k-no"
            },
            {
                "about": "Street View & 360deg",
                "link": "https://streetviewpixels-pa.googleapis.com/v1/thumbnail?panoid=VXxwItoRTx_DTqMXx4-e6A&cb_client=maps_sv.tactile.gps&w=224&h=298&yaw=313.2919&pitch=0&thumbfov=100"
            }
        ],
        "link": "https://www.google.com/maps/place/%E0%A4%AE%E0%A4%B8%E0%A5%8D%E0%A4%9C%E0%A4%BF%E0%A4%A6+%E0%A4%B5%E0%A4%B2%E0%A5%80+%E0%A4%AE%E0%A5%81%E0%A4%B9%E0%A4%AE%E0%A5%8D%E0%A4%AE%E0%A4%A6+Masjid+Wali+Muhammad/data=!4m7!3m6!1s0x390e9de8af9e28e3:0x4ae2c2de4cac2663!8m2!3d29.5911828!4d77.4249677!16s%2Fg%2F11rvbychv3!19sChIJ4yier-idDjkRYyasTN7C4ko?authuser=0&hl=en&rclk=1",
        "coordinates": {
            "latitude": 29.5911828,
            "longitude": 77.4249677
        }
    },
    {
        "name": "`y'shh msjd Ayesha masjid",
        "main_category": "Mosque",
        "address": "HCV9+RJF `y'shh msjd Ayesha masjid, Uon rood and Ashraf colony, Oon Thana Bhawan Rd, Ashraf colony, Thanabhawan, Uttar Pradesh 247777",
        "detailed_address": {
            "ward": "Ashraf colony",
            "street": "HCV9+RJF, Uon rood and Ashraf colony, Oon Thana Bhawan Rd",
            "city": "Thanabhawan",
            "postal_code": "247777",
            "state": "Uttar Pradesh",
            "country_code": "IN"
        },
        "images": [
            {
                "about": "All",
                "link": "https://lh5.googleusercontent.com/p/AF1QipMECHBHU6U9RE8b7nk3Z0n3Qo-hJSrcib6leGt6=w397-h298-k-no"
            },
            {
                "about": "Street View & 360deg",
                "link": "https://streetviewpixels-pa.googleapis.com/v1/thumbnail?panoid=yPQVQwH0eO9YMnP5D-feXA&cb_client=maps_sv.tactile.gps&w=224&h=298&yaw=104.025734&pitch=0&thumbfov=100"
            }
        ],
        "link": "https://www.google.com/maps/place/%D8%B9%D8%A7%D8%A6%D8%B4%DB%81+%D9%85%D8%B3%D8%AC%D8%AF+Ayesha+masjid%E2%80%AD/data=!4m7!3m6!1s0x390e9de08f3adf79:0x1beb5d73b13e7868!8m2!3d29.5945706!4d77.4190554!16s%2Fg%2F11p0y8ytdk!19sChIJed86j-CdDjkRaHg-sXNd6xs?authuser=0&hl=en&rclk=1",
        "coordinates": {
            "latitude": 29.594570599999997,
            "longitude": 77.41905539999999
        }
    },
    {
        "name": "Noorani Masjid",
        "main_category": "Mosque",
        "address": "HCM8+P96 Noorani Masjid, Thanabhawan, Uttar Pradesh 247777",
        "detailed_address": {
            "ward": null,
            "street": "HCM8+P96",
            "city": "Thanabhawan",
            "postal_code": null,
            "state": "Uttar Pradesh",
            "country_code": "IN"
        },
        "images": [
            {
                "about": "All",
                "link": "https://lh5.googleusercontent.com/p/AF1QipMp8nFkHmBgDvZMdF5vCOHBn4S4bu8bpqDZrd52=w529-h298-k-no"
            },
            {
                "about": "Street View & 360deg",
                "link": "https://streetviewpixels-pa.googleapis.com/v1/thumbnail?panoid=i2JjotNHcddTMni1sjM3kg&cb_client=maps_sv.tactile.gps&w=224&h=298&yaw=295.84314&pitch=0&thumbfov=100"
            }
        ],
        "link": "https://www.google.com/maps/place/Noorani+Masjid/data=!4m7!3m6!1s0x390e9d694523c713:0x1a1188364578d4c!8m2!3d29.5842785!4d77.4158989!16s%2Fg%2F11hf6dx6f4!19sChIJE8cjRWmdDjkRTI1XZIMYoQE?authuser=0&hl=en&rclk=1",
        "coordinates": {
            "latitude": 29.5842785,
            "longitude": 77.4158989
        }
    },
    {
        "name": "Khanqah e Imdadiya Ashrafiya",
        "main_category": "Mosque",
        "address": "HCP8+XPR Khanqah e Imdadiya Ashrafiya, Thanabhawan, Uttar Pradesh 247777",
        "detailed_address": {
            "ward": null,
            "street": "HCP8+XPR",
            "city": "Thanabhawan",
            "postal_code": null,
            "state": "Uttar Pradesh",
            "country_code": "IN"
        },
        "images": [],
        "link": "https://www.google.com/maps/place/Khanqah+e+Imdadiya+Ashrafiya/data=!4m7!3m6!1s0x390e9d01c806db9b:0xd4e62759cf9954f!8m2!3d29.5874877!4d77.416773!16s%2Fg%2F11vf5ds826!19sChIJm9sGyAGdDjkRT5X5nHViTg0?authuser=0&hl=en&rclk=1",
        "coordinates": {
            "latitude": 29.587487699999997,
            "longitude": 77.41677299999999
        }
    },
    {
        "name": "New Khanqah Namaz Hall",
        "main_category": "Mosque",
        "address": "HCR8+32G New Khanqah Namaz Hall, Thanabhawan, Uttar Pradesh 247777",
        "detailed_address": {
            "ward": null,
            "street": "HCR8+32G",
            "city": "Thanabhawan",
            "postal_code": null,
            "state": "Uttar Pradesh",
            "country_code": "IN"
        },
        "images": [
            {
                "about": "All",
                "link": "https://streetviewpixels-pa.googleapis.com/v1/thumbnail?panoid=LbCCe0tLcBlGT6RzLIz62Q&cb_client=maps_sv.tactile.gps&w=224&h=298&yaw=330.64645&pitch=0&thumbfov=100"
            },
            {
                "about": "Street View & 360deg",
                "link": "https://streetviewpixels-pa.googleapis.com/v1/thumbnail?panoid=LbCCe0tLcBlGT6RzLIz62Q&cb_client=maps_sv.tactile.gps&w=224&h=298&yaw=330.64645&pitch=0&thumbfov=100"
            }
        ],
        "link": "https://www.google.com/maps/place/New+Khanqah+Namaz+Hall/data=!4m7!3m6!1s0x390e9dc05811ce61:0xb81d902e2cde6d14!8m2!3d29.5901788!4d77.4150911!16s%2Fg%2F11j2v_26x5!19sChIJYc4RWMCdDjkRFG3eLC6QHbg?authuser=0&hl=en&rclk=1",
        "coordinates": {
            "latitude": 29.5901788,
            "longitude": 77.4150911
        }
    },
    {
        "name": "msjid shaahvilaayt drvaajaa",
        "main_category": "Mosque",
        "address": "HCQ8+739 msjid shaahvilaayt drvaajaa, Shahvilayat Rd, Thanabhawan, Thana Bhawan, Uttar Pradesh 247777",
        "detailed_address": {
            "ward": null,
            "street": "HCQ8+739, Shahvilayat Rd",
            "city": "Thanabhawan",
            "postal_code": "247777",
            "state": "Uttar Pradesh",
            "country_code": "IN"
        },
        "images": [],
        "link": "https://www.google.com/maps/place/%E0%A4%AE%E0%A4%B8%E0%A5%8D%E0%A4%9C%E0%A4%BF%E0%A4%A6+%E0%A4%B6%E0%A4%BE%E0%A4%B9%E0%A4%B5%E0%A4%BF%E0%A4%B2%E0%A4%BE%E0%A4%AF%E0%A4%A4+%E0%A4%A6%E0%A4%B0%E0%A4%B5%E0%A4%BE%E0%A4%9C%E0%A4%BE/data=!4m7!3m6!1s0x390e9d6f314956e3:0xc0192ae2ee5152ed!8m2!3d29.5881595!4d77.4152387!16s%2Fg%2F11llx3kswz!19sChIJ41ZJMW-dDjkR7VJR7uIqGcA?authuser=0&hl=en&rclk=1",
        "coordinates": {
            "latitude": 29.5881595,
            "longitude": 77.4152387
        }
    },
    {
        "name": "Masjid",
        "main_category": "Mosque",
        "address": "HCQ8+X8G Masjid, Thanabhawan, Uttar Pradesh 247777",
        "detailed_address": {
            "ward": null,
            "street": "HCQ8+X8G",
            "city": "Thanabhawan",
            "postal_code": null,
            "state": "Uttar Pradesh",
            "country_code": "IN"
        },
        "images": [],
        "link": "https://www.google.com/maps/place/Masjid/data=!4m7!3m6!1s0x390e9d4b0f0d383f:0x4027009f6d58fd9e!8m2!3d29.5899365!4d77.415827!16s%2Fg%2F11j8h6h75j!19sChIJPzgND0udDjkRnv1YbZ8AJ0A?authuser=0&hl=en&rclk=1",
        "coordinates": {
            "latitude": 29.5899365,
            "longitude": 77.415827
        }
    },
    {
        "name": "Masjid",
        "main_category": "Mosque",
        "address": "HCQ7+6HW Masjid, Thanabhawan, Uttar Pradesh 247777",
        "detailed_address": {
            "ward": null,
            "street": "HCQ7+6HW",
            "city": "Thanabhawan",
            "postal_code": "247777",
            "state": "Uttar Pradesh",
            "country_code": "IN"
        },
        "images": [
            {
                "about": "All",
                "link": "https://lh5.googleusercontent.com/p/AF1QipO_bfugO_bMNqVRLrZcMnUgGDTfKqhJ4W4BryjE=w397-h298-k-no"
            },
            {
                "about": "Street View & 360deg",
                "link": "https://streetviewpixels-pa.googleapis.com/v1/thumbnail?panoid=LtPaYjJX_RIa4cP7NP8AxQ&cb_client=maps_sv.tactile.gps&w=224&h=298&yaw=185.03122&pitch=0&thumbfov=100"
            }
        ],
        "link": "https://www.google.com/maps/place/Masjid/data=!4m7!3m6!1s0x390e9d1f6651ce19:0xe9d4e7d8e86b0125!8m2!3d29.5881187!4d77.4139414!16s%2Fg%2F11jqfycl0v!19sChIJGc5RZh-dDjkRJQFr6Njn1Ok?authuser=0&hl=en&rclk=1",
        "coordinates": {
            "latitude": 29.5881187,
            "longitude": 77.4139414
        }
    },
    {
        "name": "Masjid",
        "main_category": "Mosque",
        "address": "JC7C+Q8F Masjid, Thanabhawan, Uttar Pradesh 247772",
        "detailed_address": {
            "ward": null,
            "street": "JC7C+Q8F",
            "city": "Thanabhawan",
            "postal_code": null,
            "state": "Uttar Pradesh",
            "country_code": "IN"
        },
        "images": [
            {
                "about": "All",
                "link": "https://streetviewpixels-pa.googleapis.com/v1/thumbnail?panoid=9ffdh4Z2wyj_4_iJ9QxhNg&cb_client=maps_sv.tactile.gps&w=224&h=298&yaw=63.10151&pitch=0&thumbfov=100"
            },
            {
                "about": "Street View & 360deg",
                "link": "https://streetviewpixels-pa.googleapis.com/v1/thumbnail?panoid=9ffdh4Z2wyj_4_iJ9QxhNg&cb_client=maps_sv.tactile.gps&w=224&h=298&yaw=63.10151&pitch=0&thumbfov=100"
            }
        ],
        "link": "https://www.google.com/maps/place/Masjid/data=!4m7!3m6!1s0x390e9d78a56c19e5:0xd16dd25429c3c9e7!8m2!3d29.614441!4d77.4207824!16s%2Fg%2F11kfmmr9ny!19sChIJ5RlspXidDjkR58nDKVTSbdE?authuser=0&hl=en&rclk=1",
        "coordinates": {
            "latitude": 29.614441,
            "longitude": 77.4207824
        }
    },
    {
        "name": "makkbare wali masjid",
        "main_category": "Mosque",
        "address": "HCQ7+6MG makkbare wali masjid, Street, Thanabhawan, Uttar Pradesh 247777",
        "detailed_address": {
            "ward": null,
            "street": "HCQ7+6MG, Street",
            "city": "Thanabhawan",
            "postal_code": "247777",
            "state": "Uttar Pradesh",
            "country_code": "IN"
        },
        "images": [
            {
                "about": "All",
                "link": "https://lh5.googleusercontent.com/p/AF1QipPh-OfWh4HitvDZa_TdDwQCbmzPTVojcW65eXQZ=w224-h398-k-no"
            }
        ],
        "link": "https://www.google.com/maps/place/makkbare+wali+masjid/data=!4m7!3m6!1s0x390e9ddaf2e0a807:0x11e7068d09be09c5!8m2!3d29.5880611!4d77.4141938!16s%2Fg%2F11pwytqxpn!19sChIJB6jg8tqdDjkRxQm-CY0G5xE?authuser=0&hl=en&rclk=1",
        "coordinates": {
            "latitude": 29.588061099999997,
            "longitude": 77.41419379999999
        }
    },
    {
        "name": "Madina masjid",
        "main_category": "Housing society",
        "address": "HCR7+7F2 Madina masjid, Thanabhawan, Uttar Pradesh 247777",
        "detailed_address": {
            "ward": null,
            "street": "HCR7+7F2",
            "city": "Thanabhawan",
            "postal_code": "247777",
            "state": "Uttar Pradesh",
            "country_code": "IN"
        },
        "images": [],
        "link": "https://www.google.com/maps/place/Madina+masjid/data=!4m7!3m6!1s0x390e9dd71a4515f3:0x350f81016e3e8987!8m2!3d29.5906363!4d77.4136412!16s%2Fg%2F11s_yztbd6!19sChIJ8xVFGtedDjkRh4k-bgGBDzU?authuser=0&hl=en&rclk=1",
        "coordinates": {
            "latitude": 29.5906363,
            "longitude": 77.4136412
        }
    },
    {
        "name": "Bada Imam Bada",
        "main_category": "Mosque",
        "address": "Bada Imam Bada, Mohala saiyyedan, Thanabhawan, Uttar Pradesh 247777",
        "detailed_address": {
            "ward": null,
            "street": "Mohala saiyyedan",
            "city": "Thanabhawan",
            "postal_code": "247777",
            "state": "Uttar Pradesh",
            "country_code": "IN"
        },
        "images": [],
        "link": "https://www.google.com/maps/place/Bada+Imam+Bada/data=!4m7!3m6!1s0x390e9d08a89cf3cf:0xa923e05b2161d4cd!8m2!3d29.5874476!4d77.4167645!16s%2Fg%2F11h84ytztq!19sChIJz_OcqAidDjkRzdRhIVvgI6k?authuser=0&hl=en&rclk=1",
        "coordinates": {
            "latitude": 29.587447599999997,
            "longitude": 77.4167645
        }
    },
    {
        "name": "Jamia Rafiqul Ummat Masjid",
        "main_category": "Mosque",
        "address": "HCW9+7XM Jamia Rafiqul Ummat Masjid, Thanabhawan, Uttar Pradesh 247777",
        "detailed_address": {
            "ward": null,
            "street": "HCW9+7XM",
            "city": "Thanabhawan",
            "postal_code": null,
            "state": "Uttar Pradesh",
            "country_code": "IN"
        },
        "images": [
            {
                "about": "All",
                "link": "https://streetviewpixels-pa.googleapis.com/v1/thumbnail?panoid=aCP3kXdnq80l48MaoNSeLg&cb_client=maps_sv.tactile.gps&w=224&h=298&yaw=351.67682&pitch=0&thumbfov=100"
            },
            {
                "about": "Street View & 360deg",
                "link": "https://streetviewpixels-pa.googleapis.com/v1/thumbnail?panoid=aCP3kXdnq80l48MaoNSeLg&cb_client=maps_sv.tactile.gps&w=224&h=298&yaw=351.67682&pitch=0&thumbfov=100"
            }
        ],
        "link": "https://www.google.com/maps/place/Jamia+Rafiqul+Ummat+Masjid/data=!4m7!3m6!1s0x390e9d34bc8f2b15:0x4bfda1e8442ad767!8m2!3d29.5957242!4d77.4199308!16s%2Fg%2F11kfmldfbm!19sChIJFSuPvDSdDjkRZ9cqROih_Us?authuser=0&hl=en&rclk=1",
        "coordinates": {
            "latitude": 29.5957242,
            "longitude": 77.4199308
        }
    },
    {
        "name": "Khanqah Madarsa",
        "main_category": "Mosque",
        "address": "HCR6+XG4 Khanqah Madarsa, Thanabhawan, Uttar Pradesh 247777",
        "detailed_address": {
            "ward": null,
            "street": "HCR6+XG4",
            "city": "Thanabhawan",
            "postal_code": null,
            "state": "Uttar Pradesh",
            "country_code": "IN"
        },
        "images": [],
        "link": "https://www.google.com/maps/place/Khanqah+Madarsa/data=!4m7!3m6!1s0x390e9df5a72e2517:0x9f7aa13d37a29c22!8m2!3d29.5923916!4d77.4113259!16s%2Fg%2F11kfmrqgrh!19sChIJFyUup_WdDjkRIpyiNz2hep8?authuser=0&hl=en&rclk=1",
        "coordinates": {
            "latitude": 29.5923916,
            "longitude": 77.4113259
        }
    },
    {
        "name": "Masjid Shahvilayat Darwaza",
        "main_category": "Mosque",
        "address": "Masjid Shahvilayat Darwaza, Shahvilayat Rd, Thanabhawan, Uttar Pradesh 247777",
        "detailed_address": {
            "ward": null,
            "street": "Shahvilayat Rd",
            "city": "Thanabhawan",
            "postal_code": "247777",
            "state": "Uttar Pradesh",
            "country_code": "IN"
        },
        "images": [],
        "link": "https://www.google.com/maps/place/Masjid+Shahvilayat+Darwaza/data=!4m7!3m6!1s0x390e9da322aaa6c9:0x16b5c5756720b8bf!8m2!3d29.5874476!4d77.4167645!16s%2Fg%2F11k60cxnf1!19sChIJyaaqIqOdDjkRv7ggZ3XFtRY?authuser=0&hl=en&rclk=1",
        "coordinates": {
            "latitude": 29.587447599999997,
            "longitude": 77.4167645
        }
    },
    {
        "name": "MADEENA MASJID",
        "main_category": "Mosque",
        "address": "JC8M+5R2 MADEENA MASJID, BUS STAND MASAVI, Thanabhawan, 247777",
        "detailed_address": {
            "ward": null,
            "street": "JC8M+5R2, BUS STAND MASAVI",
            "city": "Thanabhawan",
            "postal_code": "247777",
            "state": "Uttar Pradesh",
            "country_code": "IN"
        },
        "images": [
            {
                "about": "All",
                "link": "https://streetviewpixels-pa.googleapis.com/v1/thumbnail?panoid=3bnfKk9EoLQsa5VD9f86pA&cb_client=maps_sv.tactile.gps&w=224&h=298&yaw=65.11616&pitch=0&thumbfov=100"
            },
            {
                "about": "Dome",
                "link": "https://lh5.googleusercontent.com/p/AF1QipPRXu3jVdL8BlI1cB7vPoMRa5Bzer47hfL_doOX=w224-h298-k-no"
            },
            {
                "about": "Street View & 360deg",
                "link": "https://streetviewpixels-pa.googleapis.com/v1/thumbnail?panoid=3bnfKk9EoLQsa5VD9f86pA&cb_client=maps_sv.tactile.gps&w=224&h=298&yaw=65.11616&pitch=0&thumbfov=100"
            }
        ],
        "link": "https://www.google.com/maps/place/MADEENA+MASJID/data=!4m7!3m6!1s0x390e9de308941abf:0xcb1731981911a60a!8m2!3d29.6154!4d77.4345!16s%2Fg%2F11s5qk33s5!19sChIJvxqUCOOdDjkRCqYRGZgxF8s?authuser=0&hl=en&rclk=1",
        "coordinates": {
            "latitude": 29.615399999999998,
            "longitude": 77.4345
        }
    },
    {
        "name": "Masjid",
        "main_category": "Mosque",
        "address": "HCPR+JMP Masjid, Margubgarh, Thanabhawan, Uttar Pradesh 247777",
        "detailed_address": {
            "ward": null,
            "street": "HCPR+JMP, Margubgarh",
            "city": "Thanabhawan",
            "postal_code": "247777",
            "state": "Uttar Pradesh",
            "country_code": "IN"
        },
        "images": [
            {
                "about": "All",
                "link": "https://streetviewpixels-pa.googleapis.com/v1/thumbnail?panoid=U3SaajHsfbJMK07AnyAXeQ&cb_client=maps_sv.tactile.gps&w=224&h=298&yaw=149.57887&pitch=0&thumbfov=100"
            },
            {
                "about": "Street View & 360deg",
                "link": "https://streetviewpixels-pa.googleapis.com/v1/thumbnail?panoid=U3SaajHsfbJMK07AnyAXeQ&cb_client=maps_sv.tactile.gps&w=224&h=298&yaw=149.57887&pitch=0&thumbfov=100"
            }
        ],
        "link": "https://www.google.com/maps/place/Masjid/data=!4m7!3m6!1s0x390e9d74e8fba679:0x70a5188ed9bbe8f2!8m2!3d29.5870736!4d77.4424809!16s%2Fg%2F11sshrbkfd!19sChIJeab76HSdDjkR8ui72Y4YpXA?authuser=0&hl=en&rclk=1",
        "coordinates": {
            "latitude": 29.5870736,
            "longitude": 77.44248089999999
        }
    }
]