[
    {
        "name": "Masjid Al Jawad msjd ljwd",
        "main_category": "Mosque",
        "address": "P5QC+WWM Masjid Al Jawad msjd ljwd, Kernal Amanullah Rd, Barakahu, Kot Hathyal, Islamabad, Islamabad Capital Territory, Pakistan",
        "detailed_address": {
            "ward": "Barakahu",
            "street": "P5QC+WWM, Kernal Amanullah Rd",
            "city": "Kot Hathyal",
            "postal_code": null,
            "state": "Islamabad, Islamabad Capital Territory",
            "country_code": "PK"
        },
        "images": [
            {
                "about": "All",
                "link": "https://lh5.googleusercontent.com/p/AF1QipMtJgskg_oztTSotqrZpJWS6ex21xM48lBmzdDC=w397-h298-k-no"
            },
            {
                "about": "Videos",
                "link": "https://lh5.googleusercontent.com/p/AF1QipMKrZQldDl6qcnjpHIYm__L0S0Lnx8pX-08xRG6=w529-h298-k-no"
            }
        ],
        "link": "https://www.google.com/maps/place/Masjid+Al+Jawad+%D9%85%D8%B3%D8%AC%D8%AF+%D8%A7%D9%84%D8%AC%D9%88%D8%A7%D8%AF%E2%80%AD/data=!4m7!3m6!1s0x38dfc1786f3aa245:0x2a7f1354ffc75ca4!8m2!3d33.739832!4d73.1722887!16s%2Fg%2F11dzts1nvx!19sChIJRaI6b3jB3zgRpFzH_1QTfyo?authuser=0&hl=en&rclk=1",
        "coordinates": {
            "latitude": 33.739832,
            "longitude": 73.1722887
        }
    },
    {
        "name": "Qaziyan Masjid Neemuch Darwaja Masjid",
        "main_category": "Mosque",
        "address": "Qaziyan Masjid Neemuch Darwaja Masjid, Neemuch Darwaja, Jawad, Madhya Pradesh 458330",
        "detailed_address": {
            "ward": null,
            "street": "Neemuch Darwaja",
            "city": "Jawad",
            "postal_code": "458330",
            "state": "Madhya Pradesh",
            "country_code": "IN"
        },
        "images": [
            {
                "about": "All",
                "link": "https://lh5.googleusercontent.com/p/AF1QipOTlDC40XNjY_gy-xEPMo7WodyMc7ehYyiXBYHG=w397-h298-k-no"
            },
            {
                "about": "Videos",
                "link": "https://lh5.googleusercontent.com/p/AF1QipO7tR32J41USFDrN7fm16HtpBXO8kpew37WQfMp=w224-h398-k-no"
            }
        ],
        "link": "https://www.google.com/maps/place/Qaziyan+Masjid+Neemuch+Darwaja+Masjid/data=!4m7!3m6!1s0x39660d7c5298d8cf:0x2d073b1aa233a0c3!8m2!3d24.5957711!4d74.8629062!16s%2Fg%2F11t7p9qrfm!19sChIJz9iYUnwNZjkRw6Azoho7By0?authuser=0&hl=en&rclk=1",
        "coordinates": {
            "latitude": 24.5957711,
            "longitude": 74.8629062
        }
    },
    {
        "name": "Jamia Masjid Jawad Town",
        "main_category": "Mosque",
        "address": "Jamia Masjid Jawad Town, Jawad town street # 1 near D.H.Q Hospital, Sahiwal, Sahiwal District, Punjab, Pakistan",
        "detailed_address": {
            "ward": null,
            "street": "Jawad town street # 1 near D.H.Q Hospital",
            "city": "Sahiwal",
            "postal_code": null,
            "state": "Sahiwal District, Punjab",
            "country_code": "PK"
        },
        "images": [
            {
                "about": "All",
                "link": "https://lh5.googleusercontent.com/p/AF1QipPI5qk6NktSXshNYPZ-rAPxYuCPQqTXY9t-RBc8=w224-h298-k-no"
            }
        ],
        "link": "https://www.google.com/maps/place/Jamia+Masjid+Jawad+Town/data=!4m7!3m6!1s0x3922b7f73a7a66f5:0x3231818420f18c0!8m2!3d30.6843632!4d73.1015401!16s%2Fg%2F11c70dd6th!19sChIJ9WZ6Ove3IjkRwBgPQhgYIwM?authuser=0&hl=en&rclk=1",
        "coordinates": {
            "latitude": 30.6843632,
            "longitude": 73.1015401
        }
    },
    {
        "name": "JAWAR MASJID",
        "main_category": "Mosque",
        "address": "RWV9+H53 JAWAR MASJID, Paharpur, Bihar 805106",
        "detailed_address": {
            "ward": null,
            "street": "RWV9+H53",
            "city": "Paharpur",
            "postal_code": null,
            "state": "Bihar",
            "country_code": "IN"
        },
        "images": [
            {
                "about": "All",
                "link": "https://lh5.googleusercontent.com/p/AF1QipMlXi--tAsF5WvEDbMn-HDBs6-sYlks34F9d6Rw=w327-h298-k-no"
            },
            {
                "about": "Dome",
                "link": "https://lh5.googleusercontent.com/p/AF1QipM2WngugcjUwg5QOcutbl_ziRnaPeKmCphwKVW4=w387-h298-k-no"
            }
        ],
        "link": "https://www.google.com/maps/place/JAWAR+MASJID/data=!4m7!3m6!1s0x39f3b5d0d17a2489:0x31897a5235d1405a!8m2!3d24.8438774!4d85.9179226!16s%2Fg%2F11ghzrs0nj!19sChIJiSR60dC18zkRWkDRNVJ6iTE?authuser=0&hl=en&rclk=1",
        "coordinates": {
            "latitude": 24.8438774,
            "longitude": 85.9179226
        }
    },
    {
        "name": "Masjid-e-Momin",
        "main_category": "Mosque",
        "address": "Masjid-e-Momin, momin mohalla, ward 8, Neemuch - Jawad Rd, Jawad, Madhya Pradesh 458330",
        "detailed_address": {
            "ward": null,
            "street": "momin mohalla, ward 8, Neemuch - Jawad Rd",
            "city": "Jawad",
            "postal_code": "458330",
            "state": "Madhya Pradesh",
            "country_code": "IN"
        },
        "images": [
            {
                "about": "All",
                "link": "https://lh5.googleusercontent.com/p/AF1QipP0d3_x1TuUuoUW_KYVfquclUSY9lf-iA1UeYTH=w298-h298-k-no"
            },
            {
                "about": "Dome",
                "link": "https://lh5.googleusercontent.com/p/AF1QipNSxSnXWocRL3ofYBt_q6xnuv9rwJFLavFqLWmb=w397-h298-k-no"
            },
            {
                "about": "Videos",
                "link": "https://lh5.googleusercontent.com/p/AF1QipO3NdxnStL9ktl1X_8UE76QyWJN0vtMrUog9K10=w224-h397-k-no"
            }
        ],
        "link": "https://www.google.com/maps/place/Masjid-e-Momin/data=!4m7!3m6!1s0x39660c1d18dbaa5b:0xc5606e82cd1181cc!8m2!3d24.6011661!4d74.8608774!16s%2Fg%2F11g6bfz7yd!19sChIJW6rbGB0MZjkRzIERzYJuYMU?authuser=0&hl=en&rclk=1",
        "coordinates": {
            "latitude": 24.6011661,
            "longitude": 74.86087739999999
        }
    },
    {
        "name": "Masjid Ahle Hadith",
        "main_category": "Mosque",
        "address": "JV35+27C Masjid Ahle Hadith, Athana Darwaja, Jawad, Madhya Pradesh 458330",
        "detailed_address": {
            "ward": "Athana Darwaja",
            "street": "JV35+27C",
            "city": "Jawad",
            "postal_code": "458330",
            "state": "Madhya Pradesh",
            "country_code": "IN"
        },
        "images": [],
        "link": "https://www.google.com/maps/place/Masjid+Ahle+Hadith/data=!4m7!3m6!1s0x39660c1d92c235a9:0x3401a2a5e6ffc44b!8m2!3d24.6025584!4d74.8581449!16s%2Fg%2F1pp2v3796!19sChIJqTXCkh0MZjkRS8T_5qWiATQ?authuser=0&hl=en&rclk=1",
        "coordinates": {
            "latitude": 24.6025584,
            "longitude": 74.8581449
        }
    },
    {
        "name": "Masjid Al-Jawad",
        "main_category": "Mosque",
        "address": "4QHC+7H5 Masjid Al-Jawad, Al Jawad, Gg. Masjid Jl. Banjaran, RT.001/RW.002, Banyuresmi, Kec. Sukasari, Kabupaten Sumedang, Jawa Barat 45366, Indonesia",
        "detailed_address": {
            "ward": "Banyuresmi, Sukasari",
            "street": "4QHC+7H5 Al Jawad, Gg. Masjid Jl. Banjaran, RT.001/RW.002",
            "city": "Sumedang Regency",
            "postal_code": "45366",
            "state": "West Java",
            "country_code": "ID"
        },
        "images": [
            {
                "about": "All",
                "link": "https://streetviewpixels-pa.googleapis.com/v1/thumbnail?panoid=C3nEJp3eUHwYKZWBNxmTTg&cb_client=maps_sv.tactile.gps&w=224&h=298&yaw=139.12961&pitch=0&thumbfov=100"
            },
            {
                "about": "Street View & 360deg",
                "link": "https://streetviewpixels-pa.googleapis.com/v1/thumbnail?panoid=C3nEJp3eUHwYKZWBNxmTTg&cb_client=maps_sv.tactile.gps&w=224&h=298&yaw=139.12961&pitch=0&thumbfov=100"
            }
        ],
        "link": "https://www.google.com/maps/place/Masjid+Al-Jawad/data=!4m7!3m6!1s0x2e68dbf762bc14b5:0x2c9c7dd03da6a0e6!8m2!3d-6.8718737!4d107.7714885!16s%2Fg%2F11h3g71hmt!19sChIJtRS8YvfbaC4R5qCmPdB9nCw?authuser=0&hl=en&rclk=1",
        "coordinates": {
            "latitude": -6.8718737,
            "longitude": 107.77148849999999
        }
    },
    {
        "name": "CHIPAN JAMA MASJID JAWAD Chhipa JAMAAT khana",
        "main_category": "Mosque",
        "address": "JV26+MG2 CHIPAN JAMA MASJID JAWAD Chhipa JAMAAT khana, Mukherji Marg, Jawad, Madhya Pradesh 458330",
        "detailed_address": {
            "ward": "Mukherji Marg",
            "street": "JV26+MG2",
            "city": "Jawad",
            "postal_code": "458330",
            "state": "Madhya Pradesh",
            "country_code": "IN"
        },
        "images": [],
        "link": "https://www.google.com/maps/place/CHIPAN+JAMA+MASJID+JAWAD+Chhipa+JAMAAT+khana/data=!4m7!3m6!1s0x39660db368682a99:0x415b4fbc4b14e11a!8m2!3d24.6016397!4d74.8612575!16s%2Fg%2F11grc9478f!19sChIJmSpoaLMNZjkRGuEUS7xPW0E?authuser=0&hl=en&rclk=1",
        "coordinates": {
            "latitude": 24.6016397,
            "longitude": 74.8612575
        }
    },
    {
        "name": "New Mosque(Nai masjid)",
        "main_category": "Mosque",
        "address": "JV36+268 New Mosque(Nai masjid), Jawad, Madhya Pradesh 458330",
        "detailed_address": {
            "ward": null,
            "street": "JV36+268",
            "city": "Jawad",
            "postal_code": "458330",
            "state": "Madhya Pradesh",
            "country_code": "IN"
        },
        "images": [
            {
                "about": "All",
                "link": "https://lh5.googleusercontent.com/p/AF1QipO5Bu6iNKkA2KOOEPHfy7T1U06LKL14QITH0pzG=w397-h298-k-no"
            }
        ],
        "link": "https://www.google.com/maps/place/New+Mosque%28Nai+masjid%29/data=!4m7!3m6!1s0x39660c1d6be1fa6d:0x1ddf1f6d96c43674!8m2!3d24.6025316!4d74.8605792!16s%2Fg%2F1tg6njhr!19sChIJbfrhax0MZjkRdDbElm0f3x0?authuser=0&hl=en&rclk=1",
        "coordinates": {
            "latitude": 24.6025316,
            "longitude": 74.8605792
        }
    },
    {
        "name": "EIDGAH JAWAD EID",
        "main_category": "Mosque",
        "address": "JV33+FVC EIDGAH JAWAD EID, Bohra Gali, Jawad, Madhya Pradesh 458330",
        "detailed_address": {
            "ward": "Bohra Gali",
            "street": "JV33+FVC",
            "city": "Jawad",
            "postal_code": "458330",
            "state": "Madhya Pradesh",
            "country_code": "IN"
        },
        "images": [],
        "link": "https://www.google.com/maps/place/EIDGAH+JAWAD+EID/data=!4m7!3m6!1s0x39660f8d13c977b5:0xd24882708675248a!8m2!3d24.6036825!4d74.8546403!16s%2Fg%2F11fp93f2k_!19sChIJtXfJE40PZjkRiiR1hnCCSNI?authuser=0&hl=en&rclk=1",
        "coordinates": {
            "latitude": 24.603682499999998,
            "longitude": 74.8546403
        }
    },
    {
        "name": "Jama Masjid Atana Darwaja",
        "main_category": "Mosque",
        "address": "JV26+MG2 Jama Masjid Atana Darwaja, Mukherji Marg, Jawad, Madhya Pradesh 458330",
        "detailed_address": {
            "ward": "Mukherji Marg",
            "street": "JV26+MG2, Mukherji Marg",
            "city": "Jawad",
            "postal_code": "458330",
            "state": "Madhya Pradesh",
            "country_code": "IN"
        },
        "images": [
            {
                "about": "All",
                "link": "https://lh5.googleusercontent.com/p/AF1QipNnlBIhxZQzCe2SRLcTtzDc0AywB3oMKyD8E0lm=w224-h398-k-no"
            }
        ],
        "link": "https://www.google.com/maps/place/Jama+Masjid+Atana+Darwaja/data=!4m7!3m6!1s0x39660dd65b8607d1:0x8ca1b7f7364210ed!8m2!3d24.6016403!4d74.8612451!16s%2Fg%2F11v64lpl1c!19sChIJ0QeGW9YNZjkR7RBCNve3oYw?authuser=0&hl=en&rclk=1",
        "coordinates": {
            "latitude": 24.6016403,
            "longitude": 74.86124509999999
        }
    },
    {
        "name": "AL JAWAD MASJID SAYYAD WADA",
        "main_category": "Mosque",
        "address": "CVJM+C75 AL JAWAD MASJID SAYYAD WADA, Maurawan, Uttar Pradesh 209821",
        "detailed_address": {
            "ward": null,
            "street": "CVJM+C75",
            "city": "Maurawan",
            "postal_code": "209821",
            "state": "Uttar Pradesh",
            "country_code": "IN"
        },
        "images": [],
        "link": "https://www.google.com/maps/place/AL+JAWAD+MASJID+SAYYAD+WADA/data=!4m7!3m6!1s0x399b8b146edfe83d:0xa3cbd3c4f90c6464!8m2!3d26.4310001!4d80.8832313!16s%2Fg%2F11f7nlzglh!19sChIJPejfbhSLmzkRZGQM-cTTy6M?authuser=0&hl=en&rclk=1",
        "coordinates": {
            "latitude": 26.4310001,
            "longitude": 80.88323129999999
        }
    },
    {
        "name": "Al Jawad Town",
        "main_category": "Mosque",
        "address": "Al Jawad Town, Jamia Syedna Umar-e-Farooq Masjid Allah Walli, Abbas Pura Rangilpur, Multan, Punjab, Pakistan",
        "detailed_address": {
            "ward": "Abbas Pura Rangilpur",
            "street": "Jamia Syedna Umar-e-Farooq Masjid Allah Walli",
            "city": "Multan",
            "postal_code": null,
            "state": "Multan, Punjab",
            "country_code": "PK"
        },
        "images": [],
        "link": "https://www.google.com/maps/place/Al+Jawad+Town/data=!4m7!3m6!1s0x393b31280c604385:0x8941b31359e17f48!8m2!3d30.1601271!4d71.4597358!16s%2Fg%2F11t38hkzms!19sChIJhUNgDCgxOzkRSH_hWROzQYk?authuser=0&hl=en&rclk=1",
        "coordinates": {
            "latitude": 30.1601271,
            "longitude": 71.45973579999999
        }
    },
    {
        "name": "Masjid imam e jawad a.s",
        "main_category": "Mosque",
        "address": "FMGW+JH8 Masjid imam e jawad a.s, Shigar",
        "detailed_address": {
            "ward": null,
            "street": "FMGW+JH8",
            "city": "Shigar",
            "postal_code": null,
            "state": null,
            "country_code": "PK"
        },
        "images": [],
        "link": "https://www.google.com/maps/place/Masjid+imam+e+jawad+a.s/data=!4m7!3m6!1s0x38e45f9bf812af95:0xce5922372e80b4e4!8m2!3d35.4765474!4d75.6964405!16s%2Fg%2F11v56wfndx!19sChIJla8S-Jtf5DgR5LSALjciWc4?authuser=0&hl=en&rclk=1",
        "coordinates": {
            "latitude": 35.4765474,
            "longitude": 75.6964405
        }
    },
    {
        "name": "Jawad abad masjid",
        "main_category": "Mosque",
        "address": "X83J+2CX Jawad abad masjid, Khairabad, Swat, Khyber Pakhtunkhwa, Pakistan",
        "detailed_address": {
            "ward": null,
            "street": "X83J+2CX",
            "city": "Khairabad",
            "postal_code": null,
            "state": "Swat, Khyber Pakhtunkhwa",
            "country_code": "PK"
        },
        "images": [],
        "link": "https://www.google.com/maps/place/Jawad+abad+masjid/data=!4m7!3m6!1s0x38dc15db1c6bf421:0xb4d14e21aea5831f!8m2!3d34.9526205!4d72.331113!16s%2Fg%2F11j24kq77h!19sChIJIfRrHNsV3DgRH4OlriFO0bQ?authuser=0&hl=en&rclk=1",
        "coordinates": {
            "latitude": 34.9526205,
            "longitude": 72.331113
        }
    }
]