[
    {
        "name": "MADINA MASJID",
        "main_category": "Mosque",
        "address": "MXRR+CV7 MADINA MASJID, islampet,sardha nagar, Anakapalle, Andhra Pradesh 531001",
        "detailed_address": {
            "ward": "Devi Nagar, Shardha Nagar",
            "street": "MXRR+CV7, islampet,sardha nagar",
            "city": "Anakapalle",
            "postal_code": "531001",
            "state": "Andhra Pradesh",
            "country_code": "IN"
        },
        "images": [
            {
                "about": "All",
                "link": "https://lh5.googleusercontent.com/p/AF1QipMXJ_Pb0vgTiBE3CAEObu0F7UB2zyx5bfDFnDmP=w397-h298-k-no"
            },
            {
                "about": "Street View & 360deg",
                "link": "https://streetviewpixels-pa.googleapis.com/v1/thumbnail?panoid=vo-mTTSVMcfHCPLGUr_ioQ&cb_client=maps_sv.tactile.gps&w=224&h=298&yaw=311.47607&pitch=0&thumbfov=100"
            },
            {
                "about": "Videos",
                "link": "https://lh5.googleusercontent.com/p/AF1QipPp2NvMSLnSyGpY-iA0ORVUby7YjyxlZ1TpWTEO=w529-h298-k-no"
            }
        ],
        "link": "https://www.google.com/maps/place/MADINA+MASJID/data=!4m7!3m6!1s0x3a39772b41550781:0x1defd882a1e2c8f1!8m2!3d17.6910336!4d82.9921671!16s%2Fg%2F11c3187dqg!19sChIJgQdVQSt3OToR8cjioYLY7x0?authuser=0&hl=en&rclk=1",
        "coordinates": {
            "latitude": 17.6910336,
            "longitude": 82.9921671
        }
    },
    {
        "name": "JAMA MASJID ANAKAPALLI",
        "main_category": "Mosque",
        "address": "M2P6+V2G JAMA MASJID ANAKAPALLI, Anakapalle, Andhra Pradesh 531001",
        "detailed_address": {
            "ward": "Anakapalle",
            "street": "M2P6+V2G",
            "city": "Anakapalle",
            "postal_code": "531001",
            "state": "Andhra Pradesh",
            "country_code": "IN"
        },
        "images": [],
        "link": "https://www.google.com/maps/place/JAMA+MASJID+ANAKAPALLI/data=!4m7!3m6!1s0x3a39717a4e778d83:0xbff4e282c16aa13c!8m2!3d17.687187!4d83.0100691!16s%2Fg%2F11n175r1h2!19sChIJg413TnpxOToRPKFqwYLi9L8?authuser=0&hl=en&rclk=1",
        "coordinates": {
            "latitude": 17.687186999999998,
            "longitude": 83.0100691
        }
    },
    {
        "name": "Goushpak Nishani",
        "main_category": "Mosque",
        "address": "MXRV+M4W Goushpak Nishani, madina masjid ,islampet, Anakapalle, Andhra Pradesh 531001",
        "detailed_address": {
            "ward": "Devi Nagar, Shardha Nagar",
            "street": "MXRV+M4W, madina masjid ,islampet",
            "city": "Anakapalle",
            "postal_code": "531001",
            "state": "Andhra Pradesh",
            "country_code": "IN"
        },
        "images": [
            {
                "about": "All",
                "link": "https://lh5.googleusercontent.com/p/AF1QipNYnGsG6t8DAupnna7JKuI9q8YCXqXKIBHmi5dy=w224-h398-k-no"
            },
            {
                "about": "Street View & 360deg",
                "link": "https://streetviewpixels-pa.googleapis.com/v1/thumbnail?panoid=MfdFlTx2A194Lmfn4asSBQ&cb_client=maps_sv.tactile.gps&w=224&h=298&yaw=23.353104&pitch=0&thumbfov=100"
            }
        ],
        "link": "https://www.google.com/maps/place/Goushpak+Nishani/data=!4m7!3m6!1s0x3a39772b5160d7bf:0x703828f18f330aa7!8m2!3d17.691747!4d82.9928272!16s%2Fg%2F11c6czcz8j!19sChIJv9dgUSt3OToRpwozj_EoOHA?authuser=0&hl=en&rclk=1",
        "coordinates": {
            "latitude": 17.691747,
            "longitude": 82.9928272
        }
    },
    {
        "name": "Eidgah madina masjid",
        "main_category": "Mosque",
        "address": "MXRW+78P Eidgah madina masjid, New Sarada Bridge, Sarada River, Shardha Nagar, Anakapalle, Andhra Pradesh 531001",
        "detailed_address": {
            "ward": "Shardha Nagar",
            "street": "MXRW+78P New Sarada Bridge, Sarada River",
            "city": "Anakapalle",
            "postal_code": "531001",
            "state": "Andhra Pradesh",
            "country_code": "IN"
        },
        "images": [
            {
                "about": "All",
                "link": "https://lh5.googleusercontent.com/p/AF1QipNQH_YNSQWuGeQt18vo05KRsd6h-s0L48apkVD-=w662-h298-k-no"
            },
            {
                "about": "Street View & 360deg",
                "link": "https://streetviewpixels-pa.googleapis.com/v1/thumbnail?panoid=wR85I2XkjEBh6_2GXVPUKg&cb_client=maps_sv.tactile.gps&w=224&h=298&yaw=124.96162&pitch=0&thumbfov=100"
            }
        ],
        "link": "https://www.google.com/maps/place/Eidgah+madina+masjid/data=!4m7!3m6!1s0x3a3971d3c2e0a567:0x32aa70000848f127!8m2!3d17.691519!4d82.9953659!16s%2Fg%2F11t_rjrbhz!19sChIJZ6XgwtNxOToRJ_FICABwqjI?authuser=0&hl=en&rclk=1",
        "coordinates": {
            "latitude": 17.691519,
            "longitude": 82.9953659
        }
    }
]