[
    {
        "name": "Char Qutb Gate",
        "main_category": "Mosque",
        "address": "4X34+QC6 Char Qutb Gate, Hansi - Barwala Rd, Mandi Sainiyan, Hansi, Haryana 125033",
        "detailed_address": {
            "ward": "Mandi Sainiyan",
            "street": "4X34+QC6, Hansi - Barwala Rd",
            "city": "Hansi",
            "postal_code": "125033",
            "state": "Haryana",
            "country_code": "IN"
        },
        "images": [
            {
                "about": "All",
                "link": "https://lh5.googleusercontent.com/p/AF1QipMoLabmO04jbOKH-2oV0azP0O64AfktHPPAVrvI=w238-h298-k-no"
            },
            {
                "about": "Street View & 360deg",
                "link": "https://streetviewpixels-pa.googleapis.com/v1/thumbnail?panoid=9oO44s7yT4DILqMDdFu3Ow&cb_client=maps_sv.tactile.gps&w=224&h=298&yaw=226.95497&pitch=0&thumbfov=100"
            },
            {
                "about": "Videos",
                "link": "https://lh5.googleusercontent.com/p/AF1QipMoLabmO04jbOKH-2oV0azP0O64AfktHPPAVrvI=w238-h298-k-no"
            }
        ],
        "link": "https://www.google.com/maps/place/Char+Qutb+Gate/data=!4m7!3m6!1s0x3912390fb41e1291:0x481691b0e0a40d0a!8m2!3d29.1044154!4d75.9560214!16s%2Fg%2F11g6y_fh3k!19sChIJkRIetA85EjkRCg2k4LCRFkg?authuser=0&hl=en&rclk=1",
        "coordinates": {
            "latitude": 29.104415399999997,
            "longitude": 75.9560214
        }
    },
    {
        "name": "Masjid Hafiz Allauddin",
        "main_category": "Mosque",
        "address": "G8R3+3W5 Masjid Hafiz Allauddin, Eco Pk Rd, Shram Vihar, Abul Fazal Enclave, Pocket N, Madanpur Khadar, New Delhi, Delhi 110076",
        "detailed_address": {
            "ward": "Shram Vihar, Abul Fazal Enclave, Pocket N, Madanpur Khadar",
            "street": "G8R3+3W5, Eco Pk Rd",
            "city": "New Delhi",
            "postal_code": "110076",
            "state": "Delhi",
            "country_code": "IN"
        },
        "images": [],
        "link": "https://www.google.com/maps/place/Masjid+Hafiz+Allauddin/data=!4m7!3m6!1s0x390ce41e1e937455:0xaf63a4971ee42cde!8m2!3d28.5401352!4d77.3048505!16s%2Fg%2F1hhvt3v2s!19sChIJVXSTHh7kDDkR3izkHpekY68?authuser=0&hl=en&rclk=1",
        "coordinates": {
            "latitude": 28.540135199999998,
            "longitude": 77.3048505
        }
    },
    {
        "name": "Masjid Bilal",
        "main_category": "Mosque",
        "address": "4X84+4PP Masjid Bilal, Four Qutub Area, Hansi, Haryana 125033",
        "detailed_address": {
            "ward": "Four Qutub Area",
            "street": "4X84+4PP",
            "city": "Hansi",
            "postal_code": "125033",
            "state": "Haryana",
            "country_code": "IN"
        },
        "images": [],
        "link": "https://www.google.com/maps/place/Masjid+Bilal/data=!4m7!3m6!1s0x391239f4552ef227:0x70f436f3c1d66adf!8m2!3d29.115339!4d75.9568337!16s%2Fg%2F11gmsxgvkg!19sChIJJ_IuVfQ5EjkR32rWwfM29HA?authuser=0&hl=en&rclk=1",
        "coordinates": {
            "latitude": 29.115339,
            "longitude": 75.95683369999999
        }
    },
    {
        "name": "Chaar Qutub Masjid",
        "main_category": "Mosque",
        "address": "4X34+H53 Chaar Qutub Masjid, Mandi Sainiyan, Hansi, Haryana 125033",
        "detailed_address": {
            "ward": "Mandi Sainiyan",
            "street": "4X34+H53",
            "city": "Hansi",
            "postal_code": "125033",
            "state": "Haryana",
            "country_code": "IN"
        },
        "images": [],
        "link": "https://www.google.com/maps/place/Chaar+Qutub+Masjid/data=!4m7!3m6!1s0x39123969448dc425:0x9f0d3eca8dc857b1!8m2!3d29.1038896!4d75.9554292!16s%2Fg%2F11h1khyn_0!19sChIJJcSNRGk5EjkRsVfIjco-DZ8?authuser=0&hl=en&rclk=1",
        "coordinates": {
            "latitude": 29.1038896,
            "longitude": 75.9554292
        }
    },
    {
        "name": "Fort Jama Masjid",
        "main_category": "Mosque",
        "address": "Fort Jama Masjid, Prithvi Raj Chauhan Fort, Dhola Kuna, Hansi, Haryana 125033",
        "detailed_address": {
            "ward": "Dhola Kuna",
            "street": "Prithvi Raj Chauhan Fort",
            "city": "Hansi",
            "postal_code": "125033",
            "state": "Haryana",
            "country_code": "IN"
        },
        "images": [
            {
                "about": "All",
                "link": "https://lh5.googleusercontent.com/p/AF1QipPTspsAII6mXfWVsHZ4tKfkBTl8gkYsIDKosxuW=w224-h398-k-no"
            },
            {
                "about": "Dome",
                "link": "https://lh5.googleusercontent.com/p/AF1QipPTspsAII6mXfWVsHZ4tKfkBTl8gkYsIDKosxuW=w224-h398-k-no"
            },
            {
                "about": "Videos",
                "link": "https://lh5.googleusercontent.com/p/AF1QipOtWaQcrV0y4Lxpq-zI4R9SDb9Lks-JrXwQJyqh=w224-h398-k-no"
            },
            {
                "about": "Street View & 360deg",
                "link": "https://streetviewpixels-pa.googleapis.com/v1/thumbnail?panoid=cTTAXmqFbpp_9qo_-zyyQw&cb_client=maps_sv.tactile.gps&w=224&h=298&yaw=198.35124&pitch=0&thumbfov=100"
            }
        ],
        "link": "https://www.google.com/maps/place/Fort+Jama+Masjid/data=!4m7!3m6!1s0x391239035ae7508b:0x4d9843192c7033bb!8m2!3d29.1066306!4d75.9633699!16s%2Fg%2F11r3m406wg!19sChIJi1DnWgM5EjkRuzNwLBlDmE0?authuser=0&hl=en&rclk=1",
        "coordinates": {
            "latitude": 29.1066306,
            "longitude": 75.9633699
        }
    },
    {
        "name": "Kila chowk",
        "main_category": "Mosque",
        "address": "3XW7+WG4 Kila chowk, Gandhi Nagar, Hansi, Haryana 125033",
        "detailed_address": {
            "ward": "Gandhi Nagar",
            "street": "3XW7+WG4",
            "city": "Hansi",
            "postal_code": null,
            "state": "Haryana",
            "country_code": "IN"
        },
        "images": [
            {
                "about": "All",
                "link": "https://streetviewpixels-pa.googleapis.com/v1/thumbnail?panoid=TO8v1tgogiPPGm2gdCtNCg&cb_client=maps_sv.tactile.gps&w=224&h=298&yaw=59.034428&pitch=0&thumbfov=100"
            },
            {
                "about": "Street View & 360deg",
                "link": "https://streetviewpixels-pa.googleapis.com/v1/thumbnail?panoid=TO8v1tgogiPPGm2gdCtNCg&cb_client=maps_sv.tactile.gps&w=224&h=298&yaw=59.034428&pitch=0&thumbfov=100"
            }
        ],
        "link": "https://www.google.com/maps/place/Kila+chowk/data=!4m7!3m6!1s0x391239563576645d:0x4a35e39fa8073295!8m2!3d29.0972618!4d75.9638162!16s%2Fg%2F11q4htbcv6!19sChIJXWR2NVY5EjkRlTIHqJ_jNUo?authuser=0&hl=en&rclk=1",
        "coordinates": {
            "latitude": 29.0972618,
            "longitude": 75.9638162
        }
    }
]