[
    {
        "name": "Jummah Mosque",
        "main_category": "Mosque",
        "address": "868H+C4X Jummah Mosque, Banaganapalli, Andhra Pradesh 518124",
        "detailed_address": {
            "ward": null,
            "street": "868H+C4X",
            "city": "Banaganapalli",
            "postal_code": "518124",
            "state": "Andhra Pradesh",
            "country_code": "IN"
        },
        "images": [
            {
                "about": "All",
                "link": "https://lh5.googleusercontent.com/p/AF1QipNr_ne6TrEkpQ_-4EMEHr9zAgyds4RwdEZlZqYr=w397-h298-k-no"
            }
        ],
        "link": "https://www.google.com/maps/place/Jummah+Mosque/data=!4m7!3m6!1s0x3bb437177eebf265:0xaa64d43edbb882e6!8m2!3d15.3161102!4d78.2278543!16s%2Fg%2F11dxdjbmtq!19sChIJZfLrfhc3tDsR5oK42z7UZKo?authuser=0&hl=en&rclk=1",
        "coordinates": {
            "latitude": 15.316110199999999,
            "longitude": 78.22785429999999
        }
    },
    {
        "name": "char kaman mosque",
        "main_category": "Mosque",
        "address": "867H+H92 char kaman mosque, Banumukkala, Andhra Pradesh 518124",
        "detailed_address": {
            "ward": null,
            "street": "867H+H92",
            "city": "Banumukkala",
            "postal_code": "518124",
            "state": "Andhra Pradesh",
            "country_code": "IN"
        },
        "images": [
            {
                "about": "All",
                "link": "https://lh5.googleusercontent.com/p/AF1QipOhk9IrBbF4sBfjg_WiGbPFhAyDG1hToOczc888=w397-h298-k-no"
            }
        ],
        "link": "https://www.google.com/maps/place/char+kaman+mosque/data=!4m7!3m6!1s0x3bb43717034c32ef:0x1320d9cef848eef4!8m2!3d15.3138951!4d78.2283988!16s%2Fg%2F11c6fchc36!19sChIJ7zJMAxc3tDsR9O5I-M7ZIBM?authuser=0&hl=en&rclk=1",
        "coordinates": {
            "latitude": 15.3138951,
            "longitude": 78.2283988
        }
    },
    {
        "name": "Lal Masjid",
        "main_category": "Mosque",
        "address": "869G+2JW Lal Masjid, Banaganapalle, Banaganapalli, Andhra Pradesh",
        "detailed_address": {
            "ward": null,
            "street": "869G+2JW, Banaganapalle",
            "city": "Banaganapalli",
            "postal_code": null,
            "state": "Andhra Pradesh",
            "country_code": "IN"
        },
        "images": [
            {
                "about": "All",
                "link": "https://lh5.googleusercontent.com/p/AF1QipPnJsKVTGDTWGzbUQVfw3oXNDGO0P80dvyUSf28=w396-h298-k-no"
            },
            {
                "about": "Videos",
                "link": "https://lh5.googleusercontent.com/p/AF1QipP3V2Lh4HRpnt7531F3BcYBvec2dKsEpfLO9Erv=w526-h298-k-no"
            }
        ],
        "link": "https://www.google.com/maps/place/Lal+Masjid/data=!4m7!3m6!1s0x3bb437183f300bdd:0x42b9139467a91948!8m2!3d15.3176154!4d78.2265659!16s%2Fg%2F11g7z8t41b!19sChIJ3QswPxg3tDsRSBmpZ5QTuUI?authuser=0&hl=en&rclk=1",
        "coordinates": {
            "latitude": 15.3176154,
            "longitude": 78.2265659
        }
    },
    {
        "name": "Ek Kamman Masjid",
        "main_category": "Mosque",
        "address": "867H+7RC Ek Kamman Masjid, Banumukkala, Andhra Pradesh 518124",
        "detailed_address": {
            "ward": null,
            "street": "867H+7RC",
            "city": "Banumukkala",
            "postal_code": "518124",
            "state": "Andhra Pradesh",
            "country_code": "IN"
        },
        "images": [
            {
                "about": "All",
                "link": "https://lh5.googleusercontent.com/p/AF1QipNpxykGbeQ2QCDaWK4Ux2VIV7ePA_Gvc2nDWzEp=w224-h486-k-no"
            }
        ],
        "link": "https://www.google.com/maps/place/Ek+Kamman+Masjid/data=!4m7!3m6!1s0x3bb43716dbe48feb:0x5e98abb1dd2c293c!8m2!3d15.3131979!4d78.229511!16s%2Fg%2F11cmrt3r4r!19sChIJ64_k2xY3tDsRPCks3bGrmF4?authuser=0&hl=en&rclk=1",
        "coordinates": {
            "latitude": 15.313197899999999,
            "longitude": 78.229511
        }
    },
    {
        "name": "Markaj Mosque",
        "main_category": "Mosque",
        "address": "867H+2F2 Markaj Mosque, Kondapeta St, Banumukkala, Andhra Pradesh 518124",
        "detailed_address": {
            "ward": null,
            "street": "867H+2F2, Kondapeta St",
            "city": "Banumukkala",
            "postal_code": "518124",
            "state": "Andhra Pradesh",
            "country_code": "IN"
        },
        "images": [
            {
                "about": "All",
                "link": "https://lh5.googleusercontent.com/p/AF1QipN-MPNvn68JJAWwn8aKYLFHx5305K0VQw2HJZP7=w529-h298-k-no"
            }
        ],
        "link": "https://www.google.com/maps/place/Markaj+Mosque/data=!4m7!3m6!1s0x3bb43716eeecfe93:0x92b6333b007c01fb!8m2!3d15.3125236!4d78.2286355!16s%2Fg%2F11c2y82ltv!19sChIJk_7s7hY3tDsR-wF8ADsztpI?authuser=0&hl=en&rclk=1",
        "coordinates": {
            "latitude": 15.312523599999999,
            "longitude": 78.2286355
        }
    },
    {
        "name": "Al-Noorani masjid Mosque",
        "main_category": "Mosque",
        "address": "867J+FP5 Al-Noorani masjid Mosque, Banumukkala, Andhra Pradesh 518124",
        "detailed_address": {
            "ward": null,
            "street": "867J+FP5",
            "city": "Banumukkala",
            "postal_code": "518124",
            "state": "Andhra Pradesh",
            "country_code": "IN"
        },
        "images": [
            {
                "about": "All",
                "link": "https://lh5.googleusercontent.com/p/AF1QipNop9DlR0krVrAIQIX1IAsRJtN4HNS8xylJd27K=w397-h298-k-no"
            },
            {
                "about": "Videos",
                "link": "https://lh5.googleusercontent.com/p/AF1QipOZT6yyfNSkUR6PTcrgYfVUj7fW7k2FDEglni87=w224-h477-k-no"
            }
        ],
        "link": "https://www.google.com/maps/place/Al-Noorani+masjid+Mosque/data=!4m7!3m6!1s0x3bb437112072200f:0xfdc245506c206075!8m2!3d15.3136391!4d78.2318484!16s%2Fg%2F11g6bkmdpg!19sChIJDyByIBE3tDsRdWAgbFBFwv0?authuser=0&hl=en&rclk=1",
        "coordinates": {
            "latitude": 15.3136391,
            "longitude": 78.23184839999999
        }
    },
    {
        "name": "Masjid-e-Bilaal Mosque",
        "main_category": "Mosque",
        "address": "868H+4W7 Masjid-e-Bilaal Mosque, Banumukkala, Andhra Pradesh 518124",
        "detailed_address": {
            "ward": null,
            "street": "868H+4W7",
            "city": "Banumukkala",
            "postal_code": "518124",
            "state": "Andhra Pradesh",
            "country_code": "IN"
        },
        "images": [
            {
                "about": "All",
                "link": "https://lh5.googleusercontent.com/p/AF1QipOVDPUq3dq4HKy9yhJn66B7BdbQ8Z5yDBW0yUTc=w224-h398-k-no"
            },
            {
                "about": "Videos",
                "link": "https://lh5.googleusercontent.com/p/AF1QipOVDPUq3dq4HKy9yhJn66B7BdbQ8Z5yDBW0yUTc=w224-h398-k-no"
            }
        ],
        "link": "https://www.google.com/maps/place/Masjid-e-Bilaal+Mosque/data=!4m7!3m6!1s0x3bb43717488f2ff3:0x4a5bca603cba2678!8m2!3d15.3152988!4d78.2298084!16s%2Fg%2F11d_72d__d!19sChIJ8y-PSBc3tDsReCa6PGDKW0o?authuser=0&hl=en&rclk=1",
        "coordinates": {
            "latitude": 15.315298799999999,
            "longitude": 78.2298084
        }
    },
    {
        "name": "Sunny Junglima Mosque",
        "main_category": "Mosque",
        "address": "869G+FPR Sunny Junglima Mosque, Banaganapalli, Andhra Pradesh 518124",
        "detailed_address": {
            "ward": null,
            "street": "869G+FPR",
            "city": "Banaganapalli",
            "postal_code": "518124",
            "state": "Andhra Pradesh",
            "country_code": "IN"
        },
        "images": [
            {
                "about": "All",
                "link": "https://lh5.googleusercontent.com/p/AF1QipNLIOTnbJs2wqOmu4ZIcnhRLQ9Wc0xmHKaiJej2=w365-h298-k-no"
            },
            {
                "about": "Dome",
                "link": "https://lh5.googleusercontent.com/p/AF1QipM3dka21bfJn_KSwV4NSzDecFwsQvHSChs_quPb=w395-h298-k-no"
            }
        ],
        "link": "https://www.google.com/maps/place/Sunny+Junglima+Mosque/data=!4m7!3m6!1s0x3bb437185bb68549:0xa15530ad26ededb!8m2!3d15.3187388!4d78.2267547!16s%2Fg%2F11_qprv75!19sChIJSYW2Wxg3tDsR295u0gpTFQo?authuser=0&hl=en&rclk=1",
        "coordinates": {
            "latitude": 15.318738799999998,
            "longitude": 78.2267547
        }
    },
    {
        "name": "Masum Basha Khadri Mosque",
        "main_category": "Mosque",
        "address": "86FH+285 Masum Basha Khadri Mosque, Banaganapalle, Banaganapalli, Andhra Pradesh",
        "detailed_address": {
            "ward": null,
            "street": "86FH+285, Banaganapalle",
            "city": "Banaganapalli",
            "postal_code": null,
            "state": "Andhra Pradesh",
            "country_code": "IN"
        },
        "images": [
            {
                "about": "All",
                "link": "https://lh5.googleusercontent.com/p/AF1QipPAu2TitJMNII5uHx3F2wWyZ36GgTFrYVx-7s0e=w447-h298-k-no"
            },
            {
                "about": "Videos",
                "link": "https://lh5.googleusercontent.com/p/AF1QipNAfxOBijTDuXe1-bmKWU4fmi5TVguPec-7sHcw=w224-h398-k-no"
            }
        ],
        "link": "https://www.google.com/maps/place/Masum+Basha+Khadri+Mosque/data=!4m7!3m6!1s0x3bb4371ed202e5d3:0xad48c2b54651b7a5!8m2!3d15.3225117!4d78.2283537!16s%2Fg%2F11g868ttz_!19sChIJ0-UC0h43tDsRpbdRRrXCSK0?authuser=0&hl=en&rclk=1",
        "coordinates": {
            "latitude": 15.3225117,
            "longitude": 78.2283537
        }
    },
    {
        "name": "Naik Wadi Mosque",
        "main_category": "Religious destination",
        "address": "Naik Wadi Mosque, 15deg18'47. 78deg13'34, Kondapeta St, Banumukkala, Andhra Pradesh 518124",
        "detailed_address": {
            "ward": null,
            "street": "15deg18'47. 78deg13'34, Kondapeta St",
            "city": "Banumukkala",
            "postal_code": "518124",
            "state": "Andhra Pradesh",
            "country_code": "IN"
        },
        "images": [
            {
                "about": "All",
                "link": "https://lh5.googleusercontent.com/p/AF1QipNoC5VF0JHnhguIE9hSaiCDNMvqqx4ymfSppfyc=w224-h398-k-no"
            }
        ],
        "link": "https://www.google.com/maps/place/Naik+Wadi+Mosque/data=!4m7!3m6!1s0x3bb437164a8e6361:0x68c83d59997c6d32!8m2!3d15.313269!4d78.226317!16s%2Fg%2F11c5hzn1m1!19sChIJYWOOShY3tDsRMm18mVk9yGg?authuser=0&hl=en&rclk=1",
        "coordinates": {
            "latitude": 15.313269,
            "longitude": 78.226317
        }
    },
    {
        "name": "Madina Masjid",
        "main_category": "Mosque",
        "address": "8699+7GP Madina Masjid, Banaganapalli, Andhra Pradesh 518124",
        "detailed_address": {
            "ward": null,
            "street": "8699+7GP",
            "city": "Banaganapalli",
            "postal_code": null,
            "state": "Andhra Pradesh",
            "country_code": "IN"
        },
        "images": [],
        "link": "https://www.google.com/maps/place/Madina+Masjid/data=!4m7!3m6!1s0x3bb4372483768907:0x178d5f3a5104cdc2!8m2!3d15.3182233!4d78.2188391!16s%2Fg%2F11f3bqkqzm!19sChIJB4l2gyQ3tDsRws0EUTpfjRc?authuser=0&hl=en&rclk=1",
        "coordinates": {
            "latitude": 15.3182233,
            "longitude": 78.2188391
        }
    },
    {
        "name": "Mosque - E - Gouse - E - Azam",
        "main_category": "Mosque",
        "address": "867G+CVC Mosque - E - Gouse - E - Azam, Banumukkala, Andhra Pradesh 518124",
        "detailed_address": {
            "ward": null,
            "street": "867G+CVC",
            "city": "Banumukkala",
            "postal_code": "518124",
            "state": "Andhra Pradesh",
            "country_code": "IN"
        },
        "images": [
            {
                "about": "All",
                "link": "https://lh5.googleusercontent.com/p/AF1QipP7k-nLI89HIUm52PtETyEXa_XVgkjCJ5zQKAPU=w397-h298-k-no"
            },
            {
                "about": "Street View & 360deg",
                "link": "https://streetviewpixels-pa.googleapis.com/v1/thumbnail?panoid=2AqqP2kob4HMt30qmyjpCQ&cb_client=maps_sv.tactile.gps&w=224&h=298&yaw=270.23544&pitch=0&thumbfov=100"
            }
        ],
        "link": "https://www.google.com/maps/place/Mosque+-+E+-+Gouse+-+E+-+Azam/data=!4m7!3m6!1s0x3bb43717ace2257f:0x9be52f6de33f2a8a!8m2!3d15.3135728!4d78.2271518!16s%2Fg%2F11fy_qmhs5!19sChIJfyXirBc3tDsRiio_420v5Zs?authuser=0&hl=en&rclk=1",
        "coordinates": {
            "latitude": 15.3135728,
            "longitude": 78.2271518
        }
    },
    {
        "name": "Panch kaman Masjid",
        "main_category": "Mosque",
        "address": "867H+W3Q Panch kaman Masjid, Banaganapalli, Andhra Pradesh 518124",
        "detailed_address": {
            "ward": null,
            "street": "867H+W3Q",
            "city": "Banaganapalli",
            "postal_code": "518124",
            "state": "Andhra Pradesh",
            "country_code": "IN"
        },
        "images": [
            {
                "about": "All",
                "link": "https://streetviewpixels-pa.googleapis.com/v1/thumbnail?panoid=xLi2O0y6yE4N2n9Y3xFL-g&cb_client=maps_sv.tactile.gps&w=224&h=298&yaw=170.22816&pitch=0&thumbfov=100"
            },
            {
                "about": "Street View & 360deg",
                "link": "https://streetviewpixels-pa.googleapis.com/v1/thumbnail?panoid=xLi2O0y6yE4N2n9Y3xFL-g&cb_client=maps_sv.tactile.gps&w=224&h=298&yaw=170.22816&pitch=0&thumbfov=100"
            }
        ],
        "link": "https://www.google.com/maps/place/Panch+kaman+Masjid/data=!4m7!3m6!1s0x3bb437170a95b033:0xc4dfcc40b8602e50!8m2!3d15.3148315!4d78.227742!16s%2Fg%2F11g6bp2sq2!19sChIJM7CVChc3tDsRUC5guEDM38Q?authuser=0&hl=en&rclk=1",
        "coordinates": {
            "latitude": 15.314831499999999,
            "longitude": 78.22774199999999
        }
    },
    {
        "name": "Masjid e masumeen (a.s)",
        "main_category": "Mosque",
        "address": "869H+HJ6 Masjid e masumeen (a.s), Banaganapalli, Andhra Pradesh 518124",
        "detailed_address": {
            "ward": null,
            "street": "869H+HJ6",
            "city": "Banaganapalli",
            "postal_code": "518124",
            "state": "Andhra Pradesh",
            "country_code": "IN"
        },
        "images": [],
        "link": "https://www.google.com/maps/place/Masjid+e+masumeen+%28a.s%29/data=!4m7!3m6!1s0x3bb437977886e443:0x166ce8b9357ea75f!8m2!3d15.3190969!4d78.2296556!16s%2Fg%2F11sgz0662m!19sChIJQ-SGeJc3tDsRX6d-NbnobBY?authuser=0&hl=en&rclk=1",
        "coordinates": {
            "latitude": 15.3190969,
            "longitude": 78.2296556
        }
    },
    {
        "name": "Al-Kowsar Masjid",
        "main_category": "Mosque",
        "address": "8699+VM7 Al-Kowsar Masjid, Banaganapalli, Andhra Pradesh 518124",
        "detailed_address": {
            "ward": null,
            "street": "8699+VM7",
            "city": "Banaganapalli",
            "postal_code": null,
            "state": "Andhra Pradesh",
            "country_code": "IN"
        },
        "images": [
            {
                "about": "All",
                "link": "https://lh5.googleusercontent.com/p/AF1QipO_Xjr_y3SEm40VjMr3uZ-h5kr9-3Io2ySKb2Sw=w447-h298-k-no"
            }
        ],
        "link": "https://www.google.com/maps/place/Al-Kowsar+Masjid/data=!4m7!3m6!1s0x3bb43723883dac99:0x6292986741b3316b!8m2!3d15.3196692!4d78.2191855!16s%2Fg%2F11gf03t2yw!19sChIJmaw9iCM3tDsRazGzQWeYkmI?authuser=0&hl=en&rclk=1",
        "coordinates": {
            "latitude": 15.3196692,
            "longitude": 78.2191855
        }
    },
    {
        "name": "Noorani Masjid",
        "main_category": "Mosque",
        "address": "867H+2GJ Noorani Masjid, Kondapeta St, Banumukkala, Andhra Pradesh 518124",
        "detailed_address": {
            "ward": null,
            "street": "867H+2GJ, Kondapeta St",
            "city": "Banumukkala",
            "postal_code": "518124",
            "state": "Andhra Pradesh",
            "country_code": "IN"
        },
        "images": [
            {
                "about": "All",
                "link": "https://lh5.googleusercontent.com/p/AF1QipPjfIHRwjDseTSH5OhVtMK0GhbnG5eC2WrTeDhA=w529-h298-k-no"
            }
        ],
        "link": "https://www.google.com/maps/place/Noorani+Masjid/data=!4m7!3m6!1s0x3bb437165ddd63f7:0x7232f9345d20f362!8m2!3d15.3125926!4d78.2287717!16s%2Fg%2F11bzt72j5l!19sChIJ92PdXRY3tDsRYvMgXTT5MnI?authuser=0&hl=en&rclk=1",
        "coordinates": {
            "latitude": 15.312592599999999,
            "longitude": 78.2287717
        }
    },
    {
        "name": "Mohammadia Mosque",
        "main_category": "Mosque",
        "address": "869G+M7R Mohammadia Mosque, Banaganapalle, Banaganapalli, Andhra Pradesh",
        "detailed_address": {
            "ward": null,
            "street": "869G+M7R, Banaganapalle",
            "city": "Banaganapalli",
            "postal_code": null,
            "state": "Andhra Pradesh",
            "country_code": "IN"
        },
        "images": [],
        "link": "https://www.google.com/maps/place/Mohammadia+Mosque/data=!4m7!3m6!1s0x3bb437188840fd23:0xc1a6121e65899f1f!8m2!3d15.3192481!4d78.2256557!16s%2Fg%2F11dyq_13pp!19sChIJI_1AiBg3tDsRH5-JZR4SpsE?authuser=0&hl=en&rclk=1",
        "coordinates": {
            "latitude": 15.3192481,
            "longitude": 78.22565569999999
        }
    },
    {
        "name": "Khajiwada Masjid",
        "main_category": "Mosque",
        "address": "869H+G2W Khajiwada Masjid, Khajiwada Banaganapalle, Banaganapalli, Andhra Pradesh",
        "detailed_address": {
            "ward": null,
            "street": "869H+G2W, Khajiwada Banaganapalle",
            "city": "Banaganapalli",
            "postal_code": null,
            "state": "Andhra Pradesh",
            "country_code": "IN"
        },
        "images": [
            {
                "about": "All",
                "link": "https://streetviewpixels-pa.googleapis.com/v1/thumbnail?panoid=gwuL_1WXgAwOwjVsmyhGyw&cb_client=maps_sv.tactile.gps&w=224&h=298&yaw=284.8811&pitch=0&thumbfov=100"
            },
            {
                "about": "Street View & 360deg",
                "link": "https://streetviewpixels-pa.googleapis.com/v1/thumbnail?panoid=gwuL_1WXgAwOwjVsmyhGyw&cb_client=maps_sv.tactile.gps&w=224&h=298&yaw=284.8811&pitch=0&thumbfov=100"
            },
            {
                "about": "Videos",
                "link": "https://lh5.googleusercontent.com/p/AF1QipMwdpJ-dK1doOzu3yUkCuQf8bwovAsmz-tJ_XyL=w298-h298-k-no"
            }
        ],
        "link": "https://www.google.com/maps/place/Khajiwada+Masjid/data=!4m7!3m6!1s0x3bb437185360580b:0xf872aaef8bb52419!8m2!3d15.3188684!4d78.2275805!16s%2Fg%2F11dylv7y_b!19sChIJC1hgUxg3tDsRGSS1i--qcvg?authuser=0&hl=en&rclk=1",
        "coordinates": {
            "latitude": 15.3188684,
            "longitude": 78.2275805
        }
    },
    {
        "name": "Baragah E Shehzaday e Qasim `",
        "main_category": "Mosque",
        "address": "865G+PRW Baragah E Shehzaday e Qasim `, Banumukkala, Andhra Pradesh 518124",
        "detailed_address": {
            "ward": null,
            "street": "865G+PRW",
            "city": "Banumukkala",
            "postal_code": null,
            "state": "Andhra Pradesh",
            "country_code": "IN"
        },
        "images": [
            {
                "about": "All",
                "link": "https://lh5.googleusercontent.com/p/AF1QipP667xe7goZiOSnWnXdq0IUSE-QKXMSjzcGfK-J=w529-h298-k-no"
            }
        ],
        "link": "https://www.google.com/maps/place/Baragah+E+Shehzaday+e+Qasim+%D8%B9%E2%80%AD/data=!4m7!3m6!1s0x3bb437472a5f9e4b:0xd972674b24cb6c71!8m2!3d15.3093597!4d78.2270879!16s%2Fg%2F11n389x6wp!19sChIJS55fKkc3tDsRcWzLJEtnctk?authuser=0&hl=en&rclk=1",
        "coordinates": {
            "latitude": 15.3093597,
            "longitude": 78.2270879
        }
    },
    {
        "name": "Mosque",
        "main_category": "Mosque",
        "address": "Mosque, Near New Bridge, old bustand banaganapalli -518124., Andhra Pradesh.Near New Bridge, old bustand banaganapalli -518124., Andhra Pradesh.Near New Bridge, old bustand, Banaganapalli, Andhra Pradesh 518124",
        "detailed_address": {
            "ward": null,
            "street": "Near New Bridge, old bustand banaganapalli -518124., Andhra Pradesh.Near New Bridge, old bustand banaganapalli -518124., Andhra Pradesh.Near New Bridge, old bustand",
            "city": "Banaganapalli",
            "postal_code": "518124",
            "state": "Andhra Pradesh",
            "country_code": "IN"
        },
        "images": [
            {
                "about": "All",
                "link": "https://streetviewpixels-pa.googleapis.com/v1/thumbnail?panoid=xoAD5ZdyrX4Yiy8kYkVikQ&cb_client=maps_sv.tactile.gps&w=224&h=298&yaw=246.94003&pitch=0&thumbfov=100"
            },
            {
                "about": "Street View & 360deg",
                "link": "https://streetviewpixels-pa.googleapis.com/v1/thumbnail?panoid=xoAD5ZdyrX4Yiy8kYkVikQ&cb_client=maps_sv.tactile.gps&w=224&h=298&yaw=246.94003&pitch=0&thumbfov=100"
            }
        ],
        "link": "https://www.google.com/maps/place/Mosque/data=!4m7!3m6!1s0x3bb43752c51e9875:0xdd1bae83bedc599b!8m2!3d15.3147345!4d78.2278082!16s%2Fg%2F11gjt46rcc!19sChIJdZgexVI3tDsRm1ncvoOuG90?authuser=0&hl=en&rclk=1",
        "coordinates": {
            "latitude": 15.3147345,
            "longitude": 78.2278082
        }
    }
]