[
    {
        "name": "Anar Wali Masjid",
        "main_category": "Mosque",
        "address": "Anar Wali Masjid, 122, Street Number 2, West Jawahar Park, Block G, Vishwakarma Park, Laxmi Nagar, New Delhi, Delhi, 110092",
        "detailed_address": {
            "ward": "West Jawahar Park, Block G, Vishwakarma Park, Laxmi Nagar",
            "street": "122, Street Number 2",
            "city": "New Delhi, Delhi",
            "postal_code": "110092",
            "state": "Delhi",
            "country_code": "IN"
        },
        "images": [
            {
                "about": "All",
                "link": "https://lh5.googleusercontent.com/p/AF1QipMGX4kh9DS56gCNcWIL57VkZG7oqlsHg1bIcQBG=w224-h301-k-no"
            },
            {
                "about": "Videos",
                "link": "https://lh5.googleusercontent.com/p/AF1QipMS1qGR7xAkN_JF0qmRGrCB5OYQcR5P4PbcijrC=w529-h298-k-no"
            }
        ],
        "link": "https://www.google.com/maps/place/Anar+Wali+Masjid/data=!4m7!3m6!1s0x390cfcb043192955:0x3eccb49dffe238b4!8m2!3d28.6388561!4d77.2723811!16s%2Fg%2F11c5t2ykg6!19sChIJVSkZQ7D8DDkRtDji_520zD4?authuser=0&hl=en&rclk=1",
        "coordinates": {
            "latitude": 28.638856099999998,
            "longitude": 77.27238109999999
        }
    },
    {
        "name": "Masjid Gareeb Nawaz",
        "main_category": "Mosque",
        "address": "Masjid Gareeb Nawaz, R248, Ramesh Park Street Number 11, Laxmi Nagar, New Delhi, Delhi 110092",
        "detailed_address": {
            "ward": "Block N, Vishwakarma Park, Laxmi Nagar",
            "street": "R248, Ramesh Park Street Number 11",
            "city": "New Delhi, Delhi",
            "postal_code": "110092",
            "state": "Delhi",
            "country_code": "IN"
        },
        "images": [
            {
                "about": "All",
                "link": "https://lh5.googleusercontent.com/p/AF1QipNccJa4YM-2hiC9ZDwJW4MNtYE8n_FZZGxFTrPA=w397-h298-k-no"
            },
            {
                "about": "Videos",
                "link": "https://lh5.googleusercontent.com/p/AF1QipNmhY1xIjXZyS0adILDPHJMTs_nGAoZxkT7rm1D=w224-h398-k-no"
            }
        ],
        "link": "https://www.google.com/maps/place/Masjid+Gareeb+Nawaz/data=!4m7!3m6!1s0x390cfcb1ec55b323:0xa19fca173b889cac!8m2!3d28.635147!4d77.2737643!16s%2Fg%2F11c0vk03wd!19sChIJI7NV7LH8DDkRrJyIOxfKn6E?authuser=0&hl=en&rclk=1",
        "coordinates": {
            "latitude": 28.635147,
            "longitude": 77.2737643
        }
    },
    {
        "name": "Jama Masjid Market",
        "main_category": "Produce market",
        "address": "4HF6+C6V Jama Masjid Market, Jewar, Uttar Pradesh 203135",
        "detailed_address": {
            "ward": null,
            "street": "4HF6+C6V",
            "city": "Jewar",
            "postal_code": "203135",
            "state": "Uttar Pradesh",
            "country_code": "IN"
        },
        "images": [
            {
                "about": "All",
                "link": "https://lh5.googleusercontent.com/p/AF1QipP2BLropdcwi4LCxS8Q_BDJv8l-G8PT7Y0ggY8a=w224-h398-k-no"
            },
            {
                "about": "Inside",
                "link": "https://lh5.googleusercontent.com/p/AF1QipMKDrwR_8tBjfb-CwITtGUzVHBvws4rx9OjrGzH=w662-h298-k-no"
            },
            {
                "about": "Street View & 360deg",
                "link": "https://streetviewpixels-pa.googleapis.com/v1/thumbnail?panoid=TzipCOO2oEjPfPyWgMsaHA&cb_client=maps_sv.tactile.gps&w=224&h=298&yaw=318.15036&pitch=0&thumbfov=100"
            }
        ],
        "link": "https://www.google.com/maps/place/Jama+Masjid+Market/data=!4m7!3m6!1s0x390ccbcd85034569:0xe28b7c0b1b393174!8m2!3d28.1236101!4d77.5605619!16s%2Fg%2F11g1ml252k!19sChIJaUUDhc3LDDkRdDE5Gwt8i-I?authuser=0&hl=en&rclk=1",
        "coordinates": {
            "latitude": 28.1236101,
            "longitude": 77.5605619
        }
    },
    {
        "name": "Jama Masjid, Mandawali",
        "main_category": "Mosque",
        "address": "Jama Masjid, Mandawali, A-62, Mandawali Main Rd, Fazalpur, Railway Colony, Mandawali, New Delhi, Delhi 110092",
        "detailed_address": {
            "ward": "Block A, Fazalpur, Railway Colony, Mandawali",
            "street": "A-62, Mandawali Main Rd",
            "city": "New Delhi, Delhi",
            "postal_code": "110092",
            "state": "Delhi",
            "country_code": "IN"
        },
        "images": [
            {
                "about": "All",
                "link": "https://lh5.googleusercontent.com/p/AF1QipMVhCL18Cza9BZlZHKZoukGP_XujeRE1PTIxunN=w224-h398-k-no"
            },
            {
                "about": "Latest",
                "link": "https://lh5.googleusercontent.com/p/AF1QipPXQlks4oQcUYcyrbzkABsu5vpsQriSvuadWM12=w224-h398-k-no"
            },
            {
                "about": "Videos",
                "link": "https://lh5.googleusercontent.com/p/AF1QipPW-FMSPn7dwD7ZUDEDeQ0LfQaUL5LoJduu1K13=w224-h398-k-no"
            },
            {
                "about": "Street View & 360deg",
                "link": "https://streetviewpixels-pa.googleapis.com/v1/thumbnail?panoid=82RK52hs1KXiFmKNVXoDcQ&cb_client=maps_sv.tactile.gps&w=224&h=298&yaw=26.50462&pitch=0&thumbfov=100"
            }
        ],
        "link": "https://www.google.com/maps/place/Jama+Masjid,+Mandawali/data=!4m7!3m6!1s0x390ce4adf29907e1:0xe801d18c3682a725!8m2!3d28.6265604!4d77.2972935!16s%2Fg%2F11dzxc3xz3!19sChIJ4QeZ8q3kDDkRJaeCNozRAeg?authuser=0&hl=en&rclk=1",
        "coordinates": {
            "latitude": 28.6265604,
            "longitude": 77.2972935
        }
    },
    {
        "name": "Maktab Imdadiya takiya Masjid",
        "main_category": "Mosque",
        "address": "4HF2+HQ5 Maktab Imdadiya takiya Masjid, Connector Rd, Jewar, Uttar Pradesh 203135",
        "detailed_address": {
            "ward": null,
            "street": "4HF2+HQ5, Connector Rd",
            "city": "Jewar",
            "postal_code": "203135",
            "state": "Uttar Pradesh",
            "country_code": "IN"
        },
        "images": [
            {
                "about": "All",
                "link": "https://lh5.googleusercontent.com/p/AF1QipPKx_rkIEBhcxR6Ph_XgbxrKPp2vfSQUcHH6dM=w224-h298-k-no"
            },
            {
                "about": "Videos",
                "link": "https://lh5.googleusercontent.com/p/AF1QipMhNV6sPVQ3O_mSbC5A9ZnAVwqoneOwMwDy06ie=w224-h398-k-no"
            }
        ],
        "link": "https://www.google.com/maps/place/Maktab+Imdadiya+takiya+Masjid/data=!4m7!3m6!1s0x390ccaa2e7dd3dd5:0x36ef9b21d9984e4a!8m2!3d28.1238963!4d77.5519847!16s%2Fg%2F11ggqtv4nd!19sChIJ1T3d56LKDDkRSk6Y2SGb7zY?authuser=0&hl=en&rclk=1",
        "coordinates": {
            "latitude": 28.1238963,
            "longitude": 77.55198469999999
        }
    },
    {
        "name": "Mosque",
        "main_category": "Mosque",
        "address": "4HF6+H5X Mosque, Jewar, Uttar Pradesh 203135",
        "detailed_address": {
            "ward": null,
            "street": "4HF6+H5X",
            "city": "Jewar",
            "postal_code": "203135",
            "state": "Uttar Pradesh",
            "country_code": "IN"
        },
        "images": [
            {
                "about": "All",
                "link": "https://streetviewpixels-pa.googleapis.com/v1/thumbnail?panoid=sgrRGK27P_jr5S7xU-45Jw&cb_client=maps_sv.tactile.gps&w=224&h=298&yaw=310.80676&pitch=0&thumbfov=100"
            },
            {
                "about": "Street View & 360deg",
                "link": "https://streetviewpixels-pa.googleapis.com/v1/thumbnail?panoid=sgrRGK27P_jr5S7xU-45Jw&cb_client=maps_sv.tactile.gps&w=224&h=298&yaw=310.80676&pitch=0&thumbfov=100"
            }
        ],
        "link": "https://www.google.com/maps/place/Mosque/data=!4m7!3m6!1s0x390ccaa0f5569417:0x55bc15c3d64502f2!8m2!3d28.1239787!4d77.5604822!16s%2Fg%2F11ggbccgnc!19sChIJF5RW9aDKDDkR8gJF1sMVvFU?authuser=0&hl=en&rclk=1",
        "coordinates": {
            "latitude": 28.1239787,
            "longitude": 77.5604822
        }
    },
    {
        "name": "Jama Masjid Ahle Hadith",
        "main_category": "Mosque",
        "address": "4HF4+7JC Jama Masjid Ahle Hadith, Jewar, Uttar Pradesh 203135",
        "detailed_address": {
            "ward": null,
            "street": "4HF4+7JC",
            "city": "Jewar",
            "postal_code": "203135",
            "state": "Uttar Pradesh",
            "country_code": "IN"
        },
        "images": [],
        "link": "https://www.google.com/maps/place/Jama+Masjid+Ahle+Hadith/data=!4m7!3m6!1s0x390ccb50adb3c7ed:0x9761f4f081a9344a!8m2!3d28.1231913!4d77.5565094!16s%2Fg%2F11fj3v_04c!19sChIJ7cezrVDLDDkRSjSpgfD0YZc?authuser=0&hl=en&rclk=1",
        "coordinates": {
            "latitude": 28.1231913,
            "longitude": 77.5565094
        }
    },
    {
        "name": "Muhammadi Masjid",
        "main_category": "Mosque",
        "address": "CPW4+R32 Muhammadi Masjid, Jewar Rd, Sikandrabad, Kakod, Uttar Pradesh 203203",
        "detailed_address": {
            "ward": null,
            "street": "CPW4+R32, Jewar Rd",
            "city": "Sikandrabad, Kakod",
            "postal_code": "203203",
            "state": "Uttar Pradesh",
            "country_code": "IN"
        },
        "images": [
            {
                "about": "All",
                "link": "https://streetviewpixels-pa.googleapis.com/v1/thumbnail?panoid=whYr_PjPh3txURcTZV0IZQ&cb_client=maps_sv.tactile.gps&w=224&h=298&yaw=316.21432&pitch=0&thumbfov=100"
            },
            {
                "about": "Street View & 360deg",
                "link": "https://streetviewpixels-pa.googleapis.com/v1/thumbnail?panoid=whYr_PjPh3txURcTZV0IZQ&cb_client=maps_sv.tactile.gps&w=224&h=298&yaw=316.21432&pitch=0&thumbfov=100"
            }
        ],
        "link": "https://www.google.com/maps/place/Muhammadi+Masjid/data=!4m7!3m6!1s0x390cbd069d66856d:0x5e9fa9f6c468e15a!8m2!3d28.4470189!4d77.7051356!16s%2Fg%2F11dymx136v!19sChIJbYVmnQa9DDkRWuFoxPapn14?authuser=0&hl=en&rclk=1",
        "coordinates": {
            "latitude": 28.4470189,
            "longitude": 77.70513559999999
        }
    },
    {
        "name": "Khalifan Masjid",
        "main_category": "Mosque",
        "address": "4HF4+72R Khalifan Masjid, Jewar, Uttar Pradesh 203135",
        "detailed_address": {
            "ward": null,
            "street": "4HF4+72R",
            "city": "Jewar",
            "postal_code": "203135",
            "state": "Uttar Pradesh",
            "country_code": "IN"
        },
        "images": [],
        "link": "https://www.google.com/maps/place/Khalifan+Masjid/data=!4m7!3m6!1s0x390ccbdc281b3323:0xc8dd1afb6b3c401!8m2!3d28.1232499!4d77.5550008!16s%2Fg%2F11fph51qjm!19sChIJIzMbKNzLDDkRAcSztq_RjQw?authuser=0&hl=en&rclk=1",
        "coordinates": {
            "latitude": 28.123249899999998,
            "longitude": 77.5550008
        }
    },
    {
        "name": "Jama Masjid Tablighi Markaz Jewar",
        "main_category": "Mosque",
        "address": "4HF4+5FW Jama Masjid Tablighi Markaz Jewar, Jewar, Uttar Pradesh 203135",
        "detailed_address": {
            "ward": null,
            "street": "4HF4+5FW",
            "city": "Jewar",
            "postal_code": "203135",
            "state": "Uttar Pradesh",
            "country_code": "IN"
        },
        "images": [
            {
                "about": "All",
                "link": "https://lh5.googleusercontent.com/p/AF1QipP2rvcNHtAWlcsRJK95wNp9FMV0VvQC1sCs9CaM=w224-h398-k-no"
            },
            {
                "about": "Videos",
                "link": "https://lh5.googleusercontent.com/p/AF1QipP2rvcNHtAWlcsRJK95wNp9FMV0VvQC1sCs9CaM=w224-h398-k-no"
            }
        ],
        "link": "https://www.google.com/maps/place/Jama+Masjid+Tablighi+Markaz+Jewar/data=!4m7!3m6!1s0x390ccb5ae4807ce7:0xc4bfef4a0506834f!8m2!3d28.1229927!4d77.5562148!16s%2Fg%2F11h04nzpdz!19sChIJ53yA5FrLDDkRT4MGBUrvv8Q?authuser=0&hl=en&rclk=1",
        "coordinates": {
            "latitude": 28.122992699999998,
            "longitude": 77.55621479999999
        }
    },
    {
        "name": "Bhag Wali Masjid",
        "main_category": "Mosque",
        "address": "4H96+V76 Bhag Wali Masjid, Jewar, Uttar Pradesh 203135",
        "detailed_address": {
            "ward": null,
            "street": "4H96+V76",
            "city": "Jewar",
            "postal_code": "203135",
            "state": "Uttar Pradesh",
            "country_code": "IN"
        },
        "images": [
            {
                "about": "All",
                "link": "https://streetviewpixels-pa.googleapis.com/v1/thumbnail?panoid=UopKaomjM1Vy-pGXVZMprQ&cb_client=maps_sv.tactile.gps&w=224&h=298&yaw=336.9013&pitch=0&thumbfov=100"
            },
            {
                "about": "Street View & 360deg",
                "link": "https://streetviewpixels-pa.googleapis.com/v1/thumbnail?panoid=UopKaomjM1Vy-pGXVZMprQ&cb_client=maps_sv.tactile.gps&w=224&h=298&yaw=336.9013&pitch=0&thumbfov=100"
            }
        ],
        "link": "https://www.google.com/maps/place/Bhag+Wali+Masjid/data=!4m7!3m6!1s0x390ccb990b0e2b83:0x8ce586df5d427aa8!8m2!3d28.11967!4d77.5606292!16s%2Fg%2F11ghnpf305!19sChIJgysOC5nLDDkRqHpCXd-G5Yw?authuser=0&hl=en&rclk=1",
        "coordinates": {
            "latitude": 28.11967,
            "longitude": 77.5606292
        }
    },
    {
        "name": "Nagla Chhitar, Masjid (Pocket-6&7)",
        "main_category": "Mosque",
        "address": "4H68+3C4 Nagla Chhitar, Masjid (Pocket-6&7), Jewar Banger, Uttar Pradesh 203135",
        "detailed_address": {
            "ward": null,
            "street": "4H68+3C4",
            "city": "Jewar Banger",
            "postal_code": null,
            "state": "Uttar Pradesh",
            "country_code": "IN"
        },
        "images": [],
        "link": "https://www.google.com/maps/place/Nagla+Chhitar,+Masjid+%28Pocket-6%267%29/data=!4m7!3m6!1s0x390cb5e284484151:0xc15e1bf538197e5!8m2!3d28.1101268!4d77.5660921!16s%2Fg%2F11rtd9w39p!19sChIJUUFIhOK1DDkR5ZeBU7_hFQw?authuser=0&hl=en&rclk=1",
        "coordinates": {
            "latitude": 28.1101268,
            "longitude": 77.56609209999999
        }
    },
    {
        "name": "Ansariyan Masjid",
        "main_category": "Mosque",
        "address": "4HC5+J63 Ansariyan Masjid, Jewar, Uttar Pradesh 203135",
        "detailed_address": {
            "ward": null,
            "street": "4HC5+J63",
            "city": "Jewar",
            "postal_code": "203135",
            "state": "Uttar Pradesh",
            "country_code": "IN"
        },
        "images": [],
        "link": "https://www.google.com/maps/place/Ansariyan+Masjid/data=!4m7!3m6!1s0x390ccaa130c77d87:0x770a1aea6578f623!8m2!3d28.1215245!4d77.5580555!16s%2Fg%2F11dzt3606k!19sChIJh33HMKHKDDkRI_Z4ZeoaCnc?authuser=0&hl=en&rclk=1",
        "coordinates": {
            "latitude": 28.1215245,
            "longitude": 77.5580555
        }
    },
    {
        "name": "Ayesha Mosque",
        "main_category": "Mosque",
        "address": "4HC4+7FQ Ayesha Mosque, Jewar, Uttar Pradesh 203135",
        "detailed_address": {
            "ward": null,
            "street": "4HC4+7FQ",
            "city": "Jewar",
            "postal_code": "203135",
            "state": "Uttar Pradesh",
            "country_code": "IN"
        },
        "images": [],
        "link": "https://www.google.com/maps/place/Ayesha+Mosque/data=!4m7!3m6!1s0x390ccaa400000001:0xe2a16139641e7689!8m2!3d28.1207148!4d77.556235!16s%2Fg%2F11g8vwqc0q!19sChIJAQAAAKTKDDkRiXYeZDlhoeI?authuser=0&hl=en&rclk=1",
        "coordinates": {
            "latitude": 28.1207148,
            "longitude": 77.556235
        }
    },
    {
        "name": "Jafar Nagar Masjid",
        "main_category": "Mosque",
        "address": "GCPW+CX Jafar Nagar Masjid, Kulesara, Greater Noida, Uttar Pradesh 201306",
        "detailed_address": {
            "ward": "Kulesara",
            "street": "GCPW+CX",
            "city": "Greater Noida",
            "postal_code": null,
            "state": "Uttar Pradesh",
            "country_code": "IN"
        },
        "images": [],
        "link": "https://www.google.com/maps/place/Jafar+Nagar+Masjid/data=!4m7!3m6!1s0x390ce9ad38dcdb91:0x2d6a8e92f67c00d1!8m2!3d28.5360757!4d77.4474791!16s%2Fg%2F11swrzhqlk!19sChIJkdvcOK3pDDkR0QB89pKOai0?authuser=0&hl=en&rclk=1",
        "coordinates": {
            "latitude": 28.536075699999998,
            "longitude": 77.4474791
        }
    },
    {
        "name": "Raza Masjid (Ahle sunnat Wal jamaat)Jewar Gotam budh nagar",
        "main_category": "Mosque",
        "address": "4HF2+HQ9 Raza Masjid (Ahle sunnat Wal jamaat)Jewar Gotam budh nagar, Connector Rd, Jewar, Uttar Pradesh 203135",
        "detailed_address": {
            "ward": null,
            "street": "4HF2+HQ9, Connector Rd",
            "city": "Jewar",
            "postal_code": "203135",
            "state": "Uttar Pradesh",
            "country_code": "IN"
        },
        "images": [],
        "link": "https://www.google.com/maps/place/Raza+Masjid+%28Ahle+sunnat+Wal+jamaat%29Jewar+Gotam+budh+nagar/data=!4m7!3m6!1s0x390ccba601f792d5:0xc874a156cf629f1c!8m2!3d28.1239383!4d77.551805!16s%2Fg%2F11tt2l7d_h!19sChIJ1ZL3AabLDDkRHJ9iz1ahdMg?authuser=0&hl=en&rclk=1",
        "coordinates": {
            "latitude": 28.1239383,
            "longitude": 77.551805
        }
    },
    {
        "name": "BAZAAR WALI MASJID",
        "main_category": "Mosque",
        "address": "4HC4+RWW BAZAAR WALI MASJID, Jewar, Uttar Pradesh 203135",
        "detailed_address": {
            "ward": null,
            "street": "4HC4+RWW",
            "city": "Jewar",
            "postal_code": "203135",
            "state": "Uttar Pradesh",
            "country_code": "IN"
        },
        "images": [
            {
                "about": "All",
                "link": "https://lh5.googleusercontent.com/p/AF1QipOTS4AY85E_7KGdf4ggT88Krfc1pzUFjh9VvH_g=w224-h298-k-no"
            }
        ],
        "link": "https://www.google.com/maps/place/BAZAAR+WALI+MASJID/data=!4m7!3m6!1s0x390ccbeb2627212b:0x6e19be57ce7182aa!8m2!3d28.1220655!4d77.5572699!16s%2Fg%2F11v5zgj_gy!19sChIJKyEnJuvLDDkRqoJxzle-GW4?authuser=0&hl=en&rclk=1",
        "coordinates": {
            "latitude": 28.122065499999998,
            "longitude": 77.5572699
        }
    }
]