[
    {
        "name": "Peer Baba Ki Masjid( Mama Bhanja ki Dargah)",
        "main_category": "Mosque",
        "address": "7384+3WG Peer Baba Ki Masjid( Mama Bhanja ki Dargah), Lohari Ragho, Haryana 125039",
        "detailed_address": {
            "ward": null,
            "street": "7384+3WG",
            "city": "Lohari Ragho",
            "postal_code": "125039",
            "state": "Haryana",
            "country_code": "IN"
        },
        "images": [
            {
                "about": "All",
                "link": "https://lh5.googleusercontent.com/p/AF1QipO0Ien40ei6QjgxHatphIm7tD-d2hmg7flR4n7x=w224-h398-k-no"
            }
        ],
        "link": "https://www.google.com/maps/place/Peer+Baba+Ki+Masjid%28+Mama+Bhanja+ki+Dargah%29/data=!4m7!3m6!1s0x391222ebe8065f29:0xd293ef0fc2498dd8!8m2!3d29.265177!4d76.0573374!16s%2Fg%2F11hczjvl6t!19sChIJKV8G6OsiEjkR2I1Jwg_vk9I?authuser=0&hl=en&rclk=1",
        "coordinates": {
            "latitude": 29.265176999999998,
            "longitude": 76.0573374
        }
    },
    {
        "name": "Masjid Khara Rangran",
        "main_category": "Mosque",
        "address": "5747+3V6 Masjid Khara Rangran, Haryana 125038",
        "detailed_address": {
            "ward": null,
            "street": "5747+3V6",
            "city": null,
            "postal_code": "125038",
            "state": "Haryana",
            "country_code": "IN"
        },
        "images": [
            {
                "about": "All",
                "link": "https://lh5.googleusercontent.com/p/AF1QipP9h2Fy57scgQlXgUq4ikqsj7NIRGdK3fkme_jL=w224-h398-k-no"
            },
            {
                "about": "Dome",
                "link": "https://lh5.googleusercontent.com/p/AF1QipPeL5sMKfMGIq2oFXWecCZTty4F6e0YrJ9XbpAr=w397-h298-k-no"
            },
            {
                "about": "Videos",
                "link": "https://lh5.googleusercontent.com/p/AF1QipP8lgiOTgT74PwNDUMFp2iy16zTQ4RAPDXTwl2H=w224-h398-k-no"
            }
        ],
        "link": "https://www.google.com/maps/place/Masjid+Khara+Rangran/data=!4m7!3m6!1s0x3912120f2ff462a1:0xb1fd6e7edad91fd0!8m2!3d29.1551566!4d76.2646305!16s%2Fg%2F11dz0nbv4n!19sChIJoWL0Lw8SEjkR0B_Z2n5u_bE?authuser=0&hl=en&rclk=1",
        "coordinates": {
            "latitude": 29.155156599999998,
            "longitude": 76.2646305
        }
    },
    {
        "name": "Shahi Jama Masjid Sisai Imam Molana Mohammed Rashid",
        "main_category": "Mosque",
        "address": "Shahi Jama Masjid Sisai Imam Molana Mohammed Rashid, Sisai, Haryana 125049",
        "detailed_address": {
            "ward": null,
            "street": null,
            "city": "Sisai",
            "postal_code": "125049",
            "state": "Haryana",
            "country_code": "IN"
        },
        "images": [
            {
                "about": "All",
                "link": "https://lh5.googleusercontent.com/p/AF1QipMKMNeXY1lmMS3WWPYc8ulWY5nYnQ3rJl3oKKAO=w397-h298-k-no"
            }
        ],
        "link": "https://www.google.com/maps/place/Shahi+Jama+Masjid+Sisai+Imam+Molana+Mohammed+Rashid/data=!4m7!3m6!1s0x39123d94458ab58d:0xbaa56c4bd0241a4c!8m2!3d29.1777536!4d76.0076912!16s%2Fg%2F11gwmgy4tg!19sChIJjbWKRZQ9EjkRTBok0Etspbo?authuser=0&hl=en&rclk=1",
        "coordinates": {
            "latitude": 29.1777536,
            "longitude": 76.0076912
        }
    },
    {
        "name": "Muhammadiya Masjid",
        "main_category": "Mosque",
        "address": "335P+G69 Muhammadiya Masjid, Garhi, Haryana 125033",
        "detailed_address": {
            "ward": null,
            "street": "335P+G69",
            "city": "Garhi",
            "postal_code": null,
            "state": "Haryana",
            "country_code": "IN"
        },
        "images": [],
        "link": "https://www.google.com/maps/place/Muhammadiya+Masjid/data=!4m7!3m6!1s0x39126b9f39137f05:0xebd359852b0b566f!8m2!3d29.0587757!4d76.085601!16s%2Fg%2F11hzwzhh9n!19sChIJBX8TOZ9rEjkRb1YLK4VZ0-s?authuser=0&hl=en&rclk=1",
        "coordinates": {
            "latitude": 29.058775699999998,
            "longitude": 76.085601
        }
    },
    {
        "name": "Ahmadiya Muslim Mosque",
        "main_category": "Mosque",
        "address": "75F4+WXW Ahmadiya Muslim Mosque, Narnaund, Milak Pur, Haryana 125039",
        "detailed_address": {
            "ward": null,
            "street": "75F4+WXW",
            "city": "Narnaund, Milak Pur",
            "postal_code": null,
            "state": "Haryana",
            "country_code": "IN"
        },
        "images": [],
        "link": "https://www.google.com/maps/place/Ahmadiya+Muslim+Mosque/data=!4m7!3m6!1s0x3912192ce27175d1:0xf24182d81ebb5cc0!8m2!3d29.2748521!4d76.157453!16s%2Fg%2F11shq2bx45!19sChIJ0XVx4iwZEjkRwFy7HtiCQfI?authuser=0&hl=en&rclk=1",
        "coordinates": {
            "latitude": 29.2748521,
            "longitude": 76.15745299999999
        }
    },
    {
        "name": "Jama Masjid Lohari Ragho",
        "main_category": "Mosque",
        "address": "7363+4G6 Jama Masjid Lohari Ragho, Lohari Ragho, Haryana 125039",
        "detailed_address": {
            "ward": null,
            "street": "7363+4G6",
            "city": "Lohari Ragho",
            "postal_code": "125039",
            "state": "Haryana",
            "country_code": "IN"
        },
        "images": [],
        "link": "https://www.google.com/maps/place/Jama+Masjid+Lohari+Ragho/data=!4m7!3m6!1s0x391223823ab0bf5b:0x6b5ca1c13368666d!8m2!3d29.2602828!4d76.0537748!16s%2Fg%2F11k9kbwfbk!19sChIJW7-wOoIjEjkRbWZoM8GhXGs?authuser=0&hl=en&rclk=1",
        "coordinates": {
            "latitude": 29.2602828,
            "longitude": 76.0537748
        }
    },
    {
        "name": "Masjid",
        "main_category": "Mosque",
        "address": "63GC+3CP Masjid, Moth, shb, Haryana 125039",
        "detailed_address": {
            "ward": null,
            "street": "63GC+3CP",
            "city": "Moth, shb",
            "postal_code": "125039",
            "state": "Haryana",
            "country_code": "IN"
        },
        "images": [],
        "link": "https://www.google.com/maps/place/Masjid/data=!4m7!3m6!1s0x39123d0000774e33:0x5d0356c18740fb1e!8m2!3d29.2253886!4d76.0711977!16s%2Fg%2F11y28zljv3!19sChIJM053AAA9EjkRHvtAh8FWA10?authuser=0&hl=en&rclk=1",
        "coordinates": {
            "latitude": 29.2253886,
            "longitude": 76.0711977
        }
    },
    {
        "name": "Narnaund",
        "main_category": null,
        "address": "Narnaund, Haryana 125039",
        "detailed_address": {
            "ward": null,
            "street": null,
            "city": "Narnaund",
            "postal_code": null,
            "state": "Haryana",
            "country_code": "IN"
        },
        "images": [
            {
                "about": "All",
                "link": "https://lh5.googleusercontent.com/p/AF1QipPY_0Ym-6xKFxRz6X-RzDdLid9LU0nXQDo1oKeS=w224-h488-k-no"
            },
            {
                "about": "Videos",
                "link": "https://lh5.googleusercontent.com/p/AF1QipNGqrFc8aNAuc_5fseHU_-aBPATpPqycNu-6l-Y=w224-h398-k-no"
            }
        ],
        "link": "https://www.google.com/maps/place/Narnaund/data=!4m7!3m6!1s0x39121711d87ba369:0xd31a87128bfaa31b!8m2!3d29.2212667!4d76.1406925!16zL20vMGY1c25k!19sChIJaaN72BEXEjkRG6P6ixKHGtM?authuser=0&hl=en&rclk=1",
        "coordinates": {
            "latitude": 29.221266699999997,
            "longitude": 76.1406925
        }
    }
]