[
    {
        "name": "Masjid",
        "main_category": "Mosque",
        "address": "3F2J+QV8 Masjid, Majeeth St, Periyar Nagar, Harur, Tamil Nadu 636903",
        "detailed_address": {
            "ward": "Periyar Nagar",
            "street": "3F2J+QV8, Majeeth St",
            "city": "Harur",
            "postal_code": "636903",
            "state": "Tamil Nadu",
            "country_code": "IN"
        },
        "images": [
            {
                "about": "All",
                "link": "https://lh5.googleusercontent.com/p/AF1QipNWGKExKnDZjfhh7mtMvnpbCeAqcO1FfMw-chwn=w529-h298-k-no"
            },
            {
                "about": "Dome",
                "link": "https://lh5.googleusercontent.com/p/AF1QipPVTrM5auFW6MoEzgPlBRapf7QyMLpGMeso1TVU=w224-h398-k-no"
            }
        ],
        "link": "https://www.google.com/maps/place/Masjid/data=!4m7!3m6!1s0x3bac657ba005eeff:0x34c1134dc025ccc2!8m2!3d12.0519045!4d78.4821881!16s%2Fg%2F11dynzpr79!19sChIJ_-4FoHtlrDsRwswlwE0TwTQ?authuser=0&hl=en&rclk=1",
        "coordinates": {
            "latitude": 12.0519045,
            "longitude": 78.4821881
        }
    },
    {
        "name": "Harur Para Jumma Masjid",
        "main_category": "Mosque",
        "address": "4HFM+926 Harur Para Jumma Masjid, Taraf Rasulpurpatnipara, West Bengal 742305",
        "detailed_address": {
            "ward": null,
            "street": "4HFM+926",
            "city": "Taraf Rasulpurpatnipara",
            "postal_code": null,
            "state": "West Bengal",
            "country_code": "IN"
        },
        "images": [
            {
                "about": "All",
                "link": "https://lh5.googleusercontent.com/p/AF1QipMVMVjy3gq-G_nKpSQocPcqZIMhn8d_MGW929Tv=w224-h298-k-no"
            },
            {
                "about": "Videos",
                "link": "https://lh5.googleusercontent.com/p/AF1QipN2gTP-doB9A2D28E5-YF-4gnHbjhSsBzQkFGNR=w224-h398-k-no"
            }
        ],
        "link": "https://www.google.com/maps/place/Harur+Para+Jumma+Masjid/data=!4m7!3m6!1s0x39f959aceb6556bb:0x7c6889fddb3f1207!8m2!3d24.1234119!4d88.5825162!16s%2Fg%2F11h1dc1h3t!19sChIJu1Zl66xZ-TkRBxI_2_2JaHw?authuser=0&hl=en&rclk=1",
        "coordinates": {
            "latitude": 24.123411899999997,
            "longitude": 88.5825162
        }
    },
    {
        "name": "Masjidhae Noor",
        "main_category": "Mosque",
        "address": "3F3G+8WH Masjidhae Noor, Harur, Tamil Nadu 636903",
        "detailed_address": {
            "ward": null,
            "street": "3F3G+8WH",
            "city": "Harur",
            "postal_code": "636903",
            "state": "Tamil Nadu",
            "country_code": "IN"
        },
        "images": [],
        "link": "https://www.google.com/maps/place/Masjidhae+Noor/data=!4m7!3m6!1s0x3bac657dc8acfce5:0xf51477fbd457f6ce!8m2!3d12.0533196!4d78.4773581!16s%2Fg%2F11c2j1qx72!19sChIJ5fysyH1lrDsRzvZX1Pt3FPU?authuser=0&hl=en&rclk=1",
        "coordinates": {
            "latitude": 12.0533196,
            "longitude": 78.47735809999999
        }
    },
    {
        "name": "Thowheed Markas",
        "main_category": "Mosque",
        "address": "3F2H+VG3 Thowheed Markas, Harur, Tamil Nadu 636903",
        "detailed_address": {
            "ward": null,
            "street": "3F2H+VG3",
            "city": "Harur",
            "postal_code": "636903",
            "state": "Tamil Nadu",
            "country_code": "IN"
        },
        "images": [],
        "link": "https://www.google.com/maps/place/Thowheed+Markas/data=!4m7!3m6!1s0x3bac657c5a69aa65:0x43617ec642a495c6!8m2!3d12.0521356!4d78.4787971!16s%2Fg%2F11c1lk05pl!19sChIJZappWnxlrDsRxpWkQsZ-YUM?authuser=0&hl=en&rclk=1",
        "coordinates": {
            "latitude": 12.0521356,
            "longitude": 78.4787971
        }
    }
]