[
    {
        "name": "SUNNI MADEENA MASJID",
        "main_category": "Mosque",
        "address": "H426+Q63 SUNNI MADEENA MASJID, Kalyandurg, Andhra Pradesh 515761",
        "detailed_address": {
            "ward": null,
            "street": "H426+Q63",
            "city": "Kalyandurg",
            "postal_code": "515761",
            "state": "Andhra Pradesh",
            "country_code": "IN"
        },
        "images": [
            {
                "about": "All",
                "link": "https://lh5.googleusercontent.com/p/AF1QipNUspx5FEaXbYqDX4uKhj6xYKhPY3Ad2QT9Oxez=w224-h298-k-no"
            },
            {
                "about": "Street View & 360deg",
                "link": "https://streetviewpixels-pa.googleapis.com/v1/thumbnail?panoid=V4BavWc4VHtC6Z8aV08roQ&cb_client=maps_sv.tactile.gps&w=224&h=298&yaw=267.33542&pitch=0&thumbfov=100"
            }
        ],
        "link": "https://www.google.com/maps/place/SUNNI+MADEENA+MASJID/data=!4m7!3m6!1s0x3bb0d6c9198386e5:0x383cc09652ef0b2b!8m2!3d14.5518853!4d77.1105604!16s%2Fg%2F11d_7s4n88!19sChIJ5YaDGcnWsDsRKwvvUpbAPDg?authuser=0&hl=en&rclk=1",
        "coordinates": {
            "latitude": 14.551885299999999,
            "longitude": 77.1105604
        }
    },
    {
        "name": "Masjid-e-Bilal",
        "main_category": "Mosque",
        "address": "H427+P4F Masjid-e-Bilal, Jaynagar, Kalyandurg, Andhra Pradesh 515761",
        "detailed_address": {
            "ward": "Jaynagar",
            "street": "H427+P4F",
            "city": "Kalyandurg",
            "postal_code": "515761",
            "state": "Andhra Pradesh",
            "country_code": "IN"
        },
        "images": [
            {
                "about": "All",
                "link": "https://lh5.googleusercontent.com/p/AF1QipMy7vu9HtNFIZ-2iQpX0BNEzQF3w4kTeaz_LXpL=w529-h298-k-no"
            },
            {
                "about": "Street View & 360deg",
                "link": "https://streetviewpixels-pa.googleapis.com/v1/thumbnail?panoid=73l8f4k5SNgXiyxXfESpDQ&cb_client=maps_sv.tactile.gps&w=224&h=298&yaw=11.320499&pitch=0&thumbfov=100"
            }
        ],
        "link": "https://www.google.com/maps/place/Masjid-e-Bilal/data=!4m7!3m6!1s0x3bb0d6c895ba43f1:0xc9435f0b61043790!8m2!3d14.5518116!4d77.1127999!16s%2Fg%2F11f15kd802!19sChIJ8UO6lcjWsDsRkDcEYQtfQ8k?authuser=0&hl=en&rclk=1",
        "coordinates": {
            "latitude": 14.551811599999999,
            "longitude": 77.1127999
        }
    },
    {
        "name": "Mecca Masjid",
        "main_category": "Mosque",
        "address": "H464+3X4 Mecca Masjid, Kalyandurg, Andhra Pradesh 515761",
        "detailed_address": {
            "ward": null,
            "street": "H464+3X4",
            "city": "Kalyandurg",
            "postal_code": "515761",
            "state": "Andhra Pradesh",
            "country_code": "IN"
        },
        "images": [
            {
                "about": "All",
                "link": "https://lh5.googleusercontent.com/p/AF1QipO0KL4tGPR8Y6Xm29JoU35FPXxJ6hsQVqFAlNXS=w529-h298-k-no"
            }
        ],
        "link": "https://www.google.com/maps/place/Mecca+Masjid/data=!4m7!3m6!1s0x3bb0d7a1c01a3589:0xe7047f70a6d8c4e6!8m2!3d14.5601377!4d77.1074484!16s%2Fg%2F11h_6sl35d!19sChIJiTUawKHXsDsR5sTYpnB_BOc?authuser=0&hl=en&rclk=1",
        "coordinates": {
            "latitude": 14.560137699999999,
            "longitude": 77.1074484
        }
    },
    {
        "name": "Jama masjid",
        "main_category": "Mosque",
        "address": "Jama masjid, 53, Meda St, Jaynagar, Kalyandurg, Andhra Pradesh 515761",
        "detailed_address": {
            "ward": "Jaynagar",
            "street": "53, Meda St",
            "city": "Kalyandurg",
            "postal_code": "515761",
            "state": "Andhra Pradesh",
            "country_code": "IN"
        },
        "images": [
            {
                "about": "All",
                "link": "https://streetviewpixels-pa.googleapis.com/v1/thumbnail?panoid=T2mkPkYvUKUUoLGeGwvCKg&cb_client=maps_sv.tactile.gps&w=224&h=298&yaw=304.43826&pitch=0&thumbfov=100"
            },
            {
                "about": "Street View & 360deg",
                "link": "https://streetviewpixels-pa.googleapis.com/v1/thumbnail?panoid=T2mkPkYvUKUUoLGeGwvCKg&cb_client=maps_sv.tactile.gps&w=224&h=298&yaw=304.43826&pitch=0&thumbfov=100"
            }
        ],
        "link": "https://www.google.com/maps/place/Jama+masjid/data=!4m7!3m6!1s0x3bb0d7766e1debb3:0xab8af1c3219b62a6!8m2!3d14.5491108!4d77.1076692!16s%2Fg%2F11p6hf0b76!19sChIJs-sdbnbXsDsRpmKbIcPxiqs?authuser=0&hl=en&rclk=1",
        "coordinates": {
            "latitude": 14.5491108,
            "longitude": 77.10766919999999
        }
    },
    {
        "name": "Masjid e azam",
        "main_category": "Mosque",
        "address": "H428+FW7 Masjid e azam, Marammapalli, Kalyandurg, Andhra Pradesh 515761",
        "detailed_address": {
            "ward": "Marammapalli",
            "street": "H428+FW7",
            "city": "Kalyandurg",
            "postal_code": null,
            "state": "Andhra Pradesh",
            "country_code": "IN"
        },
        "images": [],
        "link": "https://www.google.com/maps/place/Masjid+e+azam/data=!4m7!3m6!1s0x3bb0d78763f3e73f:0xdb40ae328e0bcca6!8m2!3d14.5511564!4d77.1173012!16s%2Fg%2F11t81myrfz!19sChIJP-fzY4fXsDsRpswLjjKuQNs?authuser=0&hl=en&rclk=1",
        "coordinates": {
            "latitude": 14.5511564,
            "longitude": 77.1173012
        }
    },
    {
        "name": "Madina Masjid",
        "main_category": "Mosque",
        "address": "H426+Q65 Madina Masjid, Kalyandurg, Andhra Pradesh 515761",
        "detailed_address": {
            "ward": null,
            "street": "H426+Q65",
            "city": "Kalyandurg",
            "postal_code": "515761",
            "state": "Andhra Pradesh",
            "country_code": "IN"
        },
        "images": [
            {
                "about": "All",
                "link": "https://streetviewpixels-pa.googleapis.com/v1/thumbnail?panoid=V4BavWc4VHtC6Z8aV08roQ&cb_client=maps_sv.tactile.gps&w=224&h=298&yaw=273.78473&pitch=0&thumbfov=100"
            },
            {
                "about": "Street View & 360deg",
                "link": "https://streetviewpixels-pa.googleapis.com/v1/thumbnail?panoid=V4BavWc4VHtC6Z8aV08roQ&cb_client=maps_sv.tactile.gps&w=224&h=298&yaw=273.78473&pitch=0&thumbfov=100"
            }
        ],
        "link": "https://www.google.com/maps/place/Madina+Masjid/data=!4m7!3m6!1s0x3bb0d796b4a155ad:0x463ab5cecd820df9!8m2!3d14.551899!4d77.1106005!16s%2Fg%2F11scqv9_0j!19sChIJrVWhtJbXsDsR-Q2Czc61OkY?authuser=0&hl=en&rclk=1",
        "coordinates": {
            "latitude": 14.551898999999999,
            "longitude": 77.11060049999999
        }
    },
    {
        "name": "Masjid E Quba",
        "main_category": "Mosque",
        "address": "H439+5W9 Masjid E Quba, Jaynagar, Kalyandurg, Andhra Pradesh 515761",
        "detailed_address": {
            "ward": "Jaynagar",
            "street": "H439+5W9",
            "city": "Kalyandurg",
            "postal_code": "515761",
            "state": "Andhra Pradesh",
            "country_code": "IN"
        },
        "images": [],
        "link": "https://www.google.com/maps/place/Masjid+E+Quba/data=!4m7!3m6!1s0x3bb0d708b801b2f5:0x8156286b02dd39c1!8m2!3d14.5530484!4d77.1197285!16s%2Fg%2F11qbb95gmn!19sChIJ9bIBuAjXsDsRwTndAmsoVoE?authuser=0&hl=en&rclk=1",
        "coordinates": {
            "latitude": 14.5530484,
            "longitude": 77.1197285
        }
    }
]