[
    {
        "name": "Jama Masjid Charkhi Dadri",
        "main_category": "Mosque",
        "address": "H7QF+W83 Jama Masjid Charkhi Dadri, Charkhi Dadri, Haryana 127306",
        "detailed_address": {
            "ward": null,
            "street": "H7QF+W83",
            "city": "Charkhi Dadri",
            "postal_code": "127306",
            "state": "Haryana",
            "country_code": "IN"
        },
        "images": [
            {
                "about": "All",
                "link": "https://lh5.googleusercontent.com/p/AF1QipO2TmJh_7xoTAPYziEJS7dbfW5lmTe5IJsQWxJU=w397-h298-k-no"
            },
            {
                "about": "Videos",
                "link": "https://lh5.googleusercontent.com/p/AF1QipM2ZL4ezUlQqRgR3SmN3eMhQIkx-rem1h2lobfc=w224-h453-k-no"
            }
        ],
        "link": "https://www.google.com/maps/place/Jama+Masjid+Charkhi+Dadri/data=!4m7!3m6!1s0x391285885475f529:0x54e2d9c369285371!8m2!3d28.5897633!4d76.2733052!16s%2Fg%2F11gbxcpsp0!19sChIJKfV1VIiFEjkRcVMoacPZ4lQ?authuser=0&hl=en&rclk=1",
        "coordinates": {
            "latitude": 28.589763299999998,
            "longitude": 76.2733052
        }
    },
    {
        "name": "Dadri Masiid",
        "main_category": "Mosque",
        "address": "H7QF+W8X Dadri Masiid, Masjid Rd, Charkhi Dadri, Haryana 127306",
        "detailed_address": {
            "ward": null,
            "street": "H7QF+W8X, Masjid Rd",
            "city": "Charkhi Dadri",
            "postal_code": "127306",
            "state": "Haryana",
            "country_code": "IN"
        },
        "images": [
            {
                "about": "All",
                "link": "https://lh5.googleusercontent.com/p/AF1QipOsTiacoAG1ZoUnENnsvG1farsbLow6mLC2iOgU=w224-h298-k-no"
            }
        ],
        "link": "https://www.google.com/maps/place/Dadri+Masiid/data=!4m7!3m6!1s0x3912858852f5c18b:0xf0df870fd68e75a1!8m2!3d28.5898577!4d76.2733643!16s%2Fg%2F11gbxcq95g!19sChIJi8H1UoiFEjkRoXWO1g-H3_A?authuser=0&hl=en&rclk=1",
        "coordinates": {
            "latitude": 28.5898577,
            "longitude": 76.2733643
        }
    },
    {
        "name": "Markaji jama Masjid chakla",
        "main_category": "Place of worship",
        "address": "H7VQ+GMF Markaji jama Masjid chakla, Ward No 06, Charkhi Dadri, Haryana 127306",
        "detailed_address": {
            "ward": "Ward No 06",
            "street": "H7VQ+GMF",
            "city": "Charkhi Dadri",
            "postal_code": "127306",
            "state": "Haryana",
            "country_code": "IN"
        },
        "images": [],
        "link": "https://www.google.com/maps/place/Markaji+jama+Masjid+chakla/data=!4m7!3m6!1s0x39128596a5555555:0xd3d50d8cf7631f48!8m2!3d28.5938077!4d76.2891693!16s%2Fg%2F11bv38lr1x!19sChIJVVVVpZaFEjkRSB9j94wN1dM?authuser=0&hl=en&rclk=1",
        "coordinates": {
            "latitude": 28.5938077,
            "longitude": 76.2891693
        }
    }
]