[
    {
        "name": "Gajapati Nagar JAMA MASJID Ahle Hadees (SALAFI)JATNI",
        "main_category": "Mosque",
        "address": "5P66+5X5 Gajapati Nagar JAMA MASJID Ahle Hadees (SALAFI)JATNI, Jatni, Khordha, Odisha 752050",
        "detailed_address": {
            "ward": null,
            "street": "5P66+5X5",
            "city": "Jatni, Khordha",
            "postal_code": "752050",
            "state": "Odisha",
            "country_code": "IN"
        },
        "images": [
            {
                "about": "All",
                "link": "https://lh5.googleusercontent.com/p/AF1QipN8OZqGbc2XuH8oRvL35clFMOeAEOeEo1M823IP=w224-h298-k-no"
            }
        ],
        "link": "https://www.google.com/maps/place/Gajapati+Nagar+JAMA+MASJID+Ahle+Hadees+%28SALAFI%29JATNI/data=!4m7!3m6!1s0x3a19aec27b5e59b9:0x2997a37159be73c6!8m2!3d20.160394!4d85.712476!16s%2Fg%2F11f03q2j98!19sChIJuVlee8KuGToRxnO-WXGjlyk?authuser=0&hl=en&rclk=1",
        "coordinates": {
            "latitude": 20.160394,
            "longitude": 85.712476
        }
    },
    {
        "name": "Jama Masjid Badi Masjid of Jatni Bhubaneswar",
        "main_category": "Mosque",
        "address": "5P63+477 Jama Masjid Badi Masjid of Jatni Bhubaneswar, Jatni, Bhubaneswar, Odisha 752050",
        "detailed_address": {
            "ward": "Ramchandrapur Bazar",
            "street": "5P63+477, Jatni",
            "city": "Bhubaneswar, Khordha",
            "postal_code": "752050",
            "state": "Odisha",
            "country_code": "IN"
        },
        "images": [
            {
                "about": "All",
                "link": "https://lh5.googleusercontent.com/p/AF1QipMZIeU7uIcTetZ8d3_j0cuEeM8lwVgKUXcO8Ukn=w397-h298-k-no"
            },
            {
                "about": "Street View & 360deg",
                "link": "https://streetviewpixels-pa.googleapis.com/v1/thumbnail?panoid=UZbEL2Kjg9DeUG03XlZQvw&cb_client=maps_sv.tactile.gps&w=224&h=298&yaw=325.37558&pitch=0&thumbfov=100"
            }
        ],
        "link": "https://www.google.com/maps/place/Jama+Masjid+Badi+Masjid+of+Jatni+Bhubaneswar/data=!4m7!3m6!1s0x3a19aebfcffa38a5:0x24ae400ea994bb9a!8m2!3d20.160289!4d85.7031619!16s%2Fg%2F11b90d5gjc!19sChIJpTj6z7-uGToRmruUqQ5AriQ?authuser=0&hl=en&rclk=1",
        "coordinates": {
            "latitude": 20.160289,
            "longitude": 85.7031619
        }
    },
    {
        "name": "Masjid e Aman msjd",
        "main_category": "Mosque",
        "address": "5P55+FVP Masjid e Aman msjd, Imambada, Phakad Basti, Raja Bazar, Jatni, Odisha 752050",
        "detailed_address": {
            "ward": "Raja Bazar",
            "street": "5P55+FVP, Imambada, Phakad Basti",
            "city": "Jatni, Khordha",
            "postal_code": "752050",
            "state": "Odisha",
            "country_code": "IN"
        },
        "images": [
            {
                "about": "All",
                "link": "https://lh5.googleusercontent.com/p/AF1QipPuBMthAEaL7XVGx25nIKSZA8lVMnNpfYzuWkAN=w224-h398-k-no"
            }
        ],
        "link": "https://www.google.com/maps/place/Masjid+e+Aman+%D9%85%D8%B3%D8%AC%D8%AF%E2%80%AD/data=!4m7!3m6!1s0x3a19aeea1a59bb85:0xc921de7d541b2fba!8m2!3d20.1587217!4d85.7097157!16s%2Fg%2F11dxrx4f5m!19sChIJhbtZGuquGToRui8bVH3eIck?authuser=0&hl=en&rclk=1",
        "coordinates": {
            "latitude": 20.158721699999997,
            "longitude": 85.70971569999999
        }
    },
    {
        "name": "Mosque, Retang Colony Sunni Masjid",
        "main_category": "Mosque",
        "address": "5P78+HPX Mosque, Retang Colony Sunni Masjid, Retang Colony, Jatni, Odisha 752050",
        "detailed_address": {
            "ward": "Retang Colony",
            "street": "5P78+HPX",
            "city": "Jatni",
            "postal_code": "752050",
            "state": "Odisha",
            "country_code": "IN"
        },
        "images": [
            {
                "about": "All",
                "link": "https://lh5.googleusercontent.com/p/AF1QipNwPpLNFhKQvr6jh6MWwS1vOYcclEtrUp8Wq4Tx=w224-h298-k-no"
            },
            {
                "about": "Dome",
                "link": "https://lh5.googleusercontent.com/p/AF1QipNArtI4X8mxVYlP7o9Hp2XsQ6vJYKtO0q1cC_rb=w224-h298-k-no"
            },
            {
                "about": "Street View & 360deg",
                "link": "https://streetviewpixels-pa.googleapis.com/v1/thumbnail?panoid=6HFI8lMnHlTvLxc3KNyGjw&cb_client=maps_sv.tactile.gps&w=224&h=298&yaw=84.32828&pitch=0&thumbfov=100"
            }
        ],
        "link": "https://www.google.com/maps/place/Mosque,+Retang+Colony+Sunni+Masjid/data=!4m7!3m6!1s0x3a19aedcebc390b7:0xae13dcea8dc19ba1!8m2!3d20.1639877!4d85.7168678!16s%2Fg%2F1hjgkx15k!19sChIJt5DD69yuGToRoZvBjercE64?authuser=0&hl=en&rclk=1",
        "coordinates": {
            "latitude": 20.1639877,
            "longitude": 85.7168678
        }
    },
    {
        "name": "Choti Masjid",
        "main_category": "Mosque",
        "address": "5P47+V8W Choti Masjid, Jatni, Khordha, Odisha 752050",
        "detailed_address": {
            "ward": null,
            "street": "5P47+V8W",
            "city": "Jatni, Khordha",
            "postal_code": "752050",
            "state": "Odisha",
            "country_code": "IN"
        },
        "images": [
            {
                "about": "All",
                "link": "https://lh5.googleusercontent.com/p/AF1QipNQMsTzZ2woadAIu83AXy3xNNB7N6aqUylGWBev=w224-h488-k-no"
            }
        ],
        "link": "https://www.google.com/maps/place/Choti+Masjid/data=!4m7!3m6!1s0x3a19aee850da65fd:0x742622a1d25a4525!8m2!3d20.1572263!4d85.713318!16s%2Fg%2F11c38grhxf!19sChIJ_WXaUOiuGToRJUVa0qEiJnQ?authuser=0&hl=en&rclk=1",
        "coordinates": {
            "latitude": 20.157226299999998,
            "longitude": 85.713318
        }
    },
    {
        "name": "Madina Masjid",
        "main_category": "Mosque",
        "address": "5P85+49M Madina Masjid, Jatni, Odisha 752050",
        "detailed_address": {
            "ward": null,
            "street": "5P85+49M",
            "city": "Jatni",
            "postal_code": null,
            "state": "Odisha",
            "country_code": "IN"
        },
        "images": [
            {
                "about": "All",
                "link": "https://lh5.googleusercontent.com/p/AF1QipOpPhtz_o62Zk85aMxwlqTKDhGY1gzyUSOREpar=w596-h298-k-no"
            },
            {
                "about": "Videos",
                "link": "https://lh5.googleusercontent.com/p/AF1QipOU3Iqap_eYC_B0rl2zMvZafCnfFQPpoU23CPrP=w529-h298-k-no"
            }
        ],
        "link": "https://www.google.com/maps/place/Madina+Masjid/data=!4m7!3m6!1s0x3a19aff872bcc2dd:0xb93865c8ee441359!8m2!3d20.1653328!4d85.708421!16s%2Fg%2F11gsmn6j9s!19sChIJ3cK8cvivGToRWRNE7shlOLk?authuser=0&hl=en&rclk=1",
        "coordinates": {
            "latitude": 20.165332799999998,
            "longitude": 85.708421
        }
    },
    {
        "name": "Ramzani Masjid rmzaanii msjid, sauNdaa",
        "main_category": "Mosque",
        "address": "MVR3+M7J Ramzani Masjid rmzaanii msjid, sauNdaa, Sonda, Baqipur Jatni, Uttar Pradesh 244413",
        "detailed_address": {
            "ward": null,
            "street": "MVR3+M7J",
            "city": "Sonda, Baqipur Jatni",
            "postal_code": "244413",
            "state": "Uttar Pradesh",
            "country_code": "IN"
        },
        "images": [
            {
                "about": "All",
                "link": "https://lh5.googleusercontent.com/p/AF1QipMihBFZrYepBEjhg00rnHBF2ByQuB1deeaDn7Gs=w397-h298-k-no"
            }
        ],
        "link": "https://www.google.com/maps/place/Ramzani+Masjid+%E0%A4%B0%E0%A4%AE%E0%A5%9B%E0%A4%BE%E0%A4%A8%E0%A5%80+%E0%A4%AE%E0%A4%B8%E0%A5%8D%E0%A4%9C%E0%A4%BF%E0%A4%A6,+%E0%A4%B8%E0%A5%8C%E0%A4%82%E0%A4%A6%E0%A4%BE/data=!4m7!3m6!1s0x390aef95c4ee4c01:0x7e4ff4eb21bd8ded!8m2!3d28.6917165!4d78.8531256!16s%2Fg%2F11rc48mycg!19sChIJAUzuxJXvCjkR7Y29Iev0T34?authuser=0&hl=en&rclk=1",
        "coordinates": {
            "latitude": 28.6917165,
            "longitude": 78.8531256
        }
    },
    {
        "name": "Sabri masjid",
        "main_category": "Mosque",
        "address": "PV38+2HQ Sabri masjid, Unnamed Road, Baqipur Jatni, Uttar Pradesh 244413",
        "detailed_address": {
            "ward": null,
            "street": "PV38+2HQ, Unnamed Road",
            "city": "Baqipur Jatni",
            "postal_code": "244413",
            "state": "Uttar Pradesh",
            "country_code": "IN"
        },
        "images": [
            {
                "about": "All",
                "link": "https://lh5.googleusercontent.com/p/AF1QipMnhmy9oJvp9-3XDkvou-PvL5NJ2qp1cdD9YuK0=w529-h298-k-no"
            },
            {
                "about": "Videos",
                "link": "https://lh5.googleusercontent.com/p/AF1QipMSg8ALuC16Me3j8XOkQ0zVc8sL4s9ak6XEBZ1v=w224-h398-k-no"
            }
        ],
        "link": "https://www.google.com/maps/place/Sabri+masjid/data=!4m7!3m6!1s0x390aefde660ead57:0x844df1f6854dbda1!8m2!3d28.7025926!4d78.8664803!16s%2Fg%2F11ny0ktcwt!19sChIJV60OZt7vCjkRob1NhfbxTYQ?authuser=0&hl=en&rclk=1",
        "coordinates": {
            "latitude": 28.7025926,
            "longitude": 78.86648029999999
        }
    },
    {
        "name": "Hussaini Imambargah",
        "main_category": "Mosque",
        "address": "5P75+VJH Hussaini Imambargah, Balichhack mundia sahi, Jatni, Odisha",
        "detailed_address": {
            "ward": null,
            "street": "5P75+VJH, Balichhack mundia sahi",
            "city": "Jatni",
            "postal_code": null,
            "state": "Odisha",
            "country_code": "IN"
        },
        "images": [
            {
                "about": "All",
                "link": "https://streetviewpixels-pa.googleapis.com/v1/thumbnail?panoid=xakLJxzmhQywraN62DfWEw&cb_client=maps_sv.tactile.gps&w=224&h=298&yaw=5.197277&pitch=0&thumbfov=100"
            },
            {
                "about": "Street View & 360deg",
                "link": "https://streetviewpixels-pa.googleapis.com/v1/thumbnail?panoid=xakLJxzmhQywraN62DfWEw&cb_client=maps_sv.tactile.gps&w=224&h=298&yaw=5.197277&pitch=0&thumbfov=100"
            }
        ],
        "link": "https://www.google.com/maps/place/Hussaini+Imambargah/data=!4m7!3m6!1s0x3a19afac0b973a11:0x7acb874e8bc0e5e8!8m2!3d20.1646942!4d85.7090962!16s%2Fg%2F11my7dh9g3!19sChIJETqXC6yvGToR6OXAi06Hy3o?authuser=0&hl=en&rclk=1",
        "coordinates": {
            "latitude": 20.1646942,
            "longitude": 85.70909619999999
        }
    },
    {
        "name": "Masjid-E-Noorani",
        "main_category": "Mosque",
        "address": "PV53+3V6 Masjid-E-Noorani, Nagla Jatni, Uttar Pradesh 244104",
        "detailed_address": {
            "ward": null,
            "street": "PV53+3V6",
            "city": "Nagla Jatni",
            "postal_code": null,
            "state": "Uttar Pradesh",
            "country_code": "IN"
        },
        "images": [],
        "link": "https://www.google.com/maps/place/Masjid-E-Noorani/data=!4m7!3m6!1s0x390aeffe27035121:0x240132b3b81806b5!8m2!3d28.7076525!4d78.8546405!16s%2Fg%2F11rr8t0wxp!19sChIJIVEDJ_7vCjkRtQYYuLMyASQ?authuser=0&hl=en&rclk=1",
        "coordinates": {
            "latitude": 28.7076525,
            "longitude": 78.8546405
        }
    },
    {
        "name": "Noorani masjid",
        "main_category": "Place of worship",
        "address": "PV32+7X3 Noorani masjid, Nagla Jatni, Uttar Pradesh 244104",
        "detailed_address": {
            "ward": null,
            "street": "PV32+7X3",
            "city": "Nagla Jatni",
            "postal_code": null,
            "state": "Uttar Pradesh",
            "country_code": "IN"
        },
        "images": [],
        "link": "https://www.google.com/maps/place/Noorani+masjid/data=!4m7!3m6!1s0x390aef7ba1f84191:0x2620b939421bd179!8m2!3d28.7031422!4d78.8524199!16s%2Fg%2F11sqhcgl32!19sChIJkUH4oXvvCjkRedEbQjm5ICY?authuser=0&hl=en&rclk=1",
        "coordinates": {
            "latitude": 28.7031422,
            "longitude": 78.8524199
        }
    }
]