[
    {
        "name": "Dabra Wali Masjid",
        "main_category": "Mosque",
        "address": "V4WQ+JG7 Dabra Wali Masjid, Mundheta, Haryana 122508",
        "detailed_address": {
            "ward": null,
            "street": "V4WQ+JG7",
            "city": "Mundheta",
            "postal_code": "122508",
            "state": "Haryana",
            "country_code": "IN"
        },
        "images": [
            {
                "about": "All",
                "link": "https://lh5.googleusercontent.com/p/AF1QipPbxM7TbzmyhqTgQAYUvN7iAx7IU1HldJYIMV2V=w624-h298-k-no"
            }
        ],
        "link": "https://www.google.com/maps/place/Dabra+Wali+Masjid/data=!4m7!3m6!1s0x3972d7faa056d5e9:0x8469e021777de6e7!8m2!3d27.8965462!4d77.1387868!16s%2Fg%2F11g4j7n5kc!19sChIJ6dVWoPrXcjkR5-Z9dyHgaYQ?authuser=0&hl=en&rclk=1",
        "coordinates": {
            "latitude": 27.8965462,
            "longitude": 77.13878679999999
        }
    },
    {
        "name": "Jama Masjid Dabra",
        "main_category": "Mosque",
        "address": "V8RM+CVH Jama Masjid Dabra, Dabra, Madhya Pradesh 475110",
        "detailed_address": {
            "ward": null,
            "street": "V8RM+CVH",
            "city": "Dabra",
            "postal_code": "475110",
            "state": "Madhya Pradesh",
            "country_code": "IN"
        },
        "images": [
            {
                "about": "All",
                "link": "https://lh5.googleusercontent.com/p/AF1QipM3GAY1gh3M6OalMSYjrC0fCTwIQ0ikIY2NYs1x=w224-h298-k-no"
            },
            {
                "about": "Street View & 360deg",
                "link": "https://streetviewpixels-pa.googleapis.com/v1/thumbnail?panoid=tHYuClzlS_YQDUo5U5TANg&cb_client=maps_sv.tactile.gps&w=224&h=298&yaw=264.72186&pitch=0&thumbfov=100"
            },
            {
                "about": "Videos",
                "link": "https://lh5.googleusercontent.com/p/AF1QipPTJ1hU8zXotpU0zmyH_fshh1s480M1J2CMvCyY=w224-h395-k-no"
            }
        ],
        "link": "https://www.google.com/maps/place/Jama+Masjid+Dabra/data=!4m7!3m6!1s0x39771f03a3a3a0d1:0x3fec60009dc4d8b8!8m2!3d25.8910636!4d78.334726!16s%2Fg%2F11hc_xcqh9!19sChIJ0aCjowMfdzkRuNjEnQBg7D8?authuser=0&hl=en&rclk=1",
        "coordinates": {
            "latitude": 25.8910636,
            "longitude": 78.334726
        }
    },
    {
        "name": "Dabra wali Masjid",
        "main_category": "Mosque",
        "address": "W22G+72M Dabra wali Masjid, Jalalpur Ferozepur, Haryana 122108",
        "detailed_address": {
            "ward": null,
            "street": "W22G+72M",
            "city": "Jalalpur Ferozepur",
            "postal_code": "122108",
            "state": "Haryana",
            "country_code": "IN"
        },
        "images": [
            {
                "about": "All",
                "link": "https://lh5.googleusercontent.com/p/AF1QipNV0xX6JCMRihT-j8QFDh94A_zwvm2senEory0y=w397-h298-k-no"
            },
            {
                "about": "Dome",
                "link": "https://lh5.googleusercontent.com/p/AF1QipMsonBixgThDciJS0uBGd1hlPih4uysnfp_Mkm_=w397-h298-k-no"
            }
        ],
        "link": "https://www.google.com/maps/place/Dabra+wali+Masjid/data=!4m7!3m6!1s0x3972d175486812b9:0x52db4b031e78813b!8m2!3d27.9007025!4d77.0250554!16s%2Fg%2F11fq2vgdbm!19sChIJuRJoSHXRcjkRO4F4HgNL21I?authuser=0&hl=en&rclk=1",
        "coordinates": {
            "latitude": 27.900702499999998,
            "longitude": 77.0250554
        }
    }
]