[
    {
        "name": "Badi Masjid",
        "main_category": "Mosque",
        "address": "GCM8+VGW Badi Masjid, MDR 10E, Purani Bazar, Tulsipur, Uttar Pradesh 271210",
        "detailed_address": {
            "ward": "Purani Bazar",
            "street": "GCM8+VGW, MDR 10E",
            "city": "Tulsipur",
            "postal_code": "271210",
            "state": "Uttar Pradesh",
            "country_code": "IN"
        },
        "images": [
            {
                "about": "All",
                "link": "https://lh5.googleusercontent.com/p/AF1QipPqKPHxh69lFqGZ3m1ZgLgc39ZMYKVLeKPqb_Yd=w224-h395-k-no"
            }
        ],
        "link": "https://www.google.com/maps/place/Badi+Masjid/data=!4m7!3m6!1s0x39977026b89919e1:0x3a6312c12efde039!8m2!3d27.534745!4d82.416328!16s%2Fg%2F1yg6nr85n!19sChIJ4RmZuCZwlzkROeD9LsESYzo?authuser=0&hl=en&rclk=1",
        "coordinates": {
            "latitude": 27.534744999999997,
            "longitude": 82.416328
        }
    },
    {
        "name": "Jamiat Ahle Hadees Masjid",
        "main_category": "Mosque",
        "address": "GCG8+4QH Jamiat Ahle Hadees Masjid, Nai bazar, purwa, Tulsipur, Balrampur, Uttar Pradesh pin no:271208",
        "detailed_address": {
            "ward": "Nai bazar, purwa",
            "street": "GCG8+4QH",
            "city": "Tulsipur, Balrampur",
            "postal_code": "pin no:271208",
            "state": "Uttar Pradesh",
            "country_code": "IN"
        },
        "images": [
            {
                "about": "All",
                "link": "https://lh5.googleusercontent.com/p/AF1QipP7rg-AUV1pSNx_Vb5zzyoLd9SLp8J2BX5wzmNJ=w224-h398-k-no"
            },
            {
                "about": "Videos",
                "link": "https://lh5.googleusercontent.com/p/AF1QipP7rg-AUV1pSNx_Vb5zzyoLd9SLp8J2BX5wzmNJ=w224-h398-k-no"
            }
        ],
        "link": "https://www.google.com/maps/place/Jamiat+Ahle+Hadees+Masjid/data=!4m7!3m6!1s0x39976fd95d5b2d03:0xce9e2013080aa4ff!8m2!3d27.5253082!4d82.4169782!16s%2Fg%2F11c61j3vf0!19sChIJAy1bXdlvlzkR_6QKCBMgns4?authuser=0&hl=en&rclk=1",
        "coordinates": {
            "latitude": 27.525308199999998,
            "longitude": 82.4169782
        }
    },
    {
        "name": "Sunni Jama Masjid, Tulsipur",
        "main_category": "Mosque",
        "address": "GCG7+XV5 Sunni Jama Masjid, Tulsipur, Gonda, Tulsipur, Uttar Pradesh 271210",
        "detailed_address": {
            "ward": "Gonda",
            "street": "GCG7+XV5",
            "city": "Tulsipur",
            "postal_code": "271210",
            "state": "Uttar Pradesh",
            "country_code": "IN"
        },
        "images": [
            {
                "about": "All",
                "link": "https://lh5.googleusercontent.com/p/AF1QipOsRdypn-Avd2B-A6OTkQl4nByLPyKZLNGQ5IkR=w397-h298-k-no"
            },
            {
                "about": "Street View & 360deg",
                "link": "https://streetviewpixels-pa.googleapis.com/v1/thumbnail?panoid=wUlYokifDQ88maZeT8YJ7A&cb_client=maps_sv.tactile.gps&w=224&h=298&yaw=345.94058&pitch=0&thumbfov=100"
            },
            {
                "about": "Videos",
                "link": "https://lh5.googleusercontent.com/p/AF1QipOtB_0hQr8EbquPcKpGd52PEy0modQ2DXryR7Ip=w224-h398-k-no"
            }
        ],
        "link": "https://www.google.com/maps/place/Sunni+Jama+Masjid,+Tulsipur/data=!4m7!3m6!1s0x39976fdf21bd955f:0x4dd6d0316b0cce45!8m2!3d27.5273928!4d82.4147287!16s%2Fg%2F11f3jt_5bs!19sChIJX5W9Id9vlzkRRc4MazHQ1k0?authuser=0&hl=en&rclk=1",
        "coordinates": {
            "latitude": 27.527392799999998,
            "longitude": 82.4147287
        }
    },
    {
        "name": "Masjid-E-Raza",
        "main_category": "Mosque",
        "address": "HC9V+QFC Masjid-E-Raza, Madrahwa, Jarwa Road, Tulsipur, Uttar Pradesh 271210",
        "detailed_address": {
            "ward": null,
            "street": "HC9V+QFC, Madrahwa, Jarwa Road",
            "city": "Tulsipur, Chouhatter Kalan",
            "postal_code": "271210",
            "state": "Uttar Pradesh",
            "country_code": "IN"
        },
        "images": [
            {
                "about": "All",
                "link": "https://lh5.googleusercontent.com/p/AF1QipMT-SKnzDhhkrOrt0YysxXMvLsrv0IGf7GJqF5R=w397-h298-k-no"
            },
            {
                "about": "Dome",
                "link": "https://lh5.googleusercontent.com/p/AF1QipMwqUXgVKVXmz9der-5o0s9xwjrf9r0t5-Oe6lK=w224-h362-k-no"
            }
        ],
        "link": "https://www.google.com/maps/place/Masjid-E-Raza/data=!4m7!3m6!1s0x3997716ea173a0ff:0x39c53119d0d3352!8m2!3d27.5694421!4d82.4436395!16s%2Fg%2F11qqj4dbmw!19sChIJ_6BzoW5xlzkRUjMNnRFTnAM?authuser=0&hl=en&rclk=1",
        "coordinates": {
            "latitude": 27.5694421,
            "longitude": 82.4436395
        }
    },
    {
        "name": "Sunni Medina masjid chaipurwa",
        "main_category": "Mosque",
        "address": "GC9R+HPH Sunni Medina masjid chaipurwa, Ganwaria Tulsipur, Uttar Pradesh 271210",
        "detailed_address": {
            "ward": null,
            "street": "GC9R+HPH",
            "city": "Ganwaria Tulsipur",
            "postal_code": "271210",
            "state": "Uttar Pradesh",
            "country_code": "IN"
        },
        "images": [
            {
                "about": "All",
                "link": "https://lh5.googleusercontent.com/p/AF1QipMPryca5AGc1wjpyBpA8vtNnS6Eu5Ts159QsoH4=w635-h298-k-no"
            },
            {
                "about": "Videos",
                "link": "https://lh5.googleusercontent.com/p/AF1QipOgngm5pZnYHya8cVo3Dh8O4RJg_XFHzNevYYui=w224-h398-k-no"
            }
        ],
        "link": "https://www.google.com/maps/place/Sunni+Medina+masjid+chaipurwa/data=!4m7!3m6!1s0x39976f2cc5f83883:0x4119b4bd836aa140!8m2!3d27.5189405!4d82.4418628!16s%2Fg%2F11j5rnz3yd!19sChIJgzj4xSxvlzkRQKFqg720GUE?authuser=0&hl=en&rclk=1",
        "coordinates": {
            "latitude": 27.5189405,
            "longitude": 82.4418628
        }
    },
    {
        "name": "Lalnagar Sunni Masjid & Madarsa",
        "main_category": "Mosque",
        "address": "H8VJ+66H Lalnagar Sunni Masjid & Madarsa, Lalnagar Sipahiya, near Sarva UP Gramin Bank, Tulsipur, Deonagar, Uttar Pradesh 271208",
        "detailed_address": {
            "ward": null,
            "street": "H8VJ+66H Lalnagar Sipahiya, near Sarva UP Gramin Bank",
            "city": "Tulsipur, Deonagar",
            "postal_code": "271208",
            "state": "Uttar Pradesh",
            "country_code": "IN"
        },
        "images": [],
        "link": "https://www.google.com/maps/place/Lalnagar+Sunni+Masjid+%26+Madarsa/data=!4m7!3m6!1s0x39977be6a702e8e5:0x6ab21a371ab2ff9d!8m2!3d27.5930582!4d82.3305961!16s%2Fg%2F11rv8__y04!19sChIJ5egCp-Z7lzkRnf-yGjcasmo?authuser=0&hl=en&rclk=1",
        "coordinates": {
            "latitude": 27.593058199999998,
            "longitude": 82.3305961
        }
    },
    {
        "name": "Raza chote Masjid",
        "main_category": "Mosque",
        "address": "GCM8+7G5 Raza chote Masjid, Purani Bazar, Tulsipur, Uttar Pradesh 271210",
        "detailed_address": {
            "ward": "Purani Bazar",
            "street": "GCM8+7G5",
            "city": "Tulsipur",
            "postal_code": null,
            "state": "Uttar Pradesh",
            "country_code": "IN"
        },
        "images": [
            {
                "about": "All",
                "link": "https://lh5.googleusercontent.com/p/AF1QipOJzIbQYsyA8XEh4MrXYoN0fzKuVlOfvD_LHNiN=w662-h298-k-no"
            },
            {
                "about": "Street View & 360deg",
                "link": "https://streetviewpixels-pa.googleapis.com/v1/thumbnail?panoid=Rd43A3DHSd9R6pO3vLJeHA&cb_client=maps_sv.tactile.gps&w=224&h=298&yaw=230.45905&pitch=0&thumbfov=100"
            },
            {
                "about": "Videos",
                "link": "https://lh5.googleusercontent.com/p/AF1QipPK38_d_PwR83m17IELihkgQAfkbKbp6CuJdTde=w224-h398-k-no"
            }
        ],
        "link": "https://www.google.com/maps/place/Raza+chote+Masjid/data=!4m7!3m6!1s0x399771761ed8e95d:0xa7332ae464d3a242!8m2!3d27.5331375!4d82.4163648!16s%2Fg%2F11v15jzwp4!19sChIJXenYHnZxlzkRQqLTZOQqM6c?authuser=0&hl=en&rclk=1",
        "coordinates": {
            "latitude": 27.5331375,
            "longitude": 82.4163648
        }
    },
    {
        "name": "Masjid",
        "main_category": "Mosque",
        "address": "Masjid, Beli) Ratanpur Ajab Nagar Beli Post Nakiniya Thana, Tulsipur, Uttar Pradesh 271208",
        "detailed_address": {
            "ward": null,
            "street": "Beli) Ratanpur Ajab Nagar Beli Post Nakiniya Thana",
            "city": "Tulsipur, Mahadeo Jumuni",
            "postal_code": "271208",
            "state": "Uttar Pradesh",
            "country_code": "IN"
        },
        "images": [
            {
                "about": "All",
                "link": "https://lh5.googleusercontent.com/p/AF1QipNA7hcakfFbK8gYuXkgi8UbHlO9vfNeny_nketf=w645-h298-k-no"
            },
            {
                "about": "By owner",
                "link": "https://lh5.googleusercontent.com/p/AF1QipNA7hcakfFbK8gYuXkgi8UbHlO9vfNeny_nketf=w645-h298-k-no"
            }
        ],
        "link": "https://www.google.com/maps/place/Masjid/data=!4m7!3m6!1s0x39977babc37d9b43:0x1794f48658a24e7!8m2!3d27.6145948!4d82.3718857!16s%2Fg%2F11t49kq168!19sChIJQ5t9w6t7lzkR5ySKZUhPeQE?authuser=0&hl=en&rclk=1",
        "coordinates": {
            "latitude": 27.6145948,
            "longitude": 82.37188569999999
        }
    },
    {
        "name": "Masjid rattoghda",
        "main_category": "Mosque",
        "address": "882P+7RF Masjid rattoghda, Tulsipur Banjar, Uttar Pradesh 225305",
        "detailed_address": {
            "ward": null,
            "street": "882P+7RF",
            "city": "Tulsipur Banjar",
            "postal_code": "225305",
            "state": "Uttar Pradesh",
            "country_code": "IN"
        },
        "images": [],
        "link": "https://www.google.com/maps/place/Masjid+rattoghda/data=!4m7!3m6!1s0x3999137cc9ac850b:0x65050f42006b062e!8m2!3d27.3006773!4d81.3370407!16s%2Fg%2F11qpf55ly8!19sChIJC4WsyXwTmTkRLgZrAEIPBWU?authuser=0&hl=en&rclk=1",
        "coordinates": {
            "latitude": 27.3006773,
            "longitude": 81.3370407
        }
    },
    {
        "name": "Tulsipur maszid Tulsipur",
        "main_category": "Mosque",
        "address": "W324+J7X Tulsipur maszid Tulsipur, Tulsipur, Nandpur, Uttar Pradesh 206253",
        "detailed_address": {
            "ward": null,
            "street": "W324+J7X",
            "city": "Tulsipur, Nandpur",
            "postal_code": null,
            "state": "Uttar Pradesh",
            "country_code": "IN"
        },
        "images": [
            {
                "about": "All",
                "link": "https://lh5.googleusercontent.com/p/AF1QipOnrkG1hf5Fo5WuC1a_p8hY_zh4d21CJ9daF6gd=w397-h298-k-no"
            }
        ],
        "link": "https://www.google.com/maps/place/Tulsipur+maszid+Tulsipur/data=!4m7!3m6!1s0x3975e7bebba7fe67:0x8434de06643db16d!8m2!3d26.901616!4d79.0557398!16s%2Fg%2F11tfbrscck!19sChIJZ_6nu77ndTkRbbE9ZAbeNIQ?authuser=0&hl=en&rclk=1",
        "coordinates": {
            "latitude": 26.901615999999997,
            "longitude": 79.0557398
        }
    }
]