[
    {
        "name": "Masjid-E-Saifee",
        "main_category": "Mosque",
        "address": "G5MC+RP6 Masjid-E-Saifee, Bajaj Khana, Jhalrapatan, Rajasthan 326023",
        "detailed_address": {
            "ward": "Bajaj Khana",
            "street": "G5MC+RP6",
            "city": "Jhalrapatan",
            "postal_code": "326023",
            "state": "Rajasthan",
            "country_code": "IN"
        },
        "images": [],
        "link": "https://www.google.com/maps/place/Masjid-E-Saifee/data=!4m7!3m6!1s0x39653c05f7a02971:0xb861eec6deef2c53!8m2!3d24.5345327!4d76.1717627!16s%2Fg%2F1tfkc_2l!19sChIJcSmg9wU8ZTkRUyzv3sbuYbg?authuser=0&hl=en&rclk=1",
        "coordinates": {
            "latitude": 24.5345327,
            "longitude": 76.1717627
        }
    },
    {
        "name": "Masjid Nagori Luharan",
        "main_category": "Mosque",
        "address": "G5JC+X75 Masjid Nagori Luharan, Jhalrapatan, Triveni Nagar, Rajasthan 326023",
        "detailed_address": {
            "ward": null,
            "street": "G5JC+X75",
            "city": "Jhalrapatan, Triveni Nagar",
            "postal_code": "326023",
            "state": "Rajasthan",
            "country_code": "IN"
        },
        "images": [
            {
                "about": "All",
                "link": "https://streetviewpixels-pa.googleapis.com/v1/thumbnail?panoid=hAmOZGNg0cu-gdDJY-XfBg&cb_client=maps_sv.tactile.gps&w=224&h=298&yaw=240.0986&pitch=0&thumbfov=100"
            },
            {
                "about": "Street View & 360deg",
                "link": "https://streetviewpixels-pa.googleapis.com/v1/thumbnail?panoid=hAmOZGNg0cu-gdDJY-XfBg&cb_client=maps_sv.tactile.gps&w=224&h=298&yaw=240.0986&pitch=0&thumbfov=100"
            }
        ],
        "link": "https://www.google.com/maps/place/Masjid+Nagori+Luharan/data=!4m7!3m6!1s0x39653c0f6b6331f7:0xb445c0af528f8629!8m2!3d24.5323753!4d76.1707191!16s%2Fg%2F11d_dw5s4s!19sChIJ9zFjaw88ZTkRKYaPUq_ARbQ?authuser=0&hl=en&rclk=1",
        "coordinates": {
            "latitude": 24.532375299999998,
            "longitude": 76.1707191
        }
    },
    {
        "name": "Masjid Neelgaraan",
        "main_category": "Mosque",
        "address": "G5QF+68H Masjid Neelgaraan, Jhalrapatan Rd, Jhalrapatan, Rajasthan 326023",
        "detailed_address": {
            "ward": null,
            "street": "G5QF+68H, Jhalrapatan Rd",
            "city": "Jhalrapatan",
            "postal_code": "326023",
            "state": "Rajasthan",
            "country_code": "IN"
        },
        "images": [
            {
                "about": "All",
                "link": "https://lh5.googleusercontent.com/p/AF1QipPvzlWSYIeUKZv1rVVxZ3aQOxOPbHBfMzfGjSF1=w529-h298-k-no"
            },
            {
                "about": "Dome",
                "link": "https://lh5.googleusercontent.com/p/AF1QipOSqCTXKCvPMtvFMuj2SXTC9mgDB1dBeDmwmTzy=w224-h298-k-no"
            },
            {
                "about": "Street View & 360deg",
                "link": "https://streetviewpixels-pa.googleapis.com/v1/thumbnail?panoid=0vaaJ0jPuBcT0BAJFDJjMA&cb_client=maps_sv.tactile.gps&w=224&h=298&yaw=260.8089&pitch=0&thumbfov=100"
            }
        ],
        "link": "https://www.google.com/maps/place/Masjid+Neelgaraan/data=!4m7!3m6!1s0x39653c068fed0427:0x51876c7d2edb7d90!8m2!3d24.538074!4d76.1733567!16s%2Fg%2F11bx6k8m24!19sChIJJwTtjwY8ZTkRkH3bLn1sh1E?authuser=0&hl=en&rclk=1",
        "coordinates": {
            "latitude": 24.538073999999998,
            "longitude": 76.1733567
        }
    },
    {
        "name": "Masjid Tek Wali Markaj",
        "main_category": "Mosque",
        "address": "G5RF+424 Masjid Tek Wali Markaj, Jhalrapatan, Rajasthan 326023",
        "detailed_address": {
            "ward": null,
            "street": "G5RF+424",
            "city": "Jhalrapatan",
            "postal_code": "326023",
            "state": "Rajasthan",
            "country_code": "IN"
        },
        "images": [
            {
                "about": "All",
                "link": "https://lh5.googleusercontent.com/p/AF1QipP4YA4L25e74hzl_SzNpUzRJVlrWsR6PPBpdAFK=w397-h298-k-no"
            },
            {
                "about": "Street View & 360deg",
                "link": "https://streetviewpixels-pa.googleapis.com/v1/thumbnail?panoid=VB8_CelaT-HfJaNSkXckww&cb_client=maps_sv.tactile.gps&w=224&h=298&yaw=313.75763&pitch=0&thumbfov=100"
            },
            {
                "about": "Videos",
                "link": "https://lh5.googleusercontent.com/p/AF1QipPwLd9R7Mfv25xYSZWtRmdPgr2MuCdtpNejw4IA=w224-h398-k-no"
            }
        ],
        "link": "https://www.google.com/maps/place/Masjid+Tek+Wali+Markaj/data=!4m7!3m6!1s0x39653c03ffffffff:0x1bd10f34c4f1f17!8m2!3d24.5402639!4d76.1725774!16s%2Fg%2F11g8749ndz!19sChIJ_____wM8ZTkRFx9PTPMQvQE?authuser=0&hl=en&rclk=1",
        "coordinates": {
            "latitude": 24.5402639,
            "longitude": 76.1725774
        }
    },
    {
        "name": "MASJID AISHA & MADRASA BANAAT",
        "main_category": "Mosque",
        "address": "G5QG+6GW MASJID AISHA & MADRASA BANAAT, Jhalrapatan, Rajasthan 326023",
        "detailed_address": {
            "ward": null,
            "street": "G5QG+6GW",
            "city": "Jhalrapatan",
            "postal_code": "326023",
            "state": "Rajasthan",
            "country_code": "IN"
        },
        "images": [
            {
                "about": "All",
                "link": "https://lh5.googleusercontent.com/p/AF1QipN-OhFXY_5fKGcX1TZHQfKXqksSe7koA2kBdIZO=w529-h298-k-no"
            },
            {
                "about": "Street View & 360deg",
                "link": "https://streetviewpixels-pa.googleapis.com/v1/thumbnail?panoid=ZxwbNjlCG9-STh9soj3T9w&cb_client=maps_sv.tactile.gps&w=224&h=298&yaw=41.397663&pitch=0&thumbfov=100"
            },
            {
                "about": "Videos",
                "link": "https://lh5.googleusercontent.com/p/AF1QipPg9z6rRrJqe4iP1D6aVgNP2NVlxdI5X7ZMq2qD=w224-h398-k-no"
            }
        ],
        "link": "https://www.google.com/maps/place/MASJID+AISHA+%26+MADRASA+BANAAT/data=!4m7!3m6!1s0x39653c070f34982f:0x8d9bf4008ade7026!8m2!3d24.5381025!4d76.1763185!16s%2Fg%2F11df1g2dc9!19sChIJL5g0Dwc8ZTkRJnDeigD0m40?authuser=0&hl=en&rclk=1",
        "coordinates": {
            "latitude": 24.538102499999997,
            "longitude": 76.1763185
        }
    },
    {
        "name": "Sipahiyan Masjid",
        "main_category": "Mosque",
        "address": "G5PF+FMC Sipahiyan Masjid, Surajpol Road, Bajaj Khana, Talayi Area, Jhalrapatan, Rajasthan 326023",
        "detailed_address": {
            "ward": "Bajaj Khana, Talayi Area",
            "street": "G5PF+FMC, Surajpol Road",
            "city": "Jhalrapatan",
            "postal_code": "326023",
            "state": "Rajasthan",
            "country_code": "IN"
        },
        "images": [
            {
                "about": "All",
                "link": "https://streetviewpixels-pa.googleapis.com/v1/thumbnail?panoid=k2Z06tG5_1dTjSPfmshTgg&cb_client=maps_sv.tactile.gps&w=224&h=298&yaw=208.04309&pitch=0&thumbfov=100"
            },
            {
                "about": "Street View & 360deg",
                "link": "https://streetviewpixels-pa.googleapis.com/v1/thumbnail?panoid=k2Z06tG5_1dTjSPfmshTgg&cb_client=maps_sv.tactile.gps&w=224&h=298&yaw=208.04309&pitch=0&thumbfov=100"
            }
        ],
        "link": "https://www.google.com/maps/place/Sipahiyan+Masjid/data=!4m7!3m6!1s0x39653c064038600b:0x6a14c582029d3ec0!8m2!3d24.5361911!4d76.1741298!16s%2Fg%2F11hbt_fn12!19sChIJC2A4QAY8ZTkRwD6dAoLFFGo?authuser=0&hl=en&rclk=1",
        "coordinates": {
            "latitude": 24.5361911,
            "longitude": 76.1741298
        }
    },
    {
        "name": "MASJID MUKERIYAAN",
        "main_category": "Mosque",
        "address": "G5M9+98X MASJID MUKERIYAAN, High School Rd, Mukeri Mohalla, Jhalrapatan, Triveni Nagar, Rajasthan 326023",
        "detailed_address": {
            "ward": "Mukeri Mohalla",
            "street": "G5M9+98X, High School Rd",
            "city": "Jhalrapatan, Triveni Nagar",
            "postal_code": "326023",
            "state": "Rajasthan",
            "country_code": "IN"
        },
        "images": [
            {
                "about": "All",
                "link": "https://lh5.googleusercontent.com/p/AF1QipPiGDNxzFRSSC5ZTg0PUI_3y1vNXfxIvBQPmnmn=w224-h298-k-no"
            }
        ],
        "link": "https://www.google.com/maps/place/MASJID+MUKERIYAAN/data=!4m7!3m6!1s0x39653dcbde66dc3d:0x3ec334c28baabcbd!8m2!3d24.5334835!4d76.1683568!16s%2Fg%2F11fsnl14xz!19sChIJPdxm3ss9ZTkRvbyqi8I0wz4?authuser=0&hl=en&rclk=1",
        "coordinates": {
            "latitude": 24.5334835,
            "longitude": 76.1683568
        }
    },
    {
        "name": "Kalandari Masjid Jhalrapatan",
        "main_category": "Mosque",
        "address": "G5WC+35R Kalandari Masjid Jhalrapatan, Jhalrapatan, Rajasthan 326023",
        "detailed_address": {
            "ward": null,
            "street": "G5WC+35R",
            "city": "Jhalrapatan",
            "postal_code": "326023",
            "state": "Rajasthan",
            "country_code": "IN"
        },
        "images": [
            {
                "about": "All",
                "link": "https://streetviewpixels-pa.googleapis.com/v1/thumbnail?panoid=c6wRgcunFj4KVASLV1pRNA&cb_client=maps_sv.tactile.gps&w=224&h=298&yaw=248.09825&pitch=0&thumbfov=100"
            },
            {
                "about": "Street View & 360deg",
                "link": "https://streetviewpixels-pa.googleapis.com/v1/thumbnail?panoid=c6wRgcunFj4KVASLV1pRNA&cb_client=maps_sv.tactile.gps&w=224&h=298&yaw=248.09825&pitch=0&thumbfov=100"
            }
        ],
        "link": "https://www.google.com/maps/place/Kalandari+Masjid+Jhalrapatan/data=!4m7!3m6!1s0x39653d7c726887c9:0x1b66bc8855186ea!8m2!3d24.5452476!4d76.1704056!16s%2Fg%2F11sgdy2s33!19sChIJyYdocnw9ZTkR6oZRhchrtgE?authuser=0&hl=en&rclk=1",
        "coordinates": {
            "latitude": 24.5452476,
            "longitude": 76.1704056
        }
    },
    {
        "name": "Masjid Kagjiyan msjid kaaghhziyaan",
        "main_category": "Mosque",
        "address": "G5VC+PJ4 Masjid Kagjiyan msjid kaaghhziyaan, Jhalrapatan, Rajasthan 326023",
        "detailed_address": {
            "ward": null,
            "street": "G5VC+PJ4",
            "city": "Jhalrapatan",
            "postal_code": "326023",
            "state": "Rajasthan",
            "country_code": "IN"
        },
        "images": [],
        "link": "https://www.google.com/maps/place/Masjid+Kagjiyan+%E0%A4%AE%E0%A4%B8%E0%A5%8D%E0%A4%9C%E0%A4%BF%E0%A4%A6+%E0%A4%95%E0%A4%BE%E0%A5%9A%E0%A5%9B%E0%A4%BF%E0%A4%AF%E0%A4%BE%E0%A4%A8/data=!4m7!3m6!1s0x39653d8935508c05:0xb32be801454ba503!8m2!3d24.5440411!4d76.1711871!16s%2Fg%2F11t6394fm7!19sChIJBYxQNYk9ZTkRA6VLRQHoK7M?authuser=0&hl=en&rclk=1",
        "coordinates": {
            "latitude": 24.544041099999998,
            "longitude": 76.1711871
        }
    },
    {
        "name": "masjid-e-vajhi",
        "main_category": "Mosque",
        "address": "G5MC+RH8 masjid-e-vajhi, Bajaj Khana, Jhalrapatan, Rajasthan 326023",
        "detailed_address": {
            "ward": "Bajaj Khana",
            "street": "G5MC+RH8",
            "city": "Jhalrapatan",
            "postal_code": "326023",
            "state": "Rajasthan",
            "country_code": "IN"
        },
        "images": [],
        "link": "https://www.google.com/maps/place/masjid-e-vajhi/data=!4m7!3m6!1s0x39653d46d1a150cf:0x4a4c5c7e51f86aa5!8m2!3d24.534547!4d76.171458!16s%2Fg%2F11g0g65pkh!19sChIJz1Ch0UY9ZTkRpWr4UX5cTEo?authuser=0&hl=en&rclk=1",
        "coordinates": {
            "latitude": 24.534547,
            "longitude": 76.171458
        }
    }
]