[
    {
        "name": "Jama Masjid",
        "main_category": "Mosque",
        "address": "Jama Masjid, Old Delhi, Delhi, 110006",
        "detailed_address": {
            "ward": "Jama Masjid, Old Delhi",
            "street": null,
            "city": "Delhi",
            "postal_code": "110006",
            "state": "Delhi",
            "country_code": "IN"
        },
        "images": [
            {
                "about": "All",
                "link": "https://lh5.googleusercontent.com/p/AF1QipMak1D51ms3fAec8Hv85TWzznlDqiSG6WVzH1oo=w447-h298-k-no"
            },
            {
                "about": "Latest",
                "link": "https://lh5.googleusercontent.com/p/AF1QipNNRpm0-dXpgV9oJsKWwcImDfg9o81awCWu2hlm=w224-h398-k-no"
            },
            {
                "about": "Videos",
                "link": "https://lh5.googleusercontent.com/p/AF1QipMlxs5wfHk0o905fntq2LudrTJLkjZky0yCrLHV=w529-h298-k-no"
            },
            {
                "about": "National Boot House",
                "link": "https://lh5.googleusercontent.com/p/AF1QipM5PMl5iJ13XFmdtykdBe9uqqkRj7XNcGjDk_Gd=w529-h298-k-no"
            },
            {
                "about": "Dome",
                "link": "https://lh5.googleusercontent.com/p/AF1QipN2U6zM28o9erhatzJ_mJpeLOkFiGCQiEtj0B9g=w274-h298-k-no"
            },
            {
                "about": "Street View & 360deg",
                "link": "https://lh5.googleusercontent.com/p/AF1QipPz_Omqh6xT1_brAdCRe0ER_BM8EZGxJGXxUSA=w224-h298-k-no-pi-30.000002-ya291.3302-ro-0-fo100"
            }
        ],
        "link": "https://www.google.com/maps/place/Jama+Masjid/data=!4m7!3m6!1s0x390cfd18df89b215:0xdd57369e29bf9d96!8m2!3d28.6506792!4d77.2334421!16zL20vMDR5emo1!19sChIJFbKJ3xj9DDkRlp2_KZ42V90?authuser=0&hl=en&rclk=1",
        "coordinates": {
            "latitude": 28.6506792,
            "longitude": 77.23344209999999
        }
    },
    {
        "name": "Shia Jama Masjid msjd shy`h",
        "main_category": "Mosque",
        "address": "Shia Jama Masjid msjd shy`h, 2725, Hamilton Rd, Chabi Ganj, Kashmere Gate, New Delhi, Delhi, 110006",
        "detailed_address": {
            "ward": "Chabi Ganj, Kashmere Gate",
            "street": "2725, Hamilton Rd",
            "city": "New Delhi, Delhi",
            "postal_code": "110006",
            "state": "Delhi",
            "country_code": "IN"
        },
        "images": [
            {
                "about": "All",
                "link": "https://lh5.googleusercontent.com/p/AF1QipPUp8LjY5vS3V0oKVOMJ66qS3MARugvi9rcaKxm=w489-h298-k-no"
            },
            {
                "about": "By owner",
                "link": "https://lh5.googleusercontent.com/p/AF1QipP76D6hvXRA8H1YW0NW-Nf4jd2iLwdOF-AtgizS=w397-h298-k-no"
            },
            {
                "about": "Videos",
                "link": "https://lh5.googleusercontent.com/p/AF1QipPZWavmaJoH1vgL8Yonp0NJVdhG-I-zqv6ws6mN=w224-h398-k-no"
            },
            {
                "about": "Street View & 360deg",
                "link": "https://streetviewpixels-pa.googleapis.com/v1/thumbnail?panoid=clp5r6eoHxpj2xKbYYFyEw&cb_client=maps_sv.tactile.gps&w=224&h=298&yaw=355.7651&pitch=0&thumbfov=100"
            }
        ],
        "link": "https://www.google.com/maps/place/Shia+Jama+Masjid+%D9%85%D8%B3%D8%AC%D8%AF+%D8%B4%DB%8C%D8%B9%DB%81%E2%80%AD/data=!4m7!3m6!1s0x390cfd05ae4afb2d:0xf62d6dbcc26ffcbb!8m2!3d28.6626295!4d77.2314668!16s%2Fm%2F0bwk37r!19sChIJLftKrgX9DDkRu_xvwrxtLfY?authuser=0&hl=en&rclk=1",
        "coordinates": {
            "latitude": 28.662629499999998,
            "longitude": 77.23146679999999
        }
    },
    {
        "name": "Agga Wali Masjid, Mosque",
        "main_category": "Mosque",
        "address": "RWV3+4H6 Agga Wali Masjid, Mosque, Samthar, Uttar Pradesh 284304",
        "detailed_address": {
            "ward": null,
            "street": "RWV3+4H6",
            "city": "Samthar",
            "postal_code": "284304",
            "state": "Uttar Pradesh",
            "country_code": "IN"
        },
        "images": [],
        "link": "https://www.google.com/maps/place/Agga+Wali+Masjid,+Mosque/data=!4m7!3m6!1s0x3977b0e7050391d1:0x549d00a3794caad9!8m2!3d25.8427809!4d78.9038958!16s%2Fg%2F11css6kk6l!19sChIJ0ZEDBeewdzkR2apMeaMAnVQ?authuser=0&hl=en&rclk=1",
        "coordinates": {
            "latitude": 25.842780899999998,
            "longitude": 78.9038958
        }
    },
    {
        "name": "Khanbahadur Masjid",
        "main_category": "Mosque",
        "address": "RWV4+X5V Khanbahadur Masjid, Samthar, Uttar Pradesh 284304",
        "detailed_address": {
            "ward": null,
            "street": "RWV4+X5V",
            "city": "Samthar",
            "postal_code": "284304",
            "state": "Uttar Pradesh",
            "country_code": "IN"
        },
        "images": [],
        "link": "https://www.google.com/maps/place/Khanbahadur+Masjid/data=!4m7!3m6!1s0x3977b0e74da3448b:0x531e49ca7823cf1f!8m2!3d25.8449951!4d78.905411!16s%2Fg%2F11c2p_vwns!19sChIJi0SjTeewdzkRH88jeMpJHlM?authuser=0&hl=en&rclk=1",
        "coordinates": {
            "latitude": 25.8449951,
            "longitude": 78.905411
        }
    },
    {
        "name": "Market Mosque , Samthar",
        "main_category": "Mosque",
        "address": "RWV4+92Q Market Mosque , Samthar, Samthar, Uttar Pradesh 284304",
        "detailed_address": {
            "ward": null,
            "street": "RWV4+92Q",
            "city": "Samthar",
            "postal_code": "284304",
            "state": "Uttar Pradesh",
            "country_code": "IN"
        },
        "images": [],
        "link": "https://www.google.com/maps/place/Market+Mosque+,+Samthar/data=!4m7!3m6!1s0x3977b0e76be06b9f:0x2a960d3ce2699fc9!8m2!3d25.8434652!4d78.9051203!16s%2Fg%2F11gby80590!19sChIJn2vga-ewdzkRyZ9p4jwNlio?authuser=0&hl=en&rclk=1",
        "coordinates": {
            "latitude": 25.843465199999997,
            "longitude": 78.9051203
        }
    },
    {
        "name": "Marqaz masjid samthar",
        "main_category": "Mosque",
        "address": "RWV3+4H2 Marqaz masjid samthar, Samthar, Uttar Pradesh 284304",
        "detailed_address": {
            "ward": null,
            "street": "RWV3+4H2",
            "city": "Samthar",
            "postal_code": "284304",
            "state": "Uttar Pradesh",
            "country_code": "IN"
        },
        "images": [
            {
                "about": "All",
                "link": "https://lh5.googleusercontent.com/p/AF1QipMtH02u7PrgoImTgqXdFJjZIt8qPsoM4ZEji_vy=w224-h398-k-no"
            },
            {
                "about": "Videos",
                "link": "https://lh5.googleusercontent.com/p/AF1QipMtH02u7PrgoImTgqXdFJjZIt8qPsoM4ZEji_vy=w224-h398-k-no"
            }
        ],
        "link": "https://www.google.com/maps/place/Marqaz+masjid+samthar/data=!4m7!3m6!1s0x3977b100344570fd:0x595fbb19dd708677!8m2!3d25.8427539!4d78.903891!16s%2Fg%2F11l22sy6n6!19sChIJ_XBFNACxdzkRd4Zw3Rm7X1k?authuser=0&hl=en&rclk=1",
        "coordinates": {
            "latitude": 25.842753899999998,
            "longitude": 78.903891
        }
    }
]