[
    {
        "name": "Noori Jama Masjid",
        "main_category": "Mosque",
        "address": "RJ6R+JJ9 Noori Jama Masjid, Tarora, Kasganj, Uttar Pradesh 207123",
        "detailed_address": {
            "ward": "Tarora",
            "street": "RJ6R+JJ9",
            "city": "Kasganj",
            "postal_code": "207123",
            "state": "Uttar Pradesh",
            "country_code": "IN"
        },
        "images": [
            {
                "about": "All",
                "link": "https://lh5.googleusercontent.com/p/AF1QipO7PkAE9jPJK-O8epsewUdvKO7HzhJzOSLylajo=w397-h298-k-no"
            }
        ],
        "link": "https://www.google.com/maps/place/Noori+Jama+Masjid/data=!4m7!3m6!1s0x3974e016cb5dd13d:0x8a79c9b37c22fce0!8m2!3d27.8115348!4d78.641623!16s%2Fg%2F11gc89k687!19sChIJPdFdyxbgdDkR4PwifLPJeYo?authuser=0&hl=en&rclk=1",
        "coordinates": {
            "latitude": 27.8115348,
            "longitude": 78.641623
        }
    },
    {
        "name": "JAMA MASJID (jaamaa msjid soro)",
        "main_category": "Mosque",
        "address": "VPVW+CJQ JAMA MASJID (jaamaa msjid soro), Soron, Kadarbari, Uttar Pradesh 207403",
        "detailed_address": {
            "ward": null,
            "street": "VPVW+CJQ",
            "city": "Soron, Kadarbari",
            "postal_code": "207403",
            "state": "Uttar Pradesh",
            "country_code": "IN"
        },
        "images": [
            {
                "about": "All",
                "link": "https://lh5.googleusercontent.com/p/AF1QipO42hb9wTR5QTBddibKLTdbPjndQcB-Gd8XTIh7=w224-h298-k-no"
            }
        ],
        "link": "https://www.google.com/maps/place/JAMA+MASJID+%28%E0%A4%9C%E0%A4%BE%E0%A4%AE%E0%A4%BE+%E0%A4%AE%E0%A4%B8%E0%A5%8D%E0%A4%9C%E0%A4%BF%E0%A4%A6+%E0%A4%B8%E0%A5%8B%E0%A4%B0%E0%A5%8B%29/data=!4m7!3m6!1s0x397521732380d935:0xaab3694192b6869c!8m2!3d27.8935867!4d78.7466023!16s%2Fg%2F11h3qwmd8q!19sChIJNdmAI3MhdTkRnIa2kkFps6o?authuser=0&hl=en&rclk=1",
        "coordinates": {
            "latitude": 27.8935867,
            "longitude": 78.74660229999999
        }
    },
    {
        "name": "Sarai Masjid",
        "main_category": "Mosque",
        "address": "RJ6X+VCM Sarai Masjid, Kasganj, Uttar Pradesh 207123",
        "detailed_address": {
            "ward": null,
            "street": "RJ6X+VCM",
            "city": "Kasganj",
            "postal_code": "207123",
            "state": "Uttar Pradesh",
            "country_code": "IN"
        },
        "images": [
            {
                "about": "All",
                "link": "https://lh5.googleusercontent.com/p/AF1QipPjdLQ4UkpeEt-QCiJP2pgnRU-70jSz8oivF3B7=w398-h298-k-no"
            },
            {
                "about": "Dome",
                "link": "https://lh5.googleusercontent.com/p/AF1QipPjdLQ4UkpeEt-QCiJP2pgnRU-70jSz8oivF3B7=w398-h298-k-no"
            },
            {
                "about": "Videos",
                "link": "https://lh5.googleusercontent.com/p/AF1QipPYAepAGI9IsRTNI49oteYMdnJ5dl7H_Z3i-Dvg=w224-h398-k-no"
            }
        ],
        "link": "https://www.google.com/maps/place/Sarai+Masjid/data=!4m7!3m6!1s0x3974e19b651da5cf:0xa026295c8d31868!8m2!3d27.8122204!4d78.6485432!16s%2Fg%2F11hzblkvhj!19sChIJz6UdZZvhdDkRaBjTyJViAgo?authuser=0&hl=en&rclk=1",
        "coordinates": {
            "latitude": 27.812220399999998,
            "longitude": 78.64854319999999
        }
    },
    {
        "name": "mdinaa msjid",
        "main_category": "Mosque",
        "address": "RPV6+78 mdinaa msjid, Dewari Prahladpur, Uttar Pradesh 207403",
        "detailed_address": {
            "ward": null,
            "street": "RPV6+78",
            "city": "Dewari Prahladpur",
            "postal_code": null,
            "state": "Uttar Pradesh",
            "country_code": "IN"
        },
        "images": [
            {
                "about": "All",
                "link": "https://lh5.googleusercontent.com/p/AF1QipOWOVWt5a2Z_9C8zyb44q-z8d4YEP4gfcCVGkge=w224-h496-k-no"
            }
        ],
        "link": "https://www.google.com/maps/place/%E0%A4%AE%E0%A4%A6%E0%A4%BF%E0%A4%A8%E0%A4%BE+%E0%A4%AE%E0%A4%B8%E0%A5%8D%E0%A4%9C%E0%A4%BF%E0%A4%A6/data=!4m7!3m6!1s0x397521b780635115:0x66d6d0bf7d846f42!8m2!3d27.8431445!4d78.7107396!16s%2Fg%2F11rl8hts5y!19sChIJFVFjgLchdTkRQm-Efb_Q1mY?authuser=0&hl=en&rclk=1",
        "coordinates": {
            "latitude": 27.843144499999998,
            "longitude": 78.7107396
        }
    },
    {
        "name": "Masjid",
        "main_category": "Mosque",
        "address": "5XHR+63Q Masjid, Shahganj Rd, Soron Katra, Kothi Meena Bazaar, Shahganj, Agra, Uttar Pradesh 282010",
        "detailed_address": {
            "ward": "Soron Katra, Kothi Meena Bazaar, Shahganj",
            "street": "5XHR+63Q, Shahganj Rd",
            "city": "Agra",
            "postal_code": "282010",
            "state": "Uttar Pradesh",
            "country_code": "IN"
        },
        "images": [
            {
                "about": "All",
                "link": "https://streetviewpixels-pa.googleapis.com/v1/thumbnail?panoid=I5HFYKHjRK0H-wFxNpq5Sg&cb_client=maps_sv.tactile.gps&w=224&h=298&yaw=356.0775&pitch=0&thumbfov=100"
            },
            {
                "about": "Street View & 360deg",
                "link": "https://streetviewpixels-pa.googleapis.com/v1/thumbnail?panoid=I5HFYKHjRK0H-wFxNpq5Sg&cb_client=maps_sv.tactile.gps&w=224&h=298&yaw=356.0775&pitch=0&thumbfov=100"
            }
        ],
        "link": "https://www.google.com/maps/place/Masjid/data=!4m7!3m6!1s0x3974771bf7589227:0x4d6c486d9101ad14!8m2!3d27.1780778!4d77.9902367!16s%2Fg%2F11bbt9850d!19sChIJJ5JY9xt3dDkRFK0BkW1IbE0?authuser=0&hl=en&rclk=1",
        "coordinates": {
            "latitude": 27.1780778,
            "longitude": 77.9902367
        }
    },
    {
        "name": "Masjid Qureshiyan",
        "main_category": "Mosque",
        "address": "VPQR+52C Masjid Qureshiyan, Soron Rd, Badariya, Uttar Pradesh 207403",
        "detailed_address": {
            "ward": null,
            "street": "VPQR+52C, Soron Rd",
            "city": "Badariya",
            "postal_code": "207403",
            "state": "Uttar Pradesh",
            "country_code": "IN"
        },
        "images": [
            {
                "about": "All",
                "link": "https://streetviewpixels-pa.googleapis.com/v1/thumbnail?panoid=oWHGL7MJAzi-t_SkQXzh0w&cb_client=maps_sv.tactile.gps&w=224&h=298&yaw=281.30505&pitch=0&thumbfov=100"
            },
            {
                "about": "Street View & 360deg",
                "link": "https://streetviewpixels-pa.googleapis.com/v1/thumbnail?panoid=oWHGL7MJAzi-t_SkQXzh0w&cb_client=maps_sv.tactile.gps&w=224&h=298&yaw=281.30505&pitch=0&thumbfov=100"
            }
        ],
        "link": "https://www.google.com/maps/place/Masjid+Qureshiyan/data=!4m7!3m6!1s0x397521488095a643:0x4ec78643d6f1fa7d!8m2!3d27.8879411!4d78.7400057!16s%2Fg%2F11sryh5b3f!19sChIJQ6aVgEghdTkRffrx1kOGx04?authuser=0&hl=en&rclk=1",
        "coordinates": {
            "latitude": 27.8879411,
            "longitude": 78.7400057
        }
    }
]