[
    {
        "name": "Choti Masjid (Aliya Madarsa) chhwtty msjd khwryjy",
        "main_category": "Mosque",
        "address": "Choti Masjid (Aliya Madarsa) chhwtty msjd khwryjy, 43, Parwana Rd, Old Brijpuri, Krishna Nagar, Delhi, 110051",
        "detailed_address": {
            "ward": "Old Brijpuri, Krishna Nagar",
            "street": "43, Parwana Rd",
            "city": "Delhi",
            "postal_code": "110051",
            "state": "Delhi",
            "country_code": "IN"
        },
        "images": [
            {
                "about": "All",
                "link": "https://lh5.googleusercontent.com/p/AF1QipPZB73UuSBdkxFq_XtAxYzEe7zcXMW1kjglKD1a=w224-h398-k-no"
            }
        ],
        "link": "https://www.google.com/maps/place/Choti+Masjid+%28Aliya+Madarsa%29+%DA%86%DA%BE%D9%88%D9%B9%DB%8C+%D9%85%D8%B3%D8%AC%D8%AF+%D8%AE%D9%88%D8%B1%DB%8C%D8%AC%DB%8C%E2%80%AD/data=!4m7!3m6!1s0x390cfca4024b60bd:0xa220b66acb97b8ab!8m2!3d28.6461146!4d77.2805686!16s%2Fg%2F11bt_h35kf!19sChIJvWBLAqT8DDkRq7iXy2q2IKI?authuser=0&hl=en&rclk=1",
        "coordinates": {
            "latitude": 28.646114599999997,
            "longitude": 77.2805686
        }
    },
    {
        "name": "Masjid Alahazrat",
        "main_category": "Mosque",
        "address": "R342+CX5 Masjid Alahazrat, b block, JJ Colony, JJ Cluster Colony, Bawana, Delhi, 110039",
        "detailed_address": {
            "ward": "JJ Colony, JJ Cluster Colony, Bawana",
            "street": "R342+CX5, b block",
            "city": "Delhi",
            "postal_code": "110039",
            "state": "Delhi",
            "country_code": "IN"
        },
        "images": [
            {
                "about": "All",
                "link": "https://lh5.googleusercontent.com/p/AF1QipNimdKm-kwGw0LpmxzzLS5jwZ99A7IWJnZdY9wR=w224-h398-k-no"
            },
            {
                "about": "Street View & 360deg",
                "link": "https://streetviewpixels-pa.googleapis.com/v1/thumbnail?panoid=Sf7-G8dgipD86Tag9LnKQQ&cb_client=maps_sv.tactile.gps&w=224&h=298&yaw=235.08646&pitch=0&thumbfov=100"
            },
            {
                "about": "Videos",
                "link": "https://lh5.googleusercontent.com/p/AF1QipMWtYEvC8ApC8N2GL7A4LZyqG8eSg0iw3kypLbC=w224-h497-k-no"
            }
        ],
        "link": "https://www.google.com/maps/place/Masjid+Alahazrat/data=!4m7!3m6!1s0x390da833b9909e53:0x7267e7ff8986237f!8m2!3d28.8060016!4d77.0524872!16s%2Fg%2F11bc7f9t38!19sChIJU56QuTOoDTkRfyOGif_nZ3I?authuser=0&hl=en&rclk=1",
        "coordinates": {
            "latitude": 28.8060016,
            "longitude": 77.0524872
        }
    },
    {
        "name": "masjid adde wali msjd ddy wly",
        "main_category": "Mosque",
        "address": "masjid adde wali msjd ddy wly, 2054, Main Narela Rd, Alipur Village, New Delhi, Delhi, 110036",
        "detailed_address": {
            "ward": "Alipur Village",
            "street": "2054, Main Narela Rd",
            "city": "New Delhi, Delhi",
            "postal_code": "110036",
            "state": "Delhi",
            "country_code": "IN"
        },
        "images": [
            {
                "about": "All",
                "link": "https://lh5.googleusercontent.com/p/AF1QipNL5fakSGI2YF1-AeU4mvf-Yx9CAk-919qsF-MQ=w224-h298-k-no"
            },
            {
                "about": "Street View & 360deg",
                "link": "https://streetviewpixels-pa.googleapis.com/v1/thumbnail?panoid=Z1GSG8TFkhhFMa8FgZ6Q2g&cb_client=maps_sv.tactile.gps&w=224&h=298&yaw=25.437284&pitch=0&thumbfov=100"
            }
        ],
        "link": "https://www.google.com/maps/place/masjid+adde+wali+%D9%85%D8%B3%D8%AC%D8%AF+%D8%A7%DA%88%DB%92+%D9%88%D8%A7%D9%84%DB%8C%E2%80%AD/data=!4m7!3m6!1s0x390d0082e5925329:0x55443993081f9b5f!8m2!3d28.7971036!4d77.1389107!16s%2Fg%2F11c5j5g6nd!19sChIJKVOS5YIADTkRX5sfCJM5RFU?authuser=0&hl=en&rclk=1",
        "coordinates": {
            "latitude": 28.7971036,
            "longitude": 77.1389107
        }
    },
    {
        "name": "Masjid ( Choti Masjid )",
        "main_category": "Mosque",
        "address": "Masjid ( Choti Masjid ), 65, Begam Vihar, Sector 33, Rohini, Delhi, 110086",
        "detailed_address": {
            "ward": "Begam Vihar, Sector 33, Rohini",
            "street": "65",
            "city": "Delhi",
            "postal_code": "110086",
            "state": "Delhi",
            "country_code": "IN"
        },
        "images": [
            {
                "about": "All",
                "link": "https://lh5.googleusercontent.com/p/AF1QipNjyxzXNOoEIDw5rZGz1xxDVnLPrqq7ci-OF4xe=w224-h448-k-no"
            },
            {
                "about": "Dome",
                "link": "https://lh5.googleusercontent.com/p/AF1QipNjyxzXNOoEIDw5rZGz1xxDVnLPrqq7ci-OF4xe=w224-h448-k-no"
            },
            {
                "about": "Street View & 360deg",
                "link": "https://streetviewpixels-pa.googleapis.com/v1/thumbnail?panoid=o_IVGaNrwjXhqlAK4C3Qpw&cb_client=maps_sv.tactile.gps&w=224&h=298&yaw=35.804&pitch=0&thumbfov=100"
            }
        ],
        "link": "https://www.google.com/maps/place/Masjid+%28+Choti+Masjid+%29/data=!4m7!3m6!1s0x390d06f06dfec941:0xbca4837574c8326!8m2!3d28.7342048!4d77.066187!16s%2Fg%2F11f54kwhgw!19sChIJQcn-bfAGDTkRJoNMVzdIygs?authuser=0&hl=en&rclk=1",
        "coordinates": {
            "latitude": 28.734204799999997,
            "longitude": 77.066187
        }
    },
    {
        "name": "Muhammadi Masjid (wahidiya)",
        "main_category": "Mosque",
        "address": "P28J+CQ9 Muhammadi Masjid (wahidiya), Block E, Meer Vihar, Madanpur Dabas, Delhi, 110081",
        "detailed_address": {
            "ward": "Block E, Meer Vihar, Madanpur Dabas",
            "street": "P28J+CQ9",
            "city": "Delhi",
            "postal_code": "110081",
            "state": "Delhi",
            "country_code": "IN"
        },
        "images": [],
        "link": "https://www.google.com/maps/place/Muhammadi+Masjid+%28wahidiya%29/data=!4m7!3m6!1s0x390d0614c1d3429f:0x91ff99f5543dc84!8m2!3d28.7160449!4d77.0319753!16s%2Fg%2F11fy9rf9n5!19sChIJn0LTwRQGDTkRhNxDVZ_5Hwk?authuser=0&hl=en&rclk=1",
        "coordinates": {
            "latitude": 28.7160449,
            "longitude": 77.0319753
        }
    },
    {
        "name": "Masjid",
        "main_category": "Mosque",
        "address": "HRC6+J9V Masjid, Unnamed Road, Badli, Haryana 124105",
        "detailed_address": {
            "ward": null,
            "street": "HRC6+J9V, Unnamed Road",
            "city": "Badli",
            "postal_code": "124105",
            "state": "Haryana",
            "country_code": "IN"
        },
        "images": [
            {
                "about": "All",
                "link": "https://lh5.googleusercontent.com/p/AF1QipMFC2B4s2KiQ0m8haUeuOBlPv9hO-cDmB3TV531=w628-h298-k-no"
            },
            {
                "about": "Street View & 360deg",
                "link": "https://streetviewpixels-pa.googleapis.com/v1/thumbnail?panoid=T665ucWQkYKj7jbHhLwIKw&cb_client=maps_sv.tactile.gps&w=224&h=298&yaw=264.7398&pitch=0&thumbfov=100"
            }
        ],
        "link": "https://www.google.com/maps/place/Masjid/data=!4m7!3m6!1s0x390d6d5f24f052db:0xf4a4afe0722b58cc!8m2!3d28.5716189!4d76.8109287!16s%2Fg%2F11k0n0cl8v!19sChIJ21LwJF9tDTkRzFgrcuCvpPQ?authuser=0&hl=en&rclk=1",
        "coordinates": {
            "latitude": 28.571618899999997,
            "longitude": 76.81092869999999
        }
    },
    {
        "name": "Masjid",
        "main_category": "Mosque",
        "address": "R4MF+735 Masjid, Unnamed Road, Tikri Khurd Village, Tikri Khurd, Delhi, 110040",
        "detailed_address": {
            "ward": "Tikri Khurd Village, Tikri Khurd",
            "street": "R4MF+735, Unnamed Road",
            "city": "Delhi",
            "postal_code": "110040",
            "state": "Delhi",
            "country_code": "IN"
        },
        "images": [
            {
                "about": "All",
                "link": "https://streetviewpixels-pa.googleapis.com/v1/thumbnail?panoid=s6t5Ev4LOxBnexXp2Mu4Ng&cb_client=maps_sv.tactile.gps&w=224&h=298&yaw=230.01044&pitch=0&thumbfov=100"
            },
            {
                "about": "Street View & 360deg",
                "link": "https://streetviewpixels-pa.googleapis.com/v1/thumbnail?panoid=s6t5Ev4LOxBnexXp2Mu4Ng&cb_client=maps_sv.tactile.gps&w=224&h=298&yaw=230.01044&pitch=0&thumbfov=100"
            }
        ],
        "link": "https://www.google.com/maps/place/Masjid/data=!4m7!3m6!1s0x390daa379e6932df:0xc32d1bd89555ed4a!8m2!3d28.8331259!4d77.122749!16s%2Fg%2F11c32f__g1!19sChIJ3zJpnjeqDTkRSu1VldgbLcM?authuser=0&hl=en&rclk=1",
        "coordinates": {
            "latitude": 28.8331259,
            "longitude": 77.122749
        }
    },
    {
        "name": "Masjid",
        "main_category": "Mosque",
        "address": "P26W+G9R Masjid, Sharma Enclave, Phase II, Rohini, New Delhi, Delhi, 110086",
        "detailed_address": {
            "ward": "Sharma Enclave, Phase II, Rohini",
            "street": "P26W+G9R",
            "city": "New Delhi, Delhi",
            "postal_code": "110086",
            "state": "Delhi",
            "country_code": "IN"
        },
        "images": [
            {
                "about": "All",
                "link": "https://streetviewpixels-pa.googleapis.com/v1/thumbnail?panoid=ucpmnCq0Aq1S6D4NszdTbQ&cb_client=maps_sv.tactile.gps&w=224&h=298&yaw=336.26425&pitch=0&thumbfov=100"
            },
            {
                "about": "Street View & 360deg",
                "link": "https://streetviewpixels-pa.googleapis.com/v1/thumbnail?panoid=ucpmnCq0Aq1S6D4NszdTbQ&cb_client=maps_sv.tactile.gps&w=224&h=298&yaw=336.26425&pitch=0&thumbfov=100"
            }
        ],
        "link": "https://www.google.com/maps/place/Masjid/data=!4m7!3m6!1s0x390d0665424343cf:0xe967304e46362a9e!8m2!3d28.7113688!4d77.045882!16s%2Fg%2F11gfgxlbhp!19sChIJz0NDQmUGDTkRnio2Rk4wZ-k?authuser=0&hl=en&rclk=1",
        "coordinates": {
            "latitude": 28.7113688,
            "longitude": 77.04588199999999
        }
    },
    {
        "name": "Masjid Aashikan-E-Rasool",
        "main_category": "Mosque",
        "address": "Masjid Aashikan-E-Rasool, B168A, Block B, Baljit Nagar, Patel Nagar, New Delhi, Delhi, 110008",
        "detailed_address": {
            "ward": "Block B, Baljit Nagar, Patel Nagar",
            "street": "B168A",
            "city": "New Delhi, Delhi",
            "postal_code": "110008",
            "state": "Delhi",
            "country_code": "IN"
        },
        "images": [
            {
                "about": "All",
                "link": "https://lh5.googleusercontent.com/p/AF1QipOhxrUqRSEqVNvduefSotjDrm4jmlZimPF-0bD3=w224-h497-k-no"
            }
        ],
        "link": "https://www.google.com/maps/place/Masjid+Aashikan-E-Rasool/data=!4m7!3m6!1s0x390d03568277eb99:0x27959f1a230ab399!8m2!3d28.6610366!4d77.1631945!16s%2Fg%2F11qz5hv88s!19sChIJmet3glYDDTkRmbMKIxqflSc?authuser=0&hl=en&rclk=1",
        "coordinates": {
            "latitude": 28.6610366,
            "longitude": 77.1631945
        }
    },
    {
        "name": "Ijaba Masjid",
        "main_category": "Mosque",
        "address": "Ijaba Masjid, 1489/16, Block D, Chand Vihar, New Mustafabad, Delhi, 110094",
        "detailed_address": {
            "ward": "Block D, Chand Vihar, New Mustafabad",
            "street": "1489/16",
            "city": "Delhi",
            "postal_code": "110094",
            "state": "Delhi",
            "country_code": "IN"
        },
        "images": [
            {
                "about": "All",
                "link": "https://lh5.googleusercontent.com/p/AF1QipNZmCjmLSQIL6Gmx7VGpqHkUChdVY1uSX28def-=w224-h460-k-no"
            },
            {
                "about": "Latest",
                "link": "https://lh5.googleusercontent.com/p/AF1QipNwC9ztTk0Rd7jKULUiMuZC9hpEpCeox9p6XWFm=w224-h398-k-no"
            },
            {
                "about": "Street View & 360deg",
                "link": "https://streetviewpixels-pa.googleapis.com/v1/thumbnail?panoid=7NVUmxqSP93jVc-iys9FVQ&cb_client=maps_sv.tactile.gps&w=224&h=298&yaw=258.9709&pitch=0&thumbfov=100"
            }
        ],
        "link": "https://www.google.com/maps/place/Ijaba+Masjid/data=!4m7!3m6!1s0x390cfd4112cff819:0x124578cf76e8540b!8m2!3d28.7086594!4d77.2713446!16s%2Fg%2F11j08711wr!19sChIJGfjPEkH9DDkRC1Tods94RRI?authuser=0&hl=en&rclk=1",
        "coordinates": {
            "latitude": 28.7086594,
            "longitude": 77.27134459999999
        }
    },
    {
        "name": "Masjid",
        "main_category": "Mosque",
        "address": "R3JV+23P Masjid, Unnamed Road, Bhorgarh, Narela, Delhi, 110040",
        "detailed_address": {
            "ward": "Bhorgarh, Narela",
            "street": "R3JV+23P, Unnamed Road",
            "city": "Delhi",
            "postal_code": "110040",
            "state": "Delhi",
            "country_code": "IN"
        },
        "images": [
            {
                "about": "All",
                "link": "https://streetviewpixels-pa.googleapis.com/v1/thumbnail?panoid=Oa_8ZywYYobE8ZouDp_8mw&cb_client=maps_sv.tactile.gps&w=224&h=298&yaw=131.09439&pitch=0&thumbfov=100"
            },
            {
                "about": "Street View & 360deg",
                "link": "https://streetviewpixels-pa.googleapis.com/v1/thumbnail?panoid=Oa_8ZywYYobE8ZouDp_8mw&cb_client=maps_sv.tactile.gps&w=224&h=298&yaw=131.09439&pitch=0&thumbfov=100"
            },
            {
                "about": "Videos",
                "link": "https://lh5.googleusercontent.com/p/AF1QipPQfuCobyKouigfhRgfQtG568XcJtbMOlMHy323=w224-h398-k-no"
            }
        ],
        "link": "https://www.google.com/maps/place/Masjid/data=!4m7!3m6!1s0x390da92a5b1090c7:0x1889962a72a5e29b!8m2!3d28.8300918!4d77.0926889!16s%2Fg%2F11fm4rdzz2!19sChIJx5AQWyqpDTkRm-KlciqWiRg?authuser=0&hl=en&rclk=1",
        "coordinates": {
            "latitude": 28.830091799999998,
            "longitude": 77.0926889
        }
    },
    {
        "name": "Gausiya masjid",
        "main_category": "Mosque",
        "address": "P25V+G96 Gausiya masjid, Gausiya Masjid Rd, Phase II, Madanpur Dabas, Delhi, 110081",
        "detailed_address": {
            "ward": "Phase II, Madanpur Dabas",
            "street": "P25V+G96, Gausiya Masjid Rd",
            "city": "Delhi",
            "postal_code": "110081",
            "state": "Delhi",
            "country_code": "IN"
        },
        "images": [
            {
                "about": "All",
                "link": "https://lh5.googleusercontent.com/p/AF1QipPsyxHDIBIXRMQz5Pq7-As4SRumkLy_ZY-8FJ4J=w224-h298-k-no"
            },
            {
                "about": "Street View & 360deg",
                "link": "https://streetviewpixels-pa.googleapis.com/v1/thumbnail?panoid=UYeWJStAKA_G04WbZTym1Q&cb_client=maps_sv.tactile.gps&w=224&h=298&yaw=320.03336&pitch=0&thumbfov=100"
            }
        ],
        "link": "https://www.google.com/maps/place/Gausiya+masjid/data=!4m7!3m6!1s0x390d0725d6c54e8b:0x7d97dc83be768505!8m2!3d28.7087878!4d77.0433942!16s%2Fg%2F11nmjm6dtr!19sChIJi07F1iUHDTkRBYV2voPcl30?authuser=0&hl=en&rclk=1",
        "coordinates": {
            "latitude": 28.7087878,
            "longitude": 77.0433942
        }
    },
    {
        "name": "Aqsa masjid",
        "main_category": "Place of worship",
        "address": "X84H+359 Aqsa masjid, Unnamed Road, Doula, Uttar Pradesh 250601",
        "detailed_address": {
            "ward": null,
            "street": "X84H+359, Unnamed Road",
            "city": "Doula",
            "postal_code": "250601",
            "state": "Uttar Pradesh",
            "country_code": "IN"
        },
        "images": [
            {
                "about": "All",
                "link": "https://lh5.googleusercontent.com/p/AF1QipPWXwFFuGdhRQRWrKNs-UYYyBoVbk6dr8L_8dXX=w529-h298-k-no"
            }
        ],
        "link": "https://www.google.com/maps/place/Aqsa+masjid/data=!4m7!3m6!1s0x390c51e164e8c3ab:0x4d5df3cbd9756f8c!8m2!3d28.9551526!4d77.3279971!16s%2Fg%2F11fjbqpb0z!19sChIJq8PoZOFRDDkRjG912cvzXU0?authuser=0&hl=en&rclk=1",
        "coordinates": {
            "latitude": 28.955152599999998,
            "longitude": 77.32799709999999
        }
    },
    {
        "name": "Masjid e Aqsa",
        "main_category": "Mosque",
        "address": "85VV+WJ Masjid e Aqsa, Dhouj, Haryana 121004",
        "detailed_address": {
            "ward": null,
            "street": "85VV+WJ",
            "city": "Dhouj",
            "postal_code": null,
            "state": "Haryana",
            "country_code": "IN"
        },
        "images": [
            {
                "about": "All",
                "link": "https://lh5.googleusercontent.com/p/AF1QipN0bD3zPiDsDNbVnopVePt32-IyaZboU2CJPYO9=w397-h298-k-no"
            },
            {
                "about": "Street View & 360deg",
                "link": "https://streetviewpixels-pa.googleapis.com/v1/thumbnail?panoid=hycJBUIG8F18oGCekOqcZg&cb_client=maps_sv.tactile.gps&w=224&h=298&yaw=315.4512&pitch=0&thumbfov=100"
            }
        ],
        "link": "https://www.google.com/maps/place/Masjid+e+Aqsa/data=!4m7!3m6!1s0x390d273c100cea5d:0xc69a860edafdd860!8m2!3d28.344859!4d77.194044!16s%2Fg%2F11tg5sl5dg!19sChIJXeoMEDwnDTkRYNj92g6GmsY?authuser=0&hl=en&rclk=1",
        "coordinates": {
            "latitude": 28.344859,
            "longitude": 77.19404399999999
        }
    },
    {
        "name": "jm`h msjd",
        "main_category": "Mosque",
        "address": "ph-2, jm`h msjd, C-53, Inder Enclave Rd., near makki masjid, Suleiman nagar, Inder Enclave, Kirari Suleman Nagar, Delhi, 110086",
        "detailed_address": {
            "ward": "Suleiman nagar, Inder Enclave, Kirari Suleman Nagar",
            "street": "ph-2, C-53, Inder Enclave Rd., near makki masjid",
            "city": "Delhi",
            "postal_code": "110086",
            "state": "Delhi",
            "country_code": "IN"
        },
        "images": [
            {
                "about": "All",
                "link": "https://streetviewpixels-pa.googleapis.com/v1/thumbnail?panoid=HmLq0lM7paKgGnsd_n6QBw&cb_client=maps_sv.tactile.gps&w=224&h=298&yaw=108.24772&pitch=0&thumbfov=100"
            },
            {
                "about": "Street View & 360deg",
                "link": "https://streetviewpixels-pa.googleapis.com/v1/thumbnail?panoid=HmLq0lM7paKgGnsd_n6QBw&cb_client=maps_sv.tactile.gps&w=224&h=298&yaw=108.24772&pitch=0&thumbfov=100"
            }
        ],
        "link": "https://www.google.com/maps/place/%D8%AC%D9%85%D8%B9%DB%81+%D9%85%D8%B3%D8%AC%D8%AF%E2%80%AD/data=!4m7!3m6!1s0x390d07f8347c5bbd:0x4ed06140531a57b6!8m2!3d28.7075125!4d77.0477122!16s%2Fg%2F11rn76sn5_!19sChIJvVt8NPgHDTkRtlcaU0Bh0E4?authuser=0&hl=en&rclk=1",
        "coordinates": {
            "latitude": 28.7075125,
            "longitude": 77.04771219999999
        }
    },
    {
        "name": "Masjid",
        "main_category": "Mosque",
        "address": "Masjid, I116, DSIIDC Industrial Area, Sector 5, Bawana, New Delhi, Delhi, 110039",
        "detailed_address": {
            "ward": "DSIIDC Industrial Area, Sector 5, Bawana",
            "street": "I116",
            "city": "New Delhi, Delhi",
            "postal_code": "110039",
            "state": "Delhi",
            "country_code": "IN"
        },
        "images": [],
        "link": "https://www.google.com/maps/place/Masjid/data=!4m7!3m6!1s0x390da9cb278fea55:0x351e1b7ec09414c4!8m2!3d28.8011996!4d77.0752247!16s%2Fg%2F11vd9vydsd!19sChIJVeqPJ8upDTkRxBSUwH4bHjU?authuser=0&hl=en&rclk=1",
        "coordinates": {
            "latitude": 28.8011996,
            "longitude": 77.07522469999999
        }
    },
    {
        "name": "Ayesha Masjid",
        "main_category": "Mosque",
        "address": "P24P+88C Ayesha Masjid, Mubarakpur Dabas, Delhi, 110081",
        "detailed_address": {
            "ward": "Mubarakpur Dabas",
            "street": "P24P+88C",
            "city": "Delhi",
            "postal_code": "110081",
            "state": "Delhi",
            "country_code": "IN"
        },
        "images": [
            {
                "about": "All",
                "link": "https://streetviewpixels-pa.googleapis.com/v1/thumbnail?panoid=wuihPj_g_-BoGTm7YkAT9w&cb_client=maps_sv.tactile.gps&w=224&h=298&yaw=38.439304&pitch=0&thumbfov=100"
            },
            {
                "about": "Street View & 360deg",
                "link": "https://streetviewpixels-pa.googleapis.com/v1/thumbnail?panoid=wuihPj_g_-BoGTm7YkAT9w&cb_client=maps_sv.tactile.gps&w=224&h=298&yaw=38.439304&pitch=0&thumbfov=100"
            }
        ],
        "link": "https://www.google.com/maps/place/Ayesha+Masjid/data=!4m7!3m6!1s0x390d07354cde6e7d:0x6bae5d379188b5da!8m2!3d28.7058081!4d77.035771!16s%2Fg%2F11jyvhq_yv!19sChIJfW7eTDUHDTkR2rWIkTddrms?authuser=0&hl=en&rclk=1",
        "coordinates": {
            "latitude": 28.7058081,
            "longitude": 77.035771
        }
    },
    {
        "name": "Masjid",
        "main_category": "Mosque",
        "address": "Masjid, 20, Masjid Rd, Pervesh Nagar, Mubarakpur Dabas, New Delhi, Delhi, 110081",
        "detailed_address": {
            "ward": "Pervesh Nagar, Mubarakpur Dabas",
            "street": "20, Masjid Rd",
            "city": "New Delhi, Delhi",
            "postal_code": "110081",
            "state": "Delhi",
            "country_code": "IN"
        },
        "images": [
            {
                "about": "All",
                "link": "https://streetviewpixels-pa.googleapis.com/v1/thumbnail?panoid=IBcjRQ1PYbJc6wA6m2K_Dg&cb_client=maps_sv.tactile.gps&w=224&h=298&yaw=293.05487&pitch=0&thumbfov=100"
            },
            {
                "about": "Street View & 360deg",
                "link": "https://streetviewpixels-pa.googleapis.com/v1/thumbnail?panoid=IBcjRQ1PYbJc6wA6m2K_Dg&cb_client=maps_sv.tactile.gps&w=224&h=298&yaw=293.05487&pitch=0&thumbfov=100"
            }
        ],
        "link": "https://www.google.com/maps/place/Masjid/data=!4m7!3m6!1s0x390d075632dea237:0xe707b406c4cff64!8m2!3d28.7098866!4d77.0310854!16s%2Fg%2F11kq2cq2_1!19sChIJN6LeMlYHDTkRZP9MbEB7cA4?authuser=0&hl=en&rclk=1",
        "coordinates": {
            "latitude": 28.709886599999997,
            "longitude": 77.0310854
        }
    },
    {
        "name": "Masjid",
        "main_category": "Mosque",
        "address": "Masjid, L385, Block L, JJ Colony No 3, Nangloi, New Delhi, Delhi, 110041",
        "detailed_address": {
            "ward": "Block L, JJ Colony No 3, Nangloi",
            "street": "L385",
            "city": "New Delhi, Delhi",
            "postal_code": "110041",
            "state": "Delhi",
            "country_code": "IN"
        },
        "images": [],
        "link": "https://www.google.com/maps/place/Masjid/data=!4m7!3m6!1s0x390d0530462f99ad:0xf47aa8290ce093fa!8m2!3d28.6842352!4d77.0742041!16s%2Fg%2F11smtj7p27!19sChIJrZkvRjAFDTkR-pPgDCmoevQ?authuser=0&hl=en&rclk=1",
        "coordinates": {
            "latitude": 28.6842352,
            "longitude": 77.0742041
        }
    },
    {
        "name": "Masjid Allah hu mohalla Dhobi bagh, tauru",
        "main_category": "Mosque",
        "address": "Masjid Allah hu mohalla Dhobi bagh, tauru, Bharangpur, Tauru, Haryana 122015",
        "detailed_address": {
            "ward": null,
            "street": null,
            "city": "Bharangpur, Tauru",
            "postal_code": null,
            "state": "Haryana",
            "country_code": "IN"
        },
        "images": [
            {
                "about": "All",
                "link": "https://lh5.googleusercontent.com/p/AF1QipOQ1ePqGi0MIyh35Bp468o_mfmu74ZFMyuWjsdT=w645-h298-k-no"
            },
            {
                "about": "Street View & 360deg",
                "link": "https://streetviewpixels-pa.googleapis.com/v1/thumbnail?panoid=sBynWQMi0iBcdvPKtUSeOg&cb_client=maps_sv.tactile.gps&w=224&h=298&yaw=68.02729&pitch=0&thumbfov=100"
            }
        ],
        "link": "https://www.google.com/maps/place/Masjid+Allah+hu+mohalla+Dhobi+bagh,+tauru/data=!4m7!3m6!1s0x390d31f22f1b441b:0xfd12f26303df0521!8m2!3d28.2040633!4d76.9498415!16s%2Fg%2F11t_zh4pz0!19sChIJG0QbL_IxDTkRIQXfA2PyEv0?authuser=0&hl=en&rclk=1",
        "coordinates": {
            "latitude": 28.204063299999998,
            "longitude": 76.94984149999999
        }
    }
]