[
    {
        "name": "Jama Mosque Jama masjid gadi gali",
        "main_category": "Mosque",
        "address": "GHXH+RQ6 Jama Mosque Jama masjid gadi gali, Siddhart Nagar, Degloor, Maharashtra 431717",
        "detailed_address": {
            "ward": "Siddhart Nagar",
            "street": "GHXH+RQ6",
            "city": "Degloor",
            "postal_code": "431717",
            "state": "Maharashtra",
            "country_code": "IN"
        },
        "images": [
            {
                "about": "All",
                "link": "https://lh5.googleusercontent.com/p/AF1QipNcT9sDk-D-v-yhJmyNi96Cv6qlwwOVeuJzty1x=w224-h398-k-no"
            }
        ],
        "link": "https://www.google.com/maps/place/Jama+Mosque+Jama+masjid+gadi+gali/data=!4m7!3m6!1s0x3bce67de2de854a9:0x77f2bf6bcd6f3ef9!8m2!3d18.5493671!4d77.5793616!16s%2Fg%2F11sk6g6lwf!19sChIJqVToLd5nzjsR-T5vzWu_8nc?authuser=0&hl=en&rclk=1",
        "coordinates": {
            "latitude": 18.549367099999998,
            "longitude": 77.5793616
        }
    },
    {
        "name": "Huzur Gunj Masjid",
        "main_category": "Mosque",
        "address": "GHWF+H79 Huzur Gunj Masjid, Shahaji Nagar, Degloor, Maharashtra 431717",
        "detailed_address": {
            "ward": "Shahaji Nagar",
            "street": "GHWF+H79",
            "city": "Degloor",
            "postal_code": "431717",
            "state": "Maharashtra",
            "country_code": "IN"
        },
        "images": [
            {
                "about": "All",
                "link": "https://lh5.googleusercontent.com/p/AF1QipM9k4M2H5RSIMeUcdbdhZBEjct_rLB9c2aDwpVF=w397-h298-k-no"
            },
            {
                "about": "Dome",
                "link": "https://lh5.googleusercontent.com/p/AF1QipOW9LzGLs747s48rYP0i7kKfYj--cheITo_ykLW=w224-h298-k-no"
            },
            {
                "about": "Videos",
                "link": "https://lh5.googleusercontent.com/p/AF1QipPK6IeQ7vGS3LA1xwBA200r0AhKLjWSMa-KC7RX=w224-h398-k-no"
            },
            {
                "about": "Street View & 360deg",
                "link": "https://lh5.googleusercontent.com/p/AF1QipN9hhYXItodBka59-ta1NztO29Dxk2WWeIv6j4c=w224-h298-k-no-pi0-ya350-ro-0-fo100"
            }
        ],
        "link": "https://www.google.com/maps/place/Huzur+Gunj+Masjid/data=!4m7!3m6!1s0x3bce67853280b30f:0x491a3fdda86e127c!8m2!3d18.5464165!4d77.5732294!16s%2Fg%2F11c53drg3c!19sChIJD7OAMoVnzjsRfBJuqN0_Gkk?authuser=0&hl=en&rclk=1",
        "coordinates": {
            "latitude": 18.5464165,
            "longitude": 77.5732294
        }
    },
    {
        "name": "Darbari masjid",
        "main_category": "Mosque",
        "address": "GHXJ+FF5 Darbari masjid, Gumbed Base Rd, Siddhart Nagar, Degloor, Maharashtra 431717",
        "detailed_address": {
            "ward": "Siddhart Nagar",
            "street": "GHXJ+FF5, Gumbed Base Rd",
            "city": "Degloor",
            "postal_code": "431717",
            "state": "Maharashtra",
            "country_code": "IN"
        },
        "images": [
            {
                "about": "All",
                "link": "https://lh5.googleusercontent.com/p/AF1QipO71uEz5iz3MtzIrDGVUVJ5YypH5B--yJaxUi4Q=w529-h298-k-no"
            },
            {
                "about": "Dome",
                "link": "https://lh5.googleusercontent.com/p/AF1QipO71uEz5iz3MtzIrDGVUVJ5YypH5B--yJaxUi4Q=w529-h298-k-no"
            },
            {
                "about": "Videos",
                "link": "https://lh5.googleusercontent.com/p/AF1QipOXylY9KWgMm6VWcf7JHM42EjrAn0pOZIJcfRXg=w224-h398-k-no"
            }
        ],
        "link": "https://www.google.com/maps/place/Darbari+masjid/data=!4m7!3m6!1s0x3bce67d4ea25eb61:0x69ecdb4306e67c38!8m2!3d18.5486447!4d77.5812254!16s%2Fg%2F11j7hkg8x2!19sChIJYesl6tRnzjsROHzmBkPb7Gk?authuser=0&hl=en&rclk=1",
        "coordinates": {
            "latitude": 18.5486447,
            "longitude": 77.5812254
        }
    },
    {
        "name": "Husaini Masjid",
        "main_category": "Mosque",
        "address": "GHXJ+P48 Husaini Masjid, Gadi Galli, Siddhart Nagar, Degloor, Maharashtra 431717",
        "detailed_address": {
            "ward": "Siddhart Nagar",
            "street": "GHXJ+P48, Gadi Galli",
            "city": "Degloor",
            "postal_code": "431717",
            "state": "Maharashtra",
            "country_code": "IN"
        },
        "images": [
            {
                "about": "All",
                "link": "https://lh5.googleusercontent.com/p/AF1QipPr41k-LYXc9BgV9OTQEhMdwp8vkMdA-gea_Y_w=w224-h298-k-no"
            }
        ],
        "link": "https://www.google.com/maps/place/Husaini+Masjid/data=!4m7!3m6!1s0x3bce67975fe3abaf:0x717da2f04dff460a!8m2!3d18.5492788!4d77.5803161!16s%2Fg%2F11bwkdy17_!19sChIJr6vjX5dnzjsRCkb_TfCifXE?authuser=0&hl=en&rclk=1",
        "coordinates": {
            "latitude": 18.5492788,
            "longitude": 77.58031609999999
        }
    },
    {
        "name": "Masjid",
        "main_category": "Mosque",
        "address": "GHXG+RQ7 Masjid, near hnumaan mNdir, Siddhart Nagar, Degloor, Maharashtra 431717",
        "detailed_address": {
            "ward": "Siddhart Nagar",
            "street": "GHXG+RQ7, near hnumaan mNdir",
            "city": "Degloor",
            "postal_code": "431717",
            "state": "Maharashtra",
            "country_code": "IN"
        },
        "images": [],
        "link": "https://www.google.com/maps/place/Masjid/data=!4m7!3m6!1s0x3bce6716d6c33673:0x9feea6c24555f280!8m2!3d18.5495419!4d77.5769368!16s%2Fg%2F11fkt4ftwz!19sChIJczbD1hZnzjsRgPJVRcKm7p8?authuser=0&hl=en&rclk=1",
        "coordinates": {
            "latitude": 18.549541899999998,
            "longitude": 77.5769368
        }
    },
    {
        "name": "Bilal Masjid",
        "main_category": "Mosque",
        "address": "GHXM+2C2 Bilal Masjid, Unnamed Road, Siddhart Nagar, Degloor, Maharashtra 431717",
        "detailed_address": {
            "ward": "Siddhart Nagar",
            "street": "GHXM+2C2, Unnamed Road",
            "city": "Degloor",
            "postal_code": "431717",
            "state": "Maharashtra",
            "country_code": "IN"
        },
        "images": [],
        "link": "https://www.google.com/maps/place/Bilal+Masjid/data=!4m7!3m6!1s0x3bce67b835aaf4f1:0x66f421bbeb5d371d!8m2!3d18.547516!4d77.583523!16s%2Fg%2F11f8hscmt_!19sChIJ8fSqNbhnzjsRHTdd67sh9GY?authuser=0&hl=en&rclk=1",
        "coordinates": {
            "latitude": 18.547515999999998,
            "longitude": 77.583523
        }
    },
    {
        "name": "Madena mhajed",
        "main_category": "Mosque",
        "address": "GHXC+HCM Madena mhajed, Shahaji Nagar, Degloor, Maharashtra 431717",
        "detailed_address": {
            "ward": "Shahaji Nagar",
            "street": "GHXC+HCM",
            "city": "Degloor",
            "postal_code": "431717",
            "state": "Maharashtra",
            "country_code": "IN"
        },
        "images": [
            {
                "about": "All",
                "link": "https://lh5.googleusercontent.com/p/AF1QipOs5tgHVBI3POP-rNw_oc5N7YX2McC2iXrYcvWq=w529-h298-k-no"
            }
        ],
        "link": "https://www.google.com/maps/place/Madena+mhajed/data=!4m7!3m6!1s0x3bce67e3b9adeb31:0xc1ce9747a83f3626!8m2!3d18.5489599!4d77.5710416!16s%2Fg%2F11fthr6j1s!19sChIJMeutueNnzjsRJjY_qEeXzsE?authuser=0&hl=en&rclk=1",
        "coordinates": {
            "latitude": 18.5489599,
            "longitude": 77.5710416
        }
    },
    {
        "name": "Moin Masjid",
        "main_category": "Mosque",
        "address": "GHXP+8R7 Moin Masjid, Ziya Colony, Degloor, Maharashtra 431717",
        "detailed_address": {
            "ward": "Ziya Colony",
            "street": "GHXP+8R7",
            "city": "Degloor",
            "postal_code": "431717",
            "state": "Maharashtra",
            "country_code": "IN"
        },
        "images": [],
        "link": "https://www.google.com/maps/place/Moin+Masjid/data=!4m7!3m6!1s0x3bce67de3fdc46e9:0xffb9e9b81039d402!8m2!3d18.5482826!4d77.5870411!16s%2Fg%2F11h4nh_rxy!19sChIJ6UbcP95nzjsRAtQ5ELjpuf8?authuser=0&hl=en&rclk=1",
        "coordinates": {
            "latitude": 18.5482826,
            "longitude": 77.5870411
        }
    },
    {
        "name": "Masjid-E-Umar Faruq",
        "main_category": "Mosque",
        "address": "Masjid-E-Umar Faruq, Bhaygaon Road, Ekta Nagar, Anand Nagar, Shahaji Nagar, Degloor, Maharashtra 431717",
        "detailed_address": {
            "ward": "Ekta Nagar, Anand Nagar, Shahaji Nagar",
            "street": "Bhaygaon Road",
            "city": "Degloor",
            "postal_code": "431717",
            "state": "Maharashtra",
            "country_code": "IN"
        },
        "images": [
            {
                "about": "All",
                "link": "https://lh5.googleusercontent.com/p/AF1QipOpqUop2nFO0YZq7xHv0PIASWb6aWyK7I0YGwj2=w529-h298-k-no"
            },
            {
                "about": "By owner",
                "link": "https://lh5.googleusercontent.com/p/AF1QipMINOh32vn3LLyMBFakg67lEpnldaBZb_ctAgXN=w529-h298-k-no"
            }
        ],
        "link": "https://www.google.com/maps/place/Masjid-E-Umar+Faruq/data=!4m7!3m6!1s0x3bce6735ace4d8cf:0xd018471d1f4c1278!8m2!3d18.5467686!4d77.5681043!16s%2Fg%2F11my959cds!19sChIJz9jkrDVnzjsReBJMHx1HGNA?authuser=0&hl=en&rclk=1",
        "coordinates": {
            "latitude": 18.5467686,
            "longitude": 77.5681043
        }
    },
    {
        "name": "Abu Bakar Masjid",
        "main_category": "Mosque",
        "address": "GHVM+WP2 Abu Bakar Masjid, Degloor, Maharashtra 431717",
        "detailed_address": {
            "ward": null,
            "street": "GHVM+WP2",
            "city": "Degloor",
            "postal_code": "431717",
            "state": "Maharashtra",
            "country_code": "IN"
        },
        "images": [],
        "link": "https://www.google.com/maps/place/Abu+Bakar+Masjid/data=!4m7!3m6!1s0x3bce6798a2e1a24f:0xafc850942351c44a!8m2!3d18.5447664!4d77.5842534!16s%2Fg%2F11h9x2p1f2!19sChIJT6LhophnzjsRSsRRI5RQyK8?authuser=0&hl=en&rclk=1",
        "coordinates": {
            "latitude": 18.5447664,
            "longitude": 77.5842534
        }
    },
    {
        "name": "MADARSA ARABIA TARTEEL UL QURAN",
        "main_category": "Mosque",
        "address": "GHXP+6RF MADARSA ARABIA TARTEEL UL QURAN, Unnamed Road, Ziya Colony, Degloor, Maharashtra 431717",
        "detailed_address": {
            "ward": "Ziya Colony",
            "street": "GHXP+6RF, Unnamed Road",
            "city": "Degloor",
            "postal_code": "431717",
            "state": "Maharashtra",
            "country_code": "IN"
        },
        "images": [],
        "link": "https://www.google.com/maps/place/MADARSA+ARABIA+TARTEEL+UL+QURAN/data=!4m7!3m6!1s0x3bce67791130f8a5:0xefe43259a08b8f67!8m2!3d18.5480541!4d77.5870549!16s%2Fg%2F11fvwcx_pq!19sChIJpfgwEXlnzjsRZ4-LoFky5O8?authuser=0&hl=en&rclk=1",
        "coordinates": {
            "latitude": 18.548054099999998,
            "longitude": 77.5870549
        }
    },
    {
        "name": "Masjid Roza Bagh",
        "main_category": "Mosque",
        "address": "Masjid Roza Bagh, REGD OFFICE : H.NO.7866/1, FIRST FLOOR AMOODI, COMPLEX, Udgir Rd, Degloor, Maharashtra 431717",
        "detailed_address": {
            "ward": "Ambedkar Nagar",
            "street": "REGD OFFICE : H.NO.7866/1, FIRST FLOOR AMOODI, COMPLEX, Udgir Rd",
            "city": "Degloor",
            "postal_code": "431717",
            "state": "Maharashtra",
            "country_code": "IN"
        },
        "images": [
            {
                "about": "All",
                "link": "https://lh5.googleusercontent.com/p/AF1QipPu3d4gllqK0w-mnlVmRE-U2_lZyjCyTzcUCfOR=w397-h298-k-no"
            }
        ],
        "link": "https://www.google.com/maps/place/Masjid+Roza+Bagh/data=!4m7!3m6!1s0x3bce67f403a3f77f:0xccc5327dbd668a53!8m2!3d18.5447952!4d77.5751754!16s%2Fg%2F11h7p9yqyy!19sChIJf_ejA_RnzjsRU4pmvX0yxcw?authuser=0&hl=en&rclk=1",
        "coordinates": {
            "latitude": 18.5447952,
            "longitude": 77.57517539999999
        }
    },
    {
        "name": "Burraque Masjid",
        "main_category": "Mosque",
        "address": "HH2J+48C Burraque Masjid, Siddhart Nagar, Degloor, Maharashtra 431717",
        "detailed_address": {
            "ward": "Siddhart Nagar",
            "street": "HH2J+48C",
            "city": "Degloor",
            "postal_code": "431717",
            "state": "Maharashtra",
            "country_code": "IN"
        },
        "images": [],
        "link": "https://www.google.com/maps/place/Burraque+Masjid/data=!4m7!3m6!1s0x3bce675babebb915:0x79dbdd3242043f32!8m2!3d18.5500455!4d77.5808918!16s%2Fg%2F11kr80pzhn!19sChIJFbnrq1tnzjsRMj8EQjLd23k?authuser=0&hl=en&rclk=1",
        "coordinates": {
            "latitude": 18.5500455,
            "longitude": 77.5808918
        }
    }
]