[
    {
        "name": "Jama Masjid Shrivardhan",
        "main_category": "Mosque",
        "address": "22VC+MPM Jama Masjid Shrivardhan, Sarkhot mohalla, shriwardhan, Pen, Maharashtra",
        "detailed_address": {
            "ward": null,
            "street": "22VC+MPM, Sarkhot mohalla, shriwardhan",
            "city": "Pen",
            "postal_code": null,
            "state": "Maharashtra",
            "country_code": "IN"
        },
        "images": [
            {
                "about": "All",
                "link": "https://lh5.googleusercontent.com/p/AF1QipOvOnO83I6iFixVVQ_6s9AuA8n6kg5SjLck7B0u=w298-h298-k-no"
            },
            {
                "about": "Dome",
                "link": "https://lh5.googleusercontent.com/p/AF1QipP-o9w-7jYYnnhMQ_-qlcTqZjuspdviH4XaJpvP=w224-h298-k-no"
            }
        ],
        "link": "https://www.google.com/maps/place/Jama+Masjid+Shrivardhan/data=!4m7!3m6!1s0x3be84b3491c21531:0xc2bbfdb59368f80!8m2!3d18.0442006!4d73.0218079!16s%2Fg%2F11c31rppwm!19sChIJMRXCkTRL6DsRgI82Wdu_Kww?authuser=0&hl=en&rclk=1",
        "coordinates": {
            "latitude": 18.0442006,
            "longitude": 73.0218079
        }
    },
    {
        "name": "Moghul Masjid (Moghul Mohalla)",
        "main_category": "Mosque",
        "address": "22WC+Q43 Moghul Masjid (Moghul Mohalla), Shrivardhan, Maharashtra 402110",
        "detailed_address": {
            "ward": null,
            "street": "22WC+Q43",
            "city": "Shrivardhan",
            "postal_code": "402110",
            "state": "Maharashtra",
            "country_code": "IN"
        },
        "images": [
            {
                "about": "All",
                "link": "https://lh5.googleusercontent.com/p/AF1QipM-2YKX3ze2qur1rZAONBRPM9rx49u3KV6kjG5A=w397-h298-k-no"
            },
            {
                "about": "Dome",
                "link": "https://lh5.googleusercontent.com/p/AF1QipOP9bpRUrA-TRNux-v92Bq6Ow1TrjLYz1_7k2ys=w255-h298-k-no"
            }
        ],
        "link": "https://www.google.com/maps/place/Moghul+Masjid+%28Moghul+Mohalla%29/data=!4m7!3m6!1s0x3be84b343192bfb5:0xdebf7c084bafff4a!8m2!3d18.046897!4d73.0202856!16s%2Fg%2F11ddyksssx!19sChIJtb-SMTRL6DsRSv-vSwh8v94?authuser=0&hl=en&rclk=1",
        "coordinates": {
            "latitude": 18.046896999999998,
            "longitude": 73.0202856
        }
    },
    {
        "name": "Jama Masjid Arathi",
        "main_category": "Mosque",
        "address": "323J+3CM Jama Masjid Arathi, Kalinje, Shrivardhan, Maharashtra 402110",
        "detailed_address": {
            "ward": null,
            "street": "323J+3CM",
            "city": "Kalinje, Shrivardhan",
            "postal_code": "402110",
            "state": "Maharashtra",
            "country_code": "IN"
        },
        "images": [
            {
                "about": "All",
                "link": "https://lh5.googleusercontent.com/p/AF1QipM8Rk5gF8B0Yirg9NUm1TgS3UcDWiZnZ-vruuTI=w397-h298-k-no"
            }
        ],
        "link": "https://www.google.com/maps/place/Jama+Masjid+Arathi/data=!4m7!3m6!1s0x3be84b2fa313801d:0x39126b84aead897e!8m2!3d18.0527162!4d73.0310503!16s%2Fg%2F11c1n762cs!19sChIJHYAToy9L6DsRfomtroRrEjk?authuser=0&hl=en&rclk=1",
        "coordinates": {
            "latitude": 18.0527162,
            "longitude": 73.03105029999999
        }
    },
    {
        "name": "Pulpar Masjid",
        "main_category": "Mosque",
        "address": "22VC+77F Pulpar Masjid, Shrivardhan, Maharashtra 402110",
        "detailed_address": {
            "ward": null,
            "street": "22VC+77F",
            "city": "Shrivardhan",
            "postal_code": "402110",
            "state": "Maharashtra",
            "country_code": "IN"
        },
        "images": [
            {
                "about": "All",
                "link": "https://lh5.googleusercontent.com/p/AF1QipPoOIizzdjPmX8SZEFqnoGHAThuoP-YZov5rDp_=w228-h298-k-no"
            }
        ],
        "link": "https://www.google.com/maps/place/Pulpar+Masjid/data=!4m7!3m6!1s0x3be84b34c338b491:0x3d36b240c4319877!8m2!3d18.0431793!4d73.0206721!16s%2Fg%2F11gdsngthf!19sChIJkbQ4wzRL6DsRd5gxxECyNj0?authuser=0&hl=en&rclk=1",
        "coordinates": {
            "latitude": 18.0431793,
            "longitude": 73.0206721
        }
    },
    {
        "name": "Baughban Masjid",
        "main_category": "Mosque",
        "address": "22WC+66R Baughban Masjid, Shrivardhan, Maharashtra 402110",
        "detailed_address": {
            "ward": null,
            "street": "22WC+66R",
            "city": "Shrivardhan",
            "postal_code": "402110",
            "state": "Maharashtra",
            "country_code": "IN"
        },
        "images": [
            {
                "about": "All",
                "link": "https://lh5.googleusercontent.com/p/AF1QipN2FysMtx_ude0StndbLWuBwqHAn5FqSPZIWDPi=w300-h298-k-no"
            },
            {
                "about": "Dome",
                "link": "https://lh5.googleusercontent.com/p/AF1QipOqGpgEfH-94cXtN9pBo-pGP6Me2TQ3JRzjhbHO=w394-h298-k-no"
            }
        ],
        "link": "https://www.google.com/maps/place/Baughban+Masjid/data=!4m7!3m6!1s0x3be84b344fe6d8bb:0xbea75f760e893072!8m2!3d18.0456063!4d73.0205229!16s%2Fg%2F11cnc678bn!19sChIJu9jmTzRL6DsRcjCJDnZfp74?authuser=0&hl=en&rclk=1",
        "coordinates": {
            "latitude": 18.0456063,
            "longitude": 73.0205229
        }
    },
    {
        "name": "sarai masjid",
        "main_category": "Mosque",
        "address": "22Q9+GP8 sarai masjid, Shrivardhan, Maharashtra 402110",
        "detailed_address": {
            "ward": null,
            "street": "22Q9+GP8",
            "city": "Shrivardhan",
            "postal_code": "402110",
            "state": "Maharashtra",
            "country_code": "IN"
        },
        "images": [
            {
                "about": "All",
                "link": "https://lh5.googleusercontent.com/p/AF1QipN1U6iYYwMm7wpaLH29cuNmV4Q-uk9XGgrmIH8=w351-h298-k-no"
            },
            {
                "about": "Dome",
                "link": "https://lh5.googleusercontent.com/p/AF1QipNIr-tlw_clBl_BhBGUgit3rm7VnlGQx7havnsQ=w298-h298-k-no"
            }
        ],
        "link": "https://www.google.com/maps/place/sarai+masjid/data=!4m7!3m6!1s0x3be9b4ca56fd33f1:0xbc58fabed291a52a!8m2!3d18.0387998!4d73.0193193!16s%2Fg%2F11bw4p5fyk!19sChIJ8TP9Vsq06TsRKqWR0r76WLw?authuser=0&hl=en&rclk=1",
        "coordinates": {
            "latitude": 18.0387998,
            "longitude": 73.01931929999999
        }
    },
    {
        "name": "Jingar Masjid",
        "main_category": "Mosque",
        "address": "22WC+7P9 Jingar Masjid, Shrivardhan, Maharashtra 402110",
        "detailed_address": {
            "ward": null,
            "street": "22WC+7P9",
            "city": "Shrivardhan",
            "postal_code": "402110",
            "state": "Maharashtra",
            "country_code": "IN"
        },
        "images": [
            {
                "about": "All",
                "link": "https://lh5.googleusercontent.com/p/AF1QipPrfq8gFPmzjDLEyq34Ah9BRwIJzM2CN-FPwi8U=w401-h298-k-no"
            },
            {
                "about": "Dome",
                "link": "https://lh5.googleusercontent.com/p/AF1QipPsGv1KWGO2gavu-ojAEHKVB0duH9V375cJ5Gp7=w530-h298-k-no"
            }
        ],
        "link": "https://www.google.com/maps/place/Jingar+Masjid/data=!4m7!3m6!1s0x3be84b346584a895:0xb381a9fc8d0d6d88!8m2!3d18.0456589!4d73.0218707!16s%2Fg%2F11bzt435q4!19sChIJlaiEZTRL6DsRiG0NjfypgbM?authuser=0&hl=en&rclk=1",
        "coordinates": {
            "latitude": 18.0456589,
            "longitude": 73.0218707
        }
    },
    {
        "name": "Noor Masjid",
        "main_category": "Mosque",
        "address": "22V9+5MX Noor Masjid, Budan Pakhadi, Shrivardhan, Maharashtra 402110",
        "detailed_address": {
            "ward": "Bhairavnath Pakhadi",
            "street": "22V9+5MX, Budan Pakhadi",
            "city": "Shrivardhan",
            "postal_code": "402110",
            "state": "Maharashtra",
            "country_code": "IN"
        },
        "images": [
            {
                "about": "All",
                "link": "https://lh5.googleusercontent.com/p/AF1QipN7OLP4TJK2a-0Jgq0wH9ME4_HksMGQ_EfwSvT3=w224-h298-k-no"
            }
        ],
        "link": "https://www.google.com/maps/place/Noor+Masjid/data=!4m7!3m6!1s0x3be84b352367ddfb:0xa15c4903c544b6c7!8m2!3d18.0429985!4d73.0192256!16s%2Fg%2F11c6d9bysv!19sChIJ-91nIzVL6DsRx7ZExQNJXKE?authuser=0&hl=en&rclk=1",
        "coordinates": {
            "latitude": 18.0429985,
            "longitude": 73.0192256
        }
    },
    {
        "name": "Rabbani mohalla madrasa saigaon",
        "main_category": "Mosque",
        "address": "23J7+673 Rabbani mohalla madrasa saigaon, Saigaon, Shrivardhan, Maharashtra 402110",
        "detailed_address": {
            "ward": null,
            "street": "23J7+673, Saigaon",
            "city": "Shrivardhan, Saigaon",
            "postal_code": "402110",
            "state": "Maharashtra",
            "country_code": "IN"
        },
        "images": [
            {
                "about": "All",
                "link": "https://lh5.googleusercontent.com/p/AF1QipO_x6a6W5H9q_7FI3rh_Aejei9wSID2gr6H5jTZ=w397-h298-k-no"
            },
            {
                "about": "Street View & 360deg",
                "link": "https://streetviewpixels-pa.googleapis.com/v1/thumbnail?panoid=szH9PUotvoVTaMnoKHqXNg&cb_client=maps_sv.tactile.gps&w=224&h=298&yaw=295.765&pitch=0&thumbfov=100"
            }
        ],
        "link": "https://www.google.com/maps/place/Rabbani+mohalla+madrasa+saigaon/data=!4m7!3m6!1s0x3be9b5307aec2211:0x781a49974d93ddce!8m2!3d18.0305031!4d73.0631574!16s%2Fg%2F11lky3w1dn!19sChIJESLsejC16TsRzt2TTZdJGng?authuser=0&hl=en&rclk=1",
        "coordinates": {
            "latitude": 18.0305031,
            "longitude": 73.0631574
        }
    },
    {
        "name": "Dariya Masjid",
        "main_category": "Mosque",
        "address": "Dariya Masjid, Bagmandla, Danda, Maharashtra 402114",
        "detailed_address": {
            "ward": null,
            "street": null,
            "city": "Bagmandla, Danda",
            "postal_code": null,
            "state": "Maharashtra",
            "country_code": "IN"
        },
        "images": [
            {
                "about": "All",
                "link": "https://lh5.googleusercontent.com/p/AF1QipN0dudQyXw0X04ITa2_fcOni2gB7JFBGACbp1Wj=w224-h298-k-no"
            },
            {
                "about": "Street View & 360deg",
                "link": "https://streetviewpixels-pa.googleapis.com/v1/thumbnail?panoid=plSEVgmV3iWnt8sCQyEUAQ&cb_client=maps_sv.tactile.gps&w=224&h=298&yaw=341.09924&pitch=0&thumbfov=100"
            },
            {
                "about": "Videos",
                "link": "https://lh5.googleusercontent.com/p/AF1QipPkdsma0xQmax2tej5laDhDXdNLu2gZYPw525tH=w224-h467-k-no"
            }
        ],
        "link": "https://www.google.com/maps/place/Dariya+Masjid/data=!4m7!3m6!1s0x3be9b5af59305f39:0x54236e91161a06cd!8m2!3d17.9922006!4d73.0520922!16s%2Fg%2F11xh741v_!19sChIJOV8wWa-16TsRzQYaFpFuI1Q?authuser=0&hl=en&rclk=1",
        "coordinates": {
            "latitude": 17.9922006,
            "longitude": 73.05209219999999
        }
    },
    {
        "name": "Aisha Masjid Jasvali",
        "main_category": "Mosque",
        "address": "329W+HQM Aisha Masjid Jasvali, Jasvali, Shrivardhan, Jasvali, Maharashtra 402110",
        "detailed_address": {
            "ward": "Jasvali",
            "street": "329W+HQM",
            "city": "Shrivardhan, Jasvali",
            "postal_code": "402110",
            "state": "Maharashtra",
            "country_code": "IN"
        },
        "images": [
            {
                "about": "All",
                "link": "https://lh5.googleusercontent.com/p/AF1QipNrL-yGl6sR1csN0K_LpwL-rG07qPxhZlu7TYkd=w529-h298-k-no"
            },
            {
                "about": "Dome",
                "link": "https://lh5.googleusercontent.com/p/AF1QipMqjvM0wjrc0r7fLvI8HmNG2sNReIRuFTLmTtDS=w399-h298-k-no"
            }
        ],
        "link": "https://www.google.com/maps/place/Aisha+Masjid+Jasvali/data=!4m7!3m6!1s0x3be84b5eaf2521b9:0xb813b84a7707846d!8m2!3d18.0689505!4d73.0469071!16s%2Fg%2F11gxmgllbg!19sChIJuSElr15L6DsRbYQHd0q4E7g?authuser=0&hl=en&rclk=1",
        "coordinates": {
            "latitude": 18.0689505,
            "longitude": 73.0469071
        }
    },
    {
        "name": "Masjid",
        "main_category": "Mosque",
        "address": "X4R9+P5X Masjid, Adi, Maharashtra 402114",
        "detailed_address": {
            "ward": null,
            "street": "X4R9+P5X",
            "city": "Adi",
            "postal_code": "402114",
            "state": "Maharashtra",
            "country_code": "IN"
        },
        "images": [
            {
                "about": "All",
                "link": "https://lh5.googleusercontent.com/p/AF1QipPaGd0uhnsmOTbI3uWHOAJ-N4P2QrVZMXfPEoCR=w224-h496-k-no"
            },
            {
                "about": "Dome",
                "link": "https://lh5.googleusercontent.com/p/AF1QipPLK27-wSRoC9tUnt9Ye4VgcMvwMZqqZJSA2Crw=w224-h485-k-no"
            },
            {
                "about": "Videos",
                "link": "https://lh5.googleusercontent.com/p/AF1QipMV5baLIDkGNX10ngVZtkQbRxaq_IzMr8YU5UBW=w224-h398-k-no"
            }
        ],
        "link": "https://www.google.com/maps/place/Masjid/data=!4m7!3m6!1s0x3be9ca449821925b:0xb2f5d74efa819978!8m2!3d17.9918613!4d73.1179753!16s%2Fg%2F1yg4fj3l9!19sChIJW5IhmETK6TsReJmB-k7X9bI?authuser=0&hl=en&rclk=1",
        "coordinates": {
            "latitude": 17.9918613,
            "longitude": 73.1179753
        }
    },
    {
        "name": "Noor Masjid",
        "main_category": "Mosque",
        "address": "5283+G2G Noor Masjid, Shrivardhan Rd, Khalife Colony, Borlipanchatan, Maharashtra 402403",
        "detailed_address": {
            "ward": "Khalife Colony",
            "street": "5283+G2G, Shrivardhan Rd",
            "city": "Borlipanchatan",
            "postal_code": "402403",
            "state": "Maharashtra",
            "country_code": "IN"
        },
        "images": [
            {
                "about": "All",
                "link": "https://streetviewpixels-pa.googleapis.com/v1/thumbnail?panoid=A7dEWbxO7rJMjfdYFq4ASA&cb_client=maps_sv.tactile.gps&w=224&h=298&yaw=292.85098&pitch=0&thumbfov=100"
            },
            {
                "about": "Street View & 360deg",
                "link": "https://streetviewpixels-pa.googleapis.com/v1/thumbnail?panoid=A7dEWbxO7rJMjfdYFq4ASA&cb_client=maps_sv.tactile.gps&w=224&h=298&yaw=292.85098&pitch=0&thumbfov=100"
            }
        ],
        "link": "https://www.google.com/maps/place/Noor+Masjid/data=!4m7!3m6!1s0x3be8495a369a0db1:0x36bd931137802745!8m2!3d18.1663115!4d73.0025907!16s%2Fg%2F11ljw42rgh!19sChIJsQ2aNlpJ6DsRRSeANxGTvTY?authuser=0&hl=en&rclk=1",
        "coordinates": {
            "latitude": 18.1663115,
            "longitude": 73.0025907
        }
    },
    {
        "name": "Jama Masjid",
        "main_category": "Religious destination",
        "address": "X2VH+M8R Jama Masjid, Harihareshwar, Maharashtra 402110",
        "detailed_address": {
            "ward": null,
            "street": "X2VH+M8R",
            "city": "Harihareshwar",
            "postal_code": null,
            "state": "Maharashtra",
            "country_code": "IN"
        },
        "images": [],
        "link": "https://www.google.com/maps/place/Jama+Masjid/data=!4m7!3m6!1s0x3be9b4582c232b1d:0xf869a8c813c6f2c!8m2!3d17.9942253!4d73.0282685!16s%2Fg%2F11gfjd8g32!19sChIJHSsjLFi06TsRLG88gYyahg8?authuser=0&hl=en&rclk=1",
        "coordinates": {
            "latitude": 17.9942253,
            "longitude": 73.0282685
        }
    },
    {
        "name": "Sharai masjid",
        "main_category": "Ice cream shop",
        "address": "Sharai masjid, Sharai mohalla, Shrivardhan, Maharashtra 402110",
        "detailed_address": {
            "ward": null,
            "street": "Sharai mohalla",
            "city": "Shrivardhan",
            "postal_code": null,
            "state": "Maharashtra",
            "country_code": "IN"
        },
        "images": [
            {
                "about": "All",
                "link": "https://lh5.googleusercontent.com/p/AF1QipN9zX0pR0Fbvd816T6rqy82wT98F4ofmm7sMPeQ=w397-h298-k-no"
            },
            {
                "about": "Menu",
                "link": "https://lh5.googleusercontent.com/p/AF1QipPoKrxBSomwCZy4MMqKksT97-byzDvaLYy7O3Kx=w224-h298-k-no"
            },
            {
                "about": "Food & drink",
                "link": "https://lh5.googleusercontent.com/p/AF1QipMHGpcTANfRkR0CitjRFECs7O3j68TYjIYlAWrq=w397-h298-k-no"
            },
            {
                "about": "Vibe",
                "link": "https://lh5.googleusercontent.com/p/AF1QipOA3m2eGWWGuZsbN8CwqQjJgydHno21wmDyiUSs=w224-h298-k-no"
            },
            {
                "about": "Take-out",
                "link": "https://lh5.googleusercontent.com/p/AF1QipNgYhagtpCzwYnFQvmM1YNutIAjGv0G0zkR2W09=w224-h298-k-no"
            }
        ],
        "link": "https://www.google.com/maps/place/Sharai+masjid/data=!4m7!3m6!1s0x3be9b5465713ff1f:0x911ae55a73b6931!8m2!3d18.0400899!4d73.0192029!16s%2Fg%2F11rvk_5fn_!19sChIJH_8TV0a16TsRMWk7p1WuEQk?authuser=0&hl=en&rclk=1",
        "coordinates": {
            "latitude": 18.040089899999998,
            "longitude": 73.0192029
        }
    },
    {
        "name": "Madras Mohammadiya",
        "main_category": "Mosque",
        "address": "22XC+JHP Madras Mohammadiya, Shrivardhan, Maharashtra 402110",
        "detailed_address": {
            "ward": null,
            "street": "22XC+JHP",
            "city": "Shrivardhan",
            "postal_code": "402110",
            "state": "Maharashtra",
            "country_code": "IN"
        },
        "images": [],
        "link": "https://www.google.com/maps/place/Madras+Mohammadiya/data=!4m7!3m6!1s0x3be84b1e63526a15:0xc5d7e37021a2c01e!8m2!3d18.049417!4d73.0211462!16s%2Fg%2F11s2ntfpd2!19sChIJFWpSYx5L6DsRHsCiIXDj18U?authuser=0&hl=en&rclk=1",
        "coordinates": {
            "latitude": 18.049417,
            "longitude": 73.02114619999999
        }
    }
]