[
    {
        "name": "Jamia Masjid Kaprin jm` msjd khpryn",
        "main_category": "Mosque",
        "address": "MV7W+FQX Jamia Masjid Kaprin jm` msjd khpryn, Kapren, Jammu and Kashmir 192303",
        "detailed_address": {
            "ward": null,
            "street": "MV7W+FQX",
            "city": "Kapren",
            "postal_code": "192303",
            "state": "Jammu and Kashmir",
            "country_code": "IN"
        },
        "images": [
            {
                "about": "All",
                "link": "https://lh5.googleusercontent.com/p/AF1QipPBnZIFV9lfzfCTtIVfnQ8W9sAufOgdgrMVtc6a=w660-h298-k-no"
            }
        ],
        "link": "https://www.google.com/maps/place/Jamia+Masjid+Kaprin+%D8%AC%D8%A7%D9%85%D8%B9+%D9%85%D8%B3%D8%AC%D8%AF+%DA%A9%D9%BE%D8%B1%DB%8C%D9%86%E2%80%AD/data=!4m7!3m6!1s0x38e1f9c4e6d3e8d3:0xe872f70893b28d62!8m2!3d33.6637423!4d74.8969762!16s%2Fg%2F11h3njcjf7!19sChIJ0-jT5sT54TgRYo2ykwj3cug?authuser=0&hl=en&rclk=1",
        "coordinates": {
            "latitude": 33.663742299999996,
            "longitude": 74.8969762
        }
    },
    {
        "name": "bdd'ii msjid",
        "main_category": "Lodging",
        "address": "C33H+R24 bdd'ii msjid, SH 37A, Cad Colony, Kapren, Rajasthan 323301",
        "detailed_address": {
            "ward": "Cad Colony",
            "street": "C33H+R24, SH 37A",
            "city": "Kapren",
            "postal_code": "323301",
            "state": "Rajasthan",
            "country_code": "IN"
        },
        "images": [
            {
                "about": "All",
                "link": "https://streetviewpixels-pa.googleapis.com/v1/thumbnail?panoid=rpgWh_p2LVxbYfqP0l6ufQ&cb_client=maps_sv.tactile.gps&w=224&h=298&yaw=292.43185&pitch=0&thumbfov=100"
            },
            {
                "about": "Exterior",
                "link": "https://lh5.googleusercontent.com/p/AF1QipNvjxAIUEjj0yH1ozrx3YJknNd38rHnwkpyU1gk=w224-h398-k-no"
            },
            {
                "about": "Videos",
                "link": "https://lh5.googleusercontent.com/p/AF1QipPnKzTsCB30O_rjFludYdWIyZGOPNdCfvEtrUJK=w224-h407-k-no"
            },
            {
                "about": "From visitors",
                "link": "https://lh5.googleusercontent.com/p/AF1QipPS2Jj77GYrK7RHIQ1LaFVBJEJ1iUAPEsPAtM3V=w224-h398-k-no"
            },
            {
                "about": "Street View & 360deg",
                "link": "https://streetviewpixels-pa.googleapis.com/v1/thumbnail?panoid=rpgWh_p2LVxbYfqP0l6ufQ&cb_client=maps_sv.tactile.gps&w=224&h=298&yaw=292.43185&pitch=0&thumbfov=100"
            }
        ],
        "link": "https://www.google.com/maps/place/%E0%A4%AC%E0%A4%A1%E0%A4%BC%E0%A5%80+%E0%A4%AE%E0%A4%B8%E0%A5%8D%E0%A4%9C%E0%A4%BF%E0%A4%A6/data=!4m7!3m6!1s0x396fbf7403df52fd:0xd2fe31796cf47b51!8m2!3d25.4045106!4d76.0775828!16s%2Fg%2F11h_bprmwz!19sChIJ_VLfA3S_bzkRUXv0bHkx_tI?authuser=0&hl=en&rclk=1",
        "coordinates": {
            "latitude": 25.4045106,
            "longitude": 76.0775828
        }
    },
    {
        "name": "Masjid shareef checkpora msjd shryf chykhpwrh",
        "main_category": "Mosque",
        "address": "MV7V+GVC Masjid shareef checkpora msjd shryf chykhpwrh, Kapren, 192303",
        "detailed_address": {
            "ward": null,
            "street": "MV7V+GVC",
            "city": "Kapren",
            "postal_code": "192303",
            "state": null,
            "country_code": "IN"
        },
        "images": [],
        "link": "https://www.google.com/maps/place/Masjid+shareef+checkpora+%D9%85%D8%B3%D8%AC%D8%AF+%D8%B4%D8%B1%DB%8C%D9%81+%DA%86%DB%8C%DA%A9%D9%BE%D9%88%D8%B1%DB%81%E2%80%AD/data=!4m7!3m6!1s0x38e1f9c2779ba499:0x5bd8a41e75cb86a0!8m2!3d33.6638092!4d74.8946417!16s%2Fg%2F11rwm49_73!19sChIJmaSbd8L54TgRoIbLdR6k2Fs?authuser=0&hl=en&rclk=1",
        "coordinates": {
            "latitude": 33.663809199999996,
            "longitude": 74.8946417
        }
    },
    {
        "name": "Masjid shareef Kaprin",
        "main_category": "Place of worship",
        "address": "Masjid shareef Kaprin, Kaprin, 192303",
        "detailed_address": {
            "ward": null,
            "street": "Kaprin",
            "city": "Kapren",
            "postal_code": "192303",
            "state": null,
            "country_code": "IN"
        },
        "images": [
            {
                "about": "All",
                "link": "https://lh5.googleusercontent.com/p/AF1QipN1b94SxLmQlPOwaMuMUK_Y25uclafIHiHz-CcM=w238-h298-k-no"
            }
        ],
        "link": "https://www.google.com/maps/place/Masjid+shareef+Kaprin/data=!4m7!3m6!1s0x38e1f909290a941d:0x4a7dfe97235bf80f!8m2!3d33.6638667!4d74.8976605!16s%2Fg%2F11mhmyxhc0!19sChIJHZQKKQn54TgRD_hbI5f-fUo?authuser=0&hl=en&rclk=1",
        "coordinates": {
            "latitude": 33.6638667,
            "longitude": 74.8976605
        }
    },
    {
        "name": "Noori masjid",
        "main_category": "Religious destination",
        "address": "C34F+MVP Noori masjid, Kapren, Rajasthan 323301",
        "detailed_address": {
            "ward": null,
            "street": "C34F+MVP",
            "city": "Kapren",
            "postal_code": "323301",
            "state": "Rajasthan",
            "country_code": "IN"
        },
        "images": [],
        "link": "https://www.google.com/maps/place/Noori+masjid/data=!4m7!3m6!1s0x396fbf752fbb42db:0xbf5376b5286d65a0!8m2!3d25.406724!4d76.0747148!16s%2Fg%2F11j1hr4rgp!19sChIJ20K7L3W_bzkRoGVtKLV2U78?authuser=0&hl=en&rclk=1",
        "coordinates": {
            "latitude": 25.406724,
            "longitude": 76.0747148
        }
    },
    {
        "name": "Shahmohla Masjid Sharief Kaprin",
        "main_category": "Mosque",
        "address": "MV6W+XH7 Shahmohla Masjid Sharief Kaprin, Hei Pora Bata Gund, Kapren, 192303",
        "detailed_address": {
            "ward": null,
            "street": "MV6W+XH7",
            "city": "Hei Pora Bata Gund, Kapren",
            "postal_code": "192303",
            "state": null,
            "country_code": "IN"
        },
        "images": [],
        "link": "https://www.google.com/maps/place/Shahmohla+Masjid+Sharief+Kaprin/data=!4m7!3m6!1s0x38e1f9f6968d8b7b:0x2e044d6aa88f9f0d!8m2!3d33.6624064!4d74.8964267!16s%2Fg%2F11tcc6k7_q!19sChIJe4uNlvb54TgRDZ-PqGpNBC4?authuser=0&hl=en&rclk=1",
        "coordinates": {
            "latitude": 33.6624064,
            "longitude": 74.89642669999999
        }
    }
]