[
    {
        "name": "Masjid",
        "main_category": "Mosque",
        "address": "XPFX+HFF Masjid, Dr Ambedkar Nagar, Gangakhed, Maharashtra 431514",
        "detailed_address": {
            "ward": "Dr Ambedkar Nagar",
            "street": "XPFX+HFF",
            "city": "Gangakhed",
            "postal_code": "431514",
            "state": "Maharashtra",
            "country_code": "IN"
        },
        "images": [
            {
                "about": "All",
                "link": "https://lh5.googleusercontent.com/p/AF1QipO5fAByHt9cKjAfLzuQ-HzWOWH8Z0hJX-CVg9cI=w397-h298-k-no"
            },
            {
                "about": "Dome",
                "link": "https://lh5.googleusercontent.com/p/AF1QipPI-Oqwold6hyzLzLILbvyOzu0SHSEYDdBal7Vi=w529-h298-k-no"
            },
            {
                "about": "Videos",
                "link": "https://lh5.googleusercontent.com/p/AF1QipPXR2aRvrEXGIQODxv1QRGYYSCoL_mFjX-WUSt9=w224-h389-k-no"
            }
        ],
        "link": "https://www.google.com/maps/place/Masjid/data=!4m7!3m6!1s0x3bcfe6bc67b650ab:0x4c9d1255bf984824!8m2!3d18.9739252!4d76.7486577!16s%2Fg%2F1pp2x95ff!19sChIJq1C2Z7zmzzsRJEiYv1USnUw?authuser=0&hl=en&rclk=1",
        "coordinates": {
            "latitude": 18.9739252,
            "longitude": 76.7486577
        }
    },
    {
        "name": "Jama Masjid jaamaa msjid gNgaakhedd",
        "main_category": "Mosque",
        "address": "XQF2+R9W Jama Masjid jaamaa msjid gNgaakhedd, Dr Ambedkar Nagar, Gangakhed, Maharashtra 431514",
        "detailed_address": {
            "ward": "Dr Ambedkar Nagar",
            "street": "XQF2+R9W",
            "city": "Gangakhed",
            "postal_code": "431514",
            "state": "Maharashtra",
            "country_code": "IN"
        },
        "images": [
            {
                "about": "All",
                "link": "https://lh5.googleusercontent.com/p/AF1QipMQkpPRDmWLkf3OUXBETqWdcbxLxj7IFN1K2Z43=w224-h472-k-no"
            },
            {
                "about": "Videos",
                "link": "https://lh5.googleusercontent.com/p/AF1QipPDEsJtBgzwVfvdzdNUtQmAEQC33ad-k4HNCat4=w224-h398-k-no"
            }
        ],
        "link": "https://www.google.com/maps/place/Jama+Masjid+%E0%A4%9C%E0%A4%BE%E0%A4%AE%E0%A4%BE+%E0%A4%AE%E0%A4%B8%E0%A5%8D%E0%A4%9C%E0%A4%BF%E0%A4%A6+%E0%A4%97%E0%A4%82%E0%A4%97%E0%A4%BE%E0%A4%96%E0%A5%87%E0%A4%A1/data=!4m7!3m6!1s0x3bcfe6bc02a8e6db:0x30dd428b1e43f00!8m2!3d18.9746069!4d76.7509674!16s%2Fg%2F11gdw4q6rf!19sChIJ2-aoArzmzzsRAD_ksSjUDQM?authuser=0&hl=en&rclk=1",
        "coordinates": {
            "latitude": 18.974606899999998,
            "longitude": 76.7509674
        }
    },
    {
        "name": "Chand Tara Masjid",
        "main_category": "Mosque",
        "address": "XP8X+PXR Chand Tara Masjid, Police Colony, Gangakhed, Maharashtra 431514",
        "detailed_address": {
            "ward": "Police Colony",
            "street": "XP8X+PXR",
            "city": "Gangakhed",
            "postal_code": "431514",
            "state": "Maharashtra",
            "country_code": "IN"
        },
        "images": [],
        "link": "https://www.google.com/maps/place/Chand+Tara+Masjid/data=!4m7!3m6!1s0x3bcfe69663ff5d87:0xf85525bc5d5aa390!8m2!3d18.9668502!4d76.7498848!16s%2Fg%2F11cn7kghqm!19sChIJh13_Y5bmzzsRkKNaXbwlVfg?authuser=0&hl=en&rclk=1",
        "coordinates": {
            "latitude": 18.9668502,
            "longitude": 76.74988479999999
        }
    },
    {
        "name": "Masjid-e-Aqsa",
        "main_category": "Mosque",
        "address": "XP7V+PMC Masjid-e-Aqsa, Sarda Colony, Gangakhed, Maharashtra 431514",
        "detailed_address": {
            "ward": "Sarda Colony",
            "street": "XP7V+PMC",
            "city": "Gangakhed",
            "postal_code": "431514",
            "state": "Maharashtra",
            "country_code": "IN"
        },
        "images": [
            {
                "about": "All",
                "link": "https://lh5.googleusercontent.com/p/AF1QipMUN7dBDyU6GT8NalU3CCA6uRT2ti0kjXX8UOey=w397-h298-k-no"
            },
            {
                "about": "Dome",
                "link": "https://lh5.googleusercontent.com/p/AF1QipOVRlPQrAztnT_qmmgA2RtQYWs11sMZH5BKlFjj=w645-h298-k-no"
            }
        ],
        "link": "https://www.google.com/maps/place/Masjid-e-Aqsa/data=!4m7!3m6!1s0x3bcfe699e95931d1:0xf9f1ce531add0ba3!8m2!3d18.9643141!4d76.744129!16s%2Fg%2F11g9q74jyd!19sChIJ0TFZ6ZnmzzsRowvdGlPO8fk?authuser=0&hl=en&rclk=1",
        "coordinates": {
            "latitude": 18.9643141,
            "longitude": 76.744129
        }
    },
    {
        "name": "EID GAH GANGAKHED",
        "main_category": "Mosque",
        "address": "XP2R+R48 EID GAH GANGAKHED, Gangakhed, Maharashtra 431514",
        "detailed_address": {
            "ward": null,
            "street": "XP2R+R48",
            "city": "Gangakhed",
            "postal_code": "431514",
            "state": "Maharashtra",
            "country_code": "IN"
        },
        "images": [
            {
                "about": "All",
                "link": "https://lh5.googleusercontent.com/p/AF1QipO6EXHfNzAaaj0DYFEJDxuxvYq4B5ovYUFUmV2Y=w600-h298-k-no"
            },
            {
                "about": "Videos",
                "link": "https://lh5.googleusercontent.com/p/AF1QipO7rOyeNypCrz6ilcXDXxmPpHEOvtVJti5NOvEq=w529-h298-k-no"
            }
        ],
        "link": "https://www.google.com/maps/place/EID+GAH+GANGAKHED/data=!4m7!3m6!1s0x3bcfe684108a516f:0xfc4a2f412ef24d26!8m2!3d18.9520378!4d76.7403351!16s%2Fg%2F11gbxb53_w!19sChIJb1GKEITmzzsRJk3yLkEvSvw?authuser=0&hl=en&rclk=1",
        "coordinates": {
            "latitude": 18.9520378,
            "longitude": 76.7403351
        }
    },
    {
        "name": "Noorani Masjid",
        "main_category": "Mosque",
        "address": "XQF3+65C Noorani Masjid, Zaindipura Galli, Dr Ambedkar Nagar, Gangakhed, Maharashtra 431514",
        "detailed_address": {
            "ward": "Dr Ambedkar Nagar",
            "street": "XQF3+65C, Zaindipura Galli",
            "city": "Gangakhed",
            "postal_code": "431514",
            "state": "Maharashtra",
            "country_code": "IN"
        },
        "images": [
            {
                "about": "All",
                "link": "https://lh5.googleusercontent.com/p/AF1QipMNM3xC-pZLxfsOpy4sU6-sBjhoBpRsHlEwDEqc=w224-h398-k-no"
            },
            {
                "about": "Dome",
                "link": "https://lh5.googleusercontent.com/p/AF1QipOrivJfdzL0ylCPGo8K4lCYeAPRpY-XPYXLHwzi=w224-h398-k-no"
            }
        ],
        "link": "https://www.google.com/maps/place/Noorani+Masjid/data=!4m7!3m6!1s0x3bcfe6bef1098543:0x87546f7cacac62b3!8m2!3d18.9730644!4d76.7528846!16s%2Fg%2F11cn7gd4xs!19sChIJQ4UJ8b7mzzsRs2KsrHxvVIc?authuser=0&hl=en&rclk=1",
        "coordinates": {
            "latitude": 18.9730644,
            "longitude": 76.7528846
        }
    },
    {
        "name": "Mohamadiya Masjid",
        "main_category": "Mosque",
        "address": "Mohamadiya Masjid, gautm ngr, Gautam Nagar, Gangakhed, Maharashtra 431514",
        "detailed_address": {
            "ward": "Gautam Nagar",
            "street": "gautm ngr",
            "city": "Gangakhed",
            "postal_code": "431514",
            "state": "Maharashtra",
            "country_code": "IN"
        },
        "images": [
            {
                "about": "All",
                "link": "https://lh5.googleusercontent.com/p/AF1QipM1DHpoXrckHFlilXPSKpXjIBPguB49UCciEaFf=w224-h398-k-no"
            },
            {
                "about": "By owner",
                "link": "https://lh5.googleusercontent.com/p/AF1QipOb3Ct0nFj_9ixQ5qEaCGmzBQ5Na2YSXQhXpt8V=w224-h398-k-no"
            }
        ],
        "link": "https://www.google.com/maps/place/Mohamadiya+Masjid/data=!4m7!3m6!1s0x3bcfe7cc2c14fe87:0xe2af4c889299a0af!8m2!3d18.9571995!4d76.752853!16s%2Fg%2F11h1kd7ww5!19sChIJh_4ULMznzzsRr6CZkohMr-I?authuser=0&hl=en&rclk=1",
        "coordinates": {
            "latitude": 18.957199499999998,
            "longitude": 76.752853
        }
    },
    {
        "name": "Eid Gah Masjid",
        "main_category": "Mosque",
        "address": "XP6W+RXQ Eid Gah Masjid, Lecturer Colony, Thakur Colony, Gangakhed, Maharashtra 431514",
        "detailed_address": {
            "ward": "Lecturer Colony, Thakur Colony",
            "street": "XP6W+RXQ",
            "city": "Gangakhed",
            "postal_code": "431514",
            "state": "Maharashtra",
            "country_code": "IN"
        },
        "images": [
            {
                "about": "All",
                "link": "https://lh5.googleusercontent.com/p/AF1QipNzDfclKKQ8IBgKFAMAluIlRTsF-TQU132zyOlf=w397-h298-k-no"
            }
        ],
        "link": "https://www.google.com/maps/place/Eid+Gah+Masjid/data=!4m7!3m6!1s0x3bcfe776fba03375:0x57f5ad3dd235b1dd!8m2!3d18.9620918!4d76.7474916!16s%2Fg%2F11f61gpyjj!19sChIJdTOg-3bnzzsR3bE10j2t9Vc?authuser=0&hl=en&rclk=1",
        "coordinates": {
            "latitude": 18.9620918,
            "longitude": 76.7474916
        }
    },
    {
        "name": "Masjid Islam Pura Gangakhed",
        "main_category": "Mosque",
        "address": "XP4W+JF8 Masjid Islam Pura Gangakhed, Irrigation Colony, Gangakhed, Maharashtra 431514",
        "detailed_address": {
            "ward": "Irrigation Colony",
            "street": "XP4W+JF8",
            "city": "Gangakhed",
            "postal_code": null,
            "state": "Maharashtra",
            "country_code": "IN"
        },
        "images": [],
        "link": "https://www.google.com/maps/place/Masjid+Islam+Pura+Gangakhed/data=!4m7!3m6!1s0x3bcfe68feee1ffa7:0xfec007434cceba00!8m2!3d18.9565356!4d76.7461998!16s%2Fg%2F11f503hn8b!19sChIJp__h7o_mzzsRALrOTEMHwP4?authuser=0&hl=en&rclk=1",
        "coordinates": {
            "latitude": 18.9565356,
            "longitude": 76.7461998
        }
    },
    {
        "name": "Muhammadiya Masjid",
        "main_category": "Mosque",
        "address": "XQ95+JFC Muhammadiya Masjid, Maharashtra 431514",
        "detailed_address": {
            "ward": null,
            "street": "XQ95+JFC",
            "city": null,
            "postal_code": "431514",
            "state": "Maharashtra",
            "country_code": "IN"
        },
        "images": [
            {
                "about": "All",
                "link": "https://lh5.googleusercontent.com/p/AF1QipNtHfG36mf8lwW-FmobkYLE5yOQ0LFv_BtiqzDP=w224-h298-k-no"
            },
            {
                "about": "Videos",
                "link": "https://lh5.googleusercontent.com/p/AF1QipMbLlZEZ9Gr7GRS-05CKuGdHil-grSyu5egxmgW=w224-h398-k-no"
            }
        ],
        "link": "https://www.google.com/maps/place/Muhammadiya+Masjid/data=!4m7!3m6!1s0x3bcfe7d8c4e2a3bd:0xd6f4fb3ade7a6239!8m2!3d18.9690535!4d76.7586528!16s%2Fg%2F11llzmzbdh!19sChIJvaPixNjnzzsROWJ63jr79NY?authuser=0&hl=en&rclk=1",
        "coordinates": {
            "latitude": 18.969053499999998,
            "longitude": 76.7586528
        }
    },
    {
        "name": "zaindi poora masjid",
        "main_category": "Mosque",
        "address": "XQF2+6XR zaindi poora masjid, Dr Ambedkar Nagar, Gangakhed, Maharashtra 431514",
        "detailed_address": {
            "ward": "Dr Ambedkar Nagar",
            "street": "XQF2+6XR",
            "city": "Gangakhed",
            "postal_code": "431514",
            "state": "Maharashtra",
            "country_code": "IN"
        },
        "images": [],
        "link": "https://www.google.com/maps/place/zaindi+poora+masjid/data=!4m7!3m6!1s0x3bcfe6be8d18f121:0x25b1bbeb053e2001!8m2!3d18.9731022!4d76.7523808!16s%2Fg%2F11cr_0zh86!19sChIJIfEYjb7mzzsRASA-Beu7sSU?authuser=0&hl=en&rclk=1",
        "coordinates": {
            "latitude": 18.9731022,
            "longitude": 76.7523808
        }
    },
    {
        "name": "Masjid e Rahmaniya",
        "main_category": "Mosque",
        "address": "XQ89+6JV Masjid e Rahmaniya, Gangakhed, Maharashtra 431514",
        "detailed_address": {
            "ward": null,
            "street": "XQ89+6JV",
            "city": "Gangakhed",
            "postal_code": "431514",
            "state": "Maharashtra",
            "country_code": "IN"
        },
        "images": [
            {
                "about": "All",
                "link": "https://lh5.googleusercontent.com/p/AF1QipPUT__0PvB5TEBJVSaXAkmahjhU6vXGg-ScWWbr=w224-h398-k-no"
            },
            {
                "about": "Dome",
                "link": "https://lh5.googleusercontent.com/p/AF1QipPUT__0PvB5TEBJVSaXAkmahjhU6vXGg-ScWWbr=w224-h398-k-no"
            },
            {
                "about": "Videos",
                "link": "https://lh5.googleusercontent.com/p/AF1QipNr8ABvIEZH0-W8JCYGN2qVhYGe65IbUfCNxMZB=w224-h398-k-no"
            }
        ],
        "link": "https://www.google.com/maps/place/Masjid+e+Rahmaniya/data=!4m7!3m6!1s0x3bcfe754937de4bd:0x45bddb7862fd782e!8m2!3d18.9653913!4d76.7700999!16s%2Fg%2F11pzhbgw7g!19sChIJveR9k1TnzzsRLnj9YnjbvUU?authuser=0&hl=en&rclk=1",
        "coordinates": {
            "latitude": 18.9653913,
            "longitude": 76.77009989999999
        }
    },
    {
        "name": "Masjid -E-Madhiha",
        "main_category": "Mosque",
        "address": "WQJX+69X Masjid -E-Madhiha, Kaudgaon, Maharashtra 431514",
        "detailed_address": {
            "ward": null,
            "street": "WQJX+69X",
            "city": "Kaudgaon",
            "postal_code": "431514",
            "state": "Maharashtra",
            "country_code": "IN"
        },
        "images": [
            {
                "about": "All",
                "link": "https://lh5.googleusercontent.com/p/AF1QipN-1-416IA81r3pVFPUxYDWR1lIF7uTifEMGe4P=w224-h497-k-no"
            }
        ],
        "link": "https://www.google.com/maps/place/Masjid+-E-Madhiha/data=!4m7!3m6!1s0x3bcfe7e06290d827:0xa43d035127ec6291!8m2!3d18.9309169!4d76.7990848!16s%2Fg%2F11v58ktmgn!19sChIJJ9iQYuDnzzsRkWLsJ1EDPaQ?authuser=0&hl=en&rclk=1",
        "coordinates": {
            "latitude": 18.9309169,
            "longitude": 76.7990848
        }
    },
    {
        "name": "Khadim masjid",
        "main_category": "Mosque",
        "address": "XQG2+WX6 Khadim masjid, Dr Ambedkar Nagar, Gangakhed, Maharashtra 431514",
        "detailed_address": {
            "ward": "Dr Ambedkar Nagar",
            "street": "XQG2+WX6",
            "city": "Gangakhed",
            "postal_code": "431514",
            "state": "Maharashtra",
            "country_code": "IN"
        },
        "images": [
            {
                "about": "All",
                "link": "https://lh5.googleusercontent.com/p/AF1QipNUxjWwRJGFu54pC80ujlhrfvMsTcN84pad8lly=w529-h298-k-no"
            },
            {
                "about": "Videos",
                "link": "https://lh5.googleusercontent.com/p/AF1QipOs3oncPv2nEtpm5Z5epE2l1GsIEDSyctUdRv_r=w224-h398-k-no"
            }
        ],
        "link": "https://www.google.com/maps/place/Khadim+masjid/data=!4m7!3m6!1s0x3bcfe795c30ce757:0x1fe49bb0eb005672!8m2!3d18.9772987!4d76.752404!16s%2Fg%2F11j47nl1jx!19sChIJV-cMw5XnzzsRclYA67Cb5B8?authuser=0&hl=en&rclk=1",
        "coordinates": {
            "latitude": 18.9772987,
            "longitude": 76.752404
        }
    },
    {
        "name": "Masjid-E-Hussainiya",
        "main_category": "Mosque",
        "address": "Masjid-E-Hussainiya, Jayakwadi Rd, Irrigation Colony, Gangakhed, Maharashtra 431514",
        "detailed_address": {
            "ward": "Irrigation Colony",
            "street": "Jayakwadi Rd",
            "city": "Gangakhed",
            "postal_code": "431514",
            "state": "Maharashtra",
            "country_code": "IN"
        },
        "images": [
            {
                "about": "All",
                "link": "https://lh5.googleusercontent.com/p/AF1QipPSpUmjWo9seFTkJTe-HuxF4ZEPFIXwaSwIzas3=w397-h298-k-no"
            }
        ],
        "link": "https://www.google.com/maps/place/Masjid-E-Hussainiya/data=!4m7!3m6!1s0x3bcfe7fda6b920f3:0x43fba94e2bae6fd7!8m2!3d18.9564502!4d76.747544!16s%2Fg%2F11rn6w1pgn!19sChIJ8yC5pv3nzzsR12-uK06p-0M?authuser=0&hl=en&rclk=1",
        "coordinates": {
            "latitude": 18.9564502,
            "longitude": 76.74754399999999
        }
    },
    {
        "name": "Ismail Masjid",
        "main_category": "Mosque",
        "address": "Ismail Masjid, Maheboob Nagar, Gangakhed, Maharashtra 431514",
        "detailed_address": {
            "ward": null,
            "street": "Maheboob Nagar",
            "city": "Gangakhed",
            "postal_code": "431514",
            "state": "Maharashtra",
            "country_code": "IN"
        },
        "images": [
            {
                "about": "All",
                "link": "https://lh5.googleusercontent.com/p/AF1QipOHjaWcKa1B9pmNBGF8J5eCyUBQe68PMn1-r5o9=w529-h298-k-no"
            },
            {
                "about": "Videos",
                "link": "https://lh5.googleusercontent.com/p/AF1QipMKrl8H23u4cIzOTedT38FlBi_JbQfDIHcRJEM4=w224-h398-k-no"
            }
        ],
        "link": "https://www.google.com/maps/place/Ismail+Masjid/data=!4m7!3m6!1s0x3bcfe75880acc383:0xb0e0254d94b3c86c!8m2!3d18.9681847!4d76.7640619!16s%2Fg%2F11pg8sdph0!19sChIJg8OsgFjnzzsRbMizlE0l4LA?authuser=0&hl=en&rclk=1",
        "coordinates": {
            "latitude": 18.9681847,
            "longitude": 76.7640619
        }
    },
    {
        "name": "Bilal Masjid Near Datt Mandir",
        "main_category": "Mosque",
        "address": "XQC8+PH6 Bilal Masjid Near Datt Mandir, Gangakhed, Maharashtra 431514",
        "detailed_address": {
            "ward": null,
            "street": "XQC8+PH6",
            "city": "Gangakhed",
            "postal_code": null,
            "state": "Maharashtra",
            "country_code": "IN"
        },
        "images": [],
        "link": "https://www.google.com/maps/place/Bilal+Masjid+Near+Datt+Mandir/data=!4m7!3m6!1s0x3bcfe753df9c036f:0x2b6079df775d8f62!8m2!3d18.971786!4d76.7663888!16s%2Fg%2F11hzx56_nh!19sChIJbwOc31PnzzsRYo9dd995YCs?authuser=0&hl=en&rclk=1",
        "coordinates": {
            "latitude": 18.971785999999998,
            "longitude": 76.7663888
        }
    },
    {
        "name": "Fatima Masjid",
        "main_category": "Mosque",
        "address": "XQ84+75P Fatima Masjid, Thakur Colony, Gangakhed, Maharashtra 431514",
        "detailed_address": {
            "ward": "Thakur Colony",
            "street": "XQ84+75P",
            "city": "Gangakhed",
            "postal_code": "431514",
            "state": "Maharashtra",
            "country_code": "IN"
        },
        "images": [
            {
                "about": "All",
                "link": "https://lh5.googleusercontent.com/p/AF1QipMMMd182jTq3_mdEjj8knd3Klq7kiiYpAEGC_cD=w224-h398-k-no"
            }
        ],
        "link": "https://www.google.com/maps/place/Fatima+Masjid/data=!4m7!3m6!1s0x3bcfe713492ead85:0xd83f890167ddd313!8m2!3d18.9657174!4d76.7554527!16s%2Fg%2F11vbf1yzvf!19sChIJha0uSRPnzzsRE9PdZwGJP9g?authuser=0&hl=en&rclk=1",
        "coordinates": {
            "latitude": 18.9657174,
            "longitude": 76.75545269999999
        }
    },
    {
        "name": "Quba Masjid",
        "main_category": "Mosque",
        "address": "XQG3+R89 Quba Masjid, Kumbharwada, Taru Mohalla, Gangakhed, Maharashtra 431514",
        "detailed_address": {
            "ward": "Kumbharwada, Taru Mohalla",
            "street": "XQG3+R89",
            "city": "Gangakhed",
            "postal_code": "431514",
            "state": "Maharashtra",
            "country_code": "IN"
        },
        "images": [
            {
                "about": "All",
                "link": "https://lh5.googleusercontent.com/p/AF1QipMAeJkwj7a7Z5-V1gmvwB4hCsdFyFRX9aDnt97G=w529-h298-k-no"
            }
        ],
        "link": "https://www.google.com/maps/place/Quba+Masjid/data=!4m7!3m6!1s0x3bcfe74b1a6a4745:0xcd9dd62ce0a5db41!8m2!3d18.9770384!4d76.7533482!16s%2Fg%2F11r5ryx57h!19sChIJRUdqGkvnzzsRQdul4CzWnc0?authuser=0&hl=en&rclk=1",
        "coordinates": {
            "latitude": 18.977038399999998,
            "longitude": 76.75334819999999
        }
    },
    {
        "name": "Qadeem Masjid",
        "main_category": "Mosque",
        "address": "XQG2+WXG Qadeem Masjid, Dr Ambedkar Nagar, Gangakhed, Maharashtra 431514",
        "detailed_address": {
            "ward": "Dr Ambedkar Nagar",
            "street": "XQG2+WXG",
            "city": "Gangakhed",
            "postal_code": "431514",
            "state": "Maharashtra",
            "country_code": "IN"
        },
        "images": [],
        "link": "https://www.google.com/maps/place/Qadeem+Masjid/data=!4m7!3m6!1s0x3bcfe772341d63df:0x89837a2d4a3d8bff!8m2!3d18.9773199!4d76.7524607!16s%2Fg%2F11mv0_mhyn!19sChIJ32MdNHLnzzsR_4s9Si16g4k?authuser=0&hl=en&rclk=1",
        "coordinates": {
            "latitude": 18.977319899999998,
            "longitude": 76.7524607
        }
    },
    {
        "name": "Malha Masjid",
        "main_category": "Mosque",
        "address": "XQG3+W42 Malha Masjid, Kumbharwada, Dr Ambedkar Nagar, Gangakhed, Maharashtra 431514",
        "detailed_address": {
            "ward": "Kumbharwada, Dr Ambedkar Nagar",
            "street": "XQG3+W42",
            "city": "Gangakhed",
            "postal_code": "431514",
            "state": "Maharashtra",
            "country_code": "IN"
        },
        "images": [
            {
                "about": "All",
                "link": "https://lh5.googleusercontent.com/p/AF1QipOm_LgLHXo7SeUsfJ0kK6fHQhkLBsMa_HUhtPsu=w397-h298-k-no"
            },
            {
                "about": "Videos",
                "link": "https://lh5.googleusercontent.com/p/AF1QipNmCgJ4C3CRH70Di8fOKvrDBT-A0bMwjxksfsrS=w224-h389-k-no"
            }
        ],
        "link": "https://www.google.com/maps/place/Malha+Masjid/data=!4m7!3m6!1s0x3bcfe720bf6df583:0x1ffa41f16dd41176!8m2!3d18.9772578!4d76.7527507!16s%2Fg%2F11qh116h0b!19sChIJg_VtvyDnzzsRdhHUbfFB-h8?authuser=0&hl=en&rclk=1",
        "coordinates": {
            "latitude": 18.9772578,
            "longitude": 76.75275069999999
        }
    },
    {
        "name": "Raza Sunni Masjid snny msjd",
        "main_category": "Mosque",
        "address": "Shop.No 1, Raza Sunni Masjid snny msjd, Dilakash Chowk, near Janabai Chowk, Police Colony, Gangakhed, Maharashtra 431514",
        "detailed_address": {
            "ward": "Police Colony",
            "street": "Shop.No 1, Dilakash Chowk, near Janabai Chowk",
            "city": "Gangakhed",
            "postal_code": "431514",
            "state": "Maharashtra",
            "country_code": "IN"
        },
        "images": [
            {
                "about": "All",
                "link": "https://lh5.googleusercontent.com/p/AF1QipPyR4UFzM01ZtE3QjAMCSYRX_8wyBS5HNtujMXR=w224-h362-k-no"
            },
            {
                "about": "Dome",
                "link": "https://lh5.googleusercontent.com/p/AF1QipPyR4UFzM01ZtE3QjAMCSYRX_8wyBS5HNtujMXR=w224-h362-k-no"
            }
        ],
        "link": "https://www.google.com/maps/place/Raza+Sunni+Masjid+%D8%B3%D9%86%D9%86%DB%8C+%D9%85%D8%B3%D8%AC%D8%AF%E2%80%AD/data=!4m7!3m6!1s0x3bcfe76c612c58bd:0xed9935e6b421824a!8m2!3d18.9705605!4d76.7532925!16s%2Fg%2F11kjpcbzbq!19sChIJvVgsYWznzzsRSoIhtOY1me0?authuser=0&hl=en&rclk=1",
        "coordinates": {
            "latitude": 18.970560499999998,
            "longitude": 76.7532925
        }
    },
    {
        "name": "Barkatiya masjid (brkaatiiyaa msjid)",
        "main_category": "Mosque",
        "address": "Barkatiya masjid (brkaatiiyaa msjid), Barkatiya masjid, jila, Barkat Nagar, Gangakhed, Maharashtra 431514",
        "detailed_address": {
            "ward": "Barkat Nagar",
            "street": "Barkatiya masjid, jila",
            "city": "Gangakhed",
            "postal_code": null,
            "state": "Maharashtra",
            "country_code": "IN"
        },
        "images": [],
        "link": "https://www.google.com/maps/place/Barkatiya+masjid+%28%E0%A4%AC%E0%A4%B0%E0%A4%95%E0%A4%BE%E0%A4%A4%E0%A5%80%E0%A4%AF%E0%A4%BE+%E0%A4%AE%E0%A4%B8%E0%A5%8D%E0%A4%9C%E0%A4%BF%E0%A4%A6%29/data=!4m7!3m6!1s0x3bcfe78c38f28071:0xa2f19f36114f73bc!8m2!3d18.9705132!4d76.7614461!16s%2Fg%2F11sds0cmk7!19sChIJcYDyOIznzzsRvHNPETaf8aI?authuser=0&hl=en&rclk=1",
        "coordinates": {
            "latitude": 18.9705132,
            "longitude": 76.7614461
        }
    },
    {
        "name": "Lekat habiba masjid",
        "main_category": "Museum",
        "address": "XP6X+V3W Lekat habiba masjid, iidgaah maidaan, Lecturer Colony, Thakur Colony, Gangakhed, Maharashtra 431514",
        "detailed_address": {
            "ward": "Lecturer Colony, Thakur Colony",
            "street": "XP6X+V3W iidgaah maidaan",
            "city": "Gangakhed",
            "postal_code": "431514",
            "state": "Maharashtra",
            "country_code": "IN"
        },
        "images": [
            {
                "about": "All",
                "link": "https://lh5.googleusercontent.com/p/AF1QipOwgpsXnyM_JNuCJPPQUzD_UZ5BW0zfJcrCZYkb=w527-h298-k-no"
            }
        ],
        "link": "https://www.google.com/maps/place/Lekat+habiba+masjid/data=!4m7!3m6!1s0x3bcfe73ff24fda5d:0xe96127e2fa9418c7!8m2!3d18.9619561!4d76.7482175!16s%2Fg%2F11q4jtpvt4!19sChIJXdpP8j_nzzsRxxiU-uInYek?authuser=0&hl=en&rclk=1",
        "coordinates": {
            "latitude": 18.9619561,
            "longitude": 76.7482175
        }
    },
    {
        "name": "rhemaaniyaa msjid",
        "main_category": "Mosque",
        "address": "XP8X+G68 rhemaaniyaa msjid, Rahemaniya masjid .Dilkash colony .sawargaw road, Gangakhed",
        "detailed_address": {
            "ward": "Dhagvati Nagar, Sarda Colony",
            "street": "XP8X+G68, Rahemaniya masjid .Dilkash colony .sawargaw road",
            "city": "Gangakhed",
            "postal_code": null,
            "state": "Maharashtra",
            "country_code": "IN"
        },
        "images": [],
        "link": "https://www.google.com/maps/place/%E0%A4%B0%E0%A4%B9%E0%A5%87%E0%A4%AE%E0%A4%BE%E0%A4%A8%E0%A4%BF%E0%A4%AF%E0%A4%BE+%E0%A4%AE%E0%A4%B8%E0%A5%8D%E0%A4%9C%E0%A4%BF%E0%A4%A6/data=!4m7!3m6!1s0x3bcfe79801acb50f:0x4639132c5f0219f8!8m2!3d18.9662902!4d76.7480685!16s%2Fg%2F11qg5vw8f5!19sChIJD7WsAZjnzzsR-BkCXywTOUY?authuser=0&hl=en&rclk=1",
        "coordinates": {
            "latitude": 18.9662902,
            "longitude": 76.7480685
        }
    },
    {
        "name": "Garib Nawaz Masjid",
        "main_category": "Mosque",
        "address": "XP6R+XX Garib Nawaz Masjid, Sarda Colony, Gangakhed, Maharashtra 431514",
        "detailed_address": {
            "ward": "Sarda Colony",
            "street": "XP6R+XX",
            "city": "Gangakhed",
            "postal_code": null,
            "state": "Maharashtra",
            "country_code": "IN"
        },
        "images": [],
        "link": "https://www.google.com/maps/place/Garib+Nawaz+Masjid/data=!4m7!3m6!1s0x3bcfe7b9ab8d714f:0xe043aaeb5b5f54aa!8m2!3d18.9624754!4d76.7424401!16s%2Fg%2F11ptqbh6mj!19sChIJT3GNq7nnzzsRqlRfW-uqQ-A?authuser=0&hl=en&rclk=1",
        "coordinates": {
            "latitude": 18.9624754,
            "longitude": 76.7424401
        }
    },
    {
        "name": "Masjid E Hussainiya jaykwadi",
        "main_category": "Mosque",
        "address": "Masjid E Hussainiya jaykwadi, Masjid -A- Husainiya Muskan colony Masjid -A- Husainiya Muskan colony Masjid -A- Husainiya Muskan colony 9th, Irrigation Colony, Gangakhed, Maharashtra 431514",
        "detailed_address": {
            "ward": "Irrigation Colony",
            "street": "Masjid -A- Husainiya Muskan colony Masjid -A- Husainiya Muskan colony Masjid -A- Husainiya Muskan colony 9th",
            "city": "Gangakhed",
            "postal_code": "431514",
            "state": "Maharashtra",
            "country_code": "IN"
        },
        "images": [],
        "link": "https://www.google.com/maps/place/Masjid+E+Hussainiya+jaykwadi/data=!4m7!3m6!1s0x3bcfe736d91d499d:0x7e658f50a3a5afd!8m2!3d18.9666054!4d76.7485031!16s%2Fg%2F11rnr_zvjw!19sChIJnUkd2TbnzzsR_Vo6CvVY5gc?authuser=0&hl=en&rclk=1",
        "coordinates": {
            "latitude": 18.9666054,
            "longitude": 76.7485031
        }
    },
    {
        "name": "Masjid e masod",
        "main_category": "Mosque",
        "address": "XQ89+6XQ Masjid e masod, rod, Gangakhed, Maharashtra 431514",
        "detailed_address": {
            "ward": null,
            "street": "XQ89+6XQ, rod",
            "city": "Gangakhed",
            "postal_code": null,
            "state": "Maharashtra",
            "country_code": "IN"
        },
        "images": [
            {
                "about": "All",
                "link": "https://lh5.googleusercontent.com/p/AF1QipM1LWg_DQKSNivSlD1Tr6r6KmzPjrVxGe-Su8Al=w224-h497-k-no"
            }
        ],
        "link": "https://www.google.com/maps/place/Masjid+e+masod/data=!4m7!3m6!1s0x3bcfe77957e6f0ad:0x42986c7fc490d1fb!8m2!3d18.9655997!4d76.7699831!16s%2Fg%2F11s2q7s397!19sChIJrfDmV3nnzzsR-9GQxH9smEI?authuser=0&hl=en&rclk=1",
        "coordinates": {
            "latitude": 18.9655997,
            "longitude": 76.76998309999999
        }
    },
    {
        "name": "JAMA MASJID MAIDAN",
        "main_category": "Garden",
        "address": "XP2R+53V JAMA MASJID MAIDAN, Gangakhed, Maharashtra 431514",
        "detailed_address": {
            "ward": null,
            "street": "XP2R+53V",
            "city": "Gangakhed",
            "postal_code": "431514",
            "state": "Maharashtra",
            "country_code": "IN"
        },
        "images": [],
        "link": "https://www.google.com/maps/place/JAMA+MASJID+MAIDAN/data=!4m7!3m6!1s0x3bcfe7a5815a024f:0x3a3da2a87dc19e0c!8m2!3d18.9508984!4d76.7411884!16s%2Fg%2F11ks0bly8h!19sChIJTwJagaXnzzsRDJ7BfaiiPTo?authuser=0&hl=en&rclk=1",
        "coordinates": {
            "latitude": 18.9508984,
            "longitude": 76.7411884
        }
    },
    {
        "name": "SAILANI MASJID",
        "main_category": "Mosque",
        "address": "XQ84+962 SAILANI MASJID, Thakur Colony, Gangakhed, Maharashtra 431514",
        "detailed_address": {
            "ward": "Thakur Colony",
            "street": "XQ84+962",
            "city": "Gangakhed",
            "postal_code": "431514",
            "state": "Maharashtra",
            "country_code": "IN"
        },
        "images": [],
        "link": "https://www.google.com/maps/place/SAILANI+MASJID/data=!4m7!3m6!1s0x3bcfe704fefe9b1b:0xdb073afd7661b69c!8m2!3d18.965898!4d76.7555059!16s%2Fg%2F11l79c42w6!19sChIJG5v-_gTnzzsRnLZhdv06B9s?authuser=0&hl=en&rclk=1",
        "coordinates": {
            "latitude": 18.965898,
            "longitude": 76.7555059
        }
    },
    {
        "name": "Muslim Qabrastan",
        "main_category": "Cemetery",
        "address": "Muslim Qabrastan, Raza Masjid, Police Colony, Gangakhed, Maharashtra 431514",
        "detailed_address": {
            "ward": "Police Colony",
            "street": "Raza Masjid",
            "city": "Gangakhed",
            "postal_code": "431514",
            "state": "Maharashtra",
            "country_code": "IN"
        },
        "images": [
            {
                "about": "All",
                "link": "https://lh5.googleusercontent.com/p/AF1QipN2q5QcLQb98XyyFj7ZfeDghKy3fK6N_S8O462L=w529-h298-k-no"
            }
        ],
        "link": "https://www.google.com/maps/place/Muslim+Qabrastan/data=!4m7!3m6!1s0x3bcfe7c7c1b02f95:0xc88a06218e976e9f!8m2!3d18.9704838!4d76.7524312!16s%2Fg%2F11n1s41vf7!19sChIJlS-wwcfnzzsRn26XjiEGisg?authuser=0&hl=en&rclk=1",
        "coordinates": {
            "latitude": 18.9704838,
            "longitude": 76.75243119999999
        }
    },
    {
        "name": "makkah masjid suppa khalsa",
        "main_category": "Mosque",
        "address": "RQW7+9PV makkah masjid suppa khalsa, Azad Nagar Suppa, khalsa, Gangakhed, 431514",
        "detailed_address": {
            "ward": null,
            "street": "RQW7+9PV, Azad Nagar Suppa, khalsa",
            "city": "Gangakhed, Suppa",
            "postal_code": "431514",
            "state": "Maharashtra",
            "country_code": "IN"
        },
        "images": [
            {
                "about": "All",
                "link": "https://lh5.googleusercontent.com/p/AF1QipMx7p9EZ408Pf5CLwsa-0RmgAfZM8GK-6NwNgwI=w395-h298-k-no"
            }
        ],
        "link": "https://www.google.com/maps/place/makkah+masjid+suppa+khalsa/data=!4m7!3m6!1s0x3bcfe99aa8b6dc23:0xffaeaaf4e65788e0!8m2!3d18.8459989!4d76.7643022!16s%2Fg%2F11rq7qh8xp!19sChIJI9y2qJrpzzsR4IhX5vSqrv8?authuser=0&hl=en&rclk=1",
        "coordinates": {
            "latitude": 18.845998899999998,
            "longitude": 76.7643022
        }
    },
    {
        "name": "Sailani Masjid",
        "main_category": "Place of worship",
        "address": "XQ72+QMP Sailani Masjid, Chate Colony, Thakur Colony, Gangakhed, Maharashtra 431514",
        "detailed_address": {
            "ward": "Chate Colony, Thakur Colony",
            "street": "XQ72+QMP",
            "city": "Gangakhed",
            "postal_code": "431514",
            "state": "Maharashtra",
            "country_code": "IN"
        },
        "images": [],
        "link": "https://www.google.com/maps/place/Sailani+Masjid/data=!4m7!3m6!1s0x3bcfe7862a99da3f:0x1c66f51e0f60c4d0!8m2!3d18.9644623!4d76.7516895!16s%2Fg%2F11l79c3m1_!19sChIJP9qZKobnzzsR0MRgDx71Zhw?authuser=0&hl=en&rclk=1",
        "coordinates": {
            "latitude": 18.964462299999997,
            "longitude": 76.7516895
        }
    },
    {
        "name": "Bartaya Masjid",
        "main_category": "School",
        "address": "XQC6+6GQ Bartaya Masjid, Gangakhed, Maharashtra 431514",
        "detailed_address": {
            "ward": null,
            "street": "XQC6+6GQ",
            "city": "Gangakhed",
            "postal_code": null,
            "state": "Maharashtra",
            "country_code": "IN"
        },
        "images": [],
        "link": "https://www.google.com/maps/place/Bartaya+Masjid/data=!4m7!3m6!1s0x3bcfe7a29ccda56f:0x52c977846fe14295!8m2!3d18.9705865!4d76.7613482!16s%2Fg%2F11gjxkfhvy!19sChIJb6XNnKLnzzsRlULhb4R3yVI?authuser=0&hl=en&rclk=1",
        "coordinates": {
            "latitude": 18.9705865,
            "longitude": 76.7613482
        }
    }
]