[
    {
        "name": "JAMA MASJID AMLA",
        "main_category": "Mosque",
        "address": "W4FH+HCP JAMA MASJID AMLA, Itwari Chowk, near State Bank, Amla, Madhya Pradesh 460551",
        "detailed_address": {
            "ward": null,
            "street": "W4FH+HCP, Itwari Chowk, near State Bank",
            "city": "Amla",
            "postal_code": "460551",
            "state": "Madhya Pradesh",
            "country_code": "IN"
        },
        "images": [
            {
                "about": "All",
                "link": "https://streetviewpixels-pa.googleapis.com/v1/thumbnail?panoid=yLtzew6frm9fp5GsWOeOig&cb_client=maps_sv.tactile.gps&w=224&h=298&yaw=342.7697&pitch=0&thumbfov=100"
            },
            {
                "about": "Street View & 360deg",
                "link": "https://streetviewpixels-pa.googleapis.com/v1/thumbnail?panoid=yLtzew6frm9fp5GsWOeOig&cb_client=maps_sv.tactile.gps&w=224&h=298&yaw=342.7697&pitch=0&thumbfov=100"
            }
        ],
        "link": "https://www.google.com/maps/place/JAMA+MASJID+AMLA/data=!4m7!3m6!1s0x3bd5ef41f26ebfeb:0x936400d9b44660a3!8m2!3d21.9239636!4d78.1285872!16s%2Fg%2F11c1ny66pr!19sChIJ679u8kHv1TsRo2BGtNkAZJM?authuser=0&hl=en&rclk=1",
        "coordinates": {
            "latitude": 21.9239636,
            "longitude": 78.1285872
        }
    },
    {
        "name": "masjid Garib Nawaz AMLA",
        "main_category": "Mosque",
        "address": "W496+RQP masjid Garib Nawaz AMLA, Ward Number 13, Amla, Madhya Pradesh 460551",
        "detailed_address": {
            "ward": "Ward Number 13",
            "street": "W496+RQP",
            "city": "Amla",
            "postal_code": "460551",
            "state": "Madhya Pradesh",
            "country_code": "IN"
        },
        "images": [
            {
                "about": "All",
                "link": "https://lh5.googleusercontent.com/p/AF1QipMR8W_-qOamuTGOclM57oatArsSF98Ch1t6XIm2=w397-h298-k-no"
            }
        ],
        "link": "https://www.google.com/maps/place/masjid+Garib+Nawaz+AMLA/data=!4m7!3m6!1s0x3bd5ef5f6a3d7d0b:0x9e648a4d21030a5e!8m2!3d21.9195996!4d78.1119668!16s%2Fg%2F1hm1z3cdp!19sChIJC309al_v1TsRXgoDIU2KZJ4?authuser=0&hl=en&rclk=1",
        "coordinates": {
            "latitude": 21.919599599999998,
            "longitude": 78.11196679999999
        }
    },
    {
        "name": "Choti Masjid Amla",
        "main_category": "Mosque",
        "address": "4WR9+4JQ Choti Masjid Amla, Amla, Maharashtra 431129",
        "detailed_address": {
            "ward": null,
            "street": "4WR9+4JQ",
            "city": "Amla",
            "postal_code": "431129",
            "state": "Maharashtra",
            "country_code": "IN"
        },
        "images": [],
        "link": "https://www.google.com/maps/place/Choti+Masjid+Amla/data=!4m7!3m6!1s0x3bdace3e238e4e41:0xac90b99ce7bd17db!8m2!3d19.1403258!4d75.9191163!16s%2Fg%2F1ptx9jzll!19sChIJQU6OIz7O2jsR2xe955y5kKw?authuser=0&hl=en&rclk=1",
        "coordinates": {
            "latitude": 19.1403258,
            "longitude": 75.9191163
        }
    },
    {
        "name": "Noorani Masjid Amla",
        "main_category": "Mosque",
        "address": "4WR9+9GC Noorani Masjid Amla, Amla, Maharashtra 431129",
        "detailed_address": {
            "ward": null,
            "street": "4WR9+9GC",
            "city": "Amla",
            "postal_code": "431129",
            "state": "Maharashtra",
            "country_code": "IN"
        },
        "images": [
            {
                "about": "All",
                "link": "https://lh5.googleusercontent.com/p/AF1QipNU9ZTaoeltxwFRY2PGs4DLywwoUCSEU2sKnY49=w397-h298-k-no"
            }
        ],
        "link": "https://www.google.com/maps/place/Noorani+Masjid+Amla/data=!4m7!3m6!1s0x3bdace3e3e1cf7e1:0xe62bc76f022c4488!8m2!3d19.140929!4d75.9187567!16s%2Fg%2F1tcx5gpf!19sChIJ4fccPj7O2jsRiEQsAm_HK-Y?authuser=0&hl=en&rclk=1",
        "coordinates": {
            "latitude": 19.140929,
            "longitude": 75.9187567
        }
    },
    {
        "name": "New masjid(Raza masjid)",
        "main_category": "Mosque",
        "address": "74MJ+3V6 New masjid(Raza masjid), Manauna, Uttar Pradesh 243301",
        "detailed_address": {
            "ward": null,
            "street": "74MJ+3V6",
            "city": "Manauna",
            "postal_code": "243301",
            "state": "Uttar Pradesh",
            "country_code": "IN"
        },
        "images": [
            {
                "about": "All",
                "link": "https://lh5.googleusercontent.com/p/AF1QipNheT0X6s56CVmRQEoV4OOMJ2bWDE4tNQfY-x6V=w224-h298-k-no"
            }
        ],
        "link": "https://www.google.com/maps/place/New+masjid%28Raza+masjid%29/data=!4m7!3m6!1s0x390ab3495b37db7b:0x2a8e71e3f752851f!8m2!3d28.2826625!4d79.1321259!16s%2Fg%2F11r_thpmpy!19sChIJe9s3W0mzCjkRH4VS9-Nxjio?authuser=0&hl=en&rclk=1",
        "coordinates": {
            "latitude": 28.282662499999997,
            "longitude": 79.13212589999999
        }
    },
    {
        "name": "msjid",
        "main_category": "Religious institution",
        "address": "msjid, Amla, Madhya Pradesh 455332",
        "detailed_address": {
            "ward": null,
            "street": null,
            "city": "Amla",
            "postal_code": null,
            "state": "Madhya Pradesh",
            "country_code": "IN"
        },
        "images": [],
        "link": "https://www.google.com/maps/place/%E0%A4%AE%E0%A4%B8%E0%A5%8D%E0%A4%9C%E0%A4%BF%E0%A4%A6/data=!4m7!3m6!1s0x397d1f3e820f96c9:0xa69395751b3bac6d!8m2!3d22.750138!4d76.8861353!16s%2Fg%2F11h7c75ccj!19sChIJyZYPgj4ffTkRbaw7G3WVk6Y?authuser=0&hl=en&rclk=1",
        "coordinates": {
            "latitude": 22.750138,
            "longitude": 76.88613529999999
        }
    },
    {
        "name": "Masjide E billal",
        "main_category": "Mosque",
        "address": "Masjide E billal, Bus Stop, Amla, Gujarat 391243",
        "detailed_address": {
            "ward": null,
            "street": "Bus Stop",
            "city": "Amla",
            "postal_code": "391243",
            "state": "Gujarat",
            "country_code": "IN"
        },
        "images": [
            {
                "about": "All",
                "link": "https://streetviewpixels-pa.googleapis.com/v1/thumbnail?panoid=ZDQeErLKFzmvfbkqLlfi3w&cb_client=maps_sv.tactile.gps&w=224&h=298&yaw=29.47774&pitch=0&thumbfov=100"
            },
            {
                "about": "Street View & 360deg",
                "link": "https://streetviewpixels-pa.googleapis.com/v1/thumbnail?panoid=ZDQeErLKFzmvfbkqLlfi3w&cb_client=maps_sv.tactile.gps&w=224&h=298&yaw=29.47774&pitch=0&thumbfov=100"
            },
            {
                "about": "Videos",
                "link": "https://lh5.googleusercontent.com/p/AF1QipNl96Qh4YMO9gUf2nkq_Uvat-kchglGo02QyrDu=w529-h298-k-no"
            }
        ],
        "link": "https://www.google.com/maps/place/Masjide+E+billal/data=!4m7!3m6!1s0x395fbf78d5a66d7b:0x517f601ac1750c96!8m2!3d22.1754407!4d73.0750601!16s%2Fg%2F11frq1qk2p!19sChIJe22m1Xi_XzkRlgx1wRpgf1E?authuser=0&hl=en&rclk=1",
        "coordinates": {
            "latitude": 22.1754407,
            "longitude": 73.0750601
        }
    },
    {
        "name": "MASJID FURQAN DAR MOHALLA AMLAR",
        "main_category": "Mosque",
        "address": "V3QC+59G MASJID FURQAN DAR MOHALLA AMLAR, Amlar, 192123",
        "detailed_address": {
            "ward": null,
            "street": "V3QC+59G",
            "city": "Amlar",
            "postal_code": "192123",
            "state": null,
            "country_code": "IN"
        },
        "images": [
            {
                "about": "All",
                "link": "https://lh5.googleusercontent.com/p/AF1QipPL8jTnKQzMs51NCFvV695oMZaY-SZafJluBSNN=w629-h298-k-no"
            }
        ],
        "link": "https://www.google.com/maps/place/MASJID+FURQAN+DAR+MOHALLA+AMLAR/data=!4m7!3m6!1s0x38e219194c628c61:0x96fa5721fbd2e0d2!8m2!3d33.8879436!4d75.0709664!16s%2Fg%2F11n0028ls2!19sChIJYYxiTBkZ4jgR0uDS-yFX-pY?authuser=0&hl=en&rclk=1",
        "coordinates": {
            "latitude": 33.8879436,
            "longitude": 75.0709664
        }
    },
    {
        "name": "Amla masjid",
        "main_category": "Place of worship",
        "address": "8RWQ+6HG Amla masjid, Khire Garh, Uttar Pradesh 262905",
        "detailed_address": {
            "ward": null,
            "street": "8RWQ+6HG",
            "city": "Khire Garh",
            "postal_code": "262905",
            "state": "Uttar Pradesh",
            "country_code": "IN"
        },
        "images": [],
        "link": "https://www.google.com/maps/place/Amla+masjid/data=!4m7!3m6!1s0x3998ab145bc283d5:0xf43efbae514cfdeb!8m2!3d28.3455561!4d80.8389419!16s%2Fg%2F11sb0kz6h9!19sChIJ1YPCWxSrmDkR6_1MUa77PvQ?authuser=0&hl=en&rclk=1",
        "coordinates": {
            "latitude": 28.3455561,
            "longitude": 80.8389419
        }
    },
    {
        "name": "Jama masjid amla",
        "main_category": "Mosque",
        "address": "VFJ5+WMX Jama masjid amla, Amla, Maharashtra 444802",
        "detailed_address": {
            "ward": null,
            "street": "VFJ5+WMX",
            "city": "Amla",
            "postal_code": null,
            "state": "Maharashtra",
            "country_code": "IN"
        },
        "images": [],
        "link": "https://www.google.com/maps/place/Jama+masjid+amla/data=!4m7!3m6!1s0x3bd6c5b828a88175:0x1a556753e59777e!8m2!3d20.8823527!4d77.4592319!16s%2Fg%2F11k99n42_4!19sChIJdYGoKLjF1jsRfndZPnVWpQE?authuser=0&hl=en&rclk=1",
        "coordinates": {
            "latitude": 20.8823527,
            "longitude": 77.45923189999999
        }
    },
    {
        "name": "Noor Islami, Masjid",
        "main_category": "Mosque",
        "address": "W4CG+R3H Noor Islami, Masjid, Amla, Madhya Pradesh 460551",
        "detailed_address": {
            "ward": null,
            "street": "W4CG+R3H",
            "city": "Amla",
            "postal_code": null,
            "state": "Madhya Pradesh",
            "country_code": "IN"
        },
        "images": [
            {
                "about": "All",
                "link": "https://streetviewpixels-pa.googleapis.com/v1/thumbnail?panoid=db27W4E6tYGlOv_yTZsBIg&cb_client=maps_sv.tactile.gps&w=224&h=298&yaw=172.84131&pitch=0&thumbfov=100"
            },
            {
                "about": "Street View & 360deg",
                "link": "https://streetviewpixels-pa.googleapis.com/v1/thumbnail?panoid=db27W4E6tYGlOv_yTZsBIg&cb_client=maps_sv.tactile.gps&w=224&h=298&yaw=172.84131&pitch=0&thumbfov=100"
            }
        ],
        "link": "https://www.google.com/maps/place/Noor+Islami,+Masjid/data=!4m7!3m6!1s0x3bd5ef690cbde975:0x61e5ad80762e892!8m2!3d21.9220608!4d78.1252418!16s%2Fg%2F11n_s0rclk!19sChIJdem9DGnv1TsRkuhiB9haHgY?authuser=0&hl=en&rclk=1",
        "coordinates": {
            "latitude": 21.9220608,
            "longitude": 78.1252418
        }
    },
    {
        "name": "Aonla Station Masjid",
        "main_category": "Mosque",
        "address": "75RF+X2G Aonla Station Masjid, Nagaria Satan, Uttar Pradesh 243301",
        "detailed_address": {
            "ward": null,
            "street": "75RF+X2G",
            "city": "Nagaria Satan",
            "postal_code": "243301",
            "state": "Uttar Pradesh",
            "country_code": "IN"
        },
        "images": [],
        "link": "https://www.google.com/maps/place/Aonla+Station+Masjid/data=!4m7!3m6!1s0x390ab25ec7bfffff:0xaecd22d3ed445510!8m2!3d28.2924296!4d79.1725775!16s%2Fg%2F11sscsb35l!19sChIJ__-_x16yCjkREFVE7dMiza4?authuser=0&hl=en&rclk=1",
        "coordinates": {
            "latitude": 28.2924296,
            "longitude": 79.1725775
        }
    },
    {
        "name": "Masjid",
        "main_category": "Place of worship",
        "address": "G9J7+GH Masjid, Hind, Uttar Pradesh 247777",
        "detailed_address": {
            "ward": null,
            "street": "G9J7+GH",
            "city": "Hind",
            "postal_code": null,
            "state": "Uttar Pradesh",
            "country_code": "IN"
        },
        "images": [
            {
                "about": "All",
                "link": "https://lh5.googleusercontent.com/p/AF1QipMRtZda3mReZAdOEoFTFlYYQ7_KSv2oykXdvSjg=w224-h398-k-no"
            }
        ],
        "link": "https://www.google.com/maps/place/Masjid/data=!4m7!3m6!1s0x390c29c35d50b1bd:0x75d64f4b1bbe9f82!8m2!3d29.5313719!4d77.3639333!16s%2Fg%2F11rm5m9k24!19sChIJvbFQXcMpDDkRgp--G0tP1nU?authuser=0&hl=en&rclk=1",
        "coordinates": {
            "latitude": 29.5313719,
            "longitude": 77.3639333
        }
    }
]