[
    {
        "name": "Pathantoli Mohalla Masjid",
        "main_category": "Mosque",
        "address": "HQJX+F5P Pathantoli Mohalla Masjid, Koilwar, Bihar 802160",
        "detailed_address": {
            "ward": null,
            "street": "HQJX+F5P",
            "city": "Koilwar",
            "postal_code": "802160",
            "state": "Bihar",
            "country_code": "IN"
        },
        "images": [
            {
                "about": "All",
                "link": "https://lh5.googleusercontent.com/p/AF1QipNRgPHs-wBvqfShtL2P775XoqxPEWELfwcmDlBN=w224-h298-k-no"
            },
            {
                "about": "By owner",
                "link": "https://lh5.googleusercontent.com/p/AF1QipPtbZxcn73VvL2IO7WJGkr9En0wCCsutex3NxuA=w298-h298-k-no"
            }
        ],
        "link": "https://www.google.com/maps/place/Pathantoli+Mohalla+Masjid/data=!4m7!3m6!1s0x3992a8233eee11c5:0xef1f9ebc7055122f!8m2!3d25.5812214!4d84.7978984!16s%2Fg%2F1txy0r28!19sChIJxRHuPiOokjkRLxJVcLyeH-8?authuser=0&hl=en&rclk=1",
        "coordinates": {
            "latitude": 25.5812214,
            "longitude": 84.7978984
        }
    },
    {
        "name": "Jama Masjid",
        "main_category": "Mosque",
        "address": "HQHX+54F Jama Masjid, Koilwar, Bihar 802160",
        "detailed_address": {
            "ward": null,
            "street": "HQHX+54F",
            "city": "Koilwar",
            "postal_code": "802160",
            "state": "Bihar",
            "country_code": "IN"
        },
        "images": [
            {
                "about": "All",
                "link": "https://lh5.googleusercontent.com/p/AF1QipNbdgJwKewvMBgvP8aa67WQU7WfnBDCe_2_pMEE=w662-h298-k-no"
            }
        ],
        "link": "https://www.google.com/maps/place/Jama+Masjid/data=!4m7!3m6!1s0x3992a823c0b686ff:0x62a5616447f4b3e4!8m2!3d25.5779443!4d84.797802!16s%2Fg%2F1jmcj897w!19sChIJ_4a2wCOokjkR5LP0R2RhpWI?authuser=0&hl=en&rclk=1",
        "coordinates": {
            "latitude": 25.5779443,
            "longitude": 84.79780199999999
        }
    },
    {
        "name": "Sone Villa Masjid",
        "main_category": "Mosque",
        "address": "HQHV+F9F Sone Villa Masjid, Koilwar, Bihar 802160",
        "detailed_address": {
            "ward": null,
            "street": "HQHV+F9F",
            "city": "Koilwar",
            "postal_code": "802160",
            "state": "Bihar",
            "country_code": "IN"
        },
        "images": [
            {
                "about": "All",
                "link": "https://lh5.googleusercontent.com/p/AF1QipPZaxy_4NknS-K2ggKpLScDoUL1nzxPbCV2Z1r5=w224-h357-k-no"
            }
        ],
        "link": "https://www.google.com/maps/place/Sone+Villa+Masjid/data=!4m7!3m6!1s0x3992a8188fc7d771:0x14e7bfd6382c0876!8m2!3d25.5786789!4d84.7934353!16s%2Fg%2F1trqfm7_!19sChIJcdfHjxiokjkRdggsONa_5xQ?authuser=0&hl=en&rclk=1",
        "coordinates": {
            "latitude": 25.5786789,
            "longitude": 84.7934353
        }
    },
    {
        "name": "Shahi Jama Masjid Kulharia",
        "main_category": "Mosque",
        "address": "HQFF+F9M Shahi Jama Masjid Kulharia, Kulhariya, Bihar 802160",
        "detailed_address": {
            "ward": null,
            "street": "HQFF+F9M",
            "city": "Kulhariya",
            "postal_code": "802160",
            "state": "Bihar",
            "country_code": "IN"
        },
        "images": [
            {
                "about": "All",
                "link": "https://lh5.googleusercontent.com/p/AF1QipNVYQEELJmVLZ-2-Q5LUIJUzw8fDdBJJiSpSoy_=w668-h298-k-no"
            }
        ],
        "link": "https://www.google.com/maps/place/Shahi+Jama+Masjid+Kulharia/data=!4m7!3m6!1s0x3992a8009dbeacb5:0xba548eb4ce617c8!8m2!3d25.5737134!4d84.7734347!16s%2Fg%2F11c2p837xk!19sChIJtay-nQCokjkRyBfmTOtIpQs?authuser=0&hl=en&rclk=1",
        "coordinates": {
            "latitude": 25.5737134,
            "longitude": 84.7734347
        }
    },
    {
        "name": "Noori Masjid Kazichak",
        "main_category": "Mosque",
        "address": "HQXJ+Q36 Noori Masjid Kazichak, Babura - Koilwar Rd, Kazi Chak, Bihar 802160",
        "detailed_address": {
            "ward": null,
            "street": "HQXJ+Q36, Babura - Koilwar Rd",
            "city": "Kazi Chak",
            "postal_code": "802160",
            "state": "Bihar",
            "country_code": "IN"
        },
        "images": [
            {
                "about": "All",
                "link": "https://lh5.googleusercontent.com/p/AF1QipP4VLRH--8Se-BW7wi3DAaDFsGAYu6dv65a6XQ=w224-h398-k-no"
            },
            {
                "about": "Street View & 360deg",
                "link": "https://streetviewpixels-pa.googleapis.com/v1/thumbnail?panoid=OO4tXBmI7y0A2BD0TA7GwQ&cb_client=maps_sv.tactile.gps&w=224&h=298&yaw=148.0704&pitch=0&thumbfov=100"
            },
            {
                "about": "Videos",
                "link": "https://lh5.googleusercontent.com/p/AF1QipOBu1Q7s7YkK8hWZUqHYzHmrbdg6s62nZp2gaD_=w298-h298-k-no"
            }
        ],
        "link": "https://www.google.com/maps/place/Noori+Masjid+Kazichak/data=!4m7!3m6!1s0x3992a873df3779ad:0xcdb0202db22c94b!8m2!3d25.5994184!4d84.7801447!16s%2Fg%2F11f15mvngh!19sChIJrXk333OokjkRS8ki2wIC2ww?authuser=0&hl=en&rclk=1",
        "coordinates": {
            "latitude": 25.599418399999998,
            "longitude": 84.7801447
        }
    },
    {
        "name": "Jama Masjid Koiladeva",
        "main_category": "Mosque",
        "address": "Jama Masjid Koiladeva, Koila Deva, Bihar 841438",
        "detailed_address": {
            "ward": null,
            "street": null,
            "city": "Koila Deva",
            "postal_code": null,
            "state": "Bihar",
            "country_code": "IN"
        },
        "images": [
            {
                "about": "All",
                "link": "https://lh5.googleusercontent.com/p/AF1QipPzdEWv6lzWtI34CGVXg4iLsOzdzk5ZB5qIWnom=w529-h298-k-no"
            },
            {
                "about": "Street View & 360deg",
                "link": "https://streetviewpixels-pa.googleapis.com/v1/thumbnail?panoid=8InjBpEiBJllU8jgytS0fg&cb_client=maps_sv.tactile.gps&w=224&h=298&yaw=210.9749&pitch=0&thumbfov=100"
            }
        ],
        "link": "https://www.google.com/maps/place/Jama+Masjid+Koiladeva/data=!4m7!3m6!1s0x3993a95b38cd5323:0xb6944a9764a9066b!8m2!3d26.4071255!4d84.2000752!16s%2Fg%2F11hb1yhm3v!19sChIJI1PNOFupkzkRawapZJdKlLY?authuser=0&hl=en&rclk=1",
        "coordinates": {
            "latitude": 26.4071255,
            "longitude": 84.2000752
        }
    },
    {
        "name": "Quazi Mohallah Masjid",
        "main_category": "Mosque",
        "address": "Quazi Mohallah Masjid, Ward no - 5, Koilwar, Abdul Bari Bridge, Suraudha, Bihar 802160",
        "detailed_address": {
            "ward": null,
            "street": "Ward no - 5, Koilwar, Abdul Bari Bridge",
            "city": "Suraudha",
            "postal_code": "802160",
            "state": "Bihar",
            "country_code": "IN"
        },
        "images": [],
        "link": "https://www.google.com/maps/place/Quazi+Mohallah+Masjid/data=!4m7!3m6!1s0x3992a83b4ba7739b:0x636c6cd46a7b9dbd!8m2!3d25.5828111!4d84.8004964!16s%2Fg%2F11c1thx214!19sChIJm3OnSzuokjkRvZ17atRsbGM?authuser=0&hl=en&rclk=1",
        "coordinates": {
            "latitude": 25.582811099999997,
            "longitude": 84.8004964
        }
    },
    {
        "name": "jama masjid Katesar",
        "main_category": "Mosque",
        "address": "jama masjid Katesar, Kateshar, Aminabad, Bihar 801103",
        "detailed_address": {
            "ward": null,
            "street": null,
            "city": "Kateshar, Aminabad",
            "postal_code": "801103",
            "state": "Bihar",
            "country_code": "IN"
        },
        "images": [
            {
                "about": "All",
                "link": "https://lh5.googleusercontent.com/p/AF1QipNjBctTqE2JonF2dPtNPpKcKm99cC_FfTcZyFkH=w398-h298-k-no"
            },
            {
                "about": "By owner",
                "link": "https://lh5.googleusercontent.com/p/AF1QipO4GDxAKGJ-rsgFQGamz3Mj9FhZnZ_-hTC5fred=w224-h398-k-no"
            },
            {
                "about": "Videos",
                "link": "https://lh5.googleusercontent.com/p/AF1QipOAGUi0PTK6uJ1PMm-sX8Z-196UpocammVmCKrm=w224-h398-k-no"
            }
        ],
        "link": "https://www.google.com/maps/place/jama+masjid+Katesar/data=!4m7!3m6!1s0x3992a911455bedd7:0x48fb33070b462cb0!8m2!3d25.5903446!4d84.8444287!16s%2Fg%2F11q1s4dp3w!19sChIJ1-1bRRGpkjkRsCxGCwcz-0g?authuser=0&hl=en&rclk=1",
        "coordinates": {
            "latitude": 25.590344599999998,
            "longitude": 84.8444287
        }
    }
]