[
    {
        "name": "Jama Masjid Mandawar",
        "main_category": "Mosque",
        "address": "F4PH+54G Jama Masjid Mandawar, Mandawar, Uttar Pradesh 246721",
        "detailed_address": {
            "ward": null,
            "street": "F4PH+54G",
            "city": "Mandawar",
            "postal_code": "246721",
            "state": "Uttar Pradesh",
            "country_code": "IN"
        },
        "images": [
            {
                "about": "All",
                "link": "https://lh5.googleusercontent.com/p/AF1QipPpZ1HwCEIdIHUGsd_qhVLITB0CKEDDlKpC4tTE=w397-h298-k-no"
            },
            {
                "about": "Dome",
                "link": "https://lh5.googleusercontent.com/p/AF1QipO_1B1uDKTrgK9oDi_uV_lgXV7ZBtaiMzs3lYdT=w662-h298-k-no"
            },
            {
                "about": "Videos",
                "link": "https://lh5.googleusercontent.com/p/AF1QipM3J9GbBofKSHFOJ4xySMIziyGigJvg56Ba_CYH=w541-h298-k-no"
            }
        ],
        "link": "https://www.google.com/maps/place/Jama+Masjid+Mandawar/data=!4m7!3m6!1s0x390be5274b658c1b:0x86aca67396b89ad2!8m2!3d29.4854429!4d78.1278324!16s%2Fg%2F11gczt6g5q!19sChIJG4xlSyflCzkR0pq4lnOmrIY?authuser=0&hl=en&rclk=1",
        "coordinates": {
            "latitude": 29.4854429,
            "longitude": 78.1278324
        }
    },
    {
        "name": "Masjid Jino Wali",
        "main_category": "Mosque",
        "address": "F4PG+3WQ Masjid Jino Wali, Kiratpur MandaWar Rd, Mandawar, Uttar Pradesh 246721",
        "detailed_address": {
            "ward": null,
            "street": "F4PG+3WQ, Kiratpur MandaWar Rd",
            "city": "Mandawar",
            "postal_code": "246721",
            "state": "Uttar Pradesh",
            "country_code": "IN"
        },
        "images": [
            {
                "about": "All",
                "link": "https://lh5.googleusercontent.com/p/AF1QipOe3YVd7XX_-LR5hvwQtyIMvkyyAndHmcNwYkk=w397-h298-k-no"
            },
            {
                "about": "Videos",
                "link": "https://lh5.googleusercontent.com/p/AF1QipOYmEfrKIdW8drWpCmiMAb_BkwCeIEe7SaOW-oW=w224-h398-k-no"
            }
        ],
        "link": "https://www.google.com/maps/place/Masjid+Jino+Wali/data=!4m7!3m6!1s0x390be52748506561:0xe268997edec42cb2!8m2!3d29.4852021!4d78.12736!16s%2Fg%2F11g8x31zk_!19sChIJYWVQSCflCzkRsizE3n6ZaOI?authuser=0&hl=en&rclk=1",
        "coordinates": {
            "latitude": 29.4852021,
            "longitude": 78.12736
        }
    },
    {
        "name": "Bilal Masjid Mandawar",
        "main_category": "Mosque",
        "address": "Bilal Masjid Mandawar, Abdul Khairpur Bangar, Mandawar, Uttar Pradesh 246721",
        "detailed_address": {
            "ward": null,
            "street": null,
            "city": "Abdul Khairpur Bangar, Mandawar",
            "postal_code": "246721",
            "state": "Uttar Pradesh",
            "country_code": "IN"
        },
        "images": [
            {
                "about": "All",
                "link": "https://streetviewpixels-pa.googleapis.com/v1/thumbnail?panoid=kVxqL5HXUZNPIzPB68l1Fw&cb_client=maps_sv.tactile.gps&w=224&h=298&yaw=163.12646&pitch=0&thumbfov=100"
            },
            {
                "about": "Street View & 360deg",
                "link": "https://streetviewpixels-pa.googleapis.com/v1/thumbnail?panoid=kVxqL5HXUZNPIzPB68l1Fw&cb_client=maps_sv.tactile.gps&w=224&h=298&yaw=163.12646&pitch=0&thumbfov=100"
            }
        ],
        "link": "https://www.google.com/maps/place/Bilal+Masjid+Mandawar/data=!4m7!3m6!1s0x390be4dfca3bd54f:0xf136d3664c6e4027!8m2!3d29.4895045!4d78.1323349!16s%2Fg%2F11f_p2l9_s!19sChIJT9U7yt_kCzkRJ0BuTGbTNvE?authuser=0&hl=en&rclk=1",
        "coordinates": {
            "latitude": 29.4895045,
            "longitude": 78.13233489999999
        }
    },
    {
        "name": "Masjid Ansariyan",
        "main_category": "Mosque",
        "address": "F4JF+GWV Masjid Ansariyan, Mandawar, Uttar Pradesh 246721",
        "detailed_address": {
            "ward": null,
            "street": "F4JF+GWV",
            "city": "Mandawar",
            "postal_code": "246721",
            "state": "Uttar Pradesh",
            "country_code": "IN"
        },
        "images": [
            {
                "about": "All",
                "link": "https://lh5.googleusercontent.com/p/AF1QipN9o-CXFhY3GqoMeDO4F1RfLdcQ98j-5Kx-cjAZ=w397-h298-k-no"
            }
        ],
        "link": "https://www.google.com/maps/place/Masjid+Ansariyan/data=!4m7!3m6!1s0x390be526636ad8ff:0x731e3e2e4112c7d!8m2!3d29.4813584!4d78.1248005!16s%2Fg%2F11fxb85x2d!19sChIJ_9hqYyblCzkRfSwR5OLjMQc?authuser=0&hl=en&rclk=1",
        "coordinates": {
            "latitude": 29.481358399999998,
            "longitude": 78.12480049999999
        }
    },
    {
        "name": "Bazar Wali Masjid",
        "main_category": "Mosque",
        "address": "F4QH+833 Bazar Wali Masjid, Abdul Khairpur Bangar, Mandawar, Uttar Pradesh 246721",
        "detailed_address": {
            "ward": null,
            "street": "F4QH+833",
            "city": "Abdul Khairpur Bangar, Mandawar",
            "postal_code": "246721",
            "state": "Uttar Pradesh",
            "country_code": "IN"
        },
        "images": [],
        "link": "https://www.google.com/maps/place/Bazar+Wali+Masjid/data=!4m7!3m6!1s0x390be4d8cb85a021:0x5db3405bc99aa3e5!8m2!3d29.4882706!4d78.1276706!16s%2Fg%2F11f_4rr1p4!19sChIJIaCFy9jkCzkR5aOayVtAs10?authuser=0&hl=en&rclk=1",
        "coordinates": {
            "latitude": 29.4882706,
            "longitude": 78.1276706
        }
    },
    {
        "name": "Mandawar Masjid",
        "main_category": "Mosque",
        "address": "5V33+W6F Mandawar Masjid, Mandawar, Rajasthan 321609",
        "detailed_address": {
            "ward": null,
            "street": "5V33+W6F",
            "city": "Mandawar",
            "postal_code": null,
            "state": "Rajasthan",
            "country_code": "IN"
        },
        "images": [
            {
                "about": "All",
                "link": "https://lh5.googleusercontent.com/p/AF1QipNtYhSwqcclXpfjb3sBwD846V-tASf6pluzcju8=w229-h298-k-no"
            },
            {
                "about": "Latest",
                "link": "https://lh5.googleusercontent.com/p/AF1QipP2Be9JDSPYB2uuE94gTZRerGp2YuDw9cFOiel1=w529-h298-k-no"
            },
            {
                "about": "Dome",
                "link": "https://lh5.googleusercontent.com/p/AF1QipNVwrleoYxkDDMsWkjEoPONv9GSvcMnQlBplxA5=w272-h298-k-no"
            }
        ],
        "link": "https://www.google.com/maps/place/Mandawar+Masjid/data=!4m7!3m6!1s0x39725d0c6dc2b2a3:0x9ecb47d3ec84af8c!8m2!3d27.1548191!4d76.8530425!16s%2Fg%2F11f5hp381r!19sChIJo7LCbQxdcjkRjK-E7NNHy54?authuser=0&hl=en&rclk=1",
        "coordinates": {
            "latitude": 27.154819099999997,
            "longitude": 76.8530425
        }
    },
    {
        "name": "Abu bakr masjid || Masjid Qaziyan",
        "main_category": "Mosque",
        "address": "F4PG+82F Abu bakr masjid || Masjid Qaziyan, Mandawar, Uttar Pradesh 246721",
        "detailed_address": {
            "ward": null,
            "street": "F4PG+82F",
            "city": "Mandawar",
            "postal_code": "246721",
            "state": "Uttar Pradesh",
            "country_code": "IN"
        },
        "images": [
            {
                "about": "All",
                "link": "https://lh5.googleusercontent.com/p/AF1QipPZXAcZRNNsufVK2tl9FC3trCsG4Hr4_0_xwvcU=w224-h398-k-no"
            }
        ],
        "link": "https://www.google.com/maps/place/Abu+bakr+masjid+%7C%7C+Masjid+Qaziyan/data=!4m7!3m6!1s0x390be58742e8e8cf:0x6e2d26f6bae3788b!8m2!3d29.4858132!4d78.1250407!16s%2Fg%2F11j4fj4029!19sChIJz-joQoflCzkRi3jjuvYmLW4?authuser=0&hl=en&rclk=1",
        "coordinates": {
            "latitude": 29.4858132,
            "longitude": 78.1250407
        }
    },
    {
        "name": "Mandawar jama masjid",
        "main_category": "Mosque",
        "address": "94FP+733 Mandawar jama masjid, Punjabi Colony, Bijnor, Uttar Pradesh 246701",
        "detailed_address": {
            "ward": "Punjabi Colony, Bijnor",
            "street": "94FP+733",
            "city": "Bijnor",
            "postal_code": "246701",
            "state": "Uttar Pradesh",
            "country_code": "IN"
        },
        "images": [
            {
                "about": "All",
                "link": "https://streetviewpixels-pa.googleapis.com/v1/thumbnail?panoid=13zZaKr_buGhQSKEwTSA-w&cb_client=maps_sv.tactile.gps&w=224&h=298&yaw=148.11101&pitch=0&thumbfov=100"
            },
            {
                "about": "Street View & 360deg",
                "link": "https://streetviewpixels-pa.googleapis.com/v1/thumbnail?panoid=13zZaKr_buGhQSKEwTSA-w&cb_client=maps_sv.tactile.gps&w=224&h=298&yaw=148.11101&pitch=0&thumbfov=100"
            }
        ],
        "link": "https://www.google.com/maps/place/Mandawar+jama+masjid/data=!4m7!3m6!1s0x390bef2d761bc6e9:0x21483c36f13c5cd6!8m2!3d29.3731448!4d78.1351831!16s%2Fg%2F11vcv4xqs8!19sChIJ6cYbdi3vCzkR1lw88TY8SCE?authuser=0&hl=en&rclk=1",
        "coordinates": {
            "latitude": 29.3731448,
            "longitude": 78.13518309999999
        }
    }
]