[
    {
        "name": "Syed Meeran Mosque",
        "main_category": "Mosque",
        "address": "XC2R+3H5 Syed Meeran Mosque, Musiri, Tamil Nadu 621211",
        "detailed_address": {
            "ward": null,
            "street": "XC2R+3H5",
            "city": "Musiri",
            "postal_code": "621211",
            "state": "Tamil Nadu",
            "country_code": "IN"
        },
        "images": [
            {
                "about": "All",
                "link": "https://lh5.googleusercontent.com/p/AF1QipMyKGETO7vYWd2iLCNt3FK3l1Sekx9DwNmwqq4A=w298-h298-k-no"
            },
            {
                "about": "Dome",
                "link": "https://lh5.googleusercontent.com/p/AF1QipNOutE2bXTLJz83C18nYwaEs_DI47cV9hwAVrF0=w298-h298-k-no"
            },
            {
                "about": "Street View & 360deg",
                "link": "https://streetviewpixels-pa.googleapis.com/v1/thumbnail?panoid=ZSP7M6gnTsTK2dkGyTkyVQ&cb_client=maps_sv.tactile.gps&w=224&h=298&yaw=191.26483&pitch=0&thumbfov=100"
            }
        ],
        "link": "https://www.google.com/maps/place/Syed+Meeran+Mosque/data=!4m7!3m6!1s0x3baa4f8f8ed009f1:0xe6311b9846e2179d!8m2!3d10.9501414!4d78.441489!16s%2Fg%2F11g8nz870v!19sChIJ8QnQjo9PqjsRnRfiRpgbMeY?authuser=0&hl=en&rclk=1",
        "coordinates": {
            "latitude": 10.9501414,
            "longitude": 78.44148899999999
        }
    },
    {
        "name": "hazarath Syed Peer Sha Hussaini Masjid And Tharga",
        "main_category": "Mosque",
        "address": "WC65+XXH hazarath Syed Peer Sha Hussaini Masjid And Tharga, Musiri, Tamil Nadu 632513",
        "detailed_address": {
            "ward": null,
            "street": "WC65+XXH",
            "city": "Musiri",
            "postal_code": null,
            "state": "Tamil Nadu",
            "country_code": "IN"
        },
        "images": [
            {
                "about": "All",
                "link": "https://lh5.googleusercontent.com/p/AF1QipNJdh86-qxYjNbqEaYXWFyJ5cfSyuKRiWcEQJRb=w529-h298-k-no"
            }
        ],
        "link": "https://www.google.com/maps/place/hazarath+Syed+Peer+Sha+Hussaini+Masjid+And+Tharga/data=!4m7!3m6!1s0x3a52cae272c73d55:0x5f371471032ee3b3!8m2!3d12.912432!4d79.4099936!16s%2Fg%2F11f578yqss!19sChIJVT3HcuLKUjoRs-MuA3EUN18?authuser=0&hl=en&rclk=1",
        "coordinates": {
            "latitude": 12.912431999999999,
            "longitude": 79.40999359999999
        }
    },
    {
        "name": "(msjit)pllllivaacl.",
        "main_category": "Mosque",
        "address": "29HP+M4P (msjit)pllllivaacl., kollkkutti, Musiri, Appananallur, Tamil Nadu 621208",
        "detailed_address": {
            "ward": "kollkkutti",
            "street": "29HP+M4P",
            "city": "Musiri, Appananallur",
            "postal_code": null,
            "state": "Tamil Nadu",
            "country_code": "IN"
        },
        "images": [],
        "link": "https://www.google.com/maps/place/%28%E0%AE%AE%E0%AE%B8%E0%AF%8D%E0%AE%9C%E0%AE%BF%E0%AE%A4%E0%AF%8D%29%E0%AE%AA%E0%AE%B3%E0%AF%8D%E0%AE%B3%E0%AE%BF%E0%AE%B5%E0%AE%BE%E0%AE%9A%E0%AE%B2%E0%AF%8D./data=!4m7!3m6!1s0x3baa4dc77af6e715:0x7f111300bec1d000!8m2!3d11.0292142!4d78.3853343!16s%2Fg%2F11sl_s8_8f!19sChIJFef2esdNqjsRANDBvgATEX8?authuser=0&hl=en&rclk=1",
        "coordinates": {
            "latitude": 11.0292142,
            "longitude": 78.3853343
        }
    },
    {
        "name": "Al Raiyaan Masjid",
        "main_category": "Mosque",
        "address": "XC6R+4QC Al Raiyaan Masjid, SH 71, Musiri, Tamil Nadu 621211",
        "detailed_address": {
            "ward": null,
            "street": "XC6R+4QC, SH 71",
            "city": "Musiri",
            "postal_code": "621211",
            "state": "Tamil Nadu",
            "country_code": "IN"
        },
        "images": [],
        "link": "https://www.google.com/maps/place/Al+Raiyaan+Masjid/data=!4m7!3m6!1s0x3baa4ff38f167a53:0xdc12e06e7932fad6!8m2!3d10.9599108!4d78.4419737!16s%2Fg%2F11s4wj6swr!19sChIJU3oWj_NPqjsR1voyeW7gEtw?authuser=0&hl=en&rclk=1",
        "coordinates": {
            "latitude": 10.9599108,
            "longitude": 78.44197369999999
        }
    }
]