[
    {
        "name": "Madeena Masjid",
        "main_category": "Mosque",
        "address": "V6P3+8XJ Madeena Masjid, Unnamed Road, Lakshettipet, Utukur, Telangana 504215",
        "detailed_address": {
            "ward": null,
            "street": "V6P3+8XJ, Unnamed Road",
            "city": "Lakshettipet, Utukur",
            "postal_code": "504215",
            "state": "Telangana",
            "country_code": "IN"
        },
        "images": [
            {
                "about": "All",
                "link": "https://streetviewpixels-pa.googleapis.com/v1/thumbnail?panoid=gGh0N2l0YFnyBs5z-_-ZjA&cb_client=maps_sv.tactile.gps&w=224&h=298&yaw=249.1473&pitch=0&thumbfov=100"
            },
            {
                "about": "Street View & 360deg",
                "link": "https://streetviewpixels-pa.googleapis.com/v1/thumbnail?panoid=gGh0N2l0YFnyBs5z-_-ZjA&cb_client=maps_sv.tactile.gps&w=224&h=298&yaw=249.1473&pitch=0&thumbfov=100"
            }
        ],
        "link": "https://www.google.com/maps/place/Madeena+Masjid/data=!4m7!3m6!1s0x3bcd4808b8069611:0xa08757891f8dc24f!8m2!3d18.8858394!4d79.2049032!16s%2Fg%2F11h9rd_j48!19sChIJEZYGuAhIzTsRT8KNH4lXh6A?authuser=0&hl=en&rclk=1",
        "coordinates": {
            "latitude": 18.8858394,
            "longitude": 79.20490319999999
        }
    },
    {
        "name": "Masjid E Aqsa",
        "main_category": "Mosque",
        "address": "V6M3+CQ7 Masjid E Aqsa, Godavari Rd, Luxettipet, Utukur, Telangana 504215",
        "detailed_address": {
            "ward": null,
            "street": "V6M3+CQ7, Godavari Rd",
            "city": "Luxettipet, Utukur",
            "postal_code": "504215",
            "state": "Telangana",
            "country_code": "IN"
        },
        "images": [
            {
                "about": "All",
                "link": "https://lh5.googleusercontent.com/p/AF1QipMpfKxE7fdWagd-rx-cz2etK0QLWDalWa5hG7HX=w298-h298-k-no"
            },
            {
                "about": "Dome",
                "link": "https://lh5.googleusercontent.com/p/AF1QipMpfKxE7fdWagd-rx-cz2etK0QLWDalWa5hG7HX=w298-h298-k-no"
            },
            {
                "about": "Street View & 360deg",
                "link": "https://streetviewpixels-pa.googleapis.com/v1/thumbnail?panoid=mCVqNBmWwbjZwz8u3lS4DQ&cb_client=maps_sv.tactile.gps&w=224&h=298&yaw=274.5184&pitch=0&thumbfov=100"
            }
        ],
        "link": "https://www.google.com/maps/place/Masjid+E+Aqsa/data=!4m7!3m6!1s0x3bcd4806170503ff:0x41898622cf17800e!8m2!3d18.8835328!4d79.204429!16s%2Fg%2F11dx9f8k5s!19sChIJ_wMFFwZIzTsRDoAXzyKGiUE?authuser=0&hl=en&rclk=1",
        "coordinates": {
            "latitude": 18.883532799999998,
            "longitude": 79.20442899999999
        }
    },
    {
        "name": "Mosque",
        "main_category": "Mosque",
        "address": "X52G+R6F Mosque, Mutyampet, Telangana 504206",
        "detailed_address": {
            "ward": null,
            "street": "X52G+R6F",
            "city": "Mutyampet",
            "postal_code": "504206",
            "state": "Telangana",
            "country_code": "IN"
        },
        "images": [
            {
                "about": "All",
                "link": "https://streetviewpixels-pa.googleapis.com/v1/thumbnail?panoid=NrS9hW4bjoOZvKKwRjEHuQ&cb_client=maps_sv.tactile.gps&w=224&h=298&yaw=68.89017&pitch=0&thumbfov=100"
            },
            {
                "about": "Street View & 360deg",
                "link": "https://streetviewpixels-pa.googleapis.com/v1/thumbnail?panoid=NrS9hW4bjoOZvKKwRjEHuQ&cb_client=maps_sv.tactile.gps&w=224&h=298&yaw=68.89017&pitch=0&thumbfov=100"
            }
        ],
        "link": "https://www.google.com/maps/place/Mosque/data=!4m7!3m6!1s0x3bcd466d6eedd661:0x2921ef9d1613e136!8m2!3d18.9520508!4d79.1755405!16s%2Fg%2F11ddxvk81c!19sChIJYdbtbm1GzTsRNuETFp3vISk?authuser=0&hl=en&rclk=1",
        "coordinates": {
            "latitude": 18.9520508,
            "longitude": 79.1755405
        }
    },
    {
        "name": "Masjid E Ayesha",
        "main_category": "Mosque",
        "address": "V6H2+8JM Masjid E Ayesha, Luxettipet, Telangana 504215",
        "detailed_address": {
            "ward": null,
            "street": "V6H2+8JM",
            "city": "Luxettipet",
            "postal_code": "504215",
            "state": "Telangana",
            "country_code": "IN"
        },
        "images": [
            {
                "about": "All",
                "link": "https://lh5.googleusercontent.com/p/AF1QipPn-Y5yrClDZuE5TIHexsjBGkDOwHVUBX7fIoIY=w397-h298-k-no"
            }
        ],
        "link": "https://www.google.com/maps/place/Masjid+E+Ayesha/data=!4m7!3m6!1s0x3bcd49d98161d923:0x59d66f4dcf609572!8m2!3d18.8783282!4d79.2015539!16s%2Fg%2F11q24cd0db!19sChIJI9lhgdlJzTsRcpVgz01v1lk?authuser=0&hl=en&rclk=1",
        "coordinates": {
            "latitude": 18.8783282,
            "longitude": 79.2015539
        }
    },
    {
        "name": "Khankha e mohammadi luxettipet",
        "main_category": "Mosque",
        "address": "V6G2+MFW Khankha e mohammadi luxettipet, Unnamed Road, Luxettipet, Telangana 504215",
        "detailed_address": {
            "ward": null,
            "street": "V6G2+MFW, Unnamed Road",
            "city": "Luxettipet",
            "postal_code": "504215",
            "state": "Telangana",
            "country_code": "IN"
        },
        "images": [],
        "link": "https://www.google.com/maps/place/Khankha+e+mohammadi+luxettipet/data=!4m7!3m6!1s0x3bcd494724f49b4d:0x987539901e1b05d2!8m2!3d18.8767471!4d79.2012099!16s%2Fg%2F11nt4bv2g0!19sChIJTZv0JEdJzTsR0gUbHpA5dZg?authuser=0&hl=en&rclk=1",
        "coordinates": {
            "latitude": 18.8767471,
            "longitude": 79.2012099
        }
    },
    {
        "name": "Hazrath syed Imam sha wali",
        "main_category": "Religious organization",
        "address": "Hazrath syed Imam sha wali, Luxettipet, Telangana 504215",
        "detailed_address": {
            "ward": null,
            "street": null,
            "city": "Luxettipet",
            "postal_code": "504215",
            "state": "Telangana",
            "country_code": "IN"
        },
        "images": [],
        "link": "https://www.google.com/maps/place/Hazrath+syed+Imam+sha+wali/data=!4m7!3m6!1s0x3bcd496c13d168d9:0xe822cb4f92a10b69!8m2!3d18.9005933!4d79.2050214!16s%2Fg%2F11tcpp4dhv!19sChIJ2WjRE2xJzTsRaQuhkk_LIug?authuser=0&hl=en&rclk=1",
        "coordinates": {
            "latitude": 18.9005933,
            "longitude": 79.20502139999999
        }
    },
    {
        "name": "Jama masjid luxettipet",
        "main_category": "Mosque",
        "address": "W656+7GJ Jama masjid luxettipet, Luxettipet, Utukur, Telangana 504215",
        "detailed_address": {
            "ward": null,
            "street": "W656+7GJ",
            "city": "Luxettipet, Utukur",
            "postal_code": "504215",
            "state": "Telangana",
            "country_code": "IN"
        },
        "images": [],
        "link": "https://www.google.com/maps/place/Jama+masjid+luxettipet/data=!4m7!3m6!1s0x3bcd495e1c762f25:0xa0cfa07634d3bb03!8m2!3d18.9082189!4d79.2112769!16s%2Fg%2F11vf2fh6z5!19sChIJJS92HF5JzTsRA7vTNHagz6A?authuser=0&hl=en&rclk=1",
        "coordinates": {
            "latitude": 18.908218899999998,
            "longitude": 79.2112769
        }
    },
    {
        "name": "MASJID E COURT AREA LUXETTIPET",
        "main_category": "Mosque",
        "address": "V6Q3+JGJ MASJID E COURT AREA LUXETTIPET, Utukur, Telangana 504215",
        "detailed_address": {
            "ward": null,
            "street": "V6Q3+JGJ",
            "city": "Utukur",
            "postal_code": "504215",
            "state": "Telangana",
            "country_code": "IN"
        },
        "images": [
            {
                "about": "All",
                "link": "https://streetviewpixels-pa.googleapis.com/v1/thumbnail?panoid=fpZuJVX7Gnhj9mn2MZSqLg&cb_client=maps_sv.tactile.gps&w=224&h=298&yaw=347.23236&pitch=0&thumbfov=100"
            },
            {
                "about": "Street View & 360deg",
                "link": "https://streetviewpixels-pa.googleapis.com/v1/thumbnail?panoid=fpZuJVX7Gnhj9mn2MZSqLg&cb_client=maps_sv.tactile.gps&w=224&h=298&yaw=347.23236&pitch=0&thumbfov=100"
            }
        ],
        "link": "https://www.google.com/maps/place/MASJID+E+COURT+AREA+LUXETTIPET/data=!4m7!3m6!1s0x3bcd49085fcf7d37:0xb9935c9de9f0090d!8m2!3d18.8890885!4d79.2037506!16s%2Fg%2F11nn43__y4!19sChIJN33PXwhJzTsRDQnw6Z1ck7k?authuser=0&hl=en&rclk=1",
        "coordinates": {
            "latitude": 18.8890885,
            "longitude": 79.20375059999999
        }
    },
    {
        "name": "Badi masjid",
        "main_category": "Mosque",
        "address": "V6M4+6G6 Badi masjid, Luxettipet, Utukur, Telangana 504215",
        "detailed_address": {
            "ward": null,
            "street": "V6M4+6G6",
            "city": "Luxettipet, Utukur",
            "postal_code": "504215",
            "state": "Telangana",
            "country_code": "IN"
        },
        "images": [
            {
                "about": "All",
                "link": "https://streetviewpixels-pa.googleapis.com/v1/thumbnail?panoid=2Fma5QjCQUEZ-Ww14r02Sg&cb_client=maps_sv.tactile.gps&w=224&h=298&yaw=145.20671&pitch=0&thumbfov=100"
            },
            {
                "about": "Street View & 360deg",
                "link": "https://streetviewpixels-pa.googleapis.com/v1/thumbnail?panoid=2Fma5QjCQUEZ-Ww14r02Sg&cb_client=maps_sv.tactile.gps&w=224&h=298&yaw=145.20671&pitch=0&thumbfov=100"
            }
        ],
        "link": "https://www.google.com/maps/place/Badi+masjid/data=!4m7!3m6!1s0x3bcd4983c8455595:0x967acd0ca59d0e65!8m2!3d18.8830416!4d79.2062597!16s%2Fg%2F11vf2g1rj5!19sChIJlVVFyINJzTsRZQ6dpQzNepY?authuser=0&hl=en&rclk=1",
        "coordinates": {
            "latitude": 18.8830416,
            "longitude": 79.20625969999999
        }
    },
    {
        "name": "Eid Gah",
        "main_category": "Mosque",
        "address": "V6R3+844 Eid Gah, Lakshettipet, Utukur, Telangana 504215",
        "detailed_address": {
            "ward": null,
            "street": "V6R3+844",
            "city": "Lakshettipet, Utukur",
            "postal_code": "504215",
            "state": "Telangana",
            "country_code": "IN"
        },
        "images": [
            {
                "about": "All",
                "link": "https://lh5.googleusercontent.com/p/AF1QipNZgTIrs0DoEc3aijr8Uat1OEzPiDbcz1QCzg3J=w224-h298-k-no"
            },
            {
                "about": "Videos",
                "link": "https://lh5.googleusercontent.com/p/AF1QipNPdzRkn1CArjGX6kBTKIzVuhEh7ticQUecNTr6=w224-h398-k-no"
            }
        ],
        "link": "https://www.google.com/maps/place/Eid+Gah/data=!4m7!3m6!1s0x3bcd49633e4aa623:0xc8ba704d0873bb4a!8m2!3d18.8907702!4d79.202828!16s%2Fg%2F11q_1t7gt0!19sChIJI6ZKPmNJzTsRSrtzCE1wusg?authuser=0&hl=en&rclk=1",
        "coordinates": {
            "latitude": 18.8907702,
            "longitude": 79.202828
        }
    }
]