[
    {
        "name": "Saleempur futatal phaphund Auraiya up",
        "main_category": "Mosque",
        "address": "JCH5+8VR Saleempur futatal phaphund Auraiya up, Fateh Pur Lakhami, Uttar Pradesh 206241",
        "detailed_address": {
            "ward": null,
            "street": "JCH5+8VR",
            "city": "Fateh Pur Lakhami",
            "postal_code": "206241",
            "state": "Uttar Pradesh",
            "country_code": "IN"
        },
        "images": [
            {
                "about": "All",
                "link": "https://lh5.googleusercontent.com/p/AF1QipPILI2QQogHgrvvVkKqPFeMQN6ccr8pNqH2_3Fh=w679-h298-k-no"
            }
        ],
        "link": "https://www.google.com/maps/place/Saleempur+futatal+phaphund+Auraiya+up/data=!4m7!3m6!1s0x399df85b94f932e5:0xbf9b0c77b26f3550!8m2!3d26.6283561!4d79.4096481!16s%2Fg%2F11hbt6qg3k!19sChIJ5TL5lFv4nTkRUDVvsncMm78?authuser=0&hl=en&rclk=1",
        "coordinates": {
            "latitude": 26.628356099999998,
            "longitude": 79.4096481
        }
    },
    {
        "name": "Masjid Mewatiyan",
        "main_category": "Mosque",
        "address": "JF27+Q28 Masjid Mewatiyan, Unnamed Road, Phaphund, Uttar Pradesh 206247",
        "detailed_address": {
            "ward": null,
            "street": "JF27+Q28, Unnamed Road",
            "city": "Phaphund",
            "postal_code": "206247",
            "state": "Uttar Pradesh",
            "country_code": "IN"
        },
        "images": [
            {
                "about": "All",
                "link": "https://streetviewpixels-pa.googleapis.com/v1/thumbnail?panoid=SO89oWf_cLEj0V1MMVjm9A&cb_client=maps_sv.tactile.gps&w=224&h=298&yaw=244.25017&pitch=0&thumbfov=100"
            },
            {
                "about": "Street View & 360deg",
                "link": "https://streetviewpixels-pa.googleapis.com/v1/thumbnail?panoid=SO89oWf_cLEj0V1MMVjm9A&cb_client=maps_sv.tactile.gps&w=224&h=298&yaw=244.25017&pitch=0&thumbfov=100"
            }
        ],
        "link": "https://www.google.com/maps/place/Masjid+Mewatiyan/data=!4m7!3m6!1s0x399df9034aeee945:0xbbccc75ce04e6114!8m2!3d26.6019236!4d79.4625768!16s%2Fg%2F11rsrg0m_l!19sChIJRenuSgP5nTkRFGFO4FzHzLs?authuser=0&hl=en&rclk=1",
        "coordinates": {
            "latitude": 26.6019236,
            "longitude": 79.4625768
        }
    },
    {
        "name": "Masjid",
        "main_category": "Mosque",
        "address": "JF27+3JC Masjid, Phaphund, Uttar Pradesh 206247",
        "detailed_address": {
            "ward": null,
            "street": "JF27+3JC",
            "city": "Phaphund",
            "postal_code": "206247",
            "state": "Uttar Pradesh",
            "country_code": "IN"
        },
        "images": [],
        "link": "https://www.google.com/maps/place/Masjid/data=!4m7!3m6!1s0x399df99393112abd:0xdca615e7516dbfe5!8m2!3d26.6001964!4d79.4640292!16s%2Fg%2F11qh56b12d!19sChIJvSoRk5P5nTkR5b9tUecVptw?authuser=0&hl=en&rclk=1",
        "coordinates": {
            "latitude": 26.600196399999998,
            "longitude": 79.4640292
        }
    }
]