[
    {
        "name": "Kasim MASJID Nawanshahr",
        "main_category": "Mosque",
        "address": "44Q3+9WJ Kasim MASJID Nawanshahr, Focal Point, Nawanshahr, Punjab 144514",
        "detailed_address": {
            "ward": "Focal Point",
            "street": "44Q3+9WJ",
            "city": "Nawanshahr",
            "postal_code": "144514",
            "state": "Punjab",
            "country_code": "IN"
        },
        "images": [
            {
                "about": "All",
                "link": "https://lh5.googleusercontent.com/p/AF1QipPjHc-tT1kF6Mq_bI9uoQXZJLrjwRSXdVZQttOZ=w224-h298-k-no"
            },
            {
                "about": "Videos",
                "link": "https://lh5.googleusercontent.com/p/AF1QipPdau7Um9E6nCyELToGSfGJ5TwMsqnsKHp7fM-t=w224-h398-k-no"
            }
        ],
        "link": "https://www.google.com/maps/place/Kasim+MASJID+Nawanshahr/data=!4m7!3m6!1s0x391abde1375a3e77:0xe953367079b46031!8m2!3d31.1384725!4d76.1047615!16s%2Fg%2F11cnc820yz!19sChIJdz5aN-G9GjkRMWC0eXA2U-k?authuser=0&hl=en&rclk=1",
        "coordinates": {
            "latitude": 31.1384725,
            "longitude": 76.1047615
        }
    },
    {
        "name": "Jama masjid baradari",
        "main_category": "Mosque",
        "address": "Jama masjid baradari, Baradari Garden Road, Sirsa Colony, Nawanshahr, Punjab 144514",
        "detailed_address": {
            "ward": "Sirsa Colony",
            "street": "Baradari Garden Road",
            "city": "Nawanshahr",
            "postal_code": "144514",
            "state": "Punjab",
            "country_code": "IN"
        },
        "images": [
            {
                "about": "All",
                "link": "https://lh5.googleusercontent.com/p/AF1QipN1GpGaKh-jP_eReQoCn6WwF53EGOPS_-aaedDY=w224-h298-k-no"
            }
        ],
        "link": "https://www.google.com/maps/place/Jama+masjid+baradari/data=!4m7!3m6!1s0x391abd541ea0cdc3:0xdee36171436b6982!8m2!3d31.1234637!4d76.1188431!16s%2Fg%2F11r_vr_jn9!19sChIJw82gHlS9GjkRgmlrQ3Fh494?authuser=0&hl=en&rclk=1",
        "coordinates": {
            "latitude": 31.1234637,
            "longitude": 76.11884309999999
        }
    },
    {
        "name": "Sai Ruldu Shah Ji Darbar",
        "main_category": "Mosque",
        "address": "44F6+JQH Sai Ruldu Shah Ji Darbar, Valmiki Mohalla, Guru Ravidas Nagar, Nawanshahr, Punjab 144514",
        "detailed_address": {
            "ward": "Valmiki Mohalla, Guru Ravidas Nagar",
            "street": "44F6+JQH",
            "city": "Nawanshahr",
            "postal_code": "144514",
            "state": "Punjab",
            "country_code": "IN"
        },
        "images": [
            {
                "about": "All",
                "link": "https://lh5.googleusercontent.com/p/AF1QipPkSmXyCgJLd1kixvDYV0OYRvHVhs2vqdC2pcWc=w447-h298-k-no"
            }
        ],
        "link": "https://www.google.com/maps/place/Sai+Ruldu+Shah+Ji+Darbar/data=!4m7!3m6!1s0x391abde8ca376cfb:0xa51c8c16c4f1c917!8m2!3d31.1240533!4d76.1119915!16s%2Fg%2F11h3qrgy6h!19sChIJ-2w3yui9GjkRF8nxxBaMHKU?authuser=0&hl=en&rclk=1",
        "coordinates": {
            "latitude": 31.1240533,
            "longitude": 76.1119915
        }
    }
]