[
    {
        "name": "Jama Masjid Naldurg",
        "main_category": "Mosque",
        "address": "R78J+3GV Jama Masjid Naldurg, Naldurg, Maharashtra 413602",
        "detailed_address": {
            "ward": null,
            "street": "R78J+3GV",
            "city": "Naldurg",
            "postal_code": "413602",
            "state": "Maharashtra",
            "country_code": "IN"
        },
        "images": [
            {
                "about": "All",
                "link": "https://lh5.googleusercontent.com/p/AF1QipN1R30KYwZe2ncUfK-sWWuvy_yVTfIEFhEIXWFv=w529-h298-k-no"
            },
            {
                "about": "Dome",
                "link": "https://lh5.googleusercontent.com/p/AF1QipNWAutCtVxDeFRGPstYfOvEakeMeDL79kXd1l77=w529-h298-k-no"
            },
            {
                "about": "Videos",
                "link": "https://lh5.googleusercontent.com/p/AF1QipM7yTNGqMYTDXRviRWjBNMISb_MfYIalfd1ie_R=w541-h298-k-no"
            }
        ],
        "link": "https://www.google.com/maps/place/Jama+Masjid+Naldurg/data=!4m7!3m6!1s0x3bc5f1dcbdefb053:0xdac6248b40d49497!8m2!3d17.8152409!4d76.2813019!16s%2Fg%2F11cnbsw_hw!19sChIJU7DvvdzxxTsRl5TUQIskxto?authuser=0&hl=en&rclk=1",
        "coordinates": {
            "latitude": 17.8152409,
            "longitude": 76.2813019
        }
    },
    {
        "name": "Aasar Masjid",
        "main_category": "Mosque",
        "address": "R78M+V4W Aasar Masjid, Naldurg, Maharashtra 413602",
        "detailed_address": {
            "ward": null,
            "street": "R78M+V4W",
            "city": "Naldurg",
            "postal_code": "413602",
            "state": "Maharashtra",
            "country_code": "IN"
        },
        "images": [
            {
                "about": "All",
                "link": "https://lh5.googleusercontent.com/p/AF1QipO8AgLDiNK0IueTounxSOYTx0t1qsSLUNl_uC-3=w529-h298-k-no"
            }
        ],
        "link": "https://www.google.com/maps/place/Aasar+Masjid/data=!4m7!3m6!1s0x3bc5f1c32a884f3f:0xbdef35438fb1d483!8m2!3d17.8172436!4d76.2828424!16s%2Fg%2F11by_dzmn3!19sChIJP0-IKsPxxTsRg9Sxj0M1770?authuser=0&hl=en&rclk=1",
        "coordinates": {
            "latitude": 17.817243599999998,
            "longitude": 76.28284239999999
        }
    },
    {
        "name": "Markaz Masjid Naldurg",
        "main_category": "Mosque",
        "address": "R77G+64F Markaz Masjid Naldurg, Naldurg, Maharashtra 413602",
        "detailed_address": {
            "ward": null,
            "street": "R77G+64F",
            "city": "Naldurg",
            "postal_code": "413602",
            "state": "Maharashtra",
            "country_code": "IN"
        },
        "images": [
            {
                "about": "All",
                "link": "https://lh5.googleusercontent.com/p/AF1QipNiauZVQWl0tVpo44nA0F7MpH9nwsITlDYzeSJy=w629-h298-k-no"
            },
            {
                "about": "Street View & 360deg",
                "link": "https://streetviewpixels-pa.googleapis.com/v1/thumbnail?panoid=seaz-RiEfASYEhoblhF5iA&cb_client=maps_sv.tactile.gps&w=224&h=298&yaw=254.1463&pitch=0&thumbfov=100"
            }
        ],
        "link": "https://www.google.com/maps/place/Markaz+Masjid+Naldurg/data=!4m7!3m6!1s0x3bc5f186ac4d8335:0xc979df4a7f2d922d!8m2!3d17.8130518!4d76.2753095!16s%2Fg%2F11hwf1jhrz!19sChIJNYNNrIbxxTsRLZItf0rfeck?authuser=0&hl=en&rclk=1",
        "coordinates": {
            "latitude": 17.8130518,
            "longitude": 76.27530949999999
        }
    },
    {
        "name": "Naldurg Fort Mosque",
        "main_category": "Mosque",
        "address": "R78P+73P Naldurg Fort Mosque, Naldurg, Maharashtra 413602",
        "detailed_address": {
            "ward": null,
            "street": "R78P+73P",
            "city": "Naldurg",
            "postal_code": "413602",
            "state": "Maharashtra",
            "country_code": "IN"
        },
        "images": [
            {
                "about": "All",
                "link": "https://lh5.googleusercontent.com/p/AF1QipOmegLGTrfkV-c1PwB1s0-8QTsg45qXMTEkX1bC=w224-h298-k-no"
            },
            {
                "about": "Videos",
                "link": "https://lh5.googleusercontent.com/p/AF1QipOCpcMZ5T4AZKWOVFjn6YUsUiGKNt5EjlrVm7Qq=w224-h398-k-no"
            }
        ],
        "link": "https://www.google.com/maps/place/Naldurg+Fort+Mosque/data=!4m7!3m6!1s0x3bc5f101238801b9:0x552c918625579608!8m2!3d17.8157139!4d76.2851989!16s%2Fg%2F11ft_8krnm!19sChIJuQGIIwHxxTsRCJZXJYaRLFU?authuser=0&hl=en&rclk=1",
        "coordinates": {
            "latitude": 17.8157139,
            "longitude": 76.2851989
        }
    },
    {
        "name": "Hamid khan Masjid",
        "main_category": "Mosque",
        "address": "R77J+H9X Hamid khan Masjid, NH 65, Naldurg, Maharashtra 413602",
        "detailed_address": {
            "ward": null,
            "street": "R77J+H9X, NH 65",
            "city": "Naldurg",
            "postal_code": "413602",
            "state": "Maharashtra",
            "country_code": "IN"
        },
        "images": [
            {
                "about": "All",
                "link": "https://streetviewpixels-pa.googleapis.com/v1/thumbnail?panoid=6SUI48AdjmsVBXQpzwNJTw&cb_client=maps_sv.tactile.gps&w=224&h=298&yaw=173.2097&pitch=0&thumbfov=100"
            },
            {
                "about": "Street View & 360deg",
                "link": "https://streetviewpixels-pa.googleapis.com/v1/thumbnail?panoid=6SUI48AdjmsVBXQpzwNJTw&cb_client=maps_sv.tactile.gps&w=224&h=298&yaw=173.2097&pitch=0&thumbfov=100"
            }
        ],
        "link": "https://www.google.com/maps/place/Hamid+khan+Masjid/data=!4m7!3m6!1s0x3bc5f1db664567a1:0x729800366f678f31!8m2!3d17.8139755!4d76.280974!16s%2Fg%2F11dfj1mbnw!19sChIJoWdFZtvxxTsRMY9nbzYAmHI?authuser=0&hl=en&rclk=1",
        "coordinates": {
            "latitude": 17.813975499999998,
            "longitude": 76.280974
        }
    },
    {
        "name": "Faujiyon ki masjid ourf kali Masjid",
        "main_category": "Mosque",
        "address": "R768+3W Faujiyon ki masjid ourf kali Masjid, Naldurg, Maharashtra 413602",
        "detailed_address": {
            "ward": null,
            "street": "R768+3W",
            "city": "Naldurg",
            "postal_code": null,
            "state": "Maharashtra",
            "country_code": "IN"
        },
        "images": [
            {
                "about": "All",
                "link": "https://lh5.googleusercontent.com/p/AF1QipPkHvoWgM5RHzXby2UStWYIckXh2Ojpf-5dFghy=w529-h298-k-no"
            },
            {
                "about": "Videos",
                "link": "https://lh5.googleusercontent.com/p/AF1QipPxXTt3N8Pu5Q_dYdI74QfnuQHgEFAGyE6Yqu3O=w224-h398-k-no"
            }
        ],
        "link": "https://www.google.com/maps/place/Faujiyon+ki+masjid+ourf+kali+Masjid/data=!4m7!3m6!1s0x3bc5ef80a222bcf9:0x26e8c7398989260e!8m2!3d17.8102222!4d76.2672693!16s%2Fg%2F11svzqs7t2!19sChIJ-bwiooDvxTsRDiaJiTnH6CY?authuser=0&hl=en&rclk=1",
        "coordinates": {
            "latitude": 17.8102222,
            "longitude": 76.2672693
        }
    },
    {
        "name": "Masjid E Abul Hasnat",
        "main_category": "Mosque",
        "address": "R78M+H9J Masjid E Abul Hasnat, Killa Gate Rd, Naldurg, Maharashtra 413602",
        "detailed_address": {
            "ward": null,
            "street": "R78M+H9J, Killa Gate Rd",
            "city": "Naldurg",
            "postal_code": "413602",
            "state": "Maharashtra",
            "country_code": "IN"
        },
        "images": [],
        "link": "https://www.google.com/maps/place/Masjid+E+Abul+Hasnat/data=!4m7!3m6!1s0x3bc5f16dd73753b5:0xbe5ad52932d5608d!8m2!3d17.8164724!4d76.2834043!16s%2Fg%2F11sslrnwxf!19sChIJtVM3123xxTsRjWDVMinVWr4?authuser=0&hl=en&rclk=1",
        "coordinates": {
            "latitude": 17.8164724,
            "longitude": 76.2834043
        }
    },
    {
        "name": "Bagwan Masjid",
        "main_category": "Mosque",
        "address": "R78J+7WX Bagwan Masjid, Naldurg, Maharashtra 413602",
        "detailed_address": {
            "ward": null,
            "street": "R78J+7WX",
            "city": "Naldurg",
            "postal_code": "413602",
            "state": "Maharashtra",
            "country_code": "IN"
        },
        "images": [
            {
                "about": "All",
                "link": "https://streetviewpixels-pa.googleapis.com/v1/thumbnail?panoid=4ay0yg5wayuk8bZS-drsvg&cb_client=maps_sv.tactile.gps&w=224&h=298&yaw=11.6746&pitch=0&thumbfov=100"
            },
            {
                "about": "Street View & 360deg",
                "link": "https://streetviewpixels-pa.googleapis.com/v1/thumbnail?panoid=4ay0yg5wayuk8bZS-drsvg&cb_client=maps_sv.tactile.gps&w=224&h=298&yaw=11.6746&pitch=0&thumbfov=100"
            }
        ],
        "link": "https://www.google.com/maps/place/Bagwan+Masjid/data=!4m7!3m6!1s0x3bc5f1c0c435d3e7:0x8f4e1ee68f96d634!8m2!3d17.8153737!4d76.2824317!16s%2Fg%2F11kj2gqh1x!19sChIJ59M1xMDxxTsRNNaWj-YeTo8?authuser=0&hl=en&rclk=1",
        "coordinates": {
            "latitude": 17.8153737,
            "longitude": 76.2824317
        }
    }
]