[
    {
        "name": "Masjid-e-firdose mosque vaniyambadi",
        "main_category": "Mosque",
        "address": "Masjid-e-firdose mosque vaniyambadi, PMO Ln, Chennampet, Vaniyambadi, Tamil Nadu 635751",
        "detailed_address": {
            "ward": "Chennampet",
            "street": "PMO Ln",
            "city": "Vaniyambadi",
            "postal_code": "635751",
            "state": "Tamil Nadu",
            "country_code": "IN"
        },
        "images": [
            {
                "about": "All",
                "link": "https://lh5.googleusercontent.com/p/AF1QipM3srm1SwEaeRnsQEgVj-35mRBd2VAYKyYvF12j=w519-h298-k-no"
            },
            {
                "about": "Dome",
                "link": "https://lh5.googleusercontent.com/p/AF1QipM3srm1SwEaeRnsQEgVj-35mRBd2VAYKyYvF12j=w519-h298-k-no"
            },
            {
                "about": "By owner",
                "link": "https://lh5.googleusercontent.com/p/AF1QipNKJkMbV_Opbf0QPPZaE_nblQ-0kQOFGADgeMJ0=w224-h378-k-no"
            }
        ],
        "link": "https://www.google.com/maps/place/Masjid-e-firdose+mosque+vaniyambadi/data=!4m7!3m6!1s0x3bada9c5129a9323:0x7d02c87558ca2c0d!8m2!3d12.6832425!4d78.6091525!16s%2Fg%2F11fkmxthnb!19sChIJI5OaEsWprTsRDSzKWHXIAn0?authuser=0&hl=en&rclk=1",
        "coordinates": {
            "latitude": 12.683242499999999,
            "longitude": 78.6091525
        }
    },
    {
        "name": "Masjid-e-Khaderpet",
        "main_category": "Mosque",
        "address": "MJJC+4H3 Masjid-e-Khaderpet, SH 130, Vaniyambadi, Tamil Nadu 635751",
        "detailed_address": {
            "ward": "Vaniyambadi",
            "street": "MJJC+4H3, SH 130",
            "city": "Vaniyambadi",
            "postal_code": "635751",
            "state": "Tamil Nadu",
            "country_code": "IN"
        },
        "images": [
            {
                "about": "All",
                "link": "https://lh5.googleusercontent.com/p/AF1QipMWXtmhnanrz2iquFqTWR0G0O6WosTmGUkB4G0p=w224-h398-k-no"
            },
            {
                "about": "Dome",
                "link": "https://lh5.googleusercontent.com/p/AF1QipO_kvnb7cstWqglOii5HOYxrXGV6QI6S33zKlMn=w397-h298-k-no"
            },
            {
                "about": "Videos",
                "link": "https://lh5.googleusercontent.com/p/AF1QipPRrR8FRb_whISeH6D7dIrll6kIRrO7dBRJIZBz=w529-h298-k-no"
            },
            {
                "about": "Street View & 360deg",
                "link": "https://streetviewpixels-pa.googleapis.com/v1/thumbnail?panoid=SXe9s58UpN8WnMEDzhXR3A&cb_client=maps_sv.tactile.gps&w=224&h=298&yaw=248.99113&pitch=0&thumbfov=100"
            }
        ],
        "link": "https://www.google.com/maps/place/Masjid-e-Khaderpet/data=!4m7!3m6!1s0x3bada9a35fb7bc35:0xcd05c54bc490d3da!8m2!3d12.6802741!4d78.6214276!16s%2Fg%2F1thd53m2!19sChIJNby3X6OprTsR2tOQxEvFBc0?authuser=0&hl=en&rclk=1",
        "coordinates": {
            "latitude": 12.6802741,
            "longitude": 78.62142759999999
        }
    },
    {
        "name": "Masjid e Jadeed( msjdjdyd)",
        "main_category": "Mosque",
        "address": "Masjid e Jadeed( msjdjdyd), 22, Iqbal Rd, Kattankudy, Muslimpur, Basheerabad, Vaniyambadi, Tamil Nadu 635751",
        "detailed_address": {
            "ward": "Kattankudy, Muslimpur, Basheerabad",
            "street": "22, Iqbal Rd",
            "city": "Vaniyambadi",
            "postal_code": "635751",
            "state": "Tamil Nadu",
            "country_code": "IN"
        },
        "images": [
            {
                "about": "All",
                "link": "https://lh5.googleusercontent.com/p/AF1QipMLPoYTNm29UHxkoubUJmM6iaFLorAPgs2qcxj3=w531-h298-k-no"
            }
        ],
        "link": "https://www.google.com/maps/place/Masjid+e+Jadeed%28+%D9%85%D8%B3%D8%AC%D8%AF%D8%AC%D8%AF%DB%8C%D8%AF%29%E2%80%AD/data=!4m7!3m6!1s0x3bada99f927211e5:0x651c1bbd76566d66!8m2!3d12.6736685!4d78.6131205!16s%2Fg%2F1vs1q992!19sChIJ5RFykp-prTsRZm1Wdr0bHGU?authuser=0&hl=en&rclk=1",
        "coordinates": {
            "latitude": 12.6736685,
            "longitude": 78.6131205
        }
    },
    {
        "name": "Fort Masjid (Qilla Masjid)",
        "main_category": "Mosque",
        "address": "MJJ6+FR5 Fort Masjid (Qilla Masjid), Banki Reve Street, Fort, Shakirabad, Vaniyambadi, Tamil Nadu 635751",
        "detailed_address": {
            "ward": "Fort, Shakirabad",
            "street": "MJJ6+FR5, Banki Reve Street",
            "city": "Vaniyambadi",
            "postal_code": "635751",
            "state": "Tamil Nadu",
            "country_code": "IN"
        },
        "images": [
            {
                "about": "All",
                "link": "https://lh5.googleusercontent.com/p/AF1QipOwUdc3H_cBEqhMlcWZzRzGjZtXxbG9ThEy0J5V=w298-h298-k-no"
            },
            {
                "about": "Dome",
                "link": "https://lh5.googleusercontent.com/p/AF1QipP6FZXofDQt0YaEeJ2NLz3S98qUb1YIuDXT0Jdz=w529-h298-k-no"
            },
            {
                "about": "Videos",
                "link": "https://lh5.googleusercontent.com/p/AF1QipPH5Dhl4WO12JtZ_Bo11EwZpkWSmWO3jd3OueJ0=w529-h298-k-no"
            }
        ],
        "link": "https://www.google.com/maps/place/Fort+Masjid+%28Qilla+Masjid%29/data=!4m7!3m6!1s0x3bada9a7437ef4a1:0x4a1c9758217d60ed!8m2!3d12.6811275!4d78.6121015!16s%2Fg%2F1vyxgvt9!19sChIJofR-Q6eprTsR7WB9IViXHEo?authuser=0&hl=en&rclk=1",
        "coordinates": {
            "latitude": 12.681127499999999,
            "longitude": 78.6121015
        }
    },
    {
        "name": "Shakirabad Masjid",
        "main_category": "Mosque",
        "address": "MJG6+GG7 Shakirabad Masjid, Munni Aachari St, Muslimpur, Basheerabad, Vaniyambadi, Tamil Nadu 635751",
        "detailed_address": {
            "ward": "Muslimpur, Basheerabad",
            "street": "MJG6+GG7, Munni Aachari St",
            "city": "Vaniyambadi",
            "postal_code": "635751",
            "state": "Tamil Nadu",
            "country_code": "IN"
        },
        "images": [
            {
                "about": "All",
                "link": "https://lh5.googleusercontent.com/p/AF1QipNhsGW3Tn1H3hXz_rWD9pB7z1B2g9SPb0-HaUuz=w529-h298-k-no"
            },
            {
                "about": "Videos",
                "link": "https://lh5.googleusercontent.com/p/AF1QipNhsGW3Tn1H3hXz_rWD9pB7z1B2g9SPb0-HaUuz=w529-h298-k-no"
            }
        ],
        "link": "https://www.google.com/maps/place/Shakirabad+Masjid/data=!4m7!3m6!1s0x3bada90a9c554783:0xe137d5f194d36ab!8m2!3d12.6762988!4d78.6113084!16s%2Fg%2F1tfq32j7!19sChIJg0dVnAqprTsRqzZNGV99Ew4?authuser=0&hl=en&rclk=1",
        "coordinates": {
            "latitude": 12.6762988,
            "longitude": 78.6113084
        }
    },
    {
        "name": "Al Huda Masjid",
        "main_category": "Mosque",
        "address": "Al Huda Masjid, Al Huda Complex, Fort, Shakirabad, Vaniyambadi, Tamil Nadu 635751",
        "detailed_address": {
            "ward": "Fort, Shakirabad",
            "street": "Al Huda Complex",
            "city": "Vaniyambadi",
            "postal_code": "635751",
            "state": "Tamil Nadu",
            "country_code": "IN"
        },
        "images": [
            {
                "about": "All",
                "link": "https://lh5.googleusercontent.com/p/AF1QipOaTrhdU-3Rhs75NV9WwULYLLNCOD6TWFWxt7Du=w224-h298-k-no"
            },
            {
                "about": "Latest",
                "link": "https://lh5.googleusercontent.com/p/AF1QipONK8CGCF2XSAlhOiIu_dKenxFT23VFwKbyG4iH=w298-h298-k-no"
            },
            {
                "about": "Videos",
                "link": "https://lh5.googleusercontent.com/p/AF1QipNouS5i1WXb7tA9KazPd7iKKfx1pEIAJUnbcWKq=w224-h398-k-no"
            }
        ],
        "link": "https://www.google.com/maps/place/Al+Huda+Masjid/data=!4m7!3m6!1s0x3bada90a447176fb:0x609380ac82517129!8m2!3d12.6781301!4d78.6097041!16s%2Fg%2F1hm5jksmr!19sChIJ-3ZxRAqprTsRKXFRgqyAk2A?authuser=0&hl=en&rclk=1",
        "coordinates": {
            "latitude": 12.678130099999999,
            "longitude": 78.6097041
        }
    },
    {
        "name": "Newtown Masjid",
        "main_category": "Mosque",
        "address": "MJGG+468 Newtown Masjid, New Town, Vaniyambadi, Tamil Nadu 635751",
        "detailed_address": {
            "ward": "New Town",
            "street": "MJGG+468",
            "city": "Vaniyambadi",
            "postal_code": "635751",
            "state": "Tamil Nadu",
            "country_code": "IN"
        },
        "images": [
            {
                "about": "All",
                "link": "https://lh5.googleusercontent.com/p/AF1QipMBq2Ib9H1zaSCpXwgDDm14Tb0kx60hanV4GF2X=w397-h298-k-no"
            },
            {
                "about": "Street View & 360deg",
                "link": "https://streetviewpixels-pa.googleapis.com/v1/thumbnail?panoid=zBbjlDxHWEh5JZ1VVGgtmA&cb_client=maps_sv.tactile.gps&w=224&h=298&yaw=252.73882&pitch=0&thumbfov=100"
            },
            {
                "about": "Videos",
                "link": "https://lh5.googleusercontent.com/p/AF1QipMrspEy4KegpkWNJD4ONH_i0lJ5im-freu8vxHN=w224-h395-k-no"
            }
        ],
        "link": "https://www.google.com/maps/place/Newtown+Masjid/data=!4m7!3m6!1s0x3bada9bd7f109161:0xa274fd958248e24d!8m2!3d12.6752809!4d78.625577!16s%2Fg%2F11r8w0lnz!19sChIJYZEQf72prTsRTeJIgpX9dKI?authuser=0&hl=en&rclk=1",
        "coordinates": {
            "latitude": 12.675280899999999,
            "longitude": 78.62557699999999
        }
    },
    {
        "name": "Taqwa Masjid",
        "main_category": "Mosque",
        "address": "Taqwa Masjid, Basheerabad, Vaniyambadi, Tamil Nadu 635751",
        "detailed_address": {
            "ward": "Basheerabad",
            "street": "Taqwa Masjid",
            "city": "Vaniyambadi",
            "postal_code": "635751",
            "state": "Tamil Nadu",
            "country_code": "IN"
        },
        "images": [
            {
                "about": "All",
                "link": "https://lh5.googleusercontent.com/p/AF1QipNViWLe1eYN2G1j2GE_ES0o2k5z_MNGoAjQ0YjD=w666-h298-k-no"
            },
            {
                "about": "Videos",
                "link": "https://lh5.googleusercontent.com/p/AF1QipOrcrrYZKYhzucKfhKDukoNV-J6L7wCUmJroQjd=w224-h407-k-no"
            }
        ],
        "link": "https://www.google.com/maps/place/Taqwa+Masjid/data=!4m7!3m6!1s0x3bada9750e2c6a89:0x72c1263cc569336!8m2!3d12.6722135!4d78.6094891!16s%2Fg%2F1vm78x5h!19sChIJiWosDnWprTsRNpNWzGMSLAc?authuser=0&hl=en&rclk=1",
        "coordinates": {
            "latitude": 12.6722135,
            "longitude": 78.60948909999999
        }
    },
    {
        "name": "Chennampet Masjid",
        "main_category": "Mosque",
        "address": "Chennampet Masjid, #84, Chennampet, Vaniyambadi, Tamil Nadu 635751",
        "detailed_address": {
            "ward": "Chennampet",
            "street": "#84",
            "city": "Vaniyambadi",
            "postal_code": "635751",
            "state": "Tamil Nadu",
            "country_code": "IN"
        },
        "images": [
            {
                "about": "All",
                "link": "https://lh5.googleusercontent.com/p/AF1QipOG2kr6mS4VYDbbWHz7gCOvPwb9wEryYXu-KvoD=w529-h298-k-no"
            }
        ],
        "link": "https://www.google.com/maps/place/Chennampet+Masjid/data=!4m7!3m6!1s0x3bada9a723203889:0xdf303ccc61b8077f!8m2!3d12.6824194!4d78.6100423!16s%2Fg%2F1wd3th1b!19sChIJiTggI6eprTsRfwe4Ycw8MN8?authuser=0&hl=en&rclk=1",
        "coordinates": {
            "latitude": 12.682419399999999,
            "longitude": 78.6100423
        }
    },
    {
        "name": "Masjid E Zubair",
        "main_category": "Mosque",
        "address": "MJRM+24H Masjid E Zubair, PJN Rd, Dr.B.R Ambedkar Nagar, Vaniyambadi, Tamil Nadu 635751",
        "detailed_address": {
            "ward": "Dr.B.R Ambedkar Nagar",
            "street": "MJRM+24H, PJN Rd",
            "city": "Vaniyambadi",
            "postal_code": "635751",
            "state": "Tamil Nadu",
            "country_code": "IN"
        },
        "images": [
            {
                "about": "All",
                "link": "https://lh5.googleusercontent.com/p/AF1QipPatsRckPD3jDO-kpmFN6DmetL6_5c2cVXLkqrE=w397-h298-k-no"
            },
            {
                "about": "Street View & 360deg",
                "link": "https://streetviewpixels-pa.googleapis.com/v1/thumbnail?panoid=DWFv1Z5PsOi9gpA9IGZatg&cb_client=maps_sv.tactile.gps&w=224&h=298&yaw=176.3049&pitch=0&thumbfov=100"
            }
        ],
        "link": "https://www.google.com/maps/place/Masjid+E+Zubair/data=!4m7!3m6!1s0x3bada9b6371a41c7:0x2e87d092aefea60b!8m2!3d12.6900632!4d78.6328592!16s%2Fg%2F11fyzcqv2d!19sChIJx0EaN7aprTsRC6b-rpLQhy4?authuser=0&hl=en&rclk=1",
        "coordinates": {
            "latitude": 12.690063199999999,
            "longitude": 78.6328592
        }
    },
    {
        "name": "Masjid-E-Azam",
        "main_category": "Mosque",
        "address": "MJJ5+68C Masjid-E-Azam, D.Periyapettai, Vaniyambadi, Tamil Nadu 635751",
        "detailed_address": {
            "ward": "D.Periyapettai",
            "street": "MJJ5+68C",
            "city": "Vaniyambadi",
            "postal_code": "635751",
            "state": "Tamil Nadu",
            "country_code": "IN"
        },
        "images": [
            {
                "about": "All",
                "link": "https://lh5.googleusercontent.com/p/AF1QipMUmQp7q7RZ6SJoCC-O_Yn0NGjFppi2T0fu_ncL=w397-h298-k-no"
            },
            {
                "about": "Dome",
                "link": "https://lh5.googleusercontent.com/p/AF1QipM49UQRNXlfysE-5lEknZnanGvXwhWfyOoHLo5c=w224-h398-k-no"
            }
        ],
        "link": "https://www.google.com/maps/place/Masjid-E-Azam/data=!4m7!3m6!1s0x3bada9097a005ab1:0xb723fa7e412e3874!8m2!3d12.6805683!4d78.608274!16s%2Fg%2F1tm8h_zt!19sChIJsVoAegmprTsRdDguQX76I7c?authuser=0&hl=en&rclk=1",
        "coordinates": {
            "latitude": 12.6805683,
            "longitude": 78.608274
        }
    },
    {
        "name": "Masjid-E-Ahle Hadees",
        "main_category": "Mosque",
        "address": "Masjid-E-Ahle Hadees, 361/72, Khateeb St, D.Periyapettai, Vaniyambadi, Tamil Nadu 635751",
        "detailed_address": {
            "ward": "D.Periyapettai",
            "street": "361/72, Khateeb St",
            "city": "Vaniyambadi",
            "postal_code": "635751",
            "state": "Tamil Nadu",
            "country_code": "IN"
        },
        "images": [
            {
                "about": "All",
                "link": "https://lh5.googleusercontent.com/p/AF1QipOBCUQB4VjFY-u6ju-mdA8oJXTDatGJKTqAKATD=w224-h399-k-no"
            },
            {
                "about": "Street View & 360deg",
                "link": "https://streetviewpixels-pa.googleapis.com/v1/thumbnail?panoid=NbAazHO_BVSBqgU8H1xJow&cb_client=maps_sv.tactile.gps&w=224&h=298&yaw=271.46814&pitch=0&thumbfov=100"
            }
        ],
        "link": "https://www.google.com/maps/place/Masjid-E-Ahle+Hadees/data=!4m7!3m6!1s0x3bada9096f211e01:0xe4ff306f5d8c8862!8m2!3d12.6808843!4d78.6075841!16s%2Fg%2F1td_3mbs!19sChIJAR4hbwmprTsRYoiMXW8w_-Q?authuser=0&hl=en&rclk=1",
        "coordinates": {
            "latitude": 12.680884299999999,
            "longitude": 78.6075841
        }
    },
    {
        "name": "Masjid-e-Quba",
        "main_category": "Mosque",
        "address": "MJCF+3QM Masjid-e-Quba, New Town, Vaniyambadi, Tamil Nadu 635752",
        "detailed_address": {
            "ward": "New Town",
            "street": "MJCF+3QM",
            "city": "Vaniyambadi",
            "postal_code": "635752",
            "state": "Tamil Nadu",
            "country_code": "IN"
        },
        "images": [
            {
                "about": "All",
                "link": "https://lh5.googleusercontent.com/p/AF1QipM8fV9F6HEEWmwyb__DepmEVRKasSSdsrE347L9=w528-h298-k-no"
            }
        ],
        "link": "https://www.google.com/maps/place/Masjid-e-Quba/data=!4m7!3m6!1s0x3bada9973fbcbe07:0xad40fe0392b2061a!8m2!3d12.6702093!4d78.624425!16s%2Fg%2F11bxds59d0!19sChIJB768P5eprTsRGgaykgP-QK0?authuser=0&hl=en&rclk=1",
        "coordinates": {
            "latitude": 12.6702093,
            "longitude": 78.624425
        }
    },
    {
        "name": "Masjid-E-Nawab Azeez Khan Bahadur",
        "main_category": "Mosque",
        "address": "MJJ4+3WG Masjid-E-Nawab Azeez Khan Bahadur, Khateeb, Abdul Kareem street, D.Periyapettai, Vaniyambadi, Tamil Nadu 635751",
        "detailed_address": {
            "ward": "D.Periyapettai",
            "street": "MJJ4+3WG, Khateeb, Abdul Kareem street",
            "city": "Vaniyambadi",
            "postal_code": "635751",
            "state": "Tamil Nadu",
            "country_code": "IN"
        },
        "images": [
            {
                "about": "All",
                "link": "https://lh5.googleusercontent.com/p/AF1QipNUHjRABxEGqaiJCGUdQ4O9auvBELBWQAQtYXTc=w224-h398-k-no"
            },
            {
                "about": "Dome",
                "link": "https://lh5.googleusercontent.com/p/AF1QipO_QfLJq0g4XcC1OwpyEVgZ49lG1bcvez25PAoJ=w224-h398-k-no"
            },
            {
                "about": "Street View & 360deg",
                "link": "https://streetviewpixels-pa.googleapis.com/v1/thumbnail?panoid=Tzz11F1VvlIEcBBItTDkrg&cb_client=maps_sv.tactile.gps&w=224&h=298&yaw=231.46097&pitch=0&thumbfov=100"
            }
        ],
        "link": "https://www.google.com/maps/place/Masjid-E-Nawab+Azeez+Khan+Bahadur/data=!4m7!3m6!1s0x3bada90960b8966f:0xd5ad5351ae12e1b8!8m2!3d12.6801978!4d78.6073279!16s%2Fg%2F1tksg6xv!19sChIJb5a4YAmprTsRuOESrlFTrdU?authuser=0&hl=en&rclk=1",
        "coordinates": {
            "latitude": 12.6801978,
            "longitude": 78.6073279
        }
    },
    {
        "name": "Masjid-e-Ayesha",
        "main_category": "Mosque",
        "address": "MJC8+54C Masjid-e-Ayesha, Miyan nagar, Pudur, Vaniyambadi, Tamil Nadu 635751",
        "detailed_address": {
            "ward": "Pudur",
            "street": "MJC8+54C, Miyan nagar",
            "city": "Vaniyambadi",
            "postal_code": "635751",
            "state": "Tamil Nadu",
            "country_code": "IN"
        },
        "images": [
            {
                "about": "All",
                "link": "https://lh5.googleusercontent.com/p/AF1QipM2Qe6EY2bmRBFBj2s-eFVl-GNM4m9oHYF15vg-=w224-h298-k-no"
            }
        ],
        "link": "https://www.google.com/maps/place/Masjid-e-Ayesha/data=!4m7!3m6!1s0x3bada99eecde6881:0xfec7a9b7f1f36f2f!8m2!3d12.6704264!4d78.6152725!16s%2Fg%2F11c1wsgp6f!19sChIJgWje7J6prTsRL2_z8bepx_4?authuser=0&hl=en&rclk=1",
        "coordinates": {
            "latitude": 12.6704264,
            "longitude": 78.6152725
        }
    },
    {
        "name": "Masjid e Taha",
        "main_category": "Mosque",
        "address": "Masjid e Taha, No. 67 Hills Road, New Town, Vaniyambadi, Tamil Nadu 635752",
        "detailed_address": {
            "ward": "New Town",
            "street": "No. 67 Hills Road",
            "city": "Vaniyambadi",
            "postal_code": "635752",
            "state": "Tamil Nadu",
            "country_code": "IN"
        },
        "images": [
            {
                "about": "All",
                "link": "https://lh5.googleusercontent.com/p/AF1QipMXhs5yNYrCoFFdMSdE9sCLD-NME3whe4PxhxcR=w518-h298-k-no"
            }
        ],
        "link": "https://www.google.com/maps/place/Masjid+e+Taha/data=!4m7!3m6!1s0x3bada996509d7237:0x3b43d08aeb478677!8m2!3d12.6727804!4d78.6264088!16s%2Fg%2F11f3z8k7wn!19sChIJN3KdUJaprTsRd4ZH64rQQzs?authuser=0&hl=en&rclk=1",
        "coordinates": {
            "latitude": 12.672780399999999,
            "longitude": 78.6264088
        }
    },
    {
        "name": "Korai Mat Manufacturer",
        "main_category": "Mosque",
        "address": "Korai Mat Manufacturer, W Mada St, D.Periyapettai, Vaniyambadi, Tamil Nadu 635751",
        "detailed_address": {
            "ward": "D.Periyapettai",
            "street": "W Mada St",
            "city": "Vaniyambadi",
            "postal_code": "635751",
            "state": "Tamil Nadu",
            "country_code": "IN"
        },
        "images": [
            {
                "about": "All",
                "link": "https://lh5.googleusercontent.com/p/AF1QipNTLjb_nBslIP1FU2ipzsy2ATbDeC_1KP4ZNPqn=w224-h398-k-no"
            },
            {
                "about": "By owner",
                "link": "https://lh5.googleusercontent.com/p/AF1QipNZK0kwoWaNocOO23k4j2YV30brVyDWXDP-CkgI=w224-h298-k-no"
            },
            {
                "about": "Street View & 360deg",
                "link": "https://streetviewpixels-pa.googleapis.com/v1/thumbnail?panoid=z365Db7Z0kLvmLn0t28JcA&cb_client=maps_sv.tactile.gps&w=224&h=298&yaw=281.8401&pitch=0&thumbfov=100"
            }
        ],
        "link": "https://www.google.com/maps/place/Korai+Mat+Manufacturer/data=!4m7!3m6!1s0x3bada909219991c9:0xf060b41f3e5c2b1b!8m2!3d12.6824377!4d78.6071026!16s%2Fg%2F11b6_zz5zk!19sChIJyZGZIQmprTsRGytcPh-0YPA?authuser=0&hl=en&rclk=1",
        "coordinates": {
            "latitude": 12.6824377,
            "longitude": 78.60710259999999
        }
    },
    {
        "name": "Masjid e Mitpala",
        "main_category": "Mosque",
        "address": "MJQ6+V59 Masjid e Mitpala, Jaffarabad, Vaniyambadi, Tamil Nadu 635754",
        "detailed_address": {
            "ward": "Jaffarabad",
            "street": "MJQ6+V59",
            "city": "Vaniyambadi",
            "postal_code": "635754",
            "state": "Tamil Nadu",
            "country_code": "IN"
        },
        "images": [
            {
                "about": "All",
                "link": "https://lh5.googleusercontent.com/p/AF1QipP1WUXAREq-vZcgxNeKJMEMThwKcaHdmN6OarBB=w397-h298-k-no"
            },
            {
                "about": "Dome",
                "link": "https://lh5.googleusercontent.com/p/AF1QipPJOt960UEOtDcTmqxOtiHnUvtfzQb1YTMLWWaP=w397-h298-k-no"
            },
            {
                "about": "Street View & 360deg",
                "link": "https://streetviewpixels-pa.googleapis.com/v1/thumbnail?panoid=mqEJ48M9LZkG1kfMSCxlFA&cb_client=maps_sv.tactile.gps&w=224&h=298&yaw=296.38028&pitch=0&thumbfov=100"
            }
        ],
        "link": "https://www.google.com/maps/place/Masjid+e+Mitpala/data=!4m7!3m6!1s0x3bada9076bdf9277:0x508c988b9011e489!8m2!3d12.6896712!4d78.6104892!16s%2Fg%2F11bv1ch1pp!19sChIJd5LfaweprTsRieQRkIuYjFA?authuser=0&hl=en&rclk=1",
        "coordinates": {
            "latitude": 12.6896712,
            "longitude": 78.6104892
        }
    },
    {
        "name": "Masjid-e-zaib(msjd zyb)",
        "main_category": "Mosque",
        "address": "MJ54+VHP Masjid-e-zaib(msjd zyb), JAMBU NAGAR, Kalendira, Chettiyappanur, Vaniyambadi, Tamil Nadu 635751",
        "detailed_address": {
            "ward": "Chettiyappanur",
            "street": "MJ54+VHP, JAMBU NAGAR, Kalendira",
            "city": "Vaniyambadi",
            "postal_code": "635751",
            "state": "Tamil Nadu",
            "country_code": "IN"
        },
        "images": [
            {
                "about": "All",
                "link": "https://lh5.googleusercontent.com/p/AF1QipNpuuoBRiN10zJqfMdYZZ-R7Hj01YhIKyht6_0K=w224-h298-k-no"
            }
        ],
        "link": "https://www.google.com/maps/place/Masjid-e-zaib%28%D9%85%D8%B3%D8%AC%D8%AF+%D8%B2%DB%8C%D8%A8%29%E2%80%AD/data=!4m7!3m6!1s0x3bada99d7eff6b2d:0xf8662ada50e665e1!8m2!3d12.6597042!4d78.6064458!16s%2Fg%2F11dz5qg9jt!19sChIJLWv_fp2prTsR4WXmUNoqZvg?authuser=0&hl=en&rclk=1",
        "coordinates": {
            "latitude": 12.6597042,
            "longitude": 78.6064458
        }
    },
    {
        "name": "Masjid-e-Mahmood",
        "main_category": "Mosque",
        "address": "Masjid-e-Mahmood, 21/258, 3rd St, Periyar Nagar, Basheerabad, Vaniyambadi, Tamil Nadu 635751",
        "detailed_address": {
            "ward": "Periyar Nagar, Basheerabad",
            "street": "21/258, 3rd St",
            "city": "Vaniyambadi",
            "postal_code": "635751",
            "state": "Tamil Nadu",
            "country_code": "IN"
        },
        "images": [],
        "link": "https://www.google.com/maps/place/Masjid-e-Mahmood/data=!4m7!3m6!1s0x3bada9758a365e0b:0x33f12e29b9a8fdc2!8m2!3d12.6704598!4d78.6113506!16s%2Fg%2F11g7z4pq8c!19sChIJC142inWprTsRwv2ouSku8TM?authuser=0&hl=en&rclk=1",
        "coordinates": {
            "latitude": 12.6704598,
            "longitude": 78.6113506
        }
    }
]