[
    {
        "name": "Jamia Masjid",
        "main_category": "Mosque",
        "address": "3375+JJR Jamia Masjid, Hungund, Karnataka 587118",
        "detailed_address": {
            "ward": null,
            "street": "3375+JJR",
            "city": "Hungund",
            "postal_code": "587118",
            "state": "Karnataka",
            "country_code": "IN"
        },
        "images": [
            {
                "about": "All",
                "link": "https://lh5.googleusercontent.com/p/AF1QipPM8-T-oSZe4M5_obC1wO88vbYbEuMTFq-qDATj=w397-h298-k-no"
            },
            {
                "about": "Street View & 360deg",
                "link": "https://streetviewpixels-pa.googleapis.com/v1/thumbnail?panoid=MZJG1PwxxlDmcf_v4oLzMg&cb_client=maps_sv.tactile.gps&w=224&h=298&yaw=230.68457&pitch=0&thumbfov=100"
            },
            {
                "about": "Videos",
                "link": "https://lh5.googleusercontent.com/p/AF1QipO-JB4ljN6lkUJPIrmcmoH1DLGrpqCBeyUtrL1w=w224-h398-k-no"
            }
        ],
        "link": "https://www.google.com/maps/place/Jamia+Masjid/data=!4m7!3m6!1s0x3bb87566522688c5:0x5788842f44fa333a!8m2!3d16.0641093!4d76.0590311!16s%2Fg%2F11c2p__jcc!19sChIJxYgmUmZ1uDsROjP6RC-EiFc?authuser=0&hl=en&rclk=1",
        "coordinates": {
            "latitude": 16.0641093,
            "longitude": 76.0590311
        }
    },
    {
        "name": "Nooraani Masjid",
        "main_category": "Mosque",
        "address": "Nooraani Masjid, NH 50, Dist Bagalkot, Hungund, Karnataka 587101",
        "detailed_address": {
            "ward": null,
            "street": "NH 50, Dist Bagalkot",
            "city": "Hungund",
            "postal_code": "587101",
            "state": "Karnataka",
            "country_code": "IN"
        },
        "images": [],
        "link": "https://www.google.com/maps/place/Nooraani+Masjid/data=!4m7!3m6!1s0x3bb875393077ae07:0x6020723b9128ae08!8m2!3d16.0472547!4d76.0689155!16s%2Fg%2F11c1tc0gk1!19sChIJB653MDl1uDsRCK4okTtyIGA?authuser=0&hl=en&rclk=1",
        "coordinates": {
            "latitude": 16.0472547,
            "longitude": 76.0689155
        }
    },
    {
        "name": "Masjid Hungund",
        "main_category": "Mosque",
        "address": "3355+WG2 Masjid Hungund, Hungund, Karnataka 587118",
        "detailed_address": {
            "ward": null,
            "street": "3355+WG2",
            "city": "Hungund",
            "postal_code": "587118",
            "state": "Karnataka",
            "country_code": "IN"
        },
        "images": [
            {
                "about": "All",
                "link": "https://lh5.googleusercontent.com/p/AF1QipP1ODSUwemmjQzrExZFNDLivn6jzEH6KC1w7DSz=w529-h298-k-no"
            },
            {
                "about": "Videos",
                "link": "https://lh5.googleusercontent.com/p/AF1QipPXi5Uu9eTeOPXOBc1Z69DxEbIWrCsrZvz0UaAk=w224-h398-k-no"
            }
        ],
        "link": "https://www.google.com/maps/place/Masjid+Hungund/data=!4m7!3m6!1s0x3bb87568f0149eb9:0xd6da3789b4008633!8m2!3d16.0597662!4d76.0587812!16s%2Fg%2F11gb3ps6pf!19sChIJuZ4U8Gh1uDsRM4YAtIk32tY?authuser=0&hl=en&rclk=1",
        "coordinates": {
            "latitude": 16.0597662,
            "longitude": 76.0587812
        }
    },
    {
        "name": "Hazrath Ameerhamja dargah",
        "main_category": "Mosque",
        "address": "3385+27J Hazrath Ameerhamja dargah, Hungund, Karnataka 587118",
        "detailed_address": {
            "ward": null,
            "street": "3385+27J",
            "city": "Hungund",
            "postal_code": "587118",
            "state": "Karnataka",
            "country_code": "IN"
        },
        "images": [
            {
                "about": "All",
                "link": "https://lh5.googleusercontent.com/p/AF1QipNGTk0OC76XSw9TR30VGFKqP1wFrX3ngbdaUan6=w529-h298-k-no"
            },
            {
                "about": "Videos",
                "link": "https://lh5.googleusercontent.com/p/AF1QipMOamEWDB9peOTYH-8uaKRJPMA0tgXQgZwNRVzW=w529-h298-k-no"
            }
        ],
        "link": "https://www.google.com/maps/place/Hazrath+Ameerhamja+dargah/data=!4m7!3m6!1s0x3bb87566f36caf43:0x1193b4642b192c63!8m2!3d16.065075!4d76.0581449!16s%2Fg%2F11c54chcp2!19sChIJQ69s82Z1uDsRYywZK2S0kxE?authuser=0&hl=en&rclk=1",
        "coordinates": {
            "latitude": 16.065075,
            "longitude": 76.0581449
        }
    },
    {
        "name": "Madina masjid",
        "main_category": "Mosque",
        "address": "3373+P63 Madina masjid, Hungund Rural, Karnataka 587118",
        "detailed_address": {
            "ward": null,
            "street": "3373+P63",
            "city": "Hungund Rural",
            "postal_code": "587118",
            "state": "Karnataka",
            "country_code": "IN"
        },
        "images": [],
        "link": "https://www.google.com/maps/place/Madina+masjid/data=!4m7!3m6!1s0x3bb875204add6177:0x8e0e0facd45fe0a9!8m2!3d16.0642526!4d76.0530398!16s%2Fg%2F11rfp_gk3p!19sChIJd2HdSiB1uDsRqeBf1KwPDo4?authuser=0&hl=en&rclk=1",
        "coordinates": {
            "latitude": 16.0642526,
            "longitude": 76.0530398
        }
    },
    {
        "name": "Eidgha masjid",
        "main_category": "Mosque",
        "address": "3384+HVX Eidgha masjid, Hungund, Karnataka 587118",
        "detailed_address": {
            "ward": null,
            "street": "3384+HVX",
            "city": "Hungund",
            "postal_code": "587118",
            "state": "Karnataka",
            "country_code": "IN"
        },
        "images": [
            {
                "about": "All",
                "link": "https://lh5.googleusercontent.com/p/AF1QipPJJ0qE4dG8Z91iHz4xGhVoyRQ_ZIJMNri6IZkC=w529-h298-k-no"
            },
            {
                "about": "Dome",
                "link": "https://lh5.googleusercontent.com/p/AF1QipPJJ0qE4dG8Z91iHz4xGhVoyRQ_ZIJMNri6IZkC=w529-h298-k-no"
            },
            {
                "about": "Street View & 360deg",
                "link": "https://streetviewpixels-pa.googleapis.com/v1/thumbnail?panoid=N01R63jl3nlLbjKDiDgKrA&cb_client=maps_sv.tactile.gps&w=224&h=298&yaw=187.58934&pitch=0&thumbfov=100"
            }
        ],
        "link": "https://www.google.com/maps/place/Eidgha+masjid/data=!4m7!3m6!1s0x3bb87566a4db86ef:0xd699377ba9a15184!8m2!3d16.0664988!4d76.057224!16s%2Fg%2F11c5b386jt!19sChIJ74bbpGZ1uDsRhFGhqXs3mdY?authuser=0&hl=en&rclk=1",
        "coordinates": {
            "latitude": 16.066498799999998,
            "longitude": 76.05722399999999
        }
    },
    {
        "name": "Masjid E Shahenshah Markaz",
        "main_category": null,
        "address": "3355+VGQ Masjid E Shahenshah Markaz, Hungund, Karnataka 587118",
        "detailed_address": {
            "ward": null,
            "street": "3355+VGQ",
            "city": "Hungund",
            "postal_code": "587118",
            "state": "Karnataka",
            "country_code": "IN"
        },
        "images": [],
        "link": "https://www.google.com/maps/place/Masjid+E+Shahenshah+Markaz/data=!4m7!3m6!1s0x3bb8756ccd81e537:0x7891287b1415be0f!8m2!3d16.0597107!4d76.0588559!16s%2Fg%2F11sb0h9d6m!19sChIJN-WBzWx1uDsRD74VFHsokXg?authuser=0&hl=en&rclk=1",
        "coordinates": {
            "latitude": 16.0597107,
            "longitude": 76.0588559
        }
    }
]