[
    {
        "name": "Ghanchi Masjid",
        "main_category": "Mosque",
        "address": "RJJ4+J88 Ghanchi Masjid, ghanchi street, Vrindavan Society, Radhanpur, Gujarat 385340",
        "detailed_address": {
            "ward": "Vrindavan Society",
            "street": "RJJ4+J88, ghanchi street",
            "city": "Radhanpur",
            "postal_code": "385340",
            "state": "Gujarat",
            "country_code": "IN"
        },
        "images": [
            {
                "about": "All",
                "link": "https://lh5.googleusercontent.com/p/AF1QipMm9gzUaQ3AHS2zc4aVZgypq6NtCYJ2L2WgJSwO=w529-h298-k-no"
            }
        ],
        "link": "https://www.google.com/maps/place/Ghanchi+Masjid/data=!4m7!3m6!1s0x395b74e511eff54d:0xcdb3d9e8d7bfaa0b!8m2!3d23.8315285!4d71.6058223!16s%2Fg%2F11cs1tgd_4!19sChIJTfXvEeV0WzkRC6q_1-jZs80?authuser=0&hl=en&rclk=1",
        "coordinates": {
            "latitude": 23.831528499999997,
            "longitude": 71.6058223
        }
    },
    {
        "name": "Jumma masjid",
        "main_category": "Mosque",
        "address": "RJM4+V63 Jumma masjid, Vrindavan Society, Radhanpur, Gujarat 385340",
        "detailed_address": {
            "ward": "Vrindavan Society",
            "street": "RJM4+V63",
            "city": "Radhanpur",
            "postal_code": "385340",
            "state": "Gujarat",
            "country_code": "IN"
        },
        "images": [
            {
                "about": "All",
                "link": "https://lh5.googleusercontent.com/p/AF1QipOZl_8g-5NQJaDTjRnU04i4MLI9p3ZLilsJlJAm=w397-h298-k-no"
            },
            {
                "about": "Videos",
                "link": "https://lh5.googleusercontent.com/p/AF1QipPT3QWF2ho_mJHuNaVh9_0Fs-I_ptBDnY512DrJ=w541-h298-k-no"
            }
        ],
        "link": "https://www.google.com/maps/place/Jumma+masjid/data=!4m7!3m6!1s0x395b74ef98c6a96b:0x72b84a93b08caca1!8m2!3d23.8346486!4d71.6055387!16s%2Fg%2F11bx4lr827!19sChIJa6nGmO90WzkRoayMsJNKuHI?authuser=0&hl=en&rclk=1",
        "coordinates": {
            "latitude": 23.834648599999998,
            "longitude": 71.6055387
        }
    },
    {
        "name": "Nagori Masjid",
        "main_category": "Mosque",
        "address": "Nagori Masjid, Nagori madjid, Nagoriwas, Radhanpur, Gujarat 385340",
        "detailed_address": {
            "ward": "Nagoriwas",
            "street": "Nagori madjid",
            "city": "Radhanpur",
            "postal_code": null,
            "state": "Gujarat",
            "country_code": "IN"
        },
        "images": [
            {
                "about": "All",
                "link": "https://lh5.googleusercontent.com/p/AF1QipMbc5_-ZV0AIxjG7pFQoibM26LrXUQxrprwjc7T=w529-h298-k-no"
            },
            {
                "about": "Dome",
                "link": "https://lh5.googleusercontent.com/p/AF1QipMR9qOcVOQO_RMU8XpXSBDFySRzbp2wuS0d3LHQ=w529-h298-k-no"
            },
            {
                "about": "Street View & 360deg",
                "link": "https://streetviewpixels-pa.googleapis.com/v1/thumbnail?panoid=0eAbE9ZesUNgMcyCc_K6BA&cb_client=maps_sv.tactile.gps&w=224&h=298&yaw=22.817562&pitch=0&thumbfov=100"
            }
        ],
        "link": "https://www.google.com/maps/place/Nagori+Masjid/data=!4m7!3m6!1s0x395b74e4d90054f5:0x71af0bd77e8d29d6!8m2!3d23.8304688!4d71.6070617!16s%2Fg%2F11cs1tffwc!19sChIJ9VQA2eR0WzkR1imNftcLr3E?authuser=0&hl=en&rclk=1",
        "coordinates": {
            "latitude": 23.8304688,
            "longitude": 71.6070617
        }
    },
    {
        "name": "Nagina Masjid",
        "main_category": "Mosque",
        "address": "RJM5+RP3 Nagina Masjid, Near rajgadhi,Palace road, Radhanpur, Gujarat 385340",
        "detailed_address": {
            "ward": "Vrindavan Society",
            "street": "RJM5+RP3, Near rajgadhi,Palace road",
            "city": "Radhanpur",
            "postal_code": "385340",
            "state": "Gujarat",
            "country_code": "IN"
        },
        "images": [
            {
                "about": "All",
                "link": "https://lh5.googleusercontent.com/p/AF1QipNdEJ61EjHvNZULrlczKlEf2p8TwWJOSFCqgdUc=w224-h398-k-no"
            }
        ],
        "link": "https://www.google.com/maps/place/Nagina+Masjid/data=!4m7!3m6!1s0x395b74f00d804c1f:0x6ed6ea89ca72c93d!8m2!3d23.8345028!4d71.6092914!16s%2Fg%2F11g70k96f8!19sChIJH0yADfB0WzkRPclyyonq1m4?authuser=0&hl=en&rclk=1",
        "coordinates": {
            "latitude": 23.8345028,
            "longitude": 71.6092914
        }
    },
    {
        "name": "Dawoodi Bohra Dargah, Radhanpur",
        "main_category": "Place of worship",
        "address": "Dawoodi Bohra Dargah, Radhanpur, Saifi Mohalla, Voravas, Radhanpur, Gujarat 385340",
        "detailed_address": {
            "ward": "Voravas",
            "street": "Saifi Mohalla",
            "city": "Radhanpur",
            "postal_code": "385340",
            "state": "Gujarat",
            "country_code": "IN"
        },
        "images": [
            {
                "about": "All",
                "link": "https://lh5.googleusercontent.com/p/AF1QipPJ88STrTnGha5wVXG0j-haApsPkunqjlHITfdD=w224-h298-k-no"
            },
            {
                "about": "Videos",
                "link": "https://lh5.googleusercontent.com/p/AF1QipO5BVDBNmBxYSjG0LZe1YOlYEM7KwatE6gO13C-=w224-h395-k-no"
            }
        ],
        "link": "https://www.google.com/maps/place/Dawoodi+Bohra+Dargah,+Radhanpur/data=!4m7!3m6!1s0x395b74e5aae4a20d:0x1d1f060da969ee7c!8m2!3d23.8305138!4d71.6049155!16s%2Fg%2F11bx5pxr9g!19sChIJDaLkquV0WzkRfO5pqQ0GHx0?authuser=0&hl=en&rclk=1",
        "coordinates": {
            "latitude": 23.8305138,
            "longitude": 71.60491549999999
        }
    },
    {
        "name": "Madina Masjid",
        "main_category": "Mosque",
        "address": "Madina Masjid, Vrindavan Society, Radhanpur, Gujarat 385340",
        "detailed_address": {
            "ward": "Vrindavan Society",
            "street": null,
            "city": "Radhanpur",
            "postal_code": "385340",
            "state": "Gujarat",
            "country_code": "IN"
        },
        "images": [],
        "link": "https://www.google.com/maps/place/Madina+Masjid/data=!4m7!3m6!1s0x395b74fabfa19c81:0x510713123d4ca97d!8m2!3d23.8324661!4d71.6093186!16s%2Fg%2F11c742cr_h!19sChIJgZyhv_p0WzkRfalMPRITB1E?authuser=0&hl=en&rclk=1",
        "coordinates": {
            "latitude": 23.832466099999998,
            "longitude": 71.6093186
        }
    },
    {
        "name": "Macca Masjid",
        "main_category": "Mosque",
        "address": "RJP2+MC7 Macca Masjid, Vrindavan Society, Radhanpur, Gujarat 385340",
        "detailed_address": {
            "ward": "Vrindavan Society",
            "street": "RJP2+MC7",
            "city": "Radhanpur",
            "postal_code": "385340",
            "state": "Gujarat",
            "country_code": "IN"
        },
        "images": [],
        "link": "https://www.google.com/maps/place/Macca+Masjid/data=!4m7!3m6!1s0x395b74e93bef7bb9:0xabe1b867f5733f63!8m2!3d23.8366663!4d71.6010567!16s%2Fg%2F11df7xy714!19sChIJuXvvO-l0WzkRYz9z9We44as?authuser=0&hl=en&rclk=1",
        "coordinates": {
            "latitude": 23.836666299999997,
            "longitude": 71.6010567
        }
    },
    {
        "name": "Masjid-e-Taqwa",
        "main_category": "Mosque",
        "address": "RJM5+X28 Masjid-e-Taqwa, Vrindavan Society, Radhanpur, Gujarat 385340",
        "detailed_address": {
            "ward": "Vrindavan Society",
            "street": "RJM5+X28",
            "city": "Radhanpur",
            "postal_code": "385340",
            "state": "Gujarat",
            "country_code": "IN"
        },
        "images": [],
        "link": "https://www.google.com/maps/place/Masjid-e-Taqwa/data=!4m7!3m6!1s0x395b74efe7a78ceb:0x8109c094f8ced984!8m2!3d23.8349043!4d71.6075736!16s%2Fg%2F11c743k8jh!19sChIJ64yn5-90WzkRhNnO-JTACYE?authuser=0&hl=en&rclk=1",
        "coordinates": {
            "latitude": 23.834904299999998,
            "longitude": 71.6075736
        }
    },
    {
        "name": "Masjid-e-Noor",
        "main_category": "Mosque",
        "address": "RJM3+G3H Masjid-e-Noor, Vrindavan Society, Radhanpur, Gujarat 385340",
        "detailed_address": {
            "ward": "Vrindavan Society",
            "street": "RJM3+G3H",
            "city": "Radhanpur",
            "postal_code": "385340",
            "state": "Gujarat",
            "country_code": "IN"
        },
        "images": [
            {
                "about": "All",
                "link": "https://lh5.googleusercontent.com/p/AF1QipOS7N3OvrphGLBz30a4qVE4yW55ZdmxfwGNc-K0=w397-h298-k-no"
            },
            {
                "about": "Latest",
                "link": "https://lh5.googleusercontent.com/p/AF1QipNlkzFiJ6B0xmSc0m8Nyv2mUXD5WayZZYt9cHdR=w397-h298-k-no"
            }
        ],
        "link": "https://www.google.com/maps/place/Masjid-e-Noor/data=!4m7!3m6!1s0x395b74ef4fe97d35:0x8427d6fd764a8715!8m2!3d23.8338214!4d71.6027451!16s%2Fg%2F11c741p4w7!19sChIJNX3pT-90WzkRFYdKdv3WJ4Q?authuser=0&hl=en&rclk=1",
        "coordinates": {
            "latitude": 23.833821399999998,
            "longitude": 71.60274509999999
        }
    },
    {
        "name": "Khokhrani Masjid",
        "main_category": "Mosque",
        "address": "RJM5+CWM Khokhrani Masjid, Vrindavan Society, Radhanpur, Gujarat 385340",
        "detailed_address": {
            "ward": "Vrindavan Society",
            "street": "RJM5+CWM",
            "city": "Radhanpur",
            "postal_code": "385340",
            "state": "Gujarat",
            "country_code": "IN"
        },
        "images": [
            {
                "about": "All",
                "link": "https://streetviewpixels-pa.googleapis.com/v1/thumbnail?panoid=lk_nzLuLy4r_FFoSES04yg&cb_client=maps_sv.tactile.gps&w=224&h=298&yaw=97.089584&pitch=0&thumbfov=100"
            },
            {
                "about": "Street View & 360deg",
                "link": "https://streetviewpixels-pa.googleapis.com/v1/thumbnail?panoid=lk_nzLuLy4r_FFoSES04yg&cb_client=maps_sv.tactile.gps&w=224&h=298&yaw=97.089584&pitch=0&thumbfov=100"
            }
        ],
        "link": "https://www.google.com/maps/place/Khokhrani+Masjid/data=!4m7!3m6!1s0x395b74fa9ebbe32f:0xaef53f402316436d!8m2!3d23.8335752!4d71.6098089!16s%2Fg%2F11c741fdkt!19sChIJL-O7nvp0WzkRbUMWI0A_9a4?authuser=0&hl=en&rclk=1",
        "coordinates": {
            "latitude": 23.8335752,
            "longitude": 71.60980889999999
        }
    },
    {
        "name": "Kharivadi Masjid",
        "main_category": "Mosque",
        "address": "RJP3+CW4 Kharivadi Masjid, Vrindavan Society, Radhanpur, Gujarat 385340",
        "detailed_address": {
            "ward": "Vrindavan Society",
            "street": "RJP3+CW4",
            "city": "Radhanpur",
            "postal_code": "385340",
            "state": "Gujarat",
            "country_code": "IN"
        },
        "images": [
            {
                "about": "All",
                "link": "https://lh5.googleusercontent.com/p/AF1QipMP90qZYTB69LTlsGc3ZEollTC1pBT9X70YDdvo=w529-h298-k-no"
            }
        ],
        "link": "https://www.google.com/maps/place/Kharivadi+Masjid/data=!4m7!3m6!1s0x395b75e62963f2cd:0xd8536b38ae103ab!8m2!3d23.8360034!4d71.6048393!16s%2Fg%2F11fb084hk_!19sChIJzfJjKeZ1WzkRqwPhirM2hQ0?authuser=0&hl=en&rclk=1",
        "coordinates": {
            "latitude": 23.8360034,
            "longitude": 71.6048393
        }
    },
    {
        "name": "Vata Masjid",
        "main_category": "Mosque",
        "address": "RJM4+XRR Vata Masjid, Vrindavan Society, Radhanpur, Gujarat 385340",
        "detailed_address": {
            "ward": "Vrindavan Society",
            "street": "RJM4+XRR",
            "city": "Radhanpur",
            "postal_code": "385340",
            "state": "Gujarat",
            "country_code": "IN"
        },
        "images": [],
        "link": "https://www.google.com/maps/place/Vata+Masjid/data=!4m7!3m6!1s0x395b74efc20d886d:0x18d7cea9019eb92a!8m2!3d23.8349805!4d71.6070043!16s%2Fg%2F11c20b_wjq!19sChIJbYgNwu90WzkRKrmeAanO1xg?authuser=0&hl=en&rclk=1",
        "coordinates": {
            "latitude": 23.8349805,
            "longitude": 71.6070043
        }
    },
    {
        "name": "Masjid E Tohid",
        "main_category": "Mosque",
        "address": "RJM2+WJJ Masjid E Tohid, Vrindavan Society, Radhanpur, Gujarat 385340",
        "detailed_address": {
            "ward": "Vrindavan Society",
            "street": "RJM2+WJJ",
            "city": "Radhanpur",
            "postal_code": "385340",
            "state": "Gujarat",
            "country_code": "IN"
        },
        "images": [
            {
                "about": "All",
                "link": "https://streetviewpixels-pa.googleapis.com/v1/thumbnail?panoid=-wHZMMtF1Iq4YhBXArQcBQ&cb_client=maps_sv.tactile.gps&w=224&h=298&yaw=178.2722&pitch=0&thumbfov=100"
            },
            {
                "about": "Street View & 360deg",
                "link": "https://streetviewpixels-pa.googleapis.com/v1/thumbnail?panoid=-wHZMMtF1Iq4YhBXArQcBQ&cb_client=maps_sv.tactile.gps&w=224&h=298&yaw=178.2722&pitch=0&thumbfov=100"
            }
        ],
        "link": "https://www.google.com/maps/place/Masjid+E+Tohid/data=!4m7!3m6!1s0x395b752e0d277961:0x26290ce9914813a1!8m2!3d23.8348312!4d71.601504!16s%2Fg%2F11j_z77ljs!19sChIJYXknDS51WzkRoRNIkekMKSY?authuser=0&hl=en&rclk=1",
        "coordinates": {
            "latitude": 23.8348312,
            "longitude": 71.60150399999999
        }
    },
    {
        "name": "Kharivadi Masjid",
        "main_category": "Mosque",
        "address": "RJH7+FH7 Kharivadi Masjid, kharivadi masjid, Vrindavan Society, Radhanpur, Gujarat 385340",
        "detailed_address": {
            "ward": "kharivadi masjid, Vrindavan Society",
            "street": "RJH7+FH7",
            "city": "Radhanpur",
            "postal_code": null,
            "state": "Gujarat",
            "country_code": "IN"
        },
        "images": [],
        "link": "https://www.google.com/maps/place/Kharivadi+Masjid/data=!4m7!3m6!1s0x395b7596166e430d:0xb1b3f34f8526980e!8m2!3d23.8286533!4d71.6139135!16s%2Fg%2F11g0jcw9qy!19sChIJDUNuFpZ1WzkRDpgmhU_zs7E?authuser=0&hl=en&rclk=1",
        "coordinates": {
            "latitude": 23.8286533,
            "longitude": 71.6139135
        }
    },
    {
        "name": "Madrasa E sufiya hamedia",
        "main_category": "Mosque",
        "address": "RJJ5+53P Madrasa E sufiya hamedia, Miradarvaja Rd, Vrindavan Society, Radhanpur, Gujarat 385340",
        "detailed_address": {
            "ward": "Vrindavan Society",
            "street": "RJJ5+53P, Miradarvaja Rd",
            "city": "Radhanpur",
            "postal_code": "385340",
            "state": "Gujarat",
            "country_code": "IN"
        },
        "images": [
            {
                "about": "All",
                "link": "https://streetviewpixels-pa.googleapis.com/v1/thumbnail?panoid=eTm0VpC2l1qnAqokiti1Jg&cb_client=maps_sv.tactile.gps&w=224&h=298&yaw=90.06438&pitch=0&thumbfov=100"
            },
            {
                "about": "Street View & 360deg",
                "link": "https://streetviewpixels-pa.googleapis.com/v1/thumbnail?panoid=eTm0VpC2l1qnAqokiti1Jg&cb_client=maps_sv.tactile.gps&w=224&h=298&yaw=90.06438&pitch=0&thumbfov=100"
            }
        ],
        "link": "https://www.google.com/maps/place/Madrasa+E+sufiya+hamedia/data=!4m7!3m6!1s0x395b752840c5eee1:0x5416bc7ece4cfca!8m2!3d23.8304613!4d71.6077027!16s%2Fg%2F11fmm103pl!19sChIJ4e7FQCh1WzkRys_k7MdrQQU?authuser=0&hl=en&rclk=1",
        "coordinates": {
            "latitude": 23.8304613,
            "longitude": 71.60770269999999
        }
    },
    {
        "name": "Bilal Masjid",
        "main_category": "Dharamshala",
        "address": "RJH7+FH7 Bilal Masjid, Vrindavan Society, Radhanpur, Gujarat 385340",
        "detailed_address": {
            "ward": "Vrindavan Society",
            "street": "RJH7+FH7",
            "city": "Radhanpur",
            "postal_code": null,
            "state": "Gujarat",
            "country_code": "IN"
        },
        "images": [],
        "link": "https://www.google.com/maps/place/Bilal+Masjid/data=!4m7!3m6!1s0x395b750c6e40a7e7:0x5c55fc9979695f21!8m2!3d23.8286533!4d71.6139135!16s%2Fg%2F11s54b38ds!19sChIJ56dAbgx1WzkRIV9peZn8VVw?authuser=0&hl=en&rclk=1",
        "coordinates": {
            "latitude": 23.8286533,
            "longitude": 71.6139135
        }
    },
    {
        "name": "Ahle Hadees Masjid Radhanpur",
        "main_category": "Mosque",
        "address": "RJM2+WJJ Ahle Hadees Masjid Radhanpur, Vrindavan Society, Radhanpur, Gujarat 385340",
        "detailed_address": {
            "ward": "Vrindavan Society",
            "street": "RJM2+WJJ",
            "city": "Radhanpur",
            "postal_code": "385340",
            "state": "Gujarat",
            "country_code": "IN"
        },
        "images": [
            {
                "about": "All",
                "link": "https://streetviewpixels-pa.googleapis.com/v1/thumbnail?panoid=-wHZMMtF1Iq4YhBXArQcBQ&cb_client=maps_sv.tactile.gps&w=224&h=298&yaw=184.3415&pitch=0&thumbfov=100"
            },
            {
                "about": "Street View & 360deg",
                "link": "https://streetviewpixels-pa.googleapis.com/v1/thumbnail?panoid=-wHZMMtF1Iq4YhBXArQcBQ&cb_client=maps_sv.tactile.gps&w=224&h=298&yaw=184.3415&pitch=0&thumbfov=100"
            }
        ],
        "link": "https://www.google.com/maps/place/Ahle+Hadees+Masjid+Radhanpur/data=!4m7!3m6!1s0x395b754c849ed0a7:0x8fb37718a43c6371!8m2!3d23.8349051!4d71.6014879!16s%2Fg%2F11t2b4x96x!19sChIJp9CehEx1WzkRcWM8pBh3s48?authuser=0&hl=en&rclk=1",
        "coordinates": {
            "latitude": 23.8349051,
            "longitude": 71.6014879
        }
    },
    {
        "name": "Masjid-e-Ibrahim",
        "main_category": "Mosque",
        "address": "Masjid-e-Ibrahim, Zamzam Recidency, behind Anuman High School, Vrindavan Society, Radhanpur, Gujarat 385340",
        "detailed_address": {
            "ward": "Vrindavan Society",
            "street": "Zamzam Recidency, behind Anuman High School",
            "city": "Radhanpur",
            "postal_code": "385340",
            "state": "Gujarat",
            "country_code": "IN"
        },
        "images": [],
        "link": "https://www.google.com/maps/place/Masjid-e-Ibrahim/data=!4m7!3m6!1s0x395b7530f7158b39:0xe4acfafbb07cb301!8m2!3d23.8387668!4d71.6051511!16s%2Fg%2F11s9mmgt85!19sChIJOYsV9zB1WzkRAbN8sPv6rOQ?authuser=0&hl=en&rclk=1",
        "coordinates": {
            "latitude": 23.8387668,
            "longitude": 71.6051511
        }
    },
    {
        "name": "Jama masjid",
        "main_category": "Warehouse",
        "address": "RJM4+W63 Jama masjid, Vrindavan Society, Radhanpur, Gujarat 385340",
        "detailed_address": {
            "ward": "Vrindavan Society",
            "street": "RJM4+W63",
            "city": "Radhanpur",
            "postal_code": "385340",
            "state": "Gujarat",
            "country_code": "IN"
        },
        "images": [],
        "link": "https://www.google.com/maps/place/Jama+masjid/data=!4m7!3m6!1s0x395b758258a6f153:0xf3c7b46cc7c61d63!8m2!3d23.8347649!4d71.6055445!16s%2Fg%2F11j_2745cz!19sChIJU_GmWIJ1WzkRYx3Gx2y0x_M?authuser=0&hl=en&rclk=1",
        "coordinates": {
            "latitude": 23.8347649,
            "longitude": 71.6055445
        }
    },
    {
        "name": "Masjid",
        "main_category": "Mosque",
        "address": "RJH4+M8P Masjid, Vrindavan Society, Radhanpur, Gujarat 385340",
        "detailed_address": {
            "ward": "Vrindavan Society",
            "street": "RJH4+M8P",
            "city": "Radhanpur",
            "postal_code": "385340",
            "state": "Gujarat",
            "country_code": "IN"
        },
        "images": [
            {
                "about": "All",
                "link": "https://streetviewpixels-pa.googleapis.com/v1/thumbnail?panoid=_4n3OOL24oSBB7N-ENtnMw&cb_client=maps_sv.tactile.gps&w=224&h=298&yaw=200.64706&pitch=0&thumbfov=100"
            },
            {
                "about": "Street View & 360deg",
                "link": "https://streetviewpixels-pa.googleapis.com/v1/thumbnail?panoid=_4n3OOL24oSBB7N-ENtnMw&cb_client=maps_sv.tactile.gps&w=224&h=298&yaw=200.64706&pitch=0&thumbfov=100"
            }
        ],
        "link": "https://www.google.com/maps/place/Masjid/data=!4m7!3m6!1s0x395b757134324aaf:0x1a9afa508e695c20!8m2!3d23.8292057!4d71.6058388!16s%2Fg%2F11vjhl3jdw!19sChIJr0oyNHF1WzkRIFxpjlD6mho?authuser=0&hl=en&rclk=1",
        "coordinates": {
            "latitude": 23.8292057,
            "longitude": 71.6058388
        }
    }
]