[
    {
        "name": "Jami-ul-Masjid",
        "main_category": "Mosque",
        "address": "QM6G+PQF Jami-ul-Masjid, Adiyakkamangalam, Tamil Nadu 611101",
        "detailed_address": {
            "ward": null,
            "street": "QM6G+PQF",
            "city": "Adiyakkamangalam",
            "postal_code": "611101",
            "state": "Tamil Nadu",
            "country_code": "IN"
        },
        "images": [
            {
                "about": "All",
                "link": "https://lh5.googleusercontent.com/p/AF1QipNy5ZMg-QhoxEBKUb3P-vpLtp2RMsWKU2ShPVo-=w398-h298-k-no"
            },
            {
                "about": "Dome",
                "link": "https://lh5.googleusercontent.com/p/AF1QipNHG3n1DAWGueUkaCoFowpWknwy27lmPpSCPV3U=w224-h298-k-no"
            },
            {
                "about": "Videos",
                "link": "https://lh5.googleusercontent.com/p/AF1QipOOU7z3VS9GKTpe3nTZ3fdFhA9zQ-Wi0m2qQsPx=w529-h298-k-no"
            },
            {
                "about": "Street View & 360deg",
                "link": "https://streetviewpixels-pa.googleapis.com/v1/thumbnail?panoid=jnSy8dFKDkpDmeZU0hPihg&cb_client=maps_sv.tactile.gps&w=224&h=298&yaw=126.05728&pitch=0&thumbfov=100"
            }
        ],
        "link": "https://www.google.com/maps/place/Jami-ul-Masjid/data=!4m7!3m6!1s0x3a55411e17cd097f:0x9e0a6cbc6c1fc133!8m2!3d10.7618247!4d79.6769258!16s%2Fg%2F1tgtcxzf!19sChIJfwnNFx5BVToRM8EfbLxsCp4?authuser=0&hl=en&rclk=1",
        "coordinates": {
            "latitude": 10.7618247,
            "longitude": 79.67692579999999
        }
    },
    {
        "name": "Masjidur Rahman Thiruvarur",
        "main_category": "Mosque",
        "address": "QJ8M+C26 Masjidur Rahman Thiruvarur, thiruvarur railway station & bus stand, near SH 23, Vijayapuram, Thiruvarur, Tamil Nadu 610001",
        "detailed_address": {
            "ward": "Santhamangalam, Vijayapuram",
            "street": "QJ8M+C26, thiruvarur railway station & bus stand, near SH 23",
            "city": "Thiruvarur",
            "postal_code": "610001",
            "state": "Tamil Nadu",
            "country_code": "IN"
        },
        "images": [
            {
                "about": "All",
                "link": "https://lh5.googleusercontent.com/p/AF1QipOwX4elcGJnClDaUcN8ETlys0gY-L2WcZHmFbXT=w397-h298-k-no"
            },
            {
                "about": "Street View & 360deg",
                "link": "https://lh5.googleusercontent.com/p/AF1QipPhAdK7Jyrb4mha5tH5KHytqmxRj_Yff7iR8Tok=w224-h298-k-no-pi-20-ya349-ro-0-fo100"
            },
            {
                "about": "Videos",
                "link": "https://lh5.googleusercontent.com/p/AF1QipM173aCC0k51GZFTkdT_QoLo-0S2Bv3d3cIpUsE=w529-h298-k-no"
            }
        ],
        "link": "https://www.google.com/maps/place/Masjidur+Rahman+Thiruvarur/data=!4m7!3m6!1s0x3a554721509e00af:0xc2d7da58acd97610!8m2!3d10.7660391!4d79.6325105!16s%2Fg%2F11b724zj9g!19sChIJrwCeUCFHVToREHbZrFja18I?authuser=0&hl=en&rclk=1",
        "coordinates": {
            "latitude": 10.766039099999999,
            "longitude": 79.6325105
        }
    },
    {
        "name": "Big mosque",
        "main_category": "Mosque",
        "address": "Big mosque, 610003,, Vijayapuram, Thiruvarur, Tamil Nadu 610003",
        "detailed_address": {
            "ward": "Santhamangalam, Vijayapuram",
            "street": "610003,",
            "city": "Thiruvarur",
            "postal_code": "610003",
            "state": "Tamil Nadu",
            "country_code": "IN"
        },
        "images": [
            {
                "about": "All",
                "link": "https://lh5.googleusercontent.com/p/AF1QipO0Xtojmis_Fbq8-6Kaaf2a9nC0MZJZdHrk_vZ7=w224-h298-k-no"
            },
            {
                "about": "Dome",
                "link": "https://lh5.googleusercontent.com/p/AF1QipN22-h6COA-bhVKI8iOVSe2GHk1lBnLjC9e70Is=w224-h298-k-no"
            },
            {
                "about": "Videos",
                "link": "https://lh5.googleusercontent.com/p/AF1QipM1aWLArvTVOcOP-tgwWwwyHMDP2qut8edzGwoS=w529-h298-k-no"
            }
        ],
        "link": "https://www.google.com/maps/place/Big+mosque/data=!4m7!3m6!1s0x3a5547288ca437a9:0x7d2ec49b7022c8d4!8m2!3d10.7645796!4d79.6403287!16s%2Fg%2F11c1vmg24k!19sChIJqTekjChHVToR1MgicJvELn0?authuser=0&hl=en&rclk=1",
        "coordinates": {
            "latitude": 10.7645796,
            "longitude": 79.6403287
        }
    },
    {
        "name": "Chinna Palivasel",
        "main_category": "Mosque",
        "address": "Chinna Palivasel, 100, Anna Salai Rd, Santhamangalam, Vijayapuram, Thiruvarur, Tamil Nadu 610001",
        "detailed_address": {
            "ward": "Santhamangalam, Vijayapuram",
            "street": "100, Anna Salai Rd",
            "city": "Thiruvarur",
            "postal_code": "610001",
            "state": "Tamil Nadu",
            "country_code": "IN"
        },
        "images": [
            {
                "about": "All",
                "link": "https://lh5.googleusercontent.com/p/AF1QipMRPxW1AaeRcJCnXP3h6wZuP8GkSra_S0L4XB7i=w224-h298-k-no"
            }
        ],
        "link": "https://www.google.com/maps/place/Chinna+Palivasel/data=!4m7!3m6!1s0x3a554726217ed621:0x31b1458a05241d0c!8m2!3d10.7641406!4d79.6386666!16s%2Fg%2F11bxg5qrpc!19sChIJIdZ-ISZHVToRDB0kBYpFsTE?authuser=0&hl=en&rclk=1",
        "coordinates": {
            "latitude": 10.7641406,
            "longitude": 79.6386666
        }
    },
    {
        "name": "Kodikkalpalayam Muhaiyadeen Andavargal Pallivasal (Big Mosque)",
        "main_category": "Mosque",
        "address": "Kodikkalpalayam Muhaiyadeen Andavargal Pallivasal (Big Mosque), QJMV+7VV, Pallivasal Street, School St, opp. to Mathlabul, Kodikkalpalayam, Thiruvarur, Tamil Nadu 610001",
        "detailed_address": {
            "ward": "Kodikkalpalayam",
            "street": "QJMV+7VV, Pallivasal Street, School St, opp. to Mathlabul",
            "city": "Thiruvarur",
            "postal_code": "610001",
            "state": "Tamil Nadu",
            "country_code": "IN"
        },
        "images": [
            {
                "about": "All",
                "link": "https://lh5.googleusercontent.com/p/AF1QipN57BD8safM3jEGsf8jz2WnAo6DvKZZp-B3CD_5=w224-h298-k-no"
            },
            {
                "about": "Latest",
                "link": "https://lh5.googleusercontent.com/p/AF1QipOuSzPfAMpf7WkHxunujYEDg--0i6qTyEChiKab=w396-h298-k-no"
            },
            {
                "about": "Videos",
                "link": "https://lh5.googleusercontent.com/p/AF1QipNLyh-jh0Lh9aUe9Rlpp5N0vWI1dk7vRlddl_Kr=w298-h298-k-no"
            }
        ],
        "link": "https://www.google.com/maps/place/Kodikkalpalayam+Muhaiyadeen+Andavargal+Pallivasal+%28Big+Mosque%29/data=!4m7!3m6!1s0x3a554756a1f532bf:0xf3eec9f377045bf4!8m2!3d10.7833049!4d79.6446492!16s%2Fg%2F11h2lfs6_j!19sChIJvzL1oVZHVToR9FsEd_PJ7vM?authuser=0&hl=en&rclk=1",
        "coordinates": {
            "latitude": 10.7833049,
            "longitude": 79.6446492
        }
    },
    {
        "name": "TNTJ Mosque",
        "main_category": "Mosque",
        "address": "QJ7R+WGP TNTJ Mosque, Selvam St, Santhamangalam, Vijayapuram, Thiruvarur, Tamil Nadu 610001",
        "detailed_address": {
            "ward": "Santhamangalam, Vijayapuram",
            "street": "QJ7R+WGP, Selvam St",
            "city": "Thiruvarur",
            "postal_code": "610001",
            "state": "Tamil Nadu",
            "country_code": "IN"
        },
        "images": [],
        "link": "https://www.google.com/maps/place/TNTJ+Mosque/data=!4m7!3m6!1s0x3a554744f25d8bf3:0x3e8cb724765084b1!8m2!3d10.7648496!4d79.6413205!16s%2Fg%2F11ft6rtrpm!19sChIJ84td8kRHVToRsYRQdiS3jD4?authuser=0&hl=en&rclk=1",
        "coordinates": {
            "latitude": 10.7648496,
            "longitude": 79.64132049999999
        }
    },
    {
        "name": "ADAVANGUDI TNTJ MOSQUE",
        "main_category": "Mosque",
        "address": "RFJ3+5GP ADAVANGUDI TNTJ MOSQUE, Thiruvarur, Tamil Nadu 613705",
        "detailed_address": {
            "ward": null,
            "street": "RFJ3+5GP",
            "city": "Thiruvarur",
            "postal_code": null,
            "state": "Tamil Nadu",
            "country_code": "IN"
        },
        "images": [],
        "link": "https://www.google.com/maps/place/ADAVANGUDI+TNTJ+MOSQUE/data=!4m7!3m6!1s0x3a5535c5d47150b3:0xde3144ca133352e3!8m2!3d10.8304513!4d79.4538391!16s%2Fg%2F11f32fmd6t!19sChIJs1Bx1MU1VToR41IzE8pEMd4?authuser=0&hl=en&rclk=1",
        "coordinates": {
            "latitude": 10.8304513,
            "longitude": 79.4538391
        }
    },
    {
        "name": "Fathima Masjid",
        "main_category": "Mosque",
        "address": "QJ8Q+6VX Fathima Masjid, Pallivasal Street, Santhamangalam, Vijayapuram, Thiruvarur, Tamil Nadu 611101",
        "detailed_address": {
            "ward": "Santhamangalam, Vijayapuram",
            "street": "QJ8Q+6VX, Pallivasal Street",
            "city": "Thiruvarur",
            "postal_code": "611101",
            "state": "Tamil Nadu",
            "country_code": "IN"
        },
        "images": [
            {
                "about": "All",
                "link": "https://lh5.googleusercontent.com/p/AF1QipPwpMASUtaut-sTinUK32lHXm65SiAdsAunO6IE=w224-h298-k-no"
            }
        ],
        "link": "https://www.google.com/maps/place/Fathima+Masjid/data=!4m7!3m6!1s0x3a554728bd454dc7:0x5ad94fb433e6b0f8!8m2!3d10.7656217!4d79.6397203!16s%2Fg%2F11f3zw518m!19sChIJx01FvShHVToR-LDmM7RP2Vo?authuser=0&hl=en&rclk=1",
        "coordinates": {
            "latitude": 10.765621699999999,
            "longitude": 79.6397203
        }
    },
    {
        "name": "Jaqh markaz",
        "main_category": "Mosque",
        "address": "QJQW+2PP Jaqh markaz, Abdul Kalam Nagar, Thiruvarur, Tamil Nadu 610001",
        "detailed_address": {
            "ward": "Abdul Kalam Nagar",
            "street": "QJQW+2PP",
            "city": "Thiruvarur",
            "postal_code": "610001",
            "state": "Tamil Nadu",
            "country_code": "IN"
        },
        "images": [
            {
                "about": "All",
                "link": "https://lh5.googleusercontent.com/p/AF1QipNlcZZvbptKkIDp0C3wjXWWsdlz_Pwli-JAt-9M=w396-h298-k-no"
            }
        ],
        "link": "https://www.google.com/maps/place/Jaqh+markaz/data=!4m7!3m6!1s0x3a554729df92cc71:0x9e6b319fb42ceeb9!8m2!3d10.7875919!4d79.6468211!16s%2Fg%2F11fk17dqtp!19sChIJccyS3ylHVToRue4stJ8xa54?authuser=0&hl=en&rclk=1",
        "coordinates": {
            "latitude": 10.787591899999999,
            "longitude": 79.6468211
        }
    },
    {
        "name": "Jamia Masjid Pulivalam",
        "main_category": "Mosque",
        "address": "QJ2M+94W Jamia Masjid Pulivalam, Pulivalam, Thiruvarur, Tamil Nadu 610109",
        "detailed_address": {
            "ward": "Pulivalam",
            "street": "QJ2M+94W",
            "city": "Thiruvarur",
            "postal_code": "610109",
            "state": "Tamil Nadu",
            "country_code": "IN"
        },
        "images": [
            {
                "about": "All",
                "link": "https://lh5.googleusercontent.com/p/AF1QipMlO5lxBDFByEnklSdM6wqSfeU8K3UP_wCIqUf1=w529-h298-k-no"
            },
            {
                "about": "Street View & 360deg",
                "link": "https://streetviewpixels-pa.googleapis.com/v1/thumbnail?panoid=GET-_292NATgDwSJzzdBUg&cb_client=maps_sv.tactile.gps&w=224&h=298&yaw=227.83742&pitch=0&thumbfov=100"
            },
            {
                "about": "Videos",
                "link": "https://lh5.googleusercontent.com/p/AF1QipN73npZgo7hr3uh_4GJHCgSwdp7KSxtd4ao1MI6=w397-h298-k-no"
            }
        ],
        "link": "https://www.google.com/maps/place/Jamia+Masjid+Pulivalam/data=!4m7!3m6!1s0x3a5546dca4460581:0xc191c30bb26c5206!8m2!3d10.7509809!4d79.6328352!16s%2Fg%2F11gbtwv9s6!19sChIJgQVGpNxGVToRBlJssgvDkcE?authuser=0&hl=en&rclk=1",
        "coordinates": {
            "latitude": 10.7509809,
            "longitude": 79.6328352
        }
    },
    {
        "name": "Thaqua Masjid",
        "main_category": "Mosque",
        "address": "QJ7R+JJH Thaqua Masjid, Selvam St, Santhamangalam, Vijayapuram, Thiruvarur, Tamil Nadu 610001",
        "detailed_address": {
            "ward": "Santhamangalam, Vijayapuram",
            "street": "QJ7R+JJH, Selvam St",
            "city": "Thiruvarur",
            "postal_code": "610001",
            "state": "Tamil Nadu",
            "country_code": "IN"
        },
        "images": [],
        "link": "https://www.google.com/maps/place/Thaqua+Masjid/data=!4m7!3m6!1s0x3a55472855012759:0x6d5c1a967e9f72fe!8m2!3d10.7640682!4d79.6416212!16s%2Fg%2F11dfqxhyqx!19sChIJWScBVShHVToR_nKffpYaXG0?authuser=0&hl=en&rclk=1",
        "coordinates": {
            "latitude": 10.764068199999999,
            "longitude": 79.6416212
        }
    },
    {
        "name": "Mosque",
        "main_category": "Mosque",
        "address": "QJ2P+533 Mosque, Pulivalam, Thiruvarur, Tamil Nadu 610109",
        "detailed_address": {
            "ward": "Pulivalam",
            "street": "QJ2P+533",
            "city": "Thiruvarur",
            "postal_code": "610109",
            "state": "Tamil Nadu",
            "country_code": "IN"
        },
        "images": [
            {
                "about": "All",
                "link": "https://lh5.googleusercontent.com/p/AF1QipMn_DbIKdPXoyRO1QZ3AilrNM1zvTf9T7TrBCfH=w398-h298-k-no"
            },
            {
                "about": "Videos",
                "link": "https://lh5.googleusercontent.com/p/AF1QipOnWxeg4ORJzmLpogKNc3Gh-aRdzhZkAmxH5ujh=w529-h298-k-no"
            }
        ],
        "link": "https://www.google.com/maps/place/Mosque/data=!4m7!3m6!1s0x3a5546db33f20281:0xb0aa2f307aff8879!8m2!3d10.7503919!4d79.6351641!16s%2Fg%2F11fxy1s4vl!19sChIJgQLyM9tGVToReYj_ejAvqrA?authuser=0&hl=en&rclk=1",
        "coordinates": {
            "latitude": 10.7503919,
            "longitude": 79.6351641
        }
    },
    {
        "name": "His Holiness Thajpiraksha oliyulla Thaikkal",
        "main_category": "Mosque",
        "address": "QJJQ+H6R His Holiness Thajpiraksha oliyulla Thaikkal, Taj Praksha St, Kodikkalpalayam, Thiruvarur, Tamil Nadu 610001",
        "detailed_address": {
            "ward": "Kodikkalpalayam",
            "street": "QJJQ+H6R, Taj Praksha St",
            "city": "Thiruvarur",
            "postal_code": "610001",
            "state": "Tamil Nadu",
            "country_code": "IN"
        },
        "images": [
            {
                "about": "All",
                "link": "https://lh5.googleusercontent.com/p/AF1QipOM7IEr7a0rD96TF6wO26ID_IyUsNG4wXRaMW7K=w529-h298-k-no"
            },
            {
                "about": "Street View & 360deg",
                "link": "https://lh5.googleusercontent.com/p/AF1QipONw1yXvnxl2-qtNDzTddAkwq1UW4XokEgXXrio=w224-h298-k-no-pi-20-ya199.9-ro0-fo100"
            },
            {
                "about": "Videos",
                "link": "https://lh5.googleusercontent.com/p/AF1QipOecLExZnh4NRpPWjWVFIJwvUnF6-pD-dtV7W6r=w541-h298-k-no"
            }
        ],
        "link": "https://www.google.com/maps/place/His+Holiness+Thajpiraksha+oliyulla+Thaikkal/data=!4m7!3m6!1s0x3a554739b452a75d:0x9adc0c3496afc470!8m2!3d10.7814893!4d79.6380147!16s%2Fg%2F11c2k35jqb!19sChIJXadStDlHVToRcMSvljQM3Jo?authuser=0&hl=en&rclk=1",
        "coordinates": {
            "latitude": 10.781489299999999,
            "longitude": 79.6380147
        }
    },
    {
        "name": "Ar Rahman Masjid",
        "main_category": "Mosque",
        "address": "QHWW+3X9 Ar Rahman Masjid, Thiruvarur - Kumbakonam Rd, Kattur, Agarathirunallur, Tamil Nadu 610104",
        "detailed_address": {
            "ward": null,
            "street": "QHWW+3X9, Thiruvarur - Kumbakonam Rd",
            "city": "Kattur, Agarathirunallur",
            "postal_code": "610104",
            "state": "Tamil Nadu",
            "country_code": "IN"
        },
        "images": [
            {
                "about": "All",
                "link": "https://lh5.googleusercontent.com/p/AF1QipNtYOCkBEa-QiJSinqLRjZcAb8SzTHgjdcEhEKi=w298-h298-k-no"
            },
            {
                "about": "Street View & 360deg",
                "link": "https://streetviewpixels-pa.googleapis.com/v1/thumbnail?panoid=TVD1is8PXFaUBVa5QP09TA&cb_client=maps_sv.tactile.gps&w=224&h=298&yaw=228.24596&pitch=0&thumbfov=100"
            }
        ],
        "link": "https://www.google.com/maps/place/Ar+Rahman+Masjid/data=!4m7!3m6!1s0x3a554784e5e9aa3b:0xda828d09ca9dbdf1!8m2!3d10.7951629!4d79.5974879!16s%2Fg%2F11dftpjp3d!19sChIJO6rp5YRHVToR8b2dygmNgto?authuser=0&hl=en&rclk=1",
        "coordinates": {
            "latitude": 10.7951629,
            "longitude": 79.59748789999999
        }
    },
    {
        "name": "Puthu Colony Pallivasal",
        "main_category": "Mosque",
        "address": "QM7C+66G Puthu Colony Pallivasal, Meela Cheety St, Thiruvarur, Tamil Nadu 610003",
        "detailed_address": {
            "ward": null,
            "street": "QM7C+66G, Meela Cheety St",
            "city": "Thiruvarur",
            "postal_code": "610003",
            "state": "Tamil Nadu",
            "country_code": "IN"
        },
        "images": [
            {
                "about": "All",
                "link": "https://streetviewpixels-pa.googleapis.com/v1/thumbnail?panoid=lHi1ZUAT-WGpjwFFr99UrA&cb_client=maps_sv.tactile.gps&w=224&h=298&yaw=216.08937&pitch=0&thumbfov=100"
            },
            {
                "about": "Street View & 360deg",
                "link": "https://streetviewpixels-pa.googleapis.com/v1/thumbnail?panoid=lHi1ZUAT-WGpjwFFr99UrA&cb_client=maps_sv.tactile.gps&w=224&h=298&yaw=216.08937&pitch=0&thumbfov=100"
            }
        ],
        "link": "https://www.google.com/maps/place/Puthu+Colony+Pallivasal/data=!4m7!3m6!1s0x3a5540df8fefc937:0x3e867ae44a48cfd7!8m2!3d10.76306!4d79.6705928!16s%2Fg%2F11bbx0ycrc!19sChIJN8nvj99AVToR189ISuR6hj4?authuser=0&hl=en&rclk=1",
        "coordinates": {
            "latitude": 10.76306,
            "longitude": 79.6705928
        }
    },
    {
        "name": "Masjidhur Rillwan Jumah Pallivasal",
        "main_category": "Mosque",
        "address": "QJ5M+5W2 Masjidhur Rillwan Jumah Pallivasal, Thiruvarur, Tamil Nadu 613704",
        "detailed_address": {
            "ward": null,
            "street": "QJ5M+5W2",
            "city": "Thiruvarur",
            "postal_code": null,
            "state": "Tamil Nadu",
            "country_code": "IN"
        },
        "images": [
            {
                "about": "All",
                "link": "https://lh5.googleusercontent.com/p/AF1QipMFGRSd5hp8nE41PqfH2PNlEv7aEy93F0BK7tTQ=w397-h298-k-no"
            },
            {
                "about": "Videos",
                "link": "https://lh5.googleusercontent.com/p/AF1QipN_wZS3g-tuYd2uGpId3uTrt61S--fAWqhrZGin=w529-h298-k-no"
            }
        ],
        "link": "https://www.google.com/maps/place/Masjidhur+Rillwan+Jumah+Pallivasal/data=!4m7!3m6!1s0x3a5547f8461858c3:0xafb2de1e9c07684e!8m2!3d10.7578799!4d79.6347628!16s%2Fg%2F11llphvj0z!19sChIJw1gYRvhHVToRTmgHnB7esq8?authuser=0&hl=en&rclk=1",
        "coordinates": {
            "latitude": 10.757879899999999,
            "longitude": 79.63476279999999
        }
    },
    {
        "name": "JAMIUL MASJID, MELA THERU",
        "main_category": "Mosque",
        "address": "JAMIUL MASJID, MELA THERU, Bus Stop, Globe Tailor Colony, Kodikkalpalayam, Thiruvarur, Tamil Nadu 610001",
        "detailed_address": {
            "ward": "Globe Tailor Colony, Kodikkalpalayam",
            "street": "Bus Stop",
            "city": "Thiruvarur",
            "postal_code": "610001",
            "state": "Tamil Nadu",
            "country_code": "IN"
        },
        "images": [
            {
                "about": "All",
                "link": "https://lh5.googleusercontent.com/p/AF1QipN4VVYxNV9bOjtV3fJlrxZMldWtMky8rTDST7HI=w529-h298-k-no"
            },
            {
                "about": "Street View & 360deg",
                "link": "https://streetviewpixels-pa.googleapis.com/v1/thumbnail?panoid=h32hbhMfrcxnMQ5ESt2pGQ&cb_client=maps_sv.tactile.gps&w=224&h=298&yaw=203.07912&pitch=0&thumbfov=100"
            },
            {
                "about": "Videos",
                "link": "https://lh5.googleusercontent.com/p/AF1QipPtoeMreL7-rYfw9yqL5iIpG1Ap33JAAUKVUe2X=w529-h298-k-no"
            }
        ],
        "link": "https://www.google.com/maps/place/JAMIUL+MASJID,+MELA+THERU/data=!4m7!3m6!1s0x3a5547d4ac7b6fcf:0x5fb3f137dbc7f5ac!8m2!3d10.7815117!4d79.6386102!16s%2Fg%2F11pq5ljfzc!19sChIJz297rNRHVToRrPXH2zfxs18?authuser=0&hl=en&rclk=1",
        "coordinates": {
            "latitude": 10.7815117,
            "longitude": 79.6386102
        }
    },
    {
        "name": "Jamiyul masjid Kodikkalpalayam West Street ( Mosque)",
        "main_category": "Mosque",
        "address": "QJJQ+PC8 Jamiyul masjid Kodikkalpalayam West Street ( Mosque), Kodikkalpalayam, Thiruvarur, Tamil Nadu 610001",
        "detailed_address": {
            "ward": "Kodikkalpalayam",
            "street": "QJJQ+PC8",
            "city": "Thiruvarur",
            "postal_code": "610001",
            "state": "Tamil Nadu",
            "country_code": "IN"
        },
        "images": [
            {
                "about": "All",
                "link": "https://lh5.googleusercontent.com/p/AF1QipNPwi6_MgBKTJw3fGk6AoTy-o-wsr9eZkFqV5Ub=w529-h298-k-no"
            },
            {
                "about": "Street View & 360deg",
                "link": "https://streetviewpixels-pa.googleapis.com/v1/thumbnail?panoid=W_leSM8IHyCgc2wPY2hUxA&cb_client=maps_sv.tactile.gps&w=224&h=298&yaw=354.1299&pitch=0&thumbfov=100"
            },
            {
                "about": "Videos",
                "link": "https://lh5.googleusercontent.com/p/AF1QipMz7nHa0hAgSviSxORJn4peuvs8NUmeUlZxNX_o=w529-h298-k-no"
            }
        ],
        "link": "https://www.google.com/maps/place/Jamiyul+masjid+Kodikkalpalayam+West+Street+%28+Mosque%29/data=!4m7!3m6!1s0x3a5547555888ac81:0x87f412cdbae1d968!8m2!3d10.7817944!4d79.6385838!16s%2Fg%2F11g1tgmg79!19sChIJgayIWFVHVToRaNnhus0S9Ic?authuser=0&hl=en&rclk=1",
        "coordinates": {
            "latitude": 10.781794399999999,
            "longitude": 79.63858379999999
        }
    },
    {
        "name": "Masjid Al Ayisha Trust",
        "main_category": "Mosque",
        "address": "QJ3J+2W9 Masjid Al Ayisha Trust, Pulivalam, Thiruvarur, Tamil Nadu 610109",
        "detailed_address": {
            "ward": "Pulivalam",
            "street": "QJ3J+2W9",
            "city": "Thiruvarur",
            "postal_code": "610109",
            "state": "Tamil Nadu",
            "country_code": "IN"
        },
        "images": [
            {
                "about": "All",
                "link": "https://lh5.googleusercontent.com/p/AF1QipNz29zWH3M2CJAaaal_e7raA091dsgGCmJg4n6K=w529-h298-k-no"
            }
        ],
        "link": "https://www.google.com/maps/place/Masjid+Al+Ayisha+Trust/data=!4m7!3m6!1s0x3a55470018ad8883:0xf6d995db5d72d120!8m2!3d10.7525374!4d79.6323613!16s%2Fg%2F11gvwswt3s!19sChIJg4itGABHVToRINFyXduV2fY?authuser=0&hl=en&rclk=1",
        "coordinates": {
            "latitude": 10.7525374,
            "longitude": 79.6323613
        }
    },
    {
        "name": "Jamath Office West Street",
        "main_category": "Mosque",
        "address": "Jamath Office West Street, West Street Jamia Masjid, West St, Kodikkalpalayam, Thiruvarur, Tamil Nadu 610001",
        "detailed_address": {
            "ward": "Kodikkalpalayam",
            "street": "West Street Jamia Masjid, West St",
            "city": "Thiruvarur",
            "postal_code": "610001",
            "state": "Tamil Nadu",
            "country_code": "IN"
        },
        "images": [
            {
                "about": "All",
                "link": "https://streetviewpixels-pa.googleapis.com/v1/thumbnail?panoid=W_leSM8IHyCgc2wPY2hUxA&cb_client=maps_sv.tactile.gps&w=224&h=298&yaw=192.37964&pitch=0&thumbfov=100"
            },
            {
                "about": "Street View & 360deg",
                "link": "https://streetviewpixels-pa.googleapis.com/v1/thumbnail?panoid=W_leSM8IHyCgc2wPY2hUxA&cb_client=maps_sv.tactile.gps&w=224&h=298&yaw=192.37964&pitch=0&thumbfov=100"
            }
        ],
        "link": "https://www.google.com/maps/place/Jamath+Office+West+Street/data=!4m7!3m6!1s0x3a55473825e93587:0x8f8b5364fea5ffba!8m2!3d10.7816013!4d79.6385709!16s%2Fg%2F11gdmbxzvv!19sChIJhzXpJThHVToRuv-l_mRTi48?authuser=0&hl=en&rclk=1",
        "coordinates": {
            "latitude": 10.7816013,
            "longitude": 79.63857089999999
        }
    },
    {
        "name": "Jaqh Masjid, Pulivalam",
        "main_category": "Mosque",
        "address": "QJ3J+2X2 Jaqh Masjid, Pulivalam, Mela palli street, Pulivalam, Thiruvarur, Tamil Nadu 610109",
        "detailed_address": {
            "ward": "Pulivalam",
            "street": "QJ3J+2X2, Mela palli street",
            "city": "Thiruvarur",
            "postal_code": "610109",
            "state": "Tamil Nadu",
            "country_code": "IN"
        },
        "images": [],
        "link": "https://www.google.com/maps/place/Jaqh+Masjid,+Pulivalam/data=!4m7!3m6!1s0x3a55470026a4084d:0xaf0776fc13854a70!8m2!3d10.7525018!4d79.6323811!16s%2Fg%2F11fl478n71!19sChIJTQikJgBHVToRcEqFE_x2B68?authuser=0&hl=en&rclk=1",
        "coordinates": {
            "latitude": 10.7525018,
            "longitude": 79.6323811
        }
    },
    {
        "name": "Madhina Masjid",
        "main_category": "Mosque",
        "address": "PJXF+X9M Madhina Masjid, Thitu.vi.ka.nagar, Pulivalam, Thiruvarur, Tamil Nadu 610109",
        "detailed_address": {
            "ward": "Thitu.vi.ka.nagar, Pulivalam",
            "street": "PJXF+X9M",
            "city": "Thiruvarur",
            "postal_code": "610109",
            "state": "Tamil Nadu",
            "country_code": "IN"
        },
        "images": [
            {
                "about": "All",
                "link": "https://lh5.googleusercontent.com/p/AF1QipP1nok22TkJvolxFguOH_BmrL4ecV9blv92Siun=w397-h298-k-no"
            },
            {
                "about": "Street View & 360deg",
                "link": "https://streetviewpixels-pa.googleapis.com/v1/thumbnail?panoid=jHe0QYZZ_d8dgEdgviMSCg&cb_client=maps_sv.tactile.gps&w=224&h=298&yaw=76.59319&pitch=0&thumbfov=100"
            },
            {
                "about": "Videos",
                "link": "https://lh5.googleusercontent.com/p/AF1QipPUI15T81G14rS_xfQUFXx0C8qGXVVPbZ9r4JhU=w224-h401-k-no"
            }
        ],
        "link": "https://www.google.com/maps/place/Madhina+Masjid/data=!4m7!3m6!1s0x3a5547d1acd1a38b:0x96115762abd8c7a!8m2!3d10.7499708!4d79.6234252!16s%2Fg%2F11q938s0qd!19sChIJi6PRrNFHVToReoy9KnYVYQk?authuser=0&hl=en&rclk=1",
        "coordinates": {
            "latitude": 10.7499708,
            "longitude": 79.6234252
        }
    },
    {
        "name": "Jamath Office pllllivaacl nirvaak cpai",
        "main_category": "Mosque",
        "address": "QJMV+6RM Jamath Office pllllivaacl nirvaak cpai, South St, Kodikkalpalayam, Thiruvarur, Tamil Nadu 610001",
        "detailed_address": {
            "ward": "Kodikkalpalayam",
            "street": "QJMV+6RM, South St",
            "city": "Thiruvarur",
            "postal_code": "610001",
            "state": "Tamil Nadu",
            "country_code": "IN"
        },
        "images": [
            {
                "about": "All",
                "link": "https://lh5.googleusercontent.com/p/AF1QipOJGxvgVts3S6Pun9vOH9Jwq4aCcXqpu0GXsIQQ=w397-h298-k-no"
            },
            {
                "about": "Street View & 360deg",
                "link": "https://streetviewpixels-pa.googleapis.com/v1/thumbnail?panoid=cL5ix9D51ZDMZZAmSQ0YjA&cb_client=maps_sv.tactile.gps&w=224&h=298&yaw=78.78636&pitch=0&thumbfov=100"
            },
            {
                "about": "Videos",
                "link": "https://lh5.googleusercontent.com/p/AF1QipPLsdDMFvF1SCHQ8Pxh4qXNFfVThfJqr15CrKMg=w541-h298-k-no"
            }
        ],
        "link": "https://www.google.com/maps/place/Jamath+Office+%E0%AE%AA%E0%AE%B3%E0%AF%8D%E0%AE%B3%E0%AE%BF%E0%AE%B5%E0%AE%BE%E0%AE%9A%E0%AE%B2%E0%AF%8D+%E0%AE%A8%E0%AE%BF%E0%AE%B0%E0%AF%8D%E0%AE%B5%E0%AE%BE%E0%AE%95+%E0%AE%9A%E0%AE%AA%E0%AF%88/data=!4m7!3m6!1s0x3a55473608722023:0xd51c4e30b82f8757!8m2!3d10.783077!4d79.6445501!16s%2Fg%2F11fy96ky2x!19sChIJIyByCDZHVToRV4cvuDBOHNU?authuser=0&hl=en&rclk=1",
        "coordinates": {
            "latitude": 10.783076999999999,
            "longitude": 79.64455009999999
        }
    },
    {
        "name": "jumma masjid Manakkarai",
        "main_category": "Mosque",
        "address": "MGCM+2WF jumma masjid Manakkarai, Thiruvarur, Tamil Nadu 614101",
        "detailed_address": {
            "ward": null,
            "street": "MGCM+2WF",
            "city": "Thiruvarur",
            "postal_code": null,
            "state": "Tamil Nadu",
            "country_code": "IN"
        },
        "images": [
            {
                "about": "All",
                "link": "https://lh5.googleusercontent.com/p/AF1QipN2uzZWqylxTalXKqVPkEx9SDz2mWsqw21sJJH0=w224-h398-k-no"
            }
        ],
        "link": "https://www.google.com/maps/place/jumma+masjid+Manakkarai/data=!4m7!3m6!1s0x3a554f0a6114983b:0x1270388c5fe8c79b!8m2!3d10.6700521!4d79.5348089!16s%2Fg%2F11f3xgzn8w!19sChIJO5gUYQpPVToRm8foX4w4cBI?authuser=0&hl=en&rclk=1",
        "coordinates": {
            "latitude": 10.6700521,
            "longitude": 79.5348089
        }
    },
    {
        "name": "nlvllli vittuti pllllivaacl",
        "main_category": "Mosque",
        "address": "QJMX+WF6 nlvllli vittuti pllllivaacl, Puthumanai St, Kodikkalpalayam, Thiruvarur, Tamil Nadu 610001",
        "detailed_address": {
            "ward": "Kodikkalpalayam",
            "street": "QJMX+WF6, Puthumanai St",
            "city": "Thiruvarur",
            "postal_code": "610001",
            "state": "Tamil Nadu",
            "country_code": "IN"
        },
        "images": [
            {
                "about": "All",
                "link": "https://lh5.googleusercontent.com/p/AF1QipP5SbRMRjFaIgK0hdS_kdIFlfxwzxe0OeoohyVw=w395-h298-k-no"
            },
            {
                "about": "Videos",
                "link": "https://lh5.googleusercontent.com/p/AF1QipMdzFCC5xc7OHFi09EhEXUcBXxfF2NjtVI1tZBQ=w224-h407-k-no"
            }
        ],
        "link": "https://www.google.com/maps/place/%E0%AE%A8%E0%AE%B2%E0%AF%8D%E0%AE%B5%E0%AE%B4%E0%AE%BF+%E0%AE%B5%E0%AE%BF%E0%AE%9F%E0%AF%81%E0%AE%A4%E0%AE%BF+%E0%AE%AA%E0%AE%B3%E0%AF%8D%E0%AE%B3%E0%AE%BF%E0%AE%B5%E0%AE%BE%E0%AE%9A%E0%AE%B2%E0%AF%8D/data=!4m7!3m6!1s0x3a5547bcb1009215:0x26fef03f3f8e7a10!8m2!3d10.7854041!4d79.6484648!16s%2Fg%2F11tsj36lyt!19sChIJFZIAsbxHVToREHqOPz_w_iY?authuser=0&hl=en&rclk=1",
        "coordinates": {
            "latitude": 10.7854041,
            "longitude": 79.6484648
        }
    },
    {
        "name": "jaamt maiyttaang kollai kprustaannn",
        "main_category": "Mosque",
        "address": "QJMV+4VM jaamt maiyttaang kollai kprustaannn, Sufi Nagar, Thiruvarur, Tamil Nadu 610001",
        "detailed_address": {
            "ward": "Sufi Nagar",
            "street": "QJMV+4VM",
            "city": "Thiruvarur",
            "postal_code": "610001",
            "state": "Tamil Nadu",
            "country_code": "IN"
        },
        "images": [
            {
                "about": "All",
                "link": "https://lh5.googleusercontent.com/p/AF1QipNDzfB76mnJPS4A1kUdu2Y0eNHD52XdlfcqikGO=w529-h298-k-no"
            },
            {
                "about": "Street View & 360deg",
                "link": "https://streetviewpixels-pa.googleapis.com/v1/thumbnail?panoid=Z_0tpE0yaM6ooGclD3UYWw&cb_client=maps_sv.tactile.gps&w=224&h=298&yaw=251.82321&pitch=0&thumbfov=100"
            },
            {
                "about": "Videos",
                "link": "https://lh5.googleusercontent.com/p/AF1QipNDzfB76mnJPS4A1kUdu2Y0eNHD52XdlfcqikGO=w529-h298-k-no"
            }
        ],
        "link": "https://www.google.com/maps/place/%E0%AE%9C%E0%AE%BE%E0%AE%AE%E0%AE%A4%E0%AF%8D+%E0%AE%AE%E0%AF%88%E0%AE%AF%E0%AE%A4%E0%AF%8D%E0%AE%A4%E0%AE%BE%E0%AE%99%E0%AF%8D+%E0%AE%95%E0%AF%8A%E0%AE%B2%E0%AF%8D%E0%AE%B2%E0%AF%88+%E0%AE%95%E0%AE%AA%E0%AF%8D%E0%AE%B0%E0%AF%81%E0%AE%B8%E0%AF%8D%E0%AE%A4%E0%AE%BE%E0%AE%A9%E0%AF%8D/data=!4m7!3m6!1s0x3a554735e216b9ef:0xc9dc67b5ee4da0de!8m2!3d10.7828443!4d79.6446652!16s%2Fg%2F11h9qfgj7d!19sChIJ77kW4jVHVToR3qBN7rVn3Mk?authuser=0&hl=en&rclk=1",
        "coordinates": {
            "latitude": 10.782844299999999,
            "longitude": 79.64466519999999
        }
    },
    {
        "name": "Masjid Tawba (TNTJ MARKAS)",
        "main_category": "Mosque",
        "address": "QJ7M+86R Masjid Tawba (TNTJ MARKAS), KTR Nagar, Thiruvarur, Tamil Nadu 610003",
        "detailed_address": {
            "ward": "KTR Nagar",
            "street": "QJ7M+86R",
            "city": "Thiruvarur",
            "postal_code": "610003",
            "state": "Tamil Nadu",
            "country_code": "IN"
        },
        "images": [],
        "link": "https://www.google.com/maps/place/Masjid+Tawba+%28TNTJ+MARKAS%29/data=!4m7!3m6!1s0x3a55479a67006c47:0xe4eec1a3df7cc643!8m2!3d10.7633509!4d79.6330302!16s%2Fg%2F11pzryykgd!19sChIJR2wAZ5pHVToRQ8Z836PB7uQ?authuser=0&hl=en&rclk=1",
        "coordinates": {
            "latitude": 10.763350899999999,
            "longitude": 79.6330302
        }
    },
    {
        "name": "Old Mosque",
        "main_category": "Mosque",
        "address": "QJ8Q+5GX Old Mosque, Santhamangalam, Vijayapuram, Thiruvarur, Tamil Nadu 610003",
        "detailed_address": {
            "ward": "Santhamangalam, Vijayapuram",
            "street": "QJ8Q+5GX",
            "city": "Thiruvarur",
            "postal_code": "610003",
            "state": "Tamil Nadu",
            "country_code": "IN"
        },
        "images": [
            {
                "about": "All",
                "link": "https://streetviewpixels-pa.googleapis.com/v1/thumbnail?panoid=pQhw5r-0kwhkxDy4O497Ow&cb_client=maps_sv.tactile.gps&w=224&h=298&yaw=113.45184&pitch=0&thumbfov=100"
            },
            {
                "about": "Street View & 360deg",
                "link": "https://streetviewpixels-pa.googleapis.com/v1/thumbnail?panoid=pQhw5r-0kwhkxDy4O497Ow&cb_client=maps_sv.tactile.gps&w=224&h=298&yaw=113.45184&pitch=0&thumbfov=100"
            }
        ],
        "link": "https://www.google.com/maps/place/Old+Mosque/data=!4m7!3m6!1s0x3a554756209a88e3:0xed15de9adc7cceb9!8m2!3d10.7654976!4d79.6388515!16s%2Fg%2F11ghtc3pdy!19sChIJ44iaIFZHVToRuc583JreFe0?authuser=0&hl=en&rclk=1",
        "coordinates": {
            "latitude": 10.7654976,
            "longitude": 79.6388515
        }
    },
    {
        "name": "Kodikalpalsayam",
        "main_category": "Mosque",
        "address": "QJFH+2JQ Kodikalpalsayam, Suriyan Kulam Then Kari, Santhamangalam, Madappuram, Thiruvarur, Tamil Nadu 610001",
        "detailed_address": {
            "ward": "Suriyan Kulam Then Kari, Santhamangalam, Madappuram",
            "street": "QJFH+2JQ",
            "city": "Thiruvarur",
            "postal_code": null,
            "state": "Tamil Nadu",
            "country_code": "IN"
        },
        "images": [
            {
                "about": "All",
                "link": "https://lh5.googleusercontent.com/p/AF1QipM9Cdo8IGBOIN_T7EzHXJSLPvacAFirINlOeePh=w224-h298-k-no"
            }
        ],
        "link": "https://www.google.com/maps/place/Kodikalpalsayam/data=!4m7!3m6!1s0x3a55479f7f3ab029:0x87c7e0426bf9cfe!8m2!3d10.7725875!4d79.629124!16s%2Fg%2F11l1_zcl0j!19sChIJKbA6f59HVToR_py_JgR-fAg?authuser=0&hl=en&rclk=1",
        "coordinates": {
            "latitude": 10.7725875,
            "longitude": 79.62912399999999
        }
    }
]