[
    {
        "name": "Jama Masjid , Sidhauli",
        "main_category": "Mosque",
        "address": "7RPP+2MH Jama Masjid , Sidhauli, Sidhauli, Uttar Pradesh 261303",
        "detailed_address": {
            "ward": null,
            "street": "7RPP+2MH",
            "city": "Sidhauli",
            "postal_code": "261303",
            "state": "Uttar Pradesh",
            "country_code": "IN"
        },
        "images": [
            {
                "about": "All",
                "link": "https://lh5.googleusercontent.com/p/AF1QipPz2IAiyjSQoZgFIJDC4lQtnZ3_MO9fczHB7fJ6=w224-h398-k-no"
            },
            {
                "about": "Street View & 360deg",
                "link": "https://streetviewpixels-pa.googleapis.com/v1/thumbnail?panoid=dWCgRojOsoJmVkmjQXwhXA&cb_client=maps_sv.tactile.gps&w=224&h=298&yaw=275.0619&pitch=0&thumbfov=100"
            }
        ],
        "link": "https://www.google.com/maps/place/Jama+Masjid+,+Sidhauli/data=!4m7!3m6!1s0x39993519f2853167:0xeba370d7560c00a4!8m2!3d27.2850508!4d80.8367322!16s%2Fg%2F11c2psv7_0!19sChIJZzGF8hk1mTkRpAAMVtdwo-s?authuser=0&hl=en&rclk=1",
        "coordinates": {
            "latitude": 27.2850508,
            "longitude": 80.8367322
        }
    },
    {
        "name": "Jama Masjid Sindhaulli",
        "main_category": "Mosque",
        "address": "H66P+Q68 Jama Masjid Sindhaulli, Sidhauli, Uttar Pradesh 243504",
        "detailed_address": {
            "ward": null,
            "street": "H66P+Q68",
            "city": "Sidhauli",
            "postal_code": "243504",
            "state": "Uttar Pradesh",
            "country_code": "IN"
        },
        "images": [
            {
                "about": "All",
                "link": "https://lh5.googleusercontent.com/p/AF1QipPIx7HFXqaWzGePx-SGRudEvObNvRc-r-BwHdNA=w224-h398-k-no"
            },
            {
                "about": "Videos",
                "link": "https://lh5.googleusercontent.com/p/AF1QipONOrNON2ZcH_GwVWMmKDC8N4pLuPXgZOcmXM--=w224-h398-k-no"
            }
        ],
        "link": "https://www.google.com/maps/place/Jama+Masjid+Sindhaulli/data=!4m7!3m6!1s0x390aa304e16d2c49:0x13b37da604e84385!8m2!3d28.5619119!4d79.2355635!16s%2Fg%2F11ggb2rdg2!19sChIJSSxt4QSjCjkRhUPoBKZ9sxM?authuser=0&hl=en&rclk=1",
        "coordinates": {
            "latitude": 28.5619119,
            "longitude": 79.2355635
        }
    },
    {
        "name": "Choti Masjid",
        "main_category": "Religious organization",
        "address": "Choti Masjid, Narottam Nagar, Tahsil Rd, Sidhauli, Uttar Pradesh 261303",
        "detailed_address": {
            "ward": null,
            "street": "Narottam Nagar, Tahsil Rd",
            "city": "Sidhauli",
            "postal_code": "261303",
            "state": "Uttar Pradesh",
            "country_code": "IN"
        },
        "images": [
            {
                "about": "All",
                "link": "https://lh5.googleusercontent.com/p/AF1QipMnGt5Q-RcpZiVo9HOWLmE0Fzd7T35bu0KU0_qD=w547-h298-k-no"
            },
            {
                "about": "By owner",
                "link": "https://lh5.googleusercontent.com/p/AF1QipPwwjccoQW6lLexH3rDmVyNepYuiaJkebUeEC56=w224-h298-k-no"
            }
        ],
        "link": "https://www.google.com/maps/place/Choti+Masjid/data=!4m7!3m6!1s0x399935a438315e6f:0x818423fe87dead1a!8m2!3d27.2827846!4d80.831526!16s%2Fg%2F11g11c39tb!19sChIJb14xOKQ1mTkRGq3eh_4jhIE?authuser=0&hl=en&rclk=1",
        "coordinates": {
            "latitude": 27.2827846,
            "longitude": 80.831526
        }
    },
    {
        "name": "1 Minarah Masjid",
        "main_category": "Mosque",
        "address": "1 Minarah Masjid, Tehsil, Road, near kotwali Afzal clinic wali gali markaz, Sidhauli, Uttar Pradesh 261303",
        "detailed_address": {
            "ward": null,
            "street": "Tehsil, Road, near kotwali Afzal clinic wali gali markaz",
            "city": "Sidhauli",
            "postal_code": "261303",
            "state": "Uttar Pradesh",
            "country_code": "IN"
        },
        "images": [
            {
                "about": "All",
                "link": "https://lh5.googleusercontent.com/p/AF1QipMofT4rTK91ZJZ4yBJcxDKtOs4_mFng2d9jNAsk=w547-h298-k-no"
            },
            {
                "about": "Street View & 360deg",
                "link": "https://streetviewpixels-pa.googleapis.com/v1/thumbnail?panoid=gQLka1h2xq2zc0zy1x3OTQ&cb_client=maps_sv.tactile.gps&w=224&h=298&yaw=92.59829&pitch=0&thumbfov=100"
            }
        ],
        "link": "https://www.google.com/maps/place/1+Minarah+Masjid/data=!4m7!3m6!1s0x39993517a31bfa5f:0x3fc90360d7da2524!8m2!3d27.2820441!4d80.8344094!16s%2Fg%2F11fy96vnzy!19sChIJX_oboxc1mTkRJCXa12ADyT8?authuser=0&hl=en&rclk=1",
        "coordinates": {
            "latitude": 27.2820441,
            "longitude": 80.8344094
        }
    },
    {
        "name": "Masjid",
        "main_category": "Mosque",
        "address": "7RRP+476 Masjid, Sidhauli Mishrik Marg, Gandhi Nagar, Sidhauli, Uttar Pradesh 261303",
        "detailed_address": {
            "ward": "Gandhi Nagar",
            "street": "7RRP+476, Sidhauli Mishrik Marg",
            "city": "Sidhauli",
            "postal_code": "261303",
            "state": "Uttar Pradesh",
            "country_code": "IN"
        },
        "images": [
            {
                "about": "All",
                "link": "https://streetviewpixels-pa.googleapis.com/v1/thumbnail?panoid=KSgVmBUhRngGN4cUr4DeMA&cb_client=maps_sv.tactile.gps&w=224&h=298&yaw=304.64816&pitch=0&thumbfov=100"
            },
            {
                "about": "Street View & 360deg",
                "link": "https://streetviewpixels-pa.googleapis.com/v1/thumbnail?panoid=KSgVmBUhRngGN4cUr4DeMA&cb_client=maps_sv.tactile.gps&w=224&h=298&yaw=304.64816&pitch=0&thumbfov=100"
            }
        ],
        "link": "https://www.google.com/maps/place/Masjid/data=!4m7!3m6!1s0x399935ac8c356497:0xbfc7592f8fece570!8m2!3d27.2902825!4d80.8356367!16s%2Fg%2F11hy_dm967!19sChIJl2Q1jKw1mTkRcOXsjy9Zx78?authuser=0&hl=en&rclk=1",
        "coordinates": {
            "latitude": 27.2902825,
            "longitude": 80.8356367
        }
    },
    {
        "name": "msjd Masjid",
        "main_category": "School",
        "address": "7RGQ+3C9 msjd Masjid, Sidhauli, Uttar Pradesh 261303",
        "detailed_address": {
            "ward": null,
            "street": "7RGQ+3C9",
            "city": "Sidhauli",
            "postal_code": "261303",
            "state": "Uttar Pradesh",
            "country_code": "IN"
        },
        "images": [
            {
                "about": "All",
                "link": "https://streetviewpixels-pa.googleapis.com/v1/thumbnail?panoid=ftd9ACDN6Ci1gOC9ImSoLA&cb_client=maps_sv.tactile.gps&w=224&h=298&yaw=194.99727&pitch=0&thumbfov=100"
            },
            {
                "about": "Street View & 360deg",
                "link": "https://streetviewpixels-pa.googleapis.com/v1/thumbnail?panoid=ftd9ACDN6Ci1gOC9ImSoLA&cb_client=maps_sv.tactile.gps&w=224&h=298&yaw=194.99727&pitch=0&thumbfov=100"
            }
        ],
        "link": "https://www.google.com/maps/place/%D9%85%D8%B3%D8%AC%D8%AF+Masjid%E2%80%AD/data=!4m7!3m6!1s0x3999351377b790cd:0xbe29ac10d943202d!8m2!3d27.2751743!4d80.8386204!16s%2Fg%2F11f0l51dz1!19sChIJzZC3dxM1mTkRLSBD2RCsKb4?authuser=0&hl=en&rclk=1",
        "coordinates": {
            "latitude": 27.2751743,
            "longitude": 80.8386204
        }
    },
    {
        "name": "Bilal Masjid Power House",
        "main_category": "Mosque",
        "address": "7RGJ+795 Bilal Masjid Power House, Sidhauli, Uttar Pradesh 261303",
        "detailed_address": {
            "ward": null,
            "street": "7RGJ+795",
            "city": "Sidhauli",
            "postal_code": "261303",
            "state": "Uttar Pradesh",
            "country_code": "IN"
        },
        "images": [],
        "link": "https://www.google.com/maps/place/Bilal+Masjid+Power+House/data=!4m7!3m6!1s0x399935a6048550f1:0xa24ecc48ebfeba61!8m2!3d27.2754512!4d80.8308567!16s%2Fg%2F11kj09q3q7!19sChIJ8VCFBKY1mTkRYbr-60jMTqI?authuser=0&hl=en&rclk=1",
        "coordinates": {
            "latitude": 27.2754512,
            "longitude": 80.8308567
        }
    },
    {
        "name": "Masjid e madina",
        "main_category": "Mosque",
        "address": "H66P+27Q Masjid e madina, Sidhauli, Uttar Pradesh 243504",
        "detailed_address": {
            "ward": null,
            "street": "H66P+27Q",
            "city": "Sidhauli",
            "postal_code": "243504",
            "state": "Uttar Pradesh",
            "country_code": "IN"
        },
        "images": [],
        "link": "https://www.google.com/maps/place/Masjid+e+madina/data=!4m7!3m6!1s0x390aa32b15d7399b:0xd0ad2f6905cb7cd4!8m2!3d28.560081!4d79.2357236!16s%2Fg%2F11t29_d4y8!19sChIJmznXFSujCjkR1HzLBWkvrdA?authuser=0&hl=en&rclk=1",
        "coordinates": {
            "latitude": 28.560081,
            "longitude": 79.2357236
        }
    },
    {
        "name": "Madina masjid 3142",
        "main_category": "Mosque",
        "address": "7VC3+H7W Madina masjid 3142, Mohra, Sidhauli, Uttar Pradesh 246761",
        "detailed_address": {
            "ward": null,
            "street": "7VC3+H7W",
            "city": "Mohra, Sidhauli",
            "postal_code": "246761",
            "state": "Uttar Pradesh",
            "country_code": "IN"
        },
        "images": [
            {
                "about": "All",
                "link": "https://streetviewpixels-pa.googleapis.com/v1/thumbnail?panoid=zoYe4wnIWU55Z5mvc-SxWg&cb_client=maps_sv.tactile.gps&w=224&h=298&yaw=261.74597&pitch=0&thumbfov=100"
            },
            {
                "about": "Street View & 360deg",
                "link": "https://streetviewpixels-pa.googleapis.com/v1/thumbnail?panoid=zoYe4wnIWU55Z5mvc-SxWg&cb_client=maps_sv.tactile.gps&w=224&h=298&yaw=261.74597&pitch=0&thumbfov=100"
            }
        ],
        "link": "https://www.google.com/maps/place/Madina+masjid+3142/data=!4m7!3m6!1s0x39993506d6526e35:0x27affcf49ce5563!8m2!3d27.2714375!4d80.8531875!16s%2Fg%2F11sy1nm3jb!19sChIJNW5S1gY1mTkRY1XOSc__egI?authuser=0&hl=en&rclk=1",
        "coordinates": {
            "latitude": 27.271437499999998,
            "longitude": 80.85318749999999
        }
    }
]