[
    {
        "name": "Madina Masjid Khajoor Wali Masjid",
        "main_category": "Mosque",
        "address": "4WH4+5HC Madina Masjid Khajoor Wali Masjid, Bilsi, Uttar Pradesh 243633",
        "detailed_address": {
            "ward": null,
            "street": "4WH4+5HC",
            "city": "Bilsi",
            "postal_code": "243633",
            "state": "Uttar Pradesh",
            "country_code": "IN"
        },
        "images": [
            {
                "about": "All",
                "link": "https://lh5.googleusercontent.com/p/AF1QipP-fS8Wn2gRm96Cb19jR9aJPRfyt9N4RRSy1A2B=w224-h398-k-no"
            }
        ],
        "link": "https://www.google.com/maps/place/Madina+Masjid+Khajoor+Wali+Masjid/data=!4m7!3m6!1s0x397531386b42606d:0x213c09cff2b8c558!8m2!3d28.1279273!4d78.9064057!16s%2Fg%2F11gsk8wfy3!19sChIJbWBCazgxdTkRWMW48s8JPCE?authuser=0&hl=en&rclk=1",
        "coordinates": {
            "latitude": 28.1279273,
            "longitude": 78.9064057
        }
    },
    {
        "name": "Gausiya Masjid",
        "main_category": "Mosque",
        "address": "Gausiya Masjid, Bilsi, Uttar Pradesh 243633",
        "detailed_address": {
            "ward": null,
            "street": null,
            "city": "Bilsi",
            "postal_code": "243633",
            "state": "Uttar Pradesh",
            "country_code": "IN"
        },
        "images": [
            {
                "about": "All",
                "link": "https://lh5.googleusercontent.com/p/AF1QipOGC7tqHQluPcinndFUANYR49rDlgTL7c_XgHlZ=w529-h298-k-no"
            },
            {
                "about": "By owner",
                "link": "https://lh5.googleusercontent.com/p/AF1QipOiRxO7bWrv7An_JBqrhg0tJV5l7gNSU8MwqTGb=w619-h298-k-no"
            },
            {
                "about": "Street View & 360deg",
                "link": "https://streetviewpixels-pa.googleapis.com/v1/thumbnail?panoid=M0dRcLgSi9lYnq6aF2PH4A&cb_client=maps_sv.tactile.gps&w=224&h=298&yaw=81.602196&pitch=0&thumbfov=100"
            }
        ],
        "link": "https://www.google.com/maps/place/Gausiya+Masjid/data=!4m7!3m6!1s0x3975315efc0cd6a5:0x33db90c5da871c7f!8m2!3d28.1251875!4d78.9094375!16s%2Fg%2F11f2wpt_tz!19sChIJpdYM_F4xdTkRfxyH2sWQ2zM?authuser=0&hl=en&rclk=1",
        "coordinates": {
            "latitude": 28.1251875,
            "longitude": 78.9094375
        }
    },
    {
        "name": "Jama Masjid",
        "main_category": "Mosque",
        "address": "4WJ6+854 Jama Masjid, Bilsi, Uttar Pradesh 243633",
        "detailed_address": {
            "ward": null,
            "street": "4WJ6+854",
            "city": "Bilsi",
            "postal_code": "243633",
            "state": "Uttar Pradesh",
            "country_code": "IN"
        },
        "images": [
            {
                "about": "All",
                "link": "https://lh5.googleusercontent.com/p/AF1QipNa8tDXTDrNKHRSdlYfXmMTmayyTR4er7NDP6ZI=w529-h298-k-no"
            },
            {
                "about": "Dome",
                "link": "https://lh5.googleusercontent.com/p/AF1QipNa8tDXTDrNKHRSdlYfXmMTmayyTR4er7NDP6ZI=w529-h298-k-no"
            },
            {
                "about": "Street View & 360deg",
                "link": "https://streetviewpixels-pa.googleapis.com/v1/thumbnail?panoid=E0chqb0nyUO3NeGFTT7Psw&cb_client=maps_sv.tactile.gps&w=224&h=298&yaw=315.02762&pitch=0&thumbfov=100"
            }
        ],
        "link": "https://www.google.com/maps/place/Jama+Masjid/data=!4m7!3m6!1s0x397533e1987aa873:0x637f29eeac54eb67!8m2!3d28.1307541!4d78.9104437!16s%2Fg%2F11dyz59v1h!19sChIJc6h6mOEzdTkRZ-tUrO4pf2M?authuser=0&hl=en&rclk=1",
        "coordinates": {
            "latitude": 28.130754099999997,
            "longitude": 78.9104437
        }
    },
    {
        "name": "Kothi Bali Masjid",
        "main_category": "Mosque",
        "address": "Kothi Bali Masjid, sahab ganj mohalla no.8, Bilsi, 243633",
        "detailed_address": {
            "ward": null,
            "street": "sahab ganj mohalla no.8",
            "city": "Bilsi, Khairi",
            "postal_code": "243633",
            "state": "Uttar Pradesh",
            "country_code": "IN"
        },
        "images": [
            {
                "about": "All",
                "link": "https://lh5.googleusercontent.com/p/AF1QipMyddsg9hY5abREPikih7MwuZLhu_Rq7GRyK_Fs=w224-h410-k-no"
            },
            {
                "about": "Street View & 360deg",
                "link": "https://streetviewpixels-pa.googleapis.com/v1/thumbnail?panoid=Hf_cCYS5QjLD1eY9tWpVgg&cb_client=maps_sv.tactile.gps&w=224&h=298&yaw=202.28966&pitch=0&thumbfov=100"
            }
        ],
        "link": "https://www.google.com/maps/place/Kothi+Bali+Masjid/data=!4m7!3m6!1s0x3975333db0fe4601:0x4fe93af71e526b1b!8m2!3d28.1350389!4d78.9113848!16s%2Fg%2F11gnprr90m!19sChIJAUb-sD0zdTkRG2tSHvc66U8?authuser=0&hl=en&rclk=1",
        "coordinates": {
            "latitude": 28.135038899999998,
            "longitude": 78.9113848
        }
    },
    {
        "name": "Qadri masjid",
        "main_category": "Place of worship",
        "address": "4W99+5G2 Qadri masjid, Unnamed Road, Bilsi, Uttar Pradesh 243633",
        "detailed_address": {
            "ward": null,
            "street": "4W99+5G2, Unnamed Road",
            "city": "Bilsi",
            "postal_code": "243633",
            "state": "Uttar Pradesh",
            "country_code": "IN"
        },
        "images": [],
        "link": "https://www.google.com/maps/place/Qadri+masjid/data=!4m7!3m6!1s0x3975319a1ec796ad:0x83d919edb8b0b150!8m2!3d28.117885!4d78.9187803!16s%2Fg%2F11rs9yxbmf!19sChIJrZbHHpoxdTkRULGwuO0Z2YM?authuser=0&hl=en&rclk=1",
        "coordinates": {
            "latitude": 28.117884999999998,
            "longitude": 78.9187803
        }
    },
    {
        "name": "Masjid market",
        "main_category": "Market",
        "address": "4WJ6+68W Masjid market, Bilsi, Uttar Pradesh 243633",
        "detailed_address": {
            "ward": null,
            "street": "4WJ6+68W",
            "city": "Bilsi",
            "postal_code": "243633",
            "state": "Uttar Pradesh",
            "country_code": "IN"
        },
        "images": [
            {
                "about": "All",
                "link": "https://streetviewpixels-pa.googleapis.com/v1/thumbnail?panoid=PK8WuqXCtf2bWNWSJxn_YQ&cb_client=maps_sv.tactile.gps&w=224&h=298&yaw=6.1103363&pitch=0&thumbfov=100"
            },
            {
                "about": "Street View & 360deg",
                "link": "https://streetviewpixels-pa.googleapis.com/v1/thumbnail?panoid=PK8WuqXCtf2bWNWSJxn_YQ&cb_client=maps_sv.tactile.gps&w=224&h=298&yaw=6.1103363&pitch=0&thumbfov=100"
            }
        ],
        "link": "https://www.google.com/maps/place/Masjid+market/data=!4m7!3m6!1s0x3975334e09b88dff:0xc3af899eb18f5fcf!8m2!3d28.1306091!4d78.9108185!16s%2Fg%2F11qpw2n277!19sChIJ_424CU4zdTkRz1-PsZ6Jr8M?authuser=0&hl=en&rclk=1",
        "coordinates": {
            "latitude": 28.130609099999997,
            "longitude": 78.91081849999999
        }
    }
]