[
    {
        "name": "Masjid E Noorani (msjdi nwrny)",
        "main_category": "Mosque",
        "address": "5R8C+MW6 Masjid E Noorani (msjdi nwrny), Hospeth Galli Rd, Adi Jambav Nagar, Gokak, Karnataka 591307",
        "detailed_address": {
            "ward": "Adi Jambav Nagar",
            "street": "5R8C+MW6, Hospeth Galli Rd",
            "city": "Gokak",
            "postal_code": "591307",
            "state": "Karnataka",
            "country_code": "IN"
        },
        "images": [
            {
                "about": "All",
                "link": "https://lh5.googleusercontent.com/p/AF1QipPC0AkQVMvoZXlIayYdnhE7R87e3Tf58WntcCp5=w529-h298-k-no"
            },
            {
                "about": "Dome",
                "link": "https://lh5.googleusercontent.com/p/AF1QipMuek-rE5QuPW3lYRQHDa7jQHmmWSW2lGCggWRp=w224-h298-k-no"
            }
        ],
        "link": "https://www.google.com/maps/place/Masjid+E+Noorani+%28%D9%85%D8%B3%D8%AC%D8%AF%D9%90+%D9%86%D9%88%D8%B1%D8%A7%D9%86%DB%8C%29%E2%80%AD/data=!4m7!3m6!1s0x3bc0afd419aee46b:0xcde62abe3256d5bc!8m2!3d16.1666637!4d74.822265!16s%2Fg%2F11g6mwxdcw!19sChIJa-SuGdSvwDsRvNVWMr4q5s0?authuser=0&hl=en&rclk=1",
        "coordinates": {
            "latitude": 16.1666637,
            "longitude": 74.822265
        }
    },
    {
        "name": "Masjid, Hajrat Bilal Gokak",
        "main_category": "Mosque",
        "address": "5R6F+723 Masjid, Hajrat Bilal Gokak, Extension Rd 1 (Jyoti Peg Bar), Extension Sector 2, Gokak, Karnataka 591307",
        "detailed_address": {
            "ward": "Extension Sector 2",
            "street": "5R6F+723, Extension Rd 1 (Jyoti Peg Bar)",
            "city": "Gokak",
            "postal_code": "591307",
            "state": "Karnataka",
            "country_code": "IN"
        },
        "images": [
            {
                "about": "All",
                "link": "https://lh5.googleusercontent.com/p/AF1QipOl8kt_xTaNj89VB9HqcIfbwR6QNHRo1PUPEL-E=w529-h298-k-no"
            },
            {
                "about": "Dome",
                "link": "https://lh5.googleusercontent.com/p/AF1QipPjBGBZYxIruzgYCDFgdMJcqeI5VFbO-DqXvi81=w224-h398-k-no"
            }
        ],
        "link": "https://www.google.com/maps/place/Masjid,+Hajrat+Bilal+Gokak/data=!4m7!3m6!1s0x3bc0afd211642479:0xd7d5fc4b21448ed9!8m2!3d16.160646!4d74.822536!16s%2Fg%2F11c6r2_xk6!19sChIJeSRkEdKvwDsR2Y5EIUv81dc?authuser=0&hl=en&rclk=1",
        "coordinates": {
            "latitude": 16.160646,
            "longitude": 74.822536
        }
    },
    {
        "name": "Masjid e ,Aqsa",
        "main_category": "Mosque",
        "address": "5RCF+PWV Masjid e ,Aqsa, Venkateshwara Temple Rd, Old Town Sector 1, Gokak, Karnataka 591307",
        "detailed_address": {
            "ward": "Old Town Sector 1",
            "street": "5RCF+PWV, Venkateshwara Temple Rd",
            "city": "Gokak",
            "postal_code": "591307",
            "state": "Karnataka",
            "country_code": "IN"
        },
        "images": [
            {
                "about": "All",
                "link": "https://lh5.googleusercontent.com/p/AF1QipMNvO4aQrF3cOiEwcnO3a074mYeqhNVJAEu0AhW=w224-h398-k-no"
            }
        ],
        "link": "https://www.google.com/maps/place/Masjid+e+,Aqsa/data=!4m7!3m6!1s0x3bc0b02a85d24733:0xb531adba9f462c03!8m2!3d16.171851!4d74.824798!16s%2Fg%2F11c6qp62ww!19sChIJM0fShSqwwDsRAyxGn7qtMbU?authuser=0&hl=en&rclk=1",
        "coordinates": {
            "latitude": 16.171851,
            "longitude": 74.824798
        }
    },
    {
        "name": "Maheboob Masjid",
        "main_category": "Mosque",
        "address": "5R9C+99Q Maheboob Masjid, Bus Stand Rd, Adi Jambav Nagar, Gokak, Karnataka 591307",
        "detailed_address": {
            "ward": "Adi Jambav Nagar",
            "street": "5R9C+99Q, Bus Stand Rd",
            "city": "Gokak",
            "postal_code": "591307",
            "state": "Karnataka",
            "country_code": "IN"
        },
        "images": [
            {
                "about": "All",
                "link": "https://lh5.googleusercontent.com/p/AF1QipOC0Cj14O6P8Vp2205GmUiqrkBACwDfeA3gcTUR=w529-h298-k-no"
            }
        ],
        "link": "https://www.google.com/maps/place/Maheboob+Masjid/data=!4m7!3m6!1s0x3bc0afd67c6e1d03:0xebef69050485d33!8m2!3d16.1684503!4d74.8209847!16s%2Fg%2F11g6mxn5tp!19sChIJAx1ufNavwDsRM11IUJD2vg4?authuser=0&hl=en&rclk=1",
        "coordinates": {
            "latitude": 16.1684503,
            "longitude": 74.8209847
        }
    },
    {
        "name": "Tipu Masjid Tipu Nagar Gokak",
        "main_category": "Mosque",
        "address": "5R7J+C74 Tipu Masjid Tipu Nagar Gokak, Gokak, Karnataka 591307",
        "detailed_address": {
            "ward": null,
            "street": "5R7J+C74",
            "city": "Gokak",
            "postal_code": "591307",
            "state": "Karnataka",
            "country_code": "IN"
        },
        "images": [
            {
                "about": "All",
                "link": "https://lh5.googleusercontent.com/p/AF1QipMryQoc9N8dSpFQ7E76u0weiflMkjVWa8dwc3TH=w529-h298-k-no"
            },
            {
                "about": "Dome",
                "link": "https://lh5.googleusercontent.com/p/AF1QipPwxDDiWPjPeRuuWfos_U2Ii_3eLnojd1FodePS=w395-h298-k-no"
            },
            {
                "about": "Videos",
                "link": "https://lh5.googleusercontent.com/p/AF1QipOBYFMYvXgHhmJy5ydUdhihTUBsJhNsvSGLfx4c=w224-h398-k-no"
            },
            {
                "about": "Street View & 360deg",
                "link": "https://lh5.googleusercontent.com/p/AF1QipMy3TS9JTkkBME3HjlSggsQO2o7MANYP9kg-nu5=w224-h298-k-no-pi-20-ya75-ro-0-fo100"
            }
        ],
        "link": "https://www.google.com/maps/place/Tipu+Masjid+Tipu+Nagar+Gokak/data=!4m7!3m6!1s0x3bc0ae2c53e74fe1:0x308d6f296e3e317e!8m2!3d16.1635211!4d74.8307057!16s%2Fg%2F11c6qlz_d0!19sChIJ4U_nUyyuwDsRfjE-bilvjTA?authuser=0&hl=en&rclk=1",
        "coordinates": {
            "latitude": 16.1635211,
            "longitude": 74.8307057
        }
    },
    {
        "name": "Jamiya Masjid Markaz Gokak (jm`h msjd mrkhz gwkhkh)",
        "main_category": "Mosque",
        "address": "Jamiya Masjid Markaz Gokak (jm`h msjd mrkhz gwkhkh), Old tahasildar office, Gokak, Karnataka 591307",
        "detailed_address": {
            "ward": null,
            "street": "Old tahasildar office",
            "city": "Gokak",
            "postal_code": null,
            "state": "Karnataka",
            "country_code": "IN"
        },
        "images": [
            {
                "about": "All",
                "link": "https://lh5.googleusercontent.com/p/AF1QipNfp0XZLvndkhdzSYy9tVE1ZAaeCOJTFdo98_v4=w397-h298-k-no"
            },
            {
                "about": "Street View & 360deg",
                "link": "https://lh5.googleusercontent.com/p/AF1QipOyYxv566d0MGEpfTkEajJuneTRJ5nwM0Gl6QuI=w224-h298-k-no-pi-10-ya260-ro0-fo100"
            },
            {
                "about": "Videos",
                "link": "https://lh5.googleusercontent.com/p/AF1QipMZcSoZCpO6jyYCDntV69RYV2-Je8yQhX1VR1r4=w224-h398-k-no"
            }
        ],
        "link": "https://www.google.com/maps/place/Jamiya+Masjid+Markaz+Gokak+%28%D8%AC%D9%85%D8%B9%DB%81+%D9%85%D8%B3%D8%AC%D8%AF+%D9%85%D8%B1%DA%A9%D8%B2+%DA%AF%D9%88%DA%A9%D8%A7%DA%A9%29%E2%80%AD/data=!4m7!3m6!1s0x3bc0b02bcac4bdc7:0xf7dc94c3a3350d0a!8m2!3d16.1739917!4d74.8222579!16s%2Fg%2F11b805v0_7!19sChIJx73EyiuwwDsRCg01o8OU3Pc?authuser=0&hl=en&rclk=1",
        "coordinates": {
            "latitude": 16.1739917,
            "longitude": 74.8222579
        }
    },
    {
        "name": "Hz Bm Syed Ibrahim Rz& Hz Bm Syed Mahemood Rz",
        "main_category": "Mosque",
        "address": "5R9F+P3P Hz Bm Syed Ibrahim Rz& Hz Bm Syed Mahemood Rz, Raviwar-peth, Gokak, Karnataka 591307",
        "detailed_address": {
            "ward": "Raviwar-peth",
            "street": "5R9F+P3P",
            "city": "Gokak",
            "postal_code": "591307",
            "state": "Karnataka",
            "country_code": "IN"
        },
        "images": [
            {
                "about": "All",
                "link": "https://lh5.googleusercontent.com/p/AF1QipMeKHi-Lm7wGxQY27uAmqnq4usMrXdsGmuLMazb=w397-h298-k-no"
            },
            {
                "about": "Videos",
                "link": "https://lh5.googleusercontent.com/p/AF1QipMFZhzSQTYqk5h_xcfxDk7U28Qnef97k2Z4jTTG=w224-h407-k-no"
            }
        ],
        "link": "https://www.google.com/maps/place/Hz+Bm+Syed+Ibrahim+Rz%26+Hz+Bm+Syed+Mahemood+Rz/data=!4m7!3m6!1s0x3bc0afd64fdb2d4b:0x7f2651eda6322fb1!8m2!3d16.1693484!4d74.822713!16s%2Fg%2F11h9y6cjm9!19sChIJSy3bT9avwDsRsS8ypu1RJn8?authuser=0&hl=en&rclk=1",
        "coordinates": {
            "latitude": 16.1693484,
            "longitude": 74.822713
        }
    },
    {
        "name": "Alamgir Masjid(Mulla Masjid)Ahle Sunnat Wal Jamat",
        "main_category": "Mosque",
        "address": "5RFF+6X6 Alamgir Masjid(Mulla Masjid)Ahle Sunnat Wal Jamat, awati, Acharya Galli, killa, Gokak, Karnataka 591307",
        "detailed_address": {
            "ward": "Old Town Sector 1, killa",
            "street": "5RFF+6X6, awati, Acharya Galli",
            "city": "Gokak",
            "postal_code": "591307",
            "state": "Karnataka",
            "country_code": "IN"
        },
        "images": [
            {
                "about": "All",
                "link": "https://lh5.googleusercontent.com/p/AF1QipP7boQBtyZ0C5ZogCgY5n3X1PFIVV6K4630TWOI=w529-h298-k-no"
            }
        ],
        "link": "https://www.google.com/maps/place/Alamgir+Masjid%28Mulla+Masjid%29Ahle+Sunnat+Wal+Jamat/data=!4m7!3m6!1s0x3bc0b02af13dcd1b:0xa0c26c2de96c75c5!8m2!3d16.173035!4d74.8248929!16s%2Fg%2F11bw21bs99!19sChIJG8098SqwwDsRxXVs6S1swqA?authuser=0&hl=en&rclk=1",
        "coordinates": {
            "latitude": 16.173035,
            "longitude": 74.8248929
        }
    },
    {
        "name": "Masjid E Ambiya,Khabaristan Gokak",
        "main_category": "Mosque",
        "address": "5RCH+J2G Masjid E Ambiya,Khabaristan Gokak, Singalapur, Gokak, Karnataka 591307",
        "detailed_address": {
            "ward": null,
            "street": "5RCH+J2G",
            "city": "Singalapur, Gokak",
            "postal_code": "591307",
            "state": "Karnataka",
            "country_code": "IN"
        },
        "images": [
            {
                "about": "All",
                "link": "https://lh5.googleusercontent.com/p/AF1QipMfN-9lzxv_4ny-L5zKG6GbXH8ds4aeFX86ilU5=w529-h298-k-no"
            },
            {
                "about": "Latest",
                "link": "https://lh5.googleusercontent.com/p/AF1QipOYhrFPen-fLImye0t3ZlnMFZI4VVoHtaCQ_96r=w224-h397-k-no"
            },
            {
                "about": "Dome",
                "link": "https://lh5.googleusercontent.com/p/AF1QipOTTy_W_yD-5dyyXJGEy1M1KqEYcnw2wtgBn9Qe=w224-h398-k-no"
            }
        ],
        "link": "https://www.google.com/maps/place/Masjid+E+Ambiya,Khabaristan+Gokak/data=!4m7!3m6!1s0x3bc0b1d5544c8581:0xbd8d975665c6b608!8m2!3d16.171554!4d74.8275866!16s%2Fg%2F11c6rxc186!19sChIJgYVMVNWxwDsRCLbGZVaXjb0?authuser=0&hl=en&rclk=1",
        "coordinates": {
            "latitude": 16.171554,
            "longitude": 74.8275866
        }
    },
    {
        "name": "Abubakar Siddique Masjid (msjdi bwbkhr Sdyq)",
        "main_category": "Mosque",
        "address": "5R9H+33W Abubakar Siddique Masjid (msjdi bwbkhr Sdyq), Momin Mohalla, Guruwarpeth, Towards Byalikata, Adi Jambav Nagar, Gokak, Karnataka 591307",
        "detailed_address": {
            "ward": "Adi Jambav Nagar",
            "street": "5R9H+33W, Momin Mohalla, Guruwarpeth, Towards Byalikata, Adi Jambav Nagar",
            "city": "Gokak",
            "postal_code": "591307",
            "state": "Karnataka",
            "country_code": "IN"
        },
        "images": [
            {
                "about": "All",
                "link": "https://lh5.googleusercontent.com/p/AF1QipN7_IAfq2BjefRjOOjcjDIHH7R3iL9b6wfdhmQ2=w224-h497-k-no"
            }
        ],
        "link": "https://www.google.com/maps/place/Abubakar+Siddique+Masjid+%28%D9%85%D8%B3%D8%AC%D8%AF%D9%90+%D8%A7%D8%A8%D9%88%D8%A8%DA%A9%D8%B1+%D8%B5%D8%AF%DB%8C%D9%82%29%E2%80%AD/data=!4m7!3m6!1s0x3bc0ae2b317fc879:0x62771745ab1f51e6!8m2!3d16.1677431!4d74.8276891!16s%2Fg%2F11c55c_093!19sChIJech_MSuuwDsR5lEfq0UXd2I?authuser=0&hl=en&rclk=1",
        "coordinates": {
            "latitude": 16.1677431,
            "longitude": 74.8276891
        }
    },
    {
        "name": "Masjid, Mahedviya",
        "main_category": "Mosque",
        "address": "5R9F+P3P Masjid, Mahedviya, Raviwar-peth, Gokak, Karnataka 591307",
        "detailed_address": {
            "ward": "Raviwar-peth",
            "street": "5R9F+P3P",
            "city": "Gokak",
            "postal_code": "591307",
            "state": "Karnataka",
            "country_code": "IN"
        },
        "images": [],
        "link": "https://www.google.com/maps/place/Masjid,+Mahedviya/data=!4m7!3m6!1s0x3bc0aff8e46eb509:0x5bd96656c7b38de2!8m2!3d16.1693415!4d74.8227137!16s%2Fg%2F11ghtbmk6y!19sChIJCbVu5PivwDsR4o2zx1Zm2Vs?authuser=0&hl=en&rclk=1",
        "coordinates": {
            "latitude": 16.169341499999998,
            "longitude": 74.8227137
        }
    },
    {
        "name": "Gamama Masjid Bombay Chawl Gokak",
        "main_category": "Mosque",
        "address": "5R57+QQV Gamama Masjid Bombay Chawl Gokak, gamama masjid, Bombay Chawl, Gokak, Karnataka",
        "detailed_address": {
            "ward": "Bombay Chawl",
            "street": "5R57+QQV, gamama masjid",
            "city": "Gokak",
            "postal_code": null,
            "state": "Karnataka",
            "country_code": "IN"
        },
        "images": [
            {
                "about": "All",
                "link": "https://lh5.googleusercontent.com/p/AF1QipPNaT1v46Qsr69HcEwJVfme0JbT726BD5bJG4gR=w397-h298-k-no"
            }
        ],
        "link": "https://www.google.com/maps/place/Gamama+Masjid+Bombay+Chawl+Gokak/data=!4m7!3m6!1s0x3bc0afeb845ba1f9:0xce0bc69377ff1257!8m2!3d16.1594772!4d74.81443!16s%2Fg%2F11flk9x27r!19sChIJ-aFbhOuvwDsRVxL_d5PGC84?authuser=0&hl=en&rclk=1",
        "coordinates": {
            "latitude": 16.159477199999998,
            "longitude": 74.81443
        }
    },
    {
        "name": "Masjid-E-Farooqia Apmc Gokak",
        "main_category": "Mosque",
        "address": "5R9P+42P Masjid-E-Farooqia Apmc Gokak, 3rd Main Opp. APMC, Workers Colony, Gokak, Karnataka 591307",
        "detailed_address": {
            "ward": "Workers Colony",
            "street": "5R9P+42P, 3rd Main Opp. APMC",
            "city": "Gokak",
            "postal_code": "591307",
            "state": "Karnataka",
            "country_code": "IN"
        },
        "images": [
            {
                "about": "All",
                "link": "https://lh5.googleusercontent.com/p/AF1QipOrggs2lzMh21B_v7uRP-ITM0ot7gDmKzdZ1K0z=w238-h298-k-no"
            }
        ],
        "link": "https://www.google.com/maps/place/Masjid-E-Farooqia+Apmc+Gokak/data=!4m7!3m6!1s0x3bc0ae2916157dd1:0xbb33b7203ccec59e!8m2!3d16.167831!4d74.835086!16s%2Fg%2F11g6mt64gg!19sChIJ0X0VFimuwDsRnsXOPCC3M7s?authuser=0&hl=en&rclk=1",
        "coordinates": {
            "latitude": 16.167831,
            "longitude": 74.83508599999999
        }
    },
    {
        "name": "Masjid-e-Garib Nawaz (msjdi Gryb nwz)",
        "main_category": "Mosque",
        "address": "5R5R+FP7 Masjid-e-Garib Nawaz (msjdi Gryb nwz), 1st Main, Gokak, Karnataka 591307",
        "detailed_address": {
            "ward": null,
            "street": "5R5R+FP7, 1st Main",
            "city": "Gokak",
            "postal_code": "591307",
            "state": "Karnataka",
            "country_code": "IN"
        },
        "images": [
            {
                "about": "All",
                "link": "https://lh5.googleusercontent.com/p/AF1QipNvHkt30Q4wrtL3qWZsWtiLxT-LIo40pG9vU2GL=w398-h298-k-no"
            }
        ],
        "link": "https://www.google.com/maps/place/Masjid-e-Garib+Nawaz+%28%D9%85%D8%B3%D8%AC%D8%AF%D9%90+%D8%BA%D8%B1%DB%8C%D8%A8+%D9%86%D9%88%D8%A7%D8%B2%29%E2%80%AD/data=!4m7!3m6!1s0x3bc0afbbce895f27:0x304a8b072d9f1c03!8m2!3d16.1586505!4d74.841798!16s%2Fg%2F11gslxx745!19sChIJJ1-JzruvwDsRAxyfLQeLSjA?authuser=0&hl=en&rclk=1",
        "coordinates": {
            "latitude": 16.1586505,
            "longitude": 74.841798
        }
    },
    {
        "name": "Masjid,Macca mkhWh msjd",
        "main_category": "Mosque",
        "address": "5R99+QF2 Masjid,Macca mkhWh msjd, Steps Way, Maratha Galli Extn, Gokak, Karnataka 591307",
        "detailed_address": {
            "ward": "Maratha Galli Extn",
            "street": "5R99+QF2, Steps Way",
            "city": "Gokak",
            "postal_code": "591307",
            "state": "Karnataka",
            "country_code": "IN"
        },
        "images": [
            {
                "about": "All",
                "link": "https://lh5.googleusercontent.com/p/AF1QipMNeTV3ZKdRgO_mHb011dUefY6suc-1gFa0U7y3=w529-h298-k-no"
            }
        ],
        "link": "https://www.google.com/maps/place/Masjid,Macca+%D9%85%DA%A9%D9%91%DB%81+%D9%85%D8%B3%D8%AC%D8%AF%E2%80%AD/data=!4m7!3m6!1s0x3bc0afd64a996a5d:0xf17c7b182ada4a8c!8m2!3d16.169393!4d74.818654!16s%2Fg%2F11dx9drp59!19sChIJXWqZStavwDsRjEraKhh7fPE?authuser=0&hl=en&rclk=1",
        "coordinates": {
            "latitude": 16.169393,
            "longitude": 74.818654
        }
    },
    {
        "name": "Momin Galli Masjid",
        "main_category": "Mosque",
        "address": "5R9G+4X5 Momin Galli Masjid, Adi Jambav Nagar, Gokak, Karnataka 591307",
        "detailed_address": {
            "ward": "Adi Jambav Nagar",
            "street": "5R9G+4X5",
            "city": "Gokak",
            "postal_code": "591307",
            "state": "Karnataka",
            "country_code": "IN"
        },
        "images": [],
        "link": "https://www.google.com/maps/place/Momin+Galli+Masjid/data=!4m7!3m6!1s0x3bc0af33a20040e7:0x3bfa972506100fd1!8m2!3d16.1677621!4d74.8274691!16s%2Fg%2F11fl5nm0hc!19sChIJ50AAojOvwDsR0Q8QBiWX-js?authuser=0&hl=en&rclk=1",
        "coordinates": {
            "latitude": 16.1677621,
            "longitude": 74.8274691
        }
    },
    {
        "name": "Jamiya Masjid Lolasur",
        "main_category": "Mosque",
        "address": "Jamiya Masjid Lolasur, 5RMJ+3PC, Gokak-Ghataprabha Road, Lolasur, Taluka, Gokak, Karnataka 591224",
        "detailed_address": {
            "ward": null,
            "street": "5RMJ+3PC, Gokak-Ghataprabha Road, Lolasur, Taluka",
            "city": "Gokak",
            "postal_code": "591224",
            "state": "Karnataka",
            "country_code": "IN"
        },
        "images": [
            {
                "about": "All",
                "link": "https://lh5.googleusercontent.com/p/AF1QipMPXanw2JeVqeqDPeRRjzXOLQ8GVKaE6_CroZ2y=w224-h298-k-no"
            },
            {
                "about": "Street View & 360deg",
                "link": "https://streetviewpixels-pa.googleapis.com/v1/thumbnail?panoid=NkgWxYiLnW-8-yzdJ2B9ng&cb_client=maps_sv.tactile.gps&w=224&h=298&yaw=216.35066&pitch=0&thumbfov=100"
            },
            {
                "about": "Videos",
                "link": "https://lh5.googleusercontent.com/p/AF1QipOyYiTeTJ_7K_dylFl62VEeO-6IciU0zLYkjP94=w298-h298-k-no"
            }
        ],
        "link": "https://www.google.com/maps/place/Jamiya+Masjid+Lolasur/data=!4m7!3m6!1s0x3bc0b1d20d261475:0xce806d32a1ac3b24!8m2!3d16.1832444!4d74.830743!16s%2Fg%2F11c6vd7f3h!19sChIJdRQmDdKxwDsRJDusoTJtgM4?authuser=0&hl=en&rclk=1",
        "coordinates": {
            "latitude": 16.1832444,
            "longitude": 74.830743
        }
    },
    {
        "name": "Markaz Masjid-e-Mubarak(Affiliated to Bangale wale masjith, Hz.Nizammuddin)",
        "main_category": "Mosque",
        "address": "5R77+HP7 Markaz Masjid-e-Mubarak(Affiliated to Bangale wale masjith, Hz.Nizammuddin), Cottage Hospital Outer Rd, Mahalingeshwar Nagar, Gokak, Karnataka 591307",
        "detailed_address": {
            "ward": "Mahalingeshwar Nagar",
            "street": "5R77+HP7, Cottage Hospital Outer Rd",
            "city": "Gokak",
            "postal_code": "591307",
            "state": "Karnataka",
            "country_code": "IN"
        },
        "images": [],
        "link": "https://www.google.com/maps/place/Markaz+Masjid-e-Mubarak%28Affiliated+to+Bangale+wale+masjith,+Hz.Nizammuddin%29/data=!4m7!3m6!1s0x3bc0af44024f143b:0x43d1b1c18ab6dc84!8m2!3d16.1639232!4d74.8142874!16s%2Fg%2F11m_m0q3_m!19sChIJOxRPAkSvwDsRhNy2isGx0UM?authuser=0&hl=en&rclk=1",
        "coordinates": {
            "latitude": 16.1639232,
            "longitude": 74.8142874
        }
    },
    {
        "name": "Masjid E Hidayat Gokak",
        "main_category": "Mosque",
        "address": "5RF9+P82 Masjid E Hidayat Gokak, Gokak, Karnataka 591307",
        "detailed_address": {
            "ward": null,
            "street": "5RF9+P82",
            "city": "Gokak",
            "postal_code": "591307",
            "state": "Karnataka",
            "country_code": "IN"
        },
        "images": [
            {
                "about": "All",
                "link": "https://lh5.googleusercontent.com/p/AF1QipMjwickAixRTakAp3oN3svidCnh7k43IWcozHHF=w224-h298-k-no"
            },
            {
                "about": "Dome",
                "link": "https://lh5.googleusercontent.com/p/AF1QipONfDlbGHbS8h46iZOZoziWPO5kvMbMJdw910NQ=w224-h398-k-no"
            }
        ],
        "link": "https://www.google.com/maps/place/Masjid+E+Hidayat+Gokak/data=!4m7!3m6!1s0x3bc0b028fc8c4f3f:0xd3880e0e88fe6792!8m2!3d16.174253!4d74.818255!16s%2Fg%2F11d_8sr06t!19sChIJP0-M_CiwwDsRkmf-iA4OiNM?authuser=0&hl=en&rclk=1",
        "coordinates": {
            "latitude": 16.174253,
            "longitude": 74.818255
        }
    },
    {
        "name": "Masjid-E-Shaikh Zakriya",
        "main_category": "Mosque",
        "address": "5R6J+RPQ Masjid-E-Shaikh Zakriya, Gokak, Karnataka 591307",
        "detailed_address": {
            "ward": null,
            "street": "5R6J+RPQ",
            "city": "Gokak",
            "postal_code": "591307",
            "state": "Karnataka",
            "country_code": "IN"
        },
        "images": [
            {
                "about": "All",
                "link": "https://lh5.googleusercontent.com/p/AF1QipPigFLumWZm8Lf5otQAlJgnUBgh3nY6DvowNoPW=w663-h298-k-no"
            }
        ],
        "link": "https://www.google.com/maps/place/Masjid-E-Shaikh+Zakriya/data=!4m7!3m6!1s0x3bc0afaaa48687d5:0xaa4837314b88ee1b!8m2!3d16.161638!4d74.831376!16s%2Fg%2F11sbvzsq3t!19sChIJ1YeGpKqvwDsRG-6ISzE3SKo?authuser=0&hl=en&rclk=1",
        "coordinates": {
            "latitude": 16.161638,
            "longitude": 74.83137599999999
        }
    },
    {
        "name": "Masjid-E-NoorJaha Gokak",
        "main_category": "Mosque",
        "address": "5V72+X4 Masjid-E-NoorJaha Gokak, Gokak, Karnataka 591307",
        "detailed_address": {
            "ward": null,
            "street": "5V72+X4",
            "city": "Gokak",
            "postal_code": null,
            "state": "Karnataka",
            "country_code": "IN"
        },
        "images": [],
        "link": "https://www.google.com/maps/place/Masjid-E-NoorJaha+Gokak/data=!4m7!3m6!1s0x3bc0af75167b7acd:0x9d53f1d9b434c83a!8m2!3d16.1650447!4d74.8504081!16s%2Fg%2F11trgrl4k9!19sChIJzXp7FnWvwDsROsg0tNnxU50?authuser=0&hl=en&rclk=1",
        "coordinates": {
            "latitude": 16.1650447,
            "longitude": 74.8504081
        }
    },
    {
        "name": "Madina Masjid Naya Nagar Gokak",
        "main_category": "Mosque",
        "address": "5R89+F7R Madina Masjid Naya Nagar Gokak, Govt Moholla, Gokak, Karnataka 591307",
        "detailed_address": {
            "ward": "Govt Moholla",
            "street": "5R89+F7R",
            "city": "Gokak",
            "postal_code": "591307",
            "state": "Karnataka",
            "country_code": "IN"
        },
        "images": [
            {
                "about": "All",
                "link": "https://lh5.googleusercontent.com/p/AF1QipNmZrbFFTpkX-FvDEfEqgsXTCwwu3JLS3oYc7Fo=w224-h497-k-no"
            }
        ],
        "link": "https://www.google.com/maps/place/Madina+Masjid+Naya+Nagar+Gokak/data=!4m7!3m6!1s0x3bc0aff1256bc891:0xab5e2d399398cd07!8m2!3d16.1662098!4d74.8181354!16s%2Fg%2F11tp4c45gb!19sChIJkchrJfGvwDsRB82YkzktXqs?authuser=0&hl=en&rclk=1",
        "coordinates": {
            "latitude": 16.1662098,
            "longitude": 74.8181354
        }
    },
    {
        "name": "Gousiya Masjid Mujawar Mhaolla Gokak",
        "main_category": "Mosque",
        "address": "5R95+5P4 Gousiya Masjid Mujawar Mhaolla Gokak, Samshan Rd 1 - Old Town, Gokak, Karnataka 591307",
        "detailed_address": {
            "ward": null,
            "street": "5R95+5P4, Samshan Rd 1 - Old Town",
            "city": "Gokak",
            "postal_code": "591307",
            "state": "Karnataka",
            "country_code": "IN"
        },
        "images": [
            {
                "about": "All",
                "link": "https://lh5.googleusercontent.com/p/AF1QipPqZWQH6z0vfy9gRjbfbn9ckUi_AV7gO0ujZMxe=w224-h322-k-no"
            }
        ],
        "link": "https://www.google.com/maps/place/Gousiya+Masjid+Mujawar+Mhaolla+Gokak/data=!4m7!3m6!1s0x3bc0af418ad2b1b9:0xd2053cab307a2618!8m2!3d16.1677359!4d74.8090163!16s%2Fg%2F11ts7zrhlp!19sChIJubHSikGvwDsRGCZ6MKs8BdI?authuser=0&hl=en&rclk=1",
        "coordinates": {
            "latitude": 16.1677359,
            "longitude": 74.8090163
        }
    },
    {
        "name": "Noorani Masjid Bojagar Moholla",
        "main_category": "Mosque",
        "address": "5RCG+HH9 Noorani Masjid Bojagar Moholla, 2nd Cross Old Town Rd, Gokak, Karnataka 591307",
        "detailed_address": {
            "ward": null,
            "street": "5RCG+HH9, 2nd Cross Old Town Rd",
            "city": "Gokak",
            "postal_code": "591307",
            "state": "Karnataka",
            "country_code": "IN"
        },
        "images": [
            {
                "about": "All",
                "link": "https://lh5.googleusercontent.com/p/AF1QipPZY9XyVIoCavcCSAwPDQjKdOBBRbJY_tvm3Rva=w224-h497-k-no"
            }
        ],
        "link": "https://www.google.com/maps/place/Noorani+Masjid+Bojagar+Moholla/data=!4m7!3m6!1s0x3bc0afd558ba5feb:0xaa47e21950ac916!8m2!3d16.1714176!4d74.8264962!16s%2Fg%2F11g6rf3f7_!19sChIJ61-6WNWvwDsRFskKlSF-pAo?authuser=0&hl=en&rclk=1",
        "coordinates": {
            "latitude": 16.171417599999998,
            "longitude": 74.8264962
        }
    },
    {
        "name": "Namaz E Janaza Khabrastan Gokak",
        "main_category": "Mosque",
        "address": "5RCG+QQ8 Namaz E Janaza Khabrastan Gokak, Singalapur, Gokak, Karnataka 591307",
        "detailed_address": {
            "ward": null,
            "street": "5RCG+QQ8",
            "city": "Singalapur, Gokak",
            "postal_code": "591307",
            "state": "Karnataka",
            "country_code": "IN"
        },
        "images": [
            {
                "about": "All",
                "link": "https://lh5.googleusercontent.com/p/AF1QipOJPSfgrM-7kv0nLbcI67d3kGQ74zfdq8waN2W5=w661-h298-k-no"
            },
            {
                "about": "Dome",
                "link": "https://lh5.googleusercontent.com/p/AF1QipOrD1XT4eMBDyfiMf1prmutonaPZ4oEyVD4cmOW=w224-h497-k-no"
            }
        ],
        "link": "https://www.google.com/maps/place/Namaz+E+Janaza+Khabrastan+Gokak/data=!4m7!3m6!1s0x3bc0b02aae8e3455:0x6e27042d7f568b48!8m2!3d16.1719047!4d74.8269555!16s%2Fg%2F11gb3z8yg_!19sChIJVTSOriqwwDsRSItWfy0EJ24?authuser=0&hl=en&rclk=1",
        "coordinates": {
            "latitude": 16.1719047,
            "longitude": 74.8269555
        }
    },
    {
        "name": "Faniband Masjid Gokak",
        "main_category": "Mosque",
        "address": "5RCF+3X Faniband Masjid Gokak, Gokak, Karnataka 591307",
        "detailed_address": {
            "ward": null,
            "street": "5RCF+3X",
            "city": "Gokak",
            "postal_code": "591307",
            "state": "Karnataka",
            "country_code": "IN"
        },
        "images": [
            {
                "about": "All",
                "link": "https://lh5.googleusercontent.com/p/AF1QipOLp2MZsPcuXYGnpQZwdix12ktAKU8_EAafy9Ax=w224-h497-k-no"
            },
            {
                "about": "Videos",
                "link": "https://lh5.googleusercontent.com/p/AF1QipOkRuvju6yJ38p6keVDT7l28_rI8e1kz4LM_R8q=w529-h298-k-no"
            }
        ],
        "link": "https://www.google.com/maps/place/Faniband+Masjid+Gokak/data=!4m7!3m6!1s0x3bc0af8554ee9f6f:0x49937bfeb11e4ce4!8m2!3d16.1702038!4d74.824928!16s%2Fg%2F11s11fyv_q!19sChIJb5_uVIWvwDsR5Ewesf57k0k?authuser=0&hl=en&rclk=1",
        "coordinates": {
            "latitude": 16.1702038,
            "longitude": 74.824928
        }
    },
    {
        "name": "Mehdevia daira masjid Gokak",
        "main_category": "Mosque",
        "address": "5R9F+P5W Mehdevia daira masjid Gokak, Market Rd, Jain Basti, Jain Galli, Gokak, Karnataka 591307",
        "detailed_address": {
            "ward": "Jain Basti, Jain Galli",
            "street": "5R9F+P5W, Market Rd",
            "city": "Gokak",
            "postal_code": "591307",
            "state": "Karnataka",
            "country_code": "IN"
        },
        "images": [],
        "link": "https://www.google.com/maps/place/Mehdevia+daira+masjid+Gokak/data=!4m7!3m6!1s0x3bc0af5c0b3422eb:0x14f54ec54b001105!8m2!3d16.1693529!4d74.82295!16s%2Fg%2F11rmwwq7vm!19sChIJ6yI0C1yvwDsRBREAS8VO9RQ?authuser=0&hl=en&rclk=1",
        "coordinates": {
            "latitude": 16.1693529,
            "longitude": 74.82294999999999
        }
    },
    {
        "name": "Masjid,Madina",
        "main_category": "Mosque",
        "address": "5R9C+7QG Masjid,Madina, Hospet Galli, Gokak, Karnataka 580206",
        "detailed_address": {
            "ward": "Hospet Galli",
            "street": "5R9C+7QG",
            "city": "Gokak",
            "postal_code": "580206",
            "state": "Karnataka",
            "country_code": "IN"
        },
        "images": [],
        "link": "https://www.google.com/maps/place/Masjid,Madina/data=!4m7!3m6!1s0x3bb8caf39f94876f:0x26748c1cdf978438!8m2!3d16.1681856!4d74.8219484!16s%2Fg%2F11cr_fzpv_!19sChIJb4eUn_PKuDsROISX3xyMdCY?authuser=0&hl=en&rclk=1",
        "coordinates": {
            "latitude": 16.168185599999997,
            "longitude": 74.8219484
        }
    },
    {
        "name": "Madina masjid (mdynh msjd)",
        "main_category": "Mosque",
        "address": "5R9G+W24 Madina masjid (mdynh msjd), Towards Fish Market, Adi Jambav Nagar, Gokak, Karnataka 591307",
        "detailed_address": {
            "ward": "Adi Jambav Nagar",
            "street": "5R9G+W24, Towards Fish Market",
            "city": "Gokak",
            "postal_code": "591307",
            "state": "Karnataka",
            "country_code": "IN"
        },
        "images": [
            {
                "about": "All",
                "link": "https://lh5.googleusercontent.com/p/AF1QipOljsxM2no4gPBr5z9XIljI2xRSg472yvxgGf61=w529-h298-k-no"
            }
        ],
        "link": "https://www.google.com/maps/place/Madina+masjid+%28%D9%85%D8%AF%DB%8C%D9%86%DB%81+%D9%85%D8%B3%D8%AC%D8%AF%29%E2%80%AD/data=!4m7!3m6!1s0x3bc0af20f0944a1b:0xc3ec3ac5409904ff!8m2!3d16.1697611!4d74.8250639!16s%2Fg%2F11n_xvjf71!19sChIJG0qU8CCvwDsR_wSZQMU67MM?authuser=0&hl=en&rclk=1",
        "coordinates": {
            "latitude": 16.1697611,
            "longitude": 74.8250639
        }
    },
    {
        "name": "USMANIYA MASJID (`thmnyh msjd)",
        "main_category": "Mosque",
        "address": "5R76+PJP USMANIYA MASJID (`thmnyh msjd), Govt Housing Colony Rd, Govt. Housing Colony, Gokak, Karnataka 591307",
        "detailed_address": {
            "ward": "Govt. Housing Colony",
            "street": "5R76+PJP, Govt Housing Colony Rd",
            "city": "Gokak",
            "postal_code": "591307",
            "state": "Karnataka",
            "country_code": "IN"
        },
        "images": [
            {
                "about": "All",
                "link": "https://lh5.googleusercontent.com/p/AF1QipNbsvkXZ-PdvrSX3nVV-A4n4i5BZ8hI6xnll8z9=w224-h298-k-no"
            },
            {
                "about": "Videos",
                "link": "https://lh5.googleusercontent.com/p/AF1QipNmzV_T9H6Nm3hrChhQydoT0DTVfOR_489Qo6Ba=w224-h485-k-no"
            }
        ],
        "link": "https://www.google.com/maps/place/USMANIYA+MASJID+%28%D8%B9%D8%AB%D9%85%D8%A7%D9%86%DB%8C%DB%81+%D9%85%D8%B3%D8%AC%D8%AF%29%E2%80%AD/data=!4m7!3m6!1s0x3bc0af143677ee07:0x5a673b5556814fd2!8m2!3d16.1643368!4d74.8115653!16s%2Fg%2F11rcgj0xrf!19sChIJB-53NhSvwDsR0k-BVlU7Z1o?authuser=0&hl=en&rclk=1",
        "coordinates": {
            "latitude": 16.1643368,
            "longitude": 74.8115653
        }
    },
    {
        "name": "Hajarat Abu-Hurera masjid",
        "main_category": "Mosque",
        "address": "5RFF+WG4 Hajarat Abu-Hurera masjid, Old Town Sector 1, Gokak, Karnataka 591307",
        "detailed_address": {
            "ward": "Old Town Sector 1",
            "street": "5RFF+WG4",
            "city": "Gokak",
            "postal_code": "591307",
            "state": "Karnataka",
            "country_code": "IN"
        },
        "images": [],
        "link": "https://www.google.com/maps/place/Hajarat+Abu-Hurera+masjid/data=!4m7!3m6!1s0x3bc0b178ca2f594d:0xa7fe42c93a8089e6!8m2!3d16.1747709!4d74.8238404!16s%2Fg%2F11r7lqb6_6!19sChIJTVkvynixwDsR5omAOslC_qc?authuser=0&hl=en&rclk=1",
        "coordinates": {
            "latitude": 16.1747709,
            "longitude": 74.8238404
        }
    },
    {
        "name": "Idgah Masjid Gokak",
        "main_category": "Mosque",
        "address": "5R99+4H9 Idgah Masjid Gokak, Old Moholla, Gokak, Karnataka 591307",
        "detailed_address": {
            "ward": "Old Moholla",
            "street": "5R99+4H9",
            "city": "Gokak",
            "postal_code": "591307",
            "state": "Karnataka",
            "country_code": "IN"
        },
        "images": [
            {
                "about": "All",
                "link": "https://lh5.googleusercontent.com/p/AF1QipOinkm0BVZ41IY2AqxFHn7FbMcZb0r0v9104XFt=w645-h298-k-no"
            },
            {
                "about": "By owner",
                "link": "https://lh5.googleusercontent.com/p/AF1QipMcZx8ZUQs4-jPPhBfnh8GO4_P8fTURSCb9s7kA=w313-h298-k-no"
            }
        ],
        "link": "https://www.google.com/maps/place/Idgah+Masjid+Gokak/data=!4m7!3m6!1s0x3bc0afb0e2fdfba1:0xb9667a9af03efbf1!8m2!3d16.1680751!4d74.8191949!16s%2Fg%2F11t6msytdg!19sChIJofv94rCvwDsR8fs-8Jp6Zrk?authuser=0&hl=en&rclk=1",
        "coordinates": {
            "latitude": 16.1680751,
            "longitude": 74.8191949
        }
    },
    {
        "name": "Nadaf Masjid Gokak",
        "main_category": "Mosque",
        "address": "5R9H+93X Nadaf Masjid Gokak, Adi Jambav Nagar, Gokak, Karnataka 591307",
        "detailed_address": {
            "ward": "Adi Jambav Nagar",
            "street": "5R9H+93X",
            "city": "Gokak",
            "postal_code": "591307",
            "state": "Karnataka",
            "country_code": "IN"
        },
        "images": [],
        "link": "https://www.google.com/maps/place/Nadaf+Masjid+Gokak/data=!4m7!3m6!1s0x3bc0afe0ffaf65b3:0x1247172ba9ba396f!8m2!3d16.1685364!4d74.8277414!16s%2Fg%2F11tk9z0zhz!19sChIJs2Wv_-CvwDsRbzm6qSsXRxI?authuser=0&hl=en&rclk=1",
        "coordinates": {
            "latitude": 16.1685364,
            "longitude": 74.8277414
        }
    },
    {
        "name": "Masjid e Hazrat Anas RZ",
        "main_category": "Mosque",
        "address": "5R9H+C39 Masjid e Hazrat Anas RZ, Gokak, Karnataka 591307",
        "detailed_address": {
            "ward": null,
            "street": "5R9H+C39",
            "city": "Gokak",
            "postal_code": null,
            "state": "Karnataka",
            "country_code": "IN"
        },
        "images": [
            {
                "about": "All",
                "link": "https://lh5.googleusercontent.com/p/AF1QipNXG6IrhEX3UGDwG5kIETgRi2cNgO3tRmORLVuD=w224-h298-k-no"
            }
        ],
        "link": "https://www.google.com/maps/place/Masjid+e+Hazrat+Anas+RZ/data=!4m7!3m6!1s0x3bc0af451a26010b:0x149dc6092a1b58b2!8m2!3d16.1685349!4d74.8277405!16s%2Fg%2F11kj3sjb6c!19sChIJCwEmGkWvwDsRslgbKgnGnRQ?authuser=0&hl=en&rclk=1",
        "coordinates": {
            "latitude": 16.1685349,
            "longitude": 74.82774049999999
        }
    },
    {
        "name": "Umar-e-masjid",
        "main_category": "Mosque",
        "address": "Umar-e-masjid, 187/2A, Extn 3rd Cross, Vivekanand Nagar, Gokak Rural, Gokak, Karnataka 591307",
        "detailed_address": {
            "ward": "Vivekanand Nagar",
            "street": "187/2A, Extn 3rd Cross",
            "city": "Gokak Rural, Gokak",
            "postal_code": "591307",
            "state": "Karnataka",
            "country_code": "IN"
        },
        "images": [],
        "link": "https://www.google.com/maps/place/Umar-e-masjid/data=!4m7!3m6!1s0x3bc0afabd7f2ae6f:0x9c9bcfcaa87c06ea!8m2!3d16.1619451!4d74.8259437!16s%2Fg%2F11l6sgyhxz!19sChIJb67y16uvwDsR6gZ8qMrPm5w?authuser=0&hl=en&rclk=1",
        "coordinates": {
            "latitude": 16.1619451,
            "longitude": 74.8259437
        }
    },
    {
        "name": "JUMMA MASIDI",
        "main_category": "Mosque",
        "address": "5R8C+JVQ JUMMA MASIDI, Adi Jambav Nagar, Gokak, Karnataka 591307",
        "detailed_address": {
            "ward": "Adi Jambav Nagar",
            "street": "5R8C+JVQ",
            "city": "Gokak",
            "postal_code": "591307",
            "state": "Karnataka",
            "country_code": "IN"
        },
        "images": [],
        "link": "https://www.google.com/maps/place/JUMMA+MASIDI/data=!4m7!3m6!1s0x3bc0afd417655555:0x317a2e9daaa43b18!8m2!3d16.1665965!4d74.8222461!16s%2Fg%2F11kj3f03sb!19sChIJVVVlF9SvwDsRGDukqp0uejE?authuser=0&hl=en&rclk=1",
        "coordinates": {
            "latitude": 16.1665965,
            "longitude": 74.8222461
        }
    },
    {
        "name": "Bojagar Plot Masjid",
        "main_category": "Mosque",
        "address": "5R6P+27W Bojagar Plot Masjid, Gokak, Karnataka 591307",
        "detailed_address": {
            "ward": null,
            "street": "5R6P+27W",
            "city": "Gokak",
            "postal_code": "591307",
            "state": "Karnataka",
            "country_code": "IN"
        },
        "images": [],
        "link": "https://www.google.com/maps/place/Bojagar+Plot+Masjid/data=!4m7!3m6!1s0x3bc0ae31d1820b3f:0xabb60437f00b4049!8m2!3d16.16012!4d74.835698!16s%2Fg%2F11c6tyxql9!19sChIJPwuC0TGuwDsRSUAL8DcEtqs?authuser=0&hl=en&rclk=1",
        "coordinates": {
            "latitude": 16.16012,
            "longitude": 74.835698
        }
    }
]