[
    {
        "name": "Masjid Faizane Shah Naseer (R.A.)",
        "main_category": "Mosque",
        "address": "Masjid Faizane Shah Naseer (R.A.), Nagla Masjid, 283204, Tundla, Uttar Pradesh",
        "detailed_address": {
            "ward": "Saraswati Nagar",
            "street": "Nagla Masjid, 283204",
            "city": "Tundla, Anwara",
            "postal_code": null,
            "state": "Uttar Pradesh",
            "country_code": "IN"
        },
        "images": [
            {
                "about": "All",
                "link": "https://lh5.googleusercontent.com/p/AF1QipO3oIaRnNAuafzUKguqpd3-qY90MrHuP0WG7qdJ=w529-h298-k-no"
            },
            {
                "about": "Videos",
                "link": "https://lh5.googleusercontent.com/p/AF1QipNMaTytevpgOTzsabApgBIaPbP-6AGiXlZWzDei=w224-h398-k-no"
            }
        ],
        "link": "https://www.google.com/maps/place/Masjid+Faizane+Shah+Naseer+%28R.A.%29/data=!4m7!3m6!1s0x397468e54f419307:0xf88e197602ff05be!8m2!3d27.2035475!4d78.2355651!16s%2Fg%2F11gblvrt3d!19sChIJB5NBT-VodDkRvgX_AnYZjvg?authuser=0&hl=en&rclk=1",
        "coordinates": {
            "latitude": 27.2035475,
            "longitude": 78.2355651
        }
    },
    {
        "name": "Masjid Ghulam-E-Mustafa",
        "main_category": "Mosque",
        "address": "663P+Q4R Masjid Ghulam-E-Mustafa, Nagla Masjid, linepar, Saraswati Nagar, Tundla, Anwara, Uttar Pradesh 283204",
        "detailed_address": {
            "ward": "Saraswati Nagar",
            "street": "663P+Q4R Nagla Masjid, linepar",
            "city": "Tundla, Anwara",
            "postal_code": null,
            "state": "Uttar Pradesh",
            "country_code": "IN"
        },
        "images": [
            {
                "about": "All",
                "link": "https://lh5.googleusercontent.com/p/AF1QipMgnHSmcvywlJhIUYi-AnxwMF-Jd8vrFqAdCc-j=w224-h397-k-no"
            },
            {
                "about": "Videos",
                "link": "https://lh5.googleusercontent.com/p/AF1QipOfkS8t4lSnBrSjmjhgcYr2F-IgbbooZ2SHVWPg=w529-h298-k-no"
            }
        ],
        "link": "https://www.google.com/maps/place/Masjid+Ghulam-E-Mustafa/data=!4m7!3m6!1s0x39746955fa0a946f:0x84e6b564202b0401!8m2!3d27.2044786!4d78.2352579!16s%2Fg%2F11gxn9h7mc!19sChIJb5QK-lVpdDkRAQQrIGS15oQ?authuser=0&hl=en&rclk=1",
        "coordinates": {
            "latitude": 27.204478599999998,
            "longitude": 78.2352579
        }
    },
    {
        "name": "JAMA MASJID TUNDLA FIROZABAD",
        "main_category": "Mosque",
        "address": "JAMA MASJID TUNDLA FIROZABAD, Tundla Kham, Tundla, Uttar Pradesh 283204",
        "detailed_address": {
            "ward": null,
            "street": null,
            "city": "Tundla Kham, Tundla",
            "postal_code": "283204",
            "state": "Uttar Pradesh",
            "country_code": "IN"
        },
        "images": [
            {
                "about": "All",
                "link": "https://lh5.googleusercontent.com/p/AF1QipMKq82WgB_21B0mLH1TFAroR5MYq_wSdowEpDyi=w529-h298-k-no"
            },
            {
                "about": "By owner",
                "link": "https://lh5.googleusercontent.com/p/AF1QipNWf53bK5V7b_4uuCx7veNpfwLiYvCNgbNrpQ1k=w224-h497-k-no"
            },
            {
                "about": "Videos",
                "link": "https://lh5.googleusercontent.com/p/AF1QipPs-2f2lJGw--pYz7jjEH-UrbWdQXPM6hgMDOK8=w224-h398-k-no"
            }
        ],
        "link": "https://www.google.com/maps/place/JAMA+MASJID+TUNDLA+FIROZABAD/data=!4m7!3m6!1s0x39746905172742e1:0x114380579ad0758a!8m2!3d27.2120468!4d78.2339195!16s%2Fg%2F11gjxcj52z!19sChIJ4UInFwVpdDkRinXQmleAQxE?authuser=0&hl=en&rclk=1",
        "coordinates": {
            "latitude": 27.2120468,
            "longitude": 78.2339195
        }
    },
    {
        "name": "Choti Masjid",
        "main_category": "Mosque",
        "address": "666P+G8W Choti Masjid, Company Bagh Road, Tundla Rly. Colony, Uttar Pradesh 283204",
        "detailed_address": {
            "ward": null,
            "street": "666P+G8W, Company Bagh Road",
            "city": "Tundla Rly. Colony",
            "postal_code": "283204",
            "state": "Uttar Pradesh",
            "country_code": "IN"
        },
        "images": [],
        "link": "https://www.google.com/maps/place/Choti+Masjid/data=!4m7!3m6!1s0x397469788838d819:0x4dd87c33084583f1!8m2!3d27.2113679!4d78.2358165!16s%2Fg%2F11rsdch0pz!19sChIJGdg4iHhpdDkR8YNFCDN82E0?authuser=0&hl=en&rclk=1",
        "coordinates": {
            "latitude": 27.2113679,
            "longitude": 78.2358165
        }
    },
    {
        "name": "Masjid",
        "main_category": "Mosque",
        "address": "66GR+XWV Masjid, Tundli, Uttar Pradesh 283204",
        "detailed_address": {
            "ward": null,
            "street": "66GR+XWV",
            "city": "Tundli",
            "postal_code": "283204",
            "state": "Uttar Pradesh",
            "country_code": "IN"
        },
        "images": [],
        "link": "https://www.google.com/maps/place/Masjid/data=!4m7!3m6!1s0x3974697d628d34e3:0x367554978bdca42f!8m2!3d27.2274906!4d78.2423095!16s%2Fg%2F11ff0vtgsd!19sChIJ4zSNYn1pdDkRL6Tci5dUdTY?authuser=0&hl=en&rclk=1",
        "coordinates": {
            "latitude": 27.2274906,
            "longitude": 78.24230949999999
        }
    }
]