[
    {
        "name": "Loko Masjid bandikui ,Roshan Zamir",
        "main_category": "Mosque",
        "address": "2HQ8+276 Loko Masjid bandikui ,Roshan Zamir, Syalawas Khurd Rural, Bandikui, Rajasthan 303313",
        "detailed_address": {
            "ward": null,
            "street": "2HQ8+276, Syalawas Khurd Rural",
            "city": "Bandikui",
            "postal_code": "303313",
            "state": "Rajasthan",
            "country_code": "IN"
        },
        "images": [
            {
                "about": "All",
                "link": "https://lh5.googleusercontent.com/p/AF1QipMV2gPkiy84iRK-vuv6LkDOdKphFsewY6c6eIU1=w529-h298-k-no"
            },
            {
                "about": "Videos",
                "link": "https://lh5.googleusercontent.com/p/AF1QipOL3_7b3IAIK4Ee7AfDEEir14aXgEw2fEvIduYX=w224-h398-k-no"
            }
        ],
        "link": "https://www.google.com/maps/place/Loko+Masjid+bandikui+,Roshan+Zamir/data=!4m7!3m6!1s0x39727126c92d2d31:0x67e51f61534f2224!8m2!3d27.0375358!4d76.5656406!16s%2Fg%2F11c45w4tj5!19sChIJMS0tySZxcjkRJCJPU2Ef5Wc?authuser=0&hl=en&rclk=1",
        "coordinates": {
            "latitude": 27.037535799999997,
            "longitude": 76.5656406
        }
    },
    {
        "name": "SHAHID MOSQUE",
        "main_category": "Mosque",
        "address": "3H49+G6F SHAHID MOSQUE, Naranpura, Rajasthan 303313",
        "detailed_address": {
            "ward": null,
            "street": "3H49+G6F",
            "city": "Naranpura",
            "postal_code": "303313",
            "state": "Rajasthan",
            "country_code": "IN"
        },
        "images": [
            {
                "about": "All",
                "link": "https://lh5.googleusercontent.com/p/AF1QipOVELh9vRbeNvajFD7uWCC1sq4R9fcok9lRIGPG=w224-h298-k-no"
            }
        ],
        "link": "https://www.google.com/maps/place/SHAHID+MOSQUE/data=!4m7!3m6!1s0x3972717faee7927d:0x4989d05c828b3360!8m2!3d27.0563099!4d76.5680374!16s%2Fg%2F11rypg562h!19sChIJfZLnrn9xcjkRYDOLglzQiUk?authuser=0&hl=en&rclk=1",
        "coordinates": {
            "latitude": 27.0563099,
            "longitude": 76.5680374
        }
    },
    {
        "name": "Eidgaah",
        "main_category": "Mosque",
        "address": "2HRC+8M6 Eidgaah, Bandikui Rd, Syalawas Khurd Rural, Bandikui, Rajasthan 303313",
        "detailed_address": {
            "ward": null,
            "street": "2HRC+8M6, Bandikui Rd",
            "city": "Syalawas Khurd Rural, Bandikui",
            "postal_code": "303313",
            "state": "Rajasthan",
            "country_code": "IN"
        },
        "images": [
            {
                "about": "All",
                "link": "https://streetviewpixels-pa.googleapis.com/v1/thumbnail?panoid=ahAlHRjIdWJK9e_fPPmGxg&cb_client=maps_sv.tactile.gps&w=224&h=298&yaw=235.94775&pitch=0&thumbfov=100"
            },
            {
                "about": "Street View & 360deg",
                "link": "https://streetviewpixels-pa.googleapis.com/v1/thumbnail?panoid=ahAlHRjIdWJK9e_fPPmGxg&cb_client=maps_sv.tactile.gps&w=224&h=298&yaw=235.94775&pitch=0&thumbfov=100"
            }
        ],
        "link": "https://www.google.com/maps/place/Eidgaah/data=!4m7!3m6!1s0x397271201f215429:0x5c29979cfcfcea4!8m2!3d27.0407989!4d76.5716493!16s%2Fg%2F11c60c26q0!19sChIJKVQhHyBxcjkRpM7Pz3mZwgU?authuser=0&hl=en&rclk=1",
        "coordinates": {
            "latitude": 27.0407989,
            "longitude": 76.57164929999999
        }
    }
]