[
    {
        "name": "Bilal Masjid",
        "main_category": "Mosque",
        "address": "Bilal Masjid, F-224, Shaheen Bagh, Block A, Jamia Nagar, Okhla, New Delhi, Delhi 110025",
        "detailed_address": {
            "ward": "Shaheen Bagh, Block A, Jamia Nagar, Okhla",
            "street": "F-224",
            "city": "New Delhi",
            "postal_code": "110025",
            "state": "Delhi",
            "country_code": "IN"
        },
        "images": [],
        "link": "https://www.google.com/maps/place/Bilal+Masjid/data=!4m7!3m6!1s0x390ce41c53c62c95:0x6650af61b8ea0827!8m2!3d28.5498897!4d77.2999682!16s%2Fg%2F11b7y9mx4s!19sChIJlSzGUxzkDDkRJwjquGGvUGY?authuser=0&hl=en&rclk=1",
        "coordinates": {
            "latitude": 28.549889699999998,
            "longitude": 77.2999682
        }
    },
    {
        "name": "Bilal Masjid msjd bll",
        "main_category": "Mosque",
        "address": "Bilal Masjid msjd bll, Bilal Masjid, 3, Street No 29, D Block, Abul Fazal Enclave, Part-1 Block D, Jamia Nagar, Okhla, New Delhi, Delhi 110025",
        "detailed_address": {
            "ward": "D Block, Abul Fazal Enclave, Part-1 Block D, Jamia Nagar, Okhla",
            "street": "Bilal Masjid, 3, Street No 29",
            "city": "New Delhi",
            "postal_code": "110025",
            "state": "Delhi",
            "country_code": "IN"
        },
        "images": [
            {
                "about": "All",
                "link": "https://lh5.googleusercontent.com/p/AF1QipOe2Y7aDrsqmarEcc6PFJ6tn74szNF-BAkmohFS=w397-h298-k-no"
            },
            {
                "about": "Street View & 360deg",
                "link": "https://streetviewpixels-pa.googleapis.com/v1/thumbnail?panoid=L5Z2RPbceOTFGdRbUFivWw&cb_client=maps_sv.tactile.gps&w=224&h=298&yaw=210.18018&pitch=0&thumbfov=100"
            },
            {
                "about": "Videos",
                "link": "https://lh5.googleusercontent.com/p/AF1QipOj12mSYBL_PrP5s_7gu-V48T09ZGgdOIPqIJIT=w224-h398-k-no"
            }
        ],
        "link": "https://www.google.com/maps/place/Bilal+Masjid+%D9%85%D8%B3%D8%AC%D8%AF+%D8%A8%D9%84%D8%A7%D9%84%E2%80%AD/data=!4m7!3m6!1s0x390ce50f2af84891:0x3bc522ba8b7bd90a!8m2!3d28.5583498!4d77.2940393!16s%2Fg%2F11hdwgl3f4!19sChIJkUj4Kg_lDDkRCtl7i7oixTs?authuser=0&hl=en&rclk=1",
        "coordinates": {
            "latitude": 28.5583498,
            "longitude": 77.2940393
        }
    },
    {
        "name": "Bait Ul Noor Masjid",
        "main_category": "Mosque",
        "address": "Bait Ul Noor Masjid, Indira Gandhi Camp - 1, Block D, Taimoor Nagar, New Friends Colony, New Delhi, Delhi 110025",
        "detailed_address": {
            "ward": "Block D, Taimoor Nagar, New Friends Colony",
            "street": "Indira Gandhi Camp - 1",
            "city": "New Delhi",
            "postal_code": "110025",
            "state": "Delhi",
            "country_code": "IN"
        },
        "images": [
            {
                "about": "All",
                "link": "https://lh5.googleusercontent.com/p/AF1QipNqDkwiUUPxVVgX4gbAhKMNnvgP3zu-PZuSn9Be=w531-h298-k-no"
            },
            {
                "about": "Street View & 360deg",
                "link": "https://streetviewpixels-pa.googleapis.com/v1/thumbnail?panoid=eFnGMeE7dTtV9WExwcX-cQ&cb_client=maps_sv.tactile.gps&w=224&h=298&yaw=240.54243&pitch=0&thumbfov=100"
            }
        ],
        "link": "https://www.google.com/maps/place/Bait+Ul+Noor+Masjid/data=!4m7!3m6!1s0x390ce3b63c45baf3:0xfa4011e6f94af5dc!8m2!3d28.5687986!4d77.2677099!16s%2Fg%2F11g0_nymdb!19sChIJ87pFPLbjDDkR3PVK-eYRQPo?authuser=0&hl=en&rclk=1",
        "coordinates": {
            "latitude": 28.568798599999997,
            "longitude": 77.2677099
        }
    },
    {
        "name": "Masjid, bela",
        "main_category": "Mosque",
        "address": "H3PW+V3J Masjid, bela, Bela, Rajasthan 321024",
        "detailed_address": {
            "ward": null,
            "street": "H3PW+V3J",
            "city": "Bela",
            "postal_code": "321024",
            "state": "Rajasthan",
            "country_code": "IN"
        },
        "images": [
            {
                "about": "All",
                "link": "https://lh5.googleusercontent.com/p/AF1QipOil1xcIdQbiUiUv4jBS_i_me1B0-4okREakDD2=w224-h298-k-no"
            }
        ],
        "link": "https://www.google.com/maps/place/Masjid,+bela/data=!4m7!3m6!1s0x3972e5806f410b85:0x20e774e5581edf5c!8m2!3d27.5872103!4d77.095134!16s%2Fg%2F11h2jtfhk5!19sChIJhQtBb4DlcjkRXN8eWOV05yA?authuser=0&hl=en&rclk=1",
        "coordinates": {
            "latitude": 27.5872103,
            "longitude": 77.095134
        }
    },
    {
        "name": "Badi Masjid",
        "main_category": "Mosque",
        "address": "2CFH+P76 Badi Masjid, Bela, Haryana 121106",
        "detailed_address": {
            "ward": null,
            "street": "2CFH+P76",
            "city": "Bela",
            "postal_code": "121106",
            "state": "Haryana",
            "country_code": "IN"
        },
        "images": [
            {
                "about": "All",
                "link": "https://lh5.googleusercontent.com/p/AF1QipM6_lpyrX3sykGXxOxUEdDF9Ie3NRACw2trv6ss=w645-h298-k-no"
            },
            {
                "about": "Videos",
                "link": "https://lh5.googleusercontent.com/p/AF1QipPdzHROM5xnfEcYN7A7KbFPODRUv8-bO58pW58B=w224-h398-k-no"
            }
        ],
        "link": "https://www.google.com/maps/place/Badi+Masjid/data=!4m7!3m6!1s0x39733376911a3777:0x5635a74088a38fd!8m2!3d28.0242761!4d77.428142!16s%2Fg%2F11gy37k2y3!19sChIJdzcakXYzczkR_TiKCHRaYwU?authuser=0&hl=en&rclk=1",
        "coordinates": {
            "latitude": 28.024276099999998,
            "longitude": 77.428142
        }
    }
]