[
    {
        "name": "Mandi Masjid",
        "main_category": "Mosque",
        "address": "XPF5+6GX Mandi Masjid, Guru Nanak Nagar, Mandi Dabwali, Chak Kharak Singhwala Urf Doomwali, Punjab 125104",
        "detailed_address": {
            "ward": "Guru Nanak Nagar",
            "street": "XPF5+6GX",
            "city": "Mandi Dabwali, Chak Kharak Singhwala Urf Doomwali",
            "postal_code": "125104",
            "state": "Punjab",
            "country_code": "IN"
        },
        "images": [
            {
                "about": "All",
                "link": "https://lh5.googleusercontent.com/p/AF1QipOLISraxBoOshE8AqDwHBrPrykU7-nBlz9ppHMx=w224-h298-k-no"
            },
            {
                "about": "Street View & 360deg",
                "link": "https://streetviewpixels-pa.googleapis.com/v1/thumbnail?panoid=O2C8sCL3xyhkz-F3e8VGeA&cb_client=maps_sv.tactile.gps&w=224&h=298&yaw=341.20456&pitch=0&thumbfov=100"
            }
        ],
        "link": "https://www.google.com/maps/place/Mandi+Masjid/data=!4m7!3m6!1s0x3916d8bfc7647ca7:0x78bbd2ed698e5afd!8m2!3d29.9731057!4d74.7088706!16s%2Fg%2F11b8v4j1_x!19sChIJp3xkx7_YFjkR_VqOae3Su3g?authuser=0&hl=en&rclk=1",
        "coordinates": {
            "latitude": 29.973105699999998,
            "longitude": 74.7088706
        }
    },
    {
        "name": "Dadawali masjid",
        "main_category": "Mosque",
        "address": "Dadawali masjid, 276, Haryana 121103",
        "detailed_address": {
            "ward": null,
            "street": "276",
            "city": null,
            "postal_code": "121103",
            "state": "Haryana",
            "country_code": "IN"
        },
        "images": [
            {
                "about": "All",
                "link": "https://lh5.googleusercontent.com/p/AF1QipM5Tot8ZYC9RJb6cQPj6o9rCYBJxc1MHWRR1KLt=w224-h398-k-no"
            }
        ],
        "link": "https://www.google.com/maps/place/Dadawali+masjid/data=!4m7!3m6!1s0x3972d7a6e00cc3e7:0x143ad7c4f7e1a862!8m2!3d27.9582036!4d77.1863439!16s%2Fg%2F11h18mkrtx!19sChIJ58MM4KbXcjkRYqjh98TXOhQ?authuser=0&hl=en&rclk=1",
        "coordinates": {
            "latitude": 27.958203599999997,
            "longitude": 77.1863439
        }
    },
    {
        "name": "msjd Masjid",
        "main_category": "Mosque",
        "address": "8W5H+F69 msjd Masjid, Dabwali, Bahawalnagar, Punjab, Pakistan",
        "detailed_address": {
            "ward": null,
            "street": "8W5H+F69",
            "city": "Dabwali",
            "postal_code": null,
            "state": "Bahawalnagar, Punjab",
            "country_code": "PK"
        },
        "images": [],
        "link": "https://www.google.com/maps/place/%D9%85%D8%B3%D8%AC%D8%AF+Masjid%E2%80%AD/data=!4m7!3m6!1s0x39179555ad723e8f:0xfeab3a45eb85a8d5!8m2!3d30.308675!4d73.9281062!16s%2Fg%2F11h3x845d0!19sChIJjz5yrVWVFzkR1aiF60U6q_4?authuser=0&hl=en&rclk=1",
        "coordinates": {
            "latitude": 30.308674999999997,
            "longitude": 73.9281062
        }
    }
]