[
    {
        "name": "Gazi Masjid New Colony Bijbehara",
        "main_category": "Mosque",
        "address": "Q4X4+R9V Gazi Masjid New Colony Bijbehara, New Colony - Baba Mohalla Rd, New Colony Bijbehara, Bijbehara, Jammu and Kashmir 192124",
        "detailed_address": {
            "ward": "New Colony Bijbehara",
            "street": "Q4X4+R9V, New Colony - Baba Mohalla Rd",
            "city": "Bijbehara",
            "postal_code": "192124",
            "state": "Jammu and Kashmir",
            "country_code": "IN"
        },
        "images": [
            {
                "about": "All",
                "link": "https://lh5.googleusercontent.com/p/AF1QipMqVki-9Bi1CARY4zHivv69PaeHA67CJq12kCNz=w298-h298-k-no"
            },
            {
                "about": "Dome",
                "link": "https://lh5.googleusercontent.com/p/AF1QipNPbJBhszEiLJwdphx4pptp5So4UTSB58fUg27s=w396-h298-k-no"
            },
            {
                "about": "Videos",
                "link": "https://lh5.googleusercontent.com/p/AF1QipNxGVdm0pq9fD2lehfpn1HQd9QTydCwDJ71yakw=w529-h298-k-no"
            }
        ],
        "link": "https://www.google.com/maps/place/Gazi+Masjid+New+Colony+Bijbehara/data=!4m7!3m6!1s0x38e21b1e4cb5f40f:0xafe9f9d22d7804b!8m2!3d33.7996243!4d75.1059186!16s%2Fg%2F11btv67m01!19sChIJD_S1TB4b4jgRS4DXIp2f_go?authuser=0&hl=en&rclk=1",
        "coordinates": {
            "latitude": 33.7996243,
            "longitude": 75.1059186
        }
    },
    {
        "name": "Masjid Bilal New Colony Bijbehara",
        "main_category": "Mosque",
        "address": "R423+5JM Masjid Bilal New Colony Bijbehara, New Colony - Baba Mohalla Rd, New Colony Bijbehara, Bijbehara, Jammu and Kashmir 192124",
        "detailed_address": {
            "ward": "New Colony Bijbehara",
            "street": "R423+5JM, New Colony - Baba Mohalla Rd",
            "city": "Bijbehara",
            "postal_code": "192124",
            "state": "Jammu and Kashmir",
            "country_code": "IN"
        },
        "images": [
            {
                "about": "All",
                "link": "https://lh5.googleusercontent.com/p/AF1QipMn9aD7foIPn5HcdUq17JlsxFzRbZw6xBAqP2Iu=w397-h298-k-no"
            },
            {
                "about": "Dome",
                "link": "https://lh5.googleusercontent.com/p/AF1QipPXElIs5JbpFZtJh3DbLbIYFJLUfMPl6nf4HWxc=w662-h298-k-no"
            }
        ],
        "link": "https://www.google.com/maps/place/Masjid+Bilal+New+Colony+Bijbehara/data=!4m7!3m6!1s0x38e21b1eedc596e3:0xd2928fbadfee7a0d!8m2!3d33.8004579!4d75.1040518!16s%2Fg%2F11b7qvkw1x!19sChIJ45bF7R4b4jgRDXru37qPktI?authuser=0&hl=en&rclk=1",
        "coordinates": {
            "latitude": 33.8004579,
            "longitude": 75.1040518
        }
    },
    {
        "name": "Jamia Ahli Hadith",
        "main_category": "Mosque",
        "address": "Q4R4+WXP Jamia Ahli Hadith, Ahanger Mohalla, Bijbehara, Jammu and Kashmir 192124",
        "detailed_address": {
            "ward": "Ahanger Mohalla",
            "street": "Q4R4+WXP",
            "city": "Bijbehara",
            "postal_code": "192124",
            "state": "Jammu and Kashmir",
            "country_code": "IN"
        },
        "images": [],
        "link": "https://www.google.com/maps/place/Jamia+Ahli+Hadith/data=!4m7!3m6!1s0x38e21b20a5fb448f:0x5cc1a6291a99904f!8m2!3d33.7923253!4d75.1074566!16s%2Fg%2F1hm1rdj0v!19sChIJj0T7pSAb4jgRT5CZGimmwVw?authuser=0&hl=en&rclk=1",
        "coordinates": {
            "latitude": 33.7923253,
            "longitude": 75.10745659999999
        }
    },
    {
        "name": "Jamia Masjid Bijbehara",
        "main_category": "Mosque",
        "address": "Q4V4+MWH Jamia Masjid Bijbehara, Zirpara - Baba Mohalla Rd, Bijbehara, Jammu and Kashmir 192124",
        "detailed_address": {
            "ward": null,
            "street": "Q4V4+MWH, Zirpara - Baba Mohalla Rd",
            "city": "Bijbehara",
            "postal_code": "192124",
            "state": "Jammu and Kashmir",
            "country_code": "IN"
        },
        "images": [
            {
                "about": "All",
                "link": "https://lh5.googleusercontent.com/p/AF1QipMnRGC8eTkfNDHVe1DoubvvFfTKUdpD8piZPi5T=w224-h298-k-no"
            },
            {
                "about": "Videos",
                "link": "https://lh5.googleusercontent.com/p/AF1QipNdRdaxjO-gtFJk6QpmH_yXvt118CiY03_nsjxy=w224-h398-k-no"
            }
        ],
        "link": "https://www.google.com/maps/place/Jamia+Masjid+Bijbehara/data=!4m7!3m6!1s0x38e21b20872495bf:0xc6f2bfb39963757c!8m2!3d33.7941955!4d75.1073688!16s%2Fg%2F11bc7v0y8w!19sChIJv5UkhyAb4jgRfHVjmbO_8sY?authuser=0&hl=en&rclk=1",
        "coordinates": {
            "latitude": 33.7941955,
            "longitude": 75.1073688
        }
    },
    {
        "name": "Jamia Masjid",
        "main_category": "Mosque",
        "address": "Jamia Masjid, 192124",
        "detailed_address": {
            "ward": null,
            "street": null,
            "city": null,
            "postal_code": null,
            "state": null,
            "country_code": null
        },
        "images": [],
        "link": "https://www.google.com/maps/place/Jamia+Masjid/data=!4m7!3m6!1s0x38e21b2f7067e9c3:0xf7766bb5ba38beee!8m2!3d33.7813232!4d75.0957155!16s%2Fg%2F113j3ynnq!19sChIJw-lncC8b4jgR7r44urVrdvc?authuser=0&hl=en&rclk=1",
        "coordinates": {
            "latitude": 33.781323199999996,
            "longitude": 75.0957155
        }
    },
    {
        "name": "Hanafia Jamia Shahi Masjid, Zirpara",
        "main_category": "Mosque",
        "address": "Q4R5+MG3 Hanafia Jamia Shahi Masjid, Zirpara, Zirpara, Bijbehara, Jammu and Kashmir 192124",
        "detailed_address": {
            "ward": "Zirpara",
            "street": "Q4R5+MG3",
            "city": "Bijbehara",
            "postal_code": "192124",
            "state": "Jammu and Kashmir",
            "country_code": "IN"
        },
        "images": [
            {
                "about": "All",
                "link": "https://lh5.googleusercontent.com/p/AF1QipO7akHh2i0dD0Hw7m3f3NREzSpQE7mH5osaIxzh=w412-h298-k-no"
            },
            {
                "about": "Dome",
                "link": "https://lh5.googleusercontent.com/p/AF1QipO7akHh2i0dD0Hw7m3f3NREzSpQE7mH5osaIxzh=w412-h298-k-no"
            }
        ],
        "link": "https://www.google.com/maps/place/Hanafia+Jamia+Shahi+Masjid,+Zirpara/data=!4m7!3m6!1s0x38e21bfdd6a9687f:0x1d1e90f62a5b4f6d!8m2!3d33.7916352!4d75.1087872!16s%2Fg%2F11lfqs14vz!19sChIJf2ip1v0b4jgRbU9bKvaQHh0?authuser=0&hl=en&rclk=1",
        "coordinates": {
            "latitude": 33.7916352,
            "longitude": 75.1087872
        }
    },
    {
        "name": "Masjid Abu-ul-Fuqarah",
        "main_category": "Mosque",
        "address": "Q4W5+GJF Masjid Abu-ul-Fuqarah, Vaid Mohalla Rd, Baba Mohalla, Bijbehara, Jammu and Kashmir 192124",
        "detailed_address": {
            "ward": "Baba Mohalla",
            "street": "Q4W5+GJF, Vaid Mohalla Rd",
            "city": "Bijbehara",
            "postal_code": "192124",
            "state": "Jammu and Kashmir",
            "country_code": "IN"
        },
        "images": [],
        "link": "https://www.google.com/maps/place/Masjid+Abu-ul-Fuqarah/data=!4m7!3m6!1s0x38e21adfdefdc867:0x97a11be693fdeaf3!8m2!3d33.7963243!4d75.109049!16s%2Fg%2F11b7wc48b2!19sChIJZ8j93t8a4jgR8-r9k-YboZc?authuser=0&hl=en&rclk=1",
        "coordinates": {
            "latitude": 33.7963243,
            "longitude": 75.109049
        }
    },
    {
        "name": "Markazi Hanfia Jamia Guree",
        "main_category": "Mosque",
        "address": "Q47J+4CG Markazi Hanfia Jamia Guree, Guree, Bijbehara, Jammu and Kashmir 192124",
        "detailed_address": {
            "ward": "Guree",
            "street": "Q47J+4CG",
            "city": "Bijbehara",
            "postal_code": null,
            "state": "Jammu and Kashmir",
            "country_code": "IN"
        },
        "images": [
            {
                "about": "All",
                "link": "https://lh5.googleusercontent.com/p/AF1QipPg-KNt63jIQpNZsZupAND4HIzI7vlQk9AtK_fk=w397-h298-k-no"
            },
            {
                "about": "Videos",
                "link": "https://lh5.googleusercontent.com/p/AF1QipNKYoH2lnx2cnKqmkOpwLnV4EVFmzXwLs9BRrD4=w529-h298-k-no"
            }
        ],
        "link": "https://www.google.com/maps/place/Markazi+Hanfia+Jamia+Guree/data=!4m7!3m6!1s0x38e20538a0b6e80d:0x35671a905666d7a3!8m2!3d33.7628059!4d75.1310763!16s%2Fg%2F11gglt14dd!19sChIJDei2oDgF4jgRo9dmVpAaZzU?authuser=0&hl=en&rclk=1",
        "coordinates": {
            "latitude": 33.7628059,
            "longitude": 75.1310763
        }
    },
    {
        "name": "Masjid-e-Usmani Gani RA",
        "main_category": "Mosque",
        "address": "Q3PQ+P34 Masjid-e-Usmani Gani RA, Jabli Pora, Jammu and Kashmir",
        "detailed_address": {
            "ward": null,
            "street": "Q3PQ+P34, Jabli Pora",
            "city": null,
            "postal_code": null,
            "state": "Jammu and Kashmir",
            "country_code": "IN"
        },
        "images": [],
        "link": "https://www.google.com/maps/place/Masjid-e-Usmani+Gani+RA/data=!4m7!3m6!1s0x38e21bbaae71df3f:0x65b5b72f90e9c73f!8m2!3d33.7867732!4d75.0877145!16s%2Fg%2F11h0psmwhr!19sChIJP99xrrob4jgRP8fpkC-3tWU?authuser=0&hl=en&rclk=1",
        "coordinates": {
            "latitude": 33.7867732,
            "longitude": 75.08771449999999
        }
    },
    {
        "name": "The Mosque Of Wahabi's",
        "main_category": "Mosque",
        "address": "Q4R5+W2G The Mosque Of Wahabi's, Ahanger Mohalla, Bijbehara, 192124",
        "detailed_address": {
            "ward": "Ahanger Mohalla",
            "street": "Q4R5+W2G",
            "city": "Bijbehara",
            "postal_code": "192124",
            "state": null,
            "country_code": "IN"
        },
        "images": [],
        "link": "https://www.google.com/maps/place/The+Mosque+Of+Wahabi%27s/data=!4m7!3m6!1s0x38e21bd32e281ab3:0x79d589aac35574de!8m2!3d33.7923121!4d75.107586!16s%2Fg%2F11rbry4znr!19sChIJsxooLtMb4jgR3nRVw6qJ1Xk?authuser=0&hl=en&rclk=1",
        "coordinates": {
            "latitude": 33.7923121,
            "longitude": 75.107586
        }
    },
    {
        "name": "Jamia Masjid Katriteng.",
        "main_category": "Mosque",
        "address": "R445+R7C Jamia Masjid Katriteng., Katriteng, Bijbehara, 192124",
        "detailed_address": {
            "ward": null,
            "street": "R445+R7C, Katriteng",
            "city": "Bijbehara, Katriteng",
            "postal_code": "192124",
            "state": null,
            "country_code": "IN"
        },
        "images": [],
        "link": "https://www.google.com/maps/place/Jamia+Masjid+Katriteng./data=!4m7!3m6!1s0x38e21b10feccb6bd:0xb5d353bfff0dc0b6!8m2!3d33.8070715!4d75.1081345!16s%2Fg%2F11q97h3542!19sChIJvbbM_hAb4jgRtsAN_79T07U?authuser=0&hl=en&rclk=1",
        "coordinates": {
            "latitude": 33.8070715,
            "longitude": 75.10813449999999
        }
    },
    {
        "name": "Masjid - E- IBRAHIM",
        "main_category": "Mosque",
        "address": "Masjid - E- IBRAHIM, 192124",
        "detailed_address": {
            "ward": null,
            "street": null,
            "city": null,
            "postal_code": "192124",
            "state": null,
            "country_code": "IN"
        },
        "images": [],
        "link": "https://www.google.com/maps/place/Masjid+-+E-+IBRAHIM/data=!4m7!3m6!1s0x38e21bfe780d8b09:0xecfa19557f0f6e19!8m2!3d33.7940299!4d75.1107101!16s%2Fg%2F11pcpp0p1x!19sChIJCYsNeP4b4jgRGW4Pf1UZ-uw?authuser=0&hl=en&rclk=1",
        "coordinates": {
            "latitude": 33.7940299,
            "longitude": 75.11071009999999
        }
    },
    {
        "name": "JAMMIA MASJID SHAREEF (B)",
        "main_category": "Mosque",
        "address": "JAMMIA MASJID SHAREEF (B), Pazalpora, Bijbehara, Jammu and Kashmir 192124",
        "detailed_address": {
            "ward": "Pazalpora",
            "street": null,
            "city": "Bijbehara",
            "postal_code": "192124",
            "state": "Jammu and Kashmir",
            "country_code": "IN"
        },
        "images": [
            {
                "about": "All",
                "link": "https://lh5.googleusercontent.com/p/AF1QipM7E1Hz9Sejo3bLFRygC9h-vS08on5aRXgf7Ho6=w397-h298-k-no"
            },
            {
                "about": "By owner",
                "link": "https://lh5.googleusercontent.com/p/AF1QipNaKehBG9YGMe0EGPnyjhXU4dDL0F9qywFHsMfb=w662-h298-k-no"
            }
        ],
        "link": "https://www.google.com/maps/place/JAMMIA+MASJID+SHAREEF+%28B%29/data=!4m7!3m6!1s0x38e21ba7b47c3025:0x638cdb4371c07a44!8m2!3d33.7796573!4d75.1081201!16s%2Fg%2F11qpltdxkp!19sChIJJTB8tKcb4jgRRHrAcUPbjGM?authuser=0&hl=en&rclk=1",
        "coordinates": {
            "latitude": 33.7796573,
            "longitude": 75.1081201
        }
    },
    {
        "name": "Masjid Sharif",
        "main_category": "Mosque",
        "address": "Q4W7+W87 Masjid Sharif, Hayar, 192124",
        "detailed_address": {
            "ward": null,
            "street": "Q4W7+W87",
            "city": "Hayar",
            "postal_code": "192124",
            "state": null,
            "country_code": "IN"
        },
        "images": [],
        "link": "https://www.google.com/maps/place/Masjid+Sharif/data=!4m7!3m6!1s0x38e21b496b784053:0x5d330c14b2986397!8m2!3d33.7972826!4d75.1133011!16s%2Fg%2F11rx3b_4nt!19sChIJU0B4a0kb4jgRl2OYshQMM10?authuser=0&hl=en&rclk=1",
        "coordinates": {
            "latitude": 33.797282599999996,
            "longitude": 75.1133011
        }
    },
    {
        "name": "msjd mm shwkhny bjbhrh",
        "main_category": "Mosque",
        "address": "msjd mm shwkhny bjbhrh, Goriwon, Bijbehara, Jammu and Kashmir 192124",
        "detailed_address": {
            "ward": "Goriwon",
            "street": null,
            "city": "Bijbehara",
            "postal_code": "192124",
            "state": "Jammu and Kashmir",
            "country_code": "IN"
        },
        "images": [
            {
                "about": "All",
                "link": "https://lh5.googleusercontent.com/p/AF1QipOgMHKY8LHIK2JDDWcnI1cwJzE_uBqlFqeF-m3e=w224-h398-k-no"
            }
        ],
        "link": "https://www.google.com/maps/place/%D9%85%D8%B3%D8%AC%D8%AF+%D8%A7%D9%85%D8%A7%D9%85+%D8%B4%D9%88%DA%A9%D8%A7%D9%86%DB%8C+%D8%A8%D8%AC%D8%A8%DB%81%D8%A7%D8%B1%DB%81%E2%80%AD/data=!4m7!3m6!1s0x38e21b3e8fd85ca1:0xbadbcc50bc268bc2!8m2!3d33.7905196!4d75.1036382!16s%2Fg%2F11fsltxssm!19sChIJoVzYjz4b4jgRwosmvFDM27o?authuser=0&hl=en&rclk=1",
        "coordinates": {
            "latitude": 33.790519599999996,
            "longitude": 75.10363819999999
        }
    },
    {
        "name": "Bijbehara Markaz Deeni Masjid Under The Guidelines Of Markaz Nizamuddin.",
        "main_category": "Mosque",
        "address": "Q4V4+42V Bijbehara Markaz Deeni Masjid Under The Guidelines Of Markaz Nizamuddin., Goriwon, Bijbehara, 192124",
        "detailed_address": {
            "ward": "Goriwon",
            "street": "Q4V4+42V",
            "city": "Bijbehara",
            "postal_code": "192124",
            "state": null,
            "country_code": "IN"
        },
        "images": [
            {
                "about": "All",
                "link": "https://lh5.googleusercontent.com/p/AF1QipPIhA-bD6mcYbIWIKXxP5Ox6OjBV9PJ3qdkWmot=w224-h298-k-no"
            }
        ],
        "link": "https://www.google.com/maps/place/Bijbehara+Markaz+Deeni+Masjid+Under+The+Guidelines+Of+Markaz+Nizamuddin./data=!4m7!3m6!1s0x38e21bdd1d8db3d5:0x3db76f4eacdb870b!8m2!3d33.7928654!4d75.1050576!16s%2Fg%2F11nxxg2n1s!19sChIJ1bONHd0b4jgRC4fbrE5vtz0?authuser=0&hl=en&rclk=1",
        "coordinates": {
            "latitude": 33.7928654,
            "longitude": 75.1050576
        }
    },
    {
        "name": "Masjid Owais",
        "main_category": "Place of worship",
        "address": "Q4V2+P65 Masjid Owais, Tehsil Rd, Bijbehara, 192124",
        "detailed_address": {
            "ward": null,
            "street": "Q4V2+P65, Tehsil Rd",
            "city": "Bijbehara",
            "postal_code": "192124",
            "state": null,
            "country_code": "IN"
        },
        "images": [],
        "link": "https://www.google.com/maps/place/Masjid+Owais/data=!4m7!3m6!1s0x38e21b22386b782d:0xa06674324ffe40b7!8m2!3d33.7942723!4d75.1006055!16s%2Fg%2F11bxg2rhz9!19sChIJLXhrOCIb4jgRt0D-TzJ0ZqA?authuser=0&hl=en&rclk=1",
        "coordinates": {
            "latitude": 33.794272299999996,
            "longitude": 75.1006055
        }
    },
    {
        "name": "Jamia Masjid Subhanpora",
        "main_category": "Mosque",
        "address": "Jamia Masjid Subhanpora, Srinagar - Kanyakumari Hwy, 192124",
        "detailed_address": {
            "ward": null,
            "street": "Srinagar - Kanyakumari Hwy",
            "city": null,
            "postal_code": "192124",
            "state": null,
            "country_code": "IN"
        },
        "images": [],
        "link": "https://www.google.com/maps/place/Jamia+Masjid+Subhanpora/data=!4m7!3m6!1s0x38e20565405573eb:0x2a46ac1a96573e3b!8m2!3d33.7737799!4d75.0987074!16s%2Fg%2F11mwv16zd0!19sChIJ63NVQGUF4jgROz5XlhqsRio?authuser=0&hl=en&rclk=1",
        "coordinates": {
            "latitude": 33.7737799,
            "longitude": 75.0987074
        }
    },
    {
        "name": "Masjid Sharief",
        "main_category": "Mosque",
        "address": "Q4V5+H8R Masjid Sharief, Ahanger Mohalla, Bijbehara, 192124",
        "detailed_address": {
            "ward": "Ahanger Mohalla",
            "street": "Q4V5+H8R",
            "city": "Bijbehara",
            "postal_code": "192124",
            "state": null,
            "country_code": "IN"
        },
        "images": [
            {
                "about": "All",
                "link": "https://lh5.googleusercontent.com/p/AF1QipN5vfQ-URGl91J_VlBKWwsswFFKC-nLbdOyZsYx=w224-h298-k-no"
            }
        ],
        "link": "https://www.google.com/maps/place/Masjid+Sharief/data=!4m7!3m6!1s0x38e21bc61df139d3:0x6b172c2ba3ce3759!8m2!3d33.7939995!4d75.1082807!16s%2Fg%2F11nmlh6l6z!19sChIJ0znxHcYb4jgRWTfOoyssF2s?authuser=0&hl=en&rclk=1",
        "coordinates": {
            "latitude": 33.7939995,
            "longitude": 75.1082807
        }
    },
    {
        "name": "Masjid Umar",
        "main_category": "Mosque",
        "address": "Q3RX+J9C Masjid Umar, Karewa Colony, Bijbehara, Jammu and Kashmir 192124",
        "detailed_address": {
            "ward": "Karewa Colony",
            "street": "Q3RX+J9C",
            "city": "Bijbehara",
            "postal_code": "192124",
            "state": "Jammu and Kashmir",
            "country_code": "IN"
        },
        "images": [
            {
                "about": "All",
                "link": "https://lh5.googleusercontent.com/p/AF1QipORYupnFh15vWkzgZNEQQiDRr-BCN4oQv9AXoZs=w224-h398-k-no"
            },
            {
                "about": "Videos",
                "link": "https://lh5.googleusercontent.com/p/AF1QipNy9pdnXwN3VXb_rvze0opHPK0jWjpFPxYTHuES=w224-h398-k-no"
            }
        ],
        "link": "https://www.google.com/maps/place/Masjid+Umar/data=!4m7!3m6!1s0x38e21bef7c0778d7:0xa2023a6cf1662ef0!8m2!3d33.791574!4d75.0984058!16s%2Fg%2F11t2_r8cpn!19sChIJ13gHfO8b4jgR8C5m8Ww6AqI?authuser=0&hl=en&rclk=1",
        "coordinates": {
            "latitude": 33.791574,
            "longitude": 75.0984058
        }
    },
    {
        "name": "Jamia Masjid Jablipora (Nagbal)",
        "main_category": "Mosque",
        "address": "Q3PW+F7C Jamia Masjid Jablipora (Nagbal), Sicop Road, Bijbehara, 192124",
        "detailed_address": {
            "ward": null,
            "street": "Q3PW+F7C, Sicop Road",
            "city": "Bijbehara",
            "postal_code": "192124",
            "state": null,
            "country_code": "IN"
        },
        "images": [],
        "link": "https://www.google.com/maps/place/Jamia+Masjid+Jablipora+%28Nagbal%29/data=!4m7!3m6!1s0x38e21b39c4fa431d:0xfea18fc1d9421061!8m2!3d33.7861751!4d75.0956321!16s%2Fg%2F11nxy6xfdq!19sChIJHUP6xDkb4jgRYRBC2cGPof4?authuser=0&hl=en&rclk=1",
        "coordinates": {
            "latitude": 33.7861751,
            "longitude": 75.0956321
        }
    },
    {
        "name": "Masjid-e-Iqbal Sicop karaiwa",
        "main_category": "Mosque",
        "address": "Q3RW+852 Masjid-e-Iqbal Sicop karaiwa, Unnamed Road, Bijbehara, 192124",
        "detailed_address": {
            "ward": null,
            "street": "Q3RW+852, Unnamed Road",
            "city": "Bijbehara",
            "postal_code": "192124",
            "state": null,
            "country_code": "IN"
        },
        "images": [],
        "link": "https://www.google.com/maps/place/Masjid-e-Iqbal+Sicop+karaiwa/data=!4m7!3m6!1s0x38e21bb5d2f0002b:0xfeb021abc4eddd7c!8m2!3d33.7907554!4d75.0953848!16s%2Fg%2F11n0vh4zsl!19sChIJKwDw0rUb4jgRfN3txKshsP4?authuser=0&hl=en&rclk=1",
        "coordinates": {
            "latitude": 33.7907554,
            "longitude": 75.09538479999999
        }
    },
    {
        "name": "Jamia Masjid Eidgah Semithan",
        "main_category": "Mosque",
        "address": "R32W+87X Jamia Masjid Eidgah Semithan, Semithan - Bijbehara Rd, Bijbehara, Jammu and Kashmir 192124",
        "detailed_address": {
            "ward": null,
            "street": "R32W+87X, Semithan - Bijbehara Rd",
            "city": "Bijbehara",
            "postal_code": "192124",
            "state": "Jammu and Kashmir",
            "country_code": "IN"
        },
        "images": [
            {
                "about": "All",
                "link": "https://lh5.googleusercontent.com/p/AF1QipOZP3v9AYJfJ6ldb1ZJzGRYxe_FwydT-jy83F0C=w447-h298-k-no"
            },
            {
                "about": "Dome",
                "link": "https://lh5.googleusercontent.com/p/AF1QipNcUgmB4pe88kCdqj7Ws6bgTuEcATqtBxXoBtee=w591-h298-k-no"
            }
        ],
        "link": "https://www.google.com/maps/place/Jamia+Masjid+Eidgah+Semithan/data=!4m7!3m6!1s0x38e21b6185f3f917:0xdea5a97c9552ae2!8m2!3d33.8008558!4d75.0957366!16s%2Fg%2F11h3z4z4fs!19sChIJF_nzhWEb4jgR4ipVyZda6g0?authuser=0&hl=en&rclk=1",
        "coordinates": {
            "latitude": 33.8008558,
            "longitude": 75.0957366
        }
    },
    {
        "name": "Markazi Jamia Masjid Jablipora mrkhzy jm` msjd jblypwrh",
        "main_category": "Mosque",
        "address": "Q3JX+J39 Markazi Jamia Masjid Jablipora mrkhzy jm` msjd jblypwrh, Bijbehara, 192124",
        "detailed_address": {
            "ward": null,
            "street": "Q3JX+J39",
            "city": "Bijbehara",
            "postal_code": "192124",
            "state": null,
            "country_code": "IN"
        },
        "images": [
            {
                "about": "All",
                "link": "https://lh5.googleusercontent.com/p/AF1QipM8254tVws-rg5WJcaAJWQUmRJVi6Fm_2jrx0zP=w278-h298-k-no"
            }
        ],
        "link": "https://www.google.com/maps/place/Markazi+Jamia+Masjid+Jablipora+%D9%85%D8%B1%DA%A9%D8%B2%DB%8C+%D8%AC%D8%A7%D9%85%D8%B9+%D9%85%D8%B3%D8%AC%D8%AF+%D8%AC%D8%A8%D9%84%DB%8C%D9%BE%D9%88%D8%B1%DB%81%E2%80%AD/data=!4m7!3m6!1s0x38e21b019c9a2cf7:0xcd3cf5478c9a727b!8m2!3d33.7815329!4d75.0977392!16s%2Fg%2F11mr2lt9st!19sChIJ9yyanAEb4jgRe3KajEf1PM0?authuser=0&hl=en&rclk=1",
        "coordinates": {
            "latitude": 33.7815329,
            "longitude": 75.09773919999999
        }
    },
    {
        "name": "Markazi Jamia Masjid Semthan",
        "main_category": "Mosque",
        "address": "R34V+579 Markazi Jamia Masjid Semthan, Semithan - Bijbehara Rd, Bijbehara, Jammu and Kashmir 192124",
        "detailed_address": {
            "ward": null,
            "street": "R34V+579, Semithan - Bijbehara Rd",
            "city": "Bijbehara",
            "postal_code": "192124",
            "state": "Jammu and Kashmir",
            "country_code": "IN"
        },
        "images": [
            {
                "about": "All",
                "link": "https://lh5.googleusercontent.com/p/AF1QipOl8bcNZX63PyxupNtDzgBfuzPWEJX5KgBJ8ra3=w529-h298-k-no"
            }
        ],
        "link": "https://www.google.com/maps/place/Markazi+Jamia+Masjid+Semthan/data=!4m7!3m6!1s0x38e21be12432a99f:0x348721ed60f18e84!8m2!3d33.8054061!4d75.0932479!16s%2Fg%2F11h3z3c6gr!19sChIJn6kyJOEb4jgRhI7xYO0hhzQ?authuser=0&hl=en&rclk=1",
        "coordinates": {
            "latitude": 33.8054061,
            "longitude": 75.0932479
        }
    },
    {
        "name": "Gazi Masjid Lonepora Semthan",
        "main_category": "Mosque",
        "address": "R34V+X6G Gazi Masjid Lonepora Semthan, Semithan - Bijbehara Rd, Bijbehara, Jammu and Kashmir 192124",
        "detailed_address": {
            "ward": null,
            "street": "R34V+X6G, Semithan - Bijbehara Rd",
            "city": "Bijbehara",
            "postal_code": "192124",
            "state": "Jammu and Kashmir",
            "country_code": "IN"
        },
        "images": [
            {
                "about": "All",
                "link": "https://lh5.googleusercontent.com/p/AF1QipPBvcX_I3R4SphKAPMXz_GW_Ra3Yt2ZWF84ykn7=w397-h298-k-no"
            }
        ],
        "link": "https://www.google.com/maps/place/Gazi+Masjid+Lonepora+Semthan/data=!4m7!3m6!1s0x38e21bc09b178dfd:0xc8013ab596300cb4!8m2!3d33.8074407!4d75.0930752!16s%2Fg%2F11h3z43sj4!19sChIJ_Y0Xm8Ab4jgRtAwwlrU6Acg?authuser=0&hl=en&rclk=1",
        "coordinates": {
            "latitude": 33.8074407,
            "longitude": 75.0930752
        }
    },
    {
        "name": "JAMIA MASJID BONPORA KANELWAN",
        "main_category": "Mosque",
        "address": "Q5V4+QM4 JAMIA MASJID BONPORA KANELWAN, Bonpora, kanelwan, Bijbehara",
        "detailed_address": {
            "ward": null,
            "street": "Q5V4+QM4, Bonpora, kanelwan",
            "city": "Bijbehara",
            "postal_code": null,
            "state": null,
            "country_code": "IN"
        },
        "images": [
            {
                "about": "All",
                "link": "https://lh5.googleusercontent.com/p/AF1QipOSNKiIdkx-fuAsDfxOJg0v_u5dd-ty2mddKfl6=w238-h298-k-no"
            }
        ],
        "link": "https://www.google.com/maps/place/JAMIA+MASJID+BONPORA+KANELWAN/data=!4m7!3m6!1s0x38e21172f64de21d:0x7ed5b0666b2a45fc!8m2!3d33.7943974!4d75.1566929!16s%2Fg%2F11rz2_53sw!19sChIJHeJN9nIR4jgR_EUqa2aw1X4?authuser=0&hl=en&rclk=1",
        "coordinates": {
            "latitude": 33.7943974,
            "longitude": 75.1566929
        }
    },
    {
        "name": "Masjid Sharief",
        "main_category": "Mosque",
        "address": "Q4M3+GJJ Masjid Sharief, Bijbehara, 192124",
        "detailed_address": {
            "ward": null,
            "street": "Q4M3+GJJ",
            "city": "Bijbehara",
            "postal_code": "192124",
            "state": null,
            "country_code": "IN"
        },
        "images": [],
        "link": "https://www.google.com/maps/place/Masjid+Sharief/data=!4m7!3m6!1s0x38e21bcfdb0c71a3:0xc2b0ce38513d1c41!8m2!3d33.7838493!4d75.1040223!16s%2Fg%2F11rss4vl5q!19sChIJo3EM288b4jgRQRw9UTjOsMI?authuser=0&hl=en&rclk=1",
        "coordinates": {
            "latitude": 33.7838493,
            "longitude": 75.1040223
        }
    },
    {
        "name": "Masjid-e- Fatimat u zahra (r.a)",
        "main_category": "Mosque",
        "address": "Masjid-e- Fatimat u zahra (r.a), Millat Aabad, Bijbehara, 192124",
        "detailed_address": {
            "ward": null,
            "street": "Millat Aabad",
            "city": "Bijbehara",
            "postal_code": "192124",
            "state": null,
            "country_code": "IN"
        },
        "images": [],
        "link": "https://www.google.com/maps/place/Masjid-e-+Fatimat+u+zahra+%28r.a%29/data=!4m7!3m6!1s0x38e21bafcbecefab:0xe4a83c0ba20f788f!8m2!3d33.7973273!4d75.0969402!16s%2Fg%2F11qptq2dfp!19sChIJq-_sy68b4jgRj3gPogs8qOQ?authuser=0&hl=en&rclk=1",
        "coordinates": {
            "latitude": 33.7973273,
            "longitude": 75.09694019999999
        }
    },
    {
        "name": "Masjid-e-paak",
        "main_category": "Mosque",
        "address": "R423+R96 Masjid-e-paak, Gandhagi Pora, Bijbehara, Jammu and Kashmir 192124",
        "detailed_address": {
            "ward": "Gandhagi Pora",
            "street": "R423+R96",
            "city": "Bijbehara",
            "postal_code": "192124",
            "state": "Jammu and Kashmir",
            "country_code": "IN"
        },
        "images": [],
        "link": "https://www.google.com/maps/place/Masjid-e-paak/data=!4m7!3m6!1s0x38e21b06ccbc2245:0x4950b5fdabccc96!8m2!3d33.8020485!4d75.1033849!16s%2Fg%2F11p3cms9sh!19sChIJRSK8zAYb4jgRlsy82l8LlQQ?authuser=0&hl=en&rclk=1",
        "coordinates": {
            "latitude": 33.8020485,
            "longitude": 75.1033849
        }
    },
    {
        "name": "Jamia Masjid",
        "main_category": "Mosque",
        "address": "Jamia Masjid, Katriteng, Anantnag, NH-1A, Srinagar Jammu Highway, Katriteng, Bijbehara, 192124",
        "detailed_address": {
            "ward": "Katriteng",
            "street": "Katriteng, Anantnag, NH-1A, Srinagar Jammu Highway",
            "city": "Bijbehara",
            "postal_code": "192124",
            "state": null,
            "country_code": "IN"
        },
        "images": [],
        "link": "https://www.google.com/maps/place/Jamia+Masjid/data=!4m7!3m6!1s0x38e21b533f3796cf:0xf77bf1750c5d931d!8m2!3d33.800064!4d75.096403!16s%2Fg%2F11n0rn7hws!19sChIJz5Y3P1Mb4jgRHZNdDHXxe_c?authuser=0&hl=en&rclk=1",
        "coordinates": {
            "latitude": 33.800064,
            "longitude": 75.096403
        }
    },
    {
        "name": "Masjid Shaykh Hamza Makhdoomi (Rahimahullah)",
        "main_category": "Mosque",
        "address": "Q4V5+4R2 Masjid Shaykh Hamza Makhdoomi (Rahimahullah), Zirpara, Bijbehara, 192124",
        "detailed_address": {
            "ward": "Zirpara",
            "street": "Q4V5+4R2",
            "city": "Bijbehara",
            "postal_code": "192124",
            "state": null,
            "country_code": "IN"
        },
        "images": [],
        "link": "https://www.google.com/maps/place/Masjid+Shaykh+Hamza+Makhdoomi+%28Rahimahullah%29/data=!4m7!3m6!1s0x38e21b3d82f69bff:0xb9893e4ed78682d7!8m2!3d33.792758!4d75.1095172!16s%2Fg%2F11q965m6vk!19sChIJ_5v2gj0b4jgR14KG104-ibk?authuser=0&hl=en&rclk=1",
        "coordinates": {
            "latitude": 33.792758,
            "longitude": 75.1095172
        }
    },
    {
        "name": "Masjid Abu Ayoob Ansari & Darasgah Islaamiyah",
        "main_category": "Mosque",
        "address": "Q4X4+9FW Masjid Abu Ayoob Ansari & Darasgah Islaamiyah, New Colony Bijbehara, Gadhanji Pora, Bijbehara, 192124",
        "detailed_address": {
            "ward": "New Colony Bijbehara",
            "street": "Q4X4+9FW",
            "city": "Gadhanji Pora, Bijbehara",
            "postal_code": null,
            "state": null,
            "country_code": "IN"
        },
        "images": [
            {
                "about": "All",
                "link": "https://lh5.googleusercontent.com/p/AF1QipOony8jfERQaFMDjk9qCFYI2ltKII70uhkR9rXn=w224-h298-k-no"
            }
        ],
        "link": "https://www.google.com/maps/place/Masjid+Abu+Ayoob+Ansari+%26+Darasgah+Islaamiyah/data=!4m7!3m6!1s0x38e21b0b9ddc3d77:0x83b5725282f549de!8m2!3d33.7984957!4d75.1062075!16s%2Fg%2F11js84jmhg!19sChIJdz3cnQsb4jgR3kn1glJytYM?authuser=0&hl=en&rclk=1",
        "coordinates": {
            "latitude": 33.7984957,
            "longitude": 75.1062075
        }
    },
    {
        "name": "New Masjid Sharief, Baba-Naseeb-Ud-Din Gazi",
        "main_category": "Mosque",
        "address": "Q4W4+5XW New Masjid Sharief, Baba-Naseeb-Ud-Din Gazi, Baba Mohalla, Bijbehara, 192124",
        "detailed_address": {
            "ward": "Baba Mohalla",
            "street": "Q4W4+5XW",
            "city": "Bijbehara",
            "postal_code": "192124",
            "state": null,
            "country_code": "IN"
        },
        "images": [],
        "link": "https://www.google.com/maps/place/New+Masjid+Sharief,+Baba-Naseeb-Ud-Din+Gazi/data=!4m7!3m6!1s0x38e21bff986e5b6b:0x29736fc3741da20e!8m2!3d33.7954905!4d75.1074653!16s%2Fg%2F11qh2rbb4c!19sChIJa1tumP8b4jgRDqIddMNvcyk?authuser=0&hl=en&rclk=1",
        "coordinates": {
            "latitude": 33.7954905,
            "longitude": 75.1074653
        }
    },
    {
        "name": "Masjid Imam Showkani",
        "main_category": "Mosque",
        "address": "Q3PX+QRX Masjid Imam Showkani, Bijbehara, 192124",
        "detailed_address": {
            "ward": null,
            "street": "Q3PX+QRX",
            "city": "Bijbehara",
            "postal_code": null,
            "state": null,
            "country_code": "IN"
        },
        "images": [
            {
                "about": "All",
                "link": "https://lh5.googleusercontent.com/p/AF1QipOqRgQ-NwLIBBDNTwQx8eVYvFx7QuyTff0fuuJH=w224-h298-k-no"
            }
        ],
        "link": "https://www.google.com/maps/place/Masjid+Imam+Showkani/data=!4m7!3m6!1s0x38e21b54510c2f0d:0xdb273d0b537dec36!8m2!3d33.7869846!4d75.0996059!16s%2Fg%2F11q9qqw_kf!19sChIJDS8MUVQb4jgRNux9Uws9J9s?authuser=0&hl=en&rclk=1",
        "coordinates": {
            "latitude": 33.7869846,
            "longitude": 75.0996059
        }
    },
    {
        "name": "Masjid bilal aramgund Bijbehara",
        "main_category": "Mosque",
        "address": "Q4M7+63Q Masjid bilal aramgund Bijbehara, Zirpara, Bijbehara, Gadi Seer, Jammu and Kashmir 192124",
        "detailed_address": {
            "ward": "Zirpara",
            "street": "Q4M7+63Q",
            "city": "Bijbehara, Gadi Seer",
            "postal_code": null,
            "state": "Jammu and Kashmir",
            "country_code": "IN"
        },
        "images": [
            {
                "about": "All",
                "link": "https://lh5.googleusercontent.com/p/AF1QipMGw-RCg_Xpvy2boJzsV75FEAWYXKFfgJT-eCI2=w224-h497-k-no"
            },
            {
                "about": "Videos",
                "link": "https://lh5.googleusercontent.com/p/AF1QipO1nyJ6Pp4XXVloXuj_PX5wSNTr4ALXi1DSpRcl=w224-h398-k-no"
            }
        ],
        "link": "https://www.google.com/maps/place/Masjid+bilal+aramgund+Bijbehara/data=!4m7!3m6!1s0x38e21b6dd5a074cd:0xfad8b433530e7b9c!8m2!3d33.783095!4d75.1127445!16s%2Fg%2F11kb1rjjq5!19sChIJzXSg1W0b4jgRnHsOUzO02Po?authuser=0&hl=en&rclk=1",
        "coordinates": {
            "latitude": 33.783094999999996,
            "longitude": 75.11274449999999
        }
    },
    {
        "name": "Near JAMAIA MASJID B PAZALPORA",
        "main_category": "Mosque",
        "address": "Q4J5+84W Near JAMAIA MASJID B PAZALPORA, Bijbehara, Jammu and Kashmir 192124",
        "detailed_address": {
            "ward": null,
            "street": "Q4J5+84W",
            "city": "Bijbehara",
            "postal_code": "192124",
            "state": "Jammu and Kashmir",
            "country_code": "IN"
        },
        "images": [],
        "link": "https://www.google.com/maps/place/Near+JAMAIA+MASJID+B+PAZALPORA/data=!4m7!3m6!1s0x38e21bc8c6e1f423:0xb4508d8ebc9e01cf!8m2!3d33.780693!4d75.107663!16s%2Fg%2F11kryw9m0t!19sChIJI_Thxsgb4jgRzwGevI6NULQ?authuser=0&hl=en&rclk=1",
        "coordinates": {
            "latitude": 33.780693,
            "longitude": 75.107663
        }
    },
    {
        "name": "Jamia masjid shareef A",
        "main_category": "Mosque",
        "address": "Q4J4+9WP Jamia masjid shareef A, Markazi jamia masjid sherif, pazalpora, Bijbehara, Jammu and Kashmir 192124",
        "detailed_address": {
            "ward": null,
            "street": "Q4J4+9WP, Markazi jamia masjid sherif, pazalpora",
            "city": "Bijbehara",
            "postal_code": "192124",
            "state": "Jammu and Kashmir",
            "country_code": "IN"
        },
        "images": [
            {
                "about": "All",
                "link": "https://lh5.googleusercontent.com/p/AF1QipPBNy0pUjGr2ZKhop35vO0ox-8K2jTglApqazX5=w662-h298-k-no"
            },
            {
                "about": "Dome",
                "link": "https://lh5.googleusercontent.com/p/AF1QipPBNy0pUjGr2ZKhop35vO0ox-8K2jTglApqazX5=w662-h298-k-no"
            }
        ],
        "link": "https://www.google.com/maps/place/Jamia+masjid+shareef+A/data=!4m7!3m6!1s0x38e21b25cf586c3b:0xd4e362bc6221b38a!8m2!3d33.7809526!4d75.1073079!16s%2Fg%2F11s7htjrg8!19sChIJO2xYzyUb4jgRirMhYrxi49Q?authuser=0&hl=en&rclk=1",
        "coordinates": {
            "latitude": 33.7809526,
            "longitude": 75.1073079
        }
    },
    {
        "name": "Masjid bilal Kanderpora",
        "main_category": "Mosque",
        "address": "Q3PX+QRX Masjid bilal Kanderpora, Bijbehara, Jammu and Kashmir 192124",
        "detailed_address": {
            "ward": null,
            "street": "Q3PX+QRX",
            "city": "Bijbehara",
            "postal_code": null,
            "state": "Jammu and Kashmir",
            "country_code": "IN"
        },
        "images": [],
        "link": "https://www.google.com/maps/place/Masjid+bilal+Kanderpora/data=!4m7!3m6!1s0x38e21b522047e739:0xe1f8b12c26f9f74f!8m2!3d33.7869846!4d75.0996059!16s%2Fg%2F11sf85msyx!19sChIJOedHIFIb4jgRT_f5Jiyx-OE?authuser=0&hl=en&rclk=1",
        "coordinates": {
            "latitude": 33.7869846,
            "longitude": 75.0996059
        }
    },
    {
        "name": "Masjid Sharief Pandit Hamam",
        "main_category": "Mosque",
        "address": "Q4R3+4P3 Masjid Sharief Pandit Hamam, Bijbehara, 192124",
        "detailed_address": {
            "ward": null,
            "street": "Q4R3+4P3",
            "city": "Bijbehara",
            "postal_code": "192124",
            "state": null,
            "country_code": "IN"
        },
        "images": [],
        "link": "https://www.google.com/maps/place/Masjid+Sharief+Pandit+Hamam/data=!4m7!3m6!1s0x38e21bec63f584dd:0x2c3cadbd4caae75b!8m2!3d33.7902583!4d75.1042872!16s%2Fg%2F11m41jznn8!19sChIJ3YT1Y-wb4jgRW-eqTL2tPCw?authuser=0&hl=en&rclk=1",
        "coordinates": {
            "latitude": 33.7902583,
            "longitude": 75.1042872
        }
    },
    {
        "name": "Masjid Bilal(RA)Herpora Semthan",
        "main_category": "Mosque",
        "address": "R33V+CPC Masjid Bilal(RA)Herpora Semthan, Semithan - Bijbehara Rd, Bijbehara, Jammu and Kashmir 192124",
        "detailed_address": {
            "ward": null,
            "street": "R33V+CPC, Semithan - Bijbehara Rd",
            "city": "Bijbehara",
            "postal_code": "192124",
            "state": "Jammu and Kashmir",
            "country_code": "IN"
        },
        "images": [],
        "link": "https://www.google.com/maps/place/Masjid+Bilal%28RA%29Herpora+Semthan/data=!4m7!3m6!1s0x38e21be35e55b595:0x740f4265b0d3f7f8!8m2!3d33.803575!4d75.0942797!16s%2Fg%2F11flq6pc_m!19sChIJlbVVXuMb4jgR-PfTsGVCD3Q?authuser=0&hl=en&rclk=1",
        "coordinates": {
            "latitude": 33.803574999999995,
            "longitude": 75.0942797
        }
    },
    {
        "name": "Markazi Jamia Masjid Pazalpora",
        "main_category": "Mosque",
        "address": "Q4J4+FPJ Markazi Jamia Masjid Pazalpora, Bijbehara, Jammu and Kashmir 192124",
        "detailed_address": {
            "ward": null,
            "street": "Q4J4+FPJ",
            "city": "Bijbehara",
            "postal_code": "192124",
            "state": "Jammu and Kashmir",
            "country_code": "IN"
        },
        "images": [],
        "link": "https://www.google.com/maps/place/Markazi+Jamia+Masjid+Pazalpora/data=!4m7!3m6!1s0x38e21b2c622b8fa5:0x9bf6ecdc8cf730bc!8m2!3d33.7812005!4d75.1067784!16s%2Fg%2F11v0l47rtl!19sChIJpY8rYiwb4jgRvDD3jNzs9ps?authuser=0&hl=en&rclk=1",
        "coordinates": {
            "latitude": 33.7812005,
            "longitude": 75.1067784
        }
    },
    {
        "name": "Masjid Sharief Sadar Bazar",
        "main_category": "Mosque",
        "address": "Q4R4+RRH Masjid Sharief Sadar Bazar, Bijbehara, 192124",
        "detailed_address": {
            "ward": null,
            "street": "Q4R4+RRH",
            "city": "Bijbehara",
            "postal_code": "192124",
            "state": null,
            "country_code": "IN"
        },
        "images": [],
        "link": "https://www.google.com/maps/place/Masjid+Sharief+Sadar+Bazar/data=!4m7!3m6!1s0x38e21b8cab343121:0xb913b656ae535412!8m2!3d33.7920522!4d75.1071233!16s%2Fg%2F11jsr9j5h2!19sChIJITE0q4wb4jgRElRTrla2E7k?authuser=0&hl=en&rclk=1",
        "coordinates": {
            "latitude": 33.7920522,
            "longitude": 75.1071233
        }
    },
    {
        "name": "Hanfia Masjid Hazrat Usman Gani (RA)",
        "main_category": "Mosque",
        "address": "R423+R96 Hanfia Masjid Hazrat Usman Gani (RA), Gandhagi Pora, Bijbehara, Jammu and Kashmir 192124",
        "detailed_address": {
            "ward": "Gandhagi Pora",
            "street": "R423+R96",
            "city": "Bijbehara",
            "postal_code": "192124",
            "state": "Jammu and Kashmir",
            "country_code": "IN"
        },
        "images": [],
        "link": "https://www.google.com/maps/place/Hanfia+Masjid+Hazrat+Usman+Gani+%28RA%29/data=!4m7!3m6!1s0x38e21b6fc0307b09:0x5ecbf8827149fe6f!8m2!3d33.8021028!4d75.1033273!16s%2Fg%2F11sb3lc5kn!19sChIJCXswwG8b4jgRb_5JcYL4y14?authuser=0&hl=en&rclk=1",
        "coordinates": {
            "latitude": 33.8021028,
            "longitude": 75.1033273
        }
    },
    {
        "name": "Pandit hamam masjid",
        "main_category": "Mosque",
        "address": "Q3PX+QRX Pandit hamam masjid, Goriwan bijbehara main market, Bijbehara, Jammu and Kashmir 192124",
        "detailed_address": {
            "ward": null,
            "street": "Q3PX+QRX, Goriwan bijbehara main market",
            "city": "Bijbehara",
            "postal_code": "192124",
            "state": "Jammu and Kashmir",
            "country_code": "IN"
        },
        "images": [],
        "link": "https://www.google.com/maps/place/Pandit+hamam+masjid/data=!4m7!3m6!1s0x38e21b69b5d9cf45:0x80a0a73b52de834f!8m2!3d33.7869846!4d75.0996059!16s%2Fg%2F11t6yzcxqy!19sChIJRc_ZtWkb4jgRT4PeUjunoIA?authuser=0&hl=en&rclk=1",
        "coordinates": {
            "latitude": 33.7869846,
            "longitude": 75.0996059
        }
    },
    {
        "name": "Masjid e Usmaan (R.A) jamia Ahli-Hadith Semthan",
        "main_category": "Mosque",
        "address": "R33V+QF7 Masjid e Usmaan (R.A) jamia Ahli-Hadith Semthan, Semithan - Bijbehara Rd, Bijbehara, Jammu and Kashmir 192124",
        "detailed_address": {
            "ward": null,
            "street": "R33V+QF7, Semithan - Bijbehara Rd",
            "city": "Bijbehara",
            "postal_code": "192124",
            "state": "Jammu and Kashmir",
            "country_code": "IN"
        },
        "images": [],
        "link": "https://www.google.com/maps/place/Masjid+e+Usmaan+%28R.A%29+jamia+Ahli-Hadith+Semthan/data=!4m7!3m6!1s0x38e21b21a14e6f09:0x43a2776f00e9f0c6!8m2!3d33.804423!4d75.0936848!16s%2Fg%2F11h3z706fx!19sChIJCW9OoSEb4jgRxvDpAG93okM?authuser=0&hl=en&rclk=1",
        "coordinates": {
            "latitude": 33.804423,
            "longitude": 75.09368479999999
        }
    },
    {
        "name": "MASJID SHERIF CHECK MOHALLA",
        "main_category": "Mosque",
        "address": "Q4W4+WWH MASJID SHERIF CHECK MOHALLA, Baba Mohalla, Gulistan, Bijbehara, 192124",
        "detailed_address": {
            "ward": "Baba Mohalla",
            "street": "Q4W4+WWH",
            "city": "Gulistan, Bijbehara",
            "postal_code": null,
            "state": null,
            "country_code": "IN"
        },
        "images": [],
        "link": "https://www.google.com/maps/place/MASJID+SHERIF+CHECK+MOHALLA/data=!4m7!3m6!1s0x38e21b731818de1f:0x1f4ac69d6ba42ce1!8m2!3d33.7973047!4d75.1073624!16s%2Fg%2F11pd_m1dmd!19sChIJH94YGHMb4jgR4Syka53GSh8?authuser=0&hl=en&rclk=1",
        "coordinates": {
            "latitude": 33.7973047,
            "longitude": 75.1073624
        }
    },
    {
        "name": "Hanafiya Jamia Masjid Kanelwan",
        "main_category": "Mosque",
        "address": "Q3PX+CP8 Hanafiya Jamia Masjid Kanelwan, Kanelwan, Bijbehara, Jammu and Kashmir 192124",
        "detailed_address": {
            "ward": null,
            "street": "Q3PX+CP8, Kanelwan",
            "city": "Bijbehara",
            "postal_code": "192124",
            "state": "Jammu and Kashmir",
            "country_code": "IN"
        },
        "images": [],
        "link": "https://www.google.com/maps/place/Hanafiya+Jamia+Masjid+Kanelwan/data=!4m7!3m6!1s0x38e21b0e4306a12d:0x2eae2e7cf47c0181!8m2!3d33.7860458!4d75.099317!16s%2Fg%2F11smr67x44!19sChIJLaEGQw4b4jgRgQF89Hwuri4?authuser=0&hl=en&rclk=1",
        "coordinates": {
            "latitude": 33.7860458,
            "longitude": 75.099317
        }
    },
    {
        "name": "Hanfia Jamia Masjid Trich",
        "main_category": "Mosque",
        "address": "Hanfia Jamia Masjid Trich, H. No139, Dar Mohalla, Trich, Jammu and Kashmir 192304",
        "detailed_address": {
            "ward": "Dar Mohalla, Baba Mohalla",
            "street": "H. No139",
            "city": "Trich, Bijbehara",
            "postal_code": "192304",
            "state": "Jammu and Kashmir",
            "country_code": "IN"
        },
        "images": [],
        "link": "https://www.google.com/maps/place/Hanfia+Jamia+Masjid+Trich/data=!4m7!3m6!1s0x38e21bbce94b5ae9:0xee5671833083d5d2!8m2!3d33.7981123!4d75.1091126!16s%2Fg%2F11q86h_lz0!19sChIJ6VpL6bwb4jgR0tWDMINxVu4?authuser=0&hl=en&rclk=1",
        "coordinates": {
            "latitude": 33.7981123,
            "longitude": 75.1091126
        }
    },
    {
        "name": "Masjid-e Al-Hudda",
        "main_category": "Mosque",
        "address": "Q3M2+54F Masjid-e Al-Hudda, Tribjee, Bijbehara, 192232",
        "detailed_address": {
            "ward": "Tribjee",
            "street": "Q3M2+54F",
            "city": "Bijbehara",
            "postal_code": null,
            "state": null,
            "country_code": "IN"
        },
        "images": [],
        "link": "https://www.google.com/maps/place/Masjid-e+Al-Hudda/data=!4m7!3m6!1s0x38e21dbc34f0c3d1:0x17a494f9129c15bf!8m2!3d33.7829483!4d75.0502911!16s%2Fg%2F11ryj8t67_!19sChIJ0cPwNLwd4jgRvxWcEvmUpBc?authuser=0&hl=en&rclk=1",
        "coordinates": {
            "latitude": 33.7829483,
            "longitude": 75.0502911
        }
    },
    {
        "name": "Masjid Huda Millat Abad Aswara",
        "main_category": "Mosque",
        "address": "Masjid Huda Millat Abad Aswara, Millatabad Aswara, Aswara, Bijbehara, Jammu and Kashmir 192124",
        "detailed_address": {
            "ward": null,
            "street": "Millatabad Aswara, Aswara",
            "city": "Bijbehara",
            "postal_code": "192124",
            "state": "Jammu and Kashmir",
            "country_code": "IN"
        },
        "images": [
            {
                "about": "All",
                "link": "https://lh5.googleusercontent.com/p/AF1QipOKwka7sxZVf_1UMWc3xAwYz-zmc40XsPjblG7X=w396-h298-k-no"
            },
            {
                "about": "By owner",
                "link": "https://lh5.googleusercontent.com/p/AF1QipPfdnWjCiTpq3xzwhQN_JRVA17LB8t7ZI07m5LU=w396-h298-k-no"
            }
        ],
        "link": "https://www.google.com/maps/place/Masjid+Huda+Millat+Abad+Aswara/data=!4m7!3m6!1s0x38e211839cb7bc33:0x6a62b396cf122874!8m2!3d33.798837!4d75.1550378!16s%2Fg%2F11v0t2t4xp!19sChIJM7y3nIMR4jgRdCgSz5azYmo?authuser=0&hl=en&rclk=1",
        "coordinates": {
            "latitude": 33.798837,
            "longitude": 75.1550378
        }
    },
    {
        "name": "Jamia Masjid AhleHadees Banderpora",
        "main_category": "Mosque",
        "address": "R535+PXX Jamia Masjid AhleHadees Banderpora, Bijbehara - Sirhama Rd, Bander Pora, 192124",
        "detailed_address": {
            "ward": null,
            "street": "R535+PXX, Bijbehara - Sirhama Rd",
            "city": "Bander Pora",
            "postal_code": "192124",
            "state": null,
            "country_code": "IN"
        },
        "images": [],
        "link": "https://www.google.com/maps/place/Jamia+Masjid+AhleHadees+Banderpora/data=!4m7!3m6!1s0x38e21132d80e8275:0xb06520b62b83e304!8m2!3d33.804373!4d75.159985!16s%2Fg%2F11qfzjwx0q!19sChIJdYIO2DIR4jgRBOODK7YgZbA?authuser=0&hl=en&rclk=1",
        "coordinates": {
            "latitude": 33.804373,
            "longitude": 75.15998499999999
        }
    },
    {
        "name": "Masjid Sharif, Bonapora(Muqdam Pora)",
        "main_category": "Mosque",
        "address": "R5C6+G4F Masjid Sharif, Bonapora(Muqdam Pora), Bijbehara - Sirhama Rd, K. Kalan, Bewora, Jammu and Kashmir 192401",
        "detailed_address": {
            "ward": "K. Kalan",
            "street": "R5C6+G4F, Bijbehara - Sirhama Rd",
            "city": "Bewora",
            "postal_code": "192401",
            "state": "Jammu and Kashmir",
            "country_code": "IN"
        },
        "images": [],
        "link": "https://www.google.com/maps/place/Masjid+Sharif,+Bonapora%28Muqdam+Pora%29/data=!4m7!3m6!1s0x38e2114e721a9935:0xa00643a907963d94!8m2!3d33.8213649!4d75.1600409!16s%2Fg%2F11svdqd19c!19sChIJNZkack4R4jgRlD2WB6lDBqA?authuser=0&hl=en&rclk=1",
        "coordinates": {
            "latitude": 33.8213649,
            "longitude": 75.1600409
        }
    }
]