[
    {
        "name": "Masjid-e-Hasan (AHMADIYYA MASJID)",
        "main_category": "Mosque",
        "address": "GQMF+2MP Masjid-e-Hasan (AHMADIYYA MASJID), Rangampet, Karnataka 585224",
        "detailed_address": {
            "ward": null,
            "street": "GQMF+2MP",
            "city": "Rangampet",
            "postal_code": "585224",
            "state": "Karnataka",
            "country_code": "IN"
        },
        "images": [
            {
                "about": "All",
                "link": "https://lh5.googleusercontent.com/p/AF1QipMkl8bMNBNZzmT6e9XBGQuNo9LsoCURdEwQSWqe=w397-h298-k-no"
            },
            {
                "about": "Street View & 360deg",
                "link": "https://streetviewpixels-pa.googleapis.com/v1/thumbnail?panoid=keDAGmNaazXp3hyD4Tf1Tw&cb_client=maps_sv.tactile.gps&w=224&h=298&yaw=64.45618&pitch=0&thumbfov=100"
            },
            {
                "about": "Videos",
                "link": "https://lh5.googleusercontent.com/p/AF1QipOlZXkyHCG7lJ-8WyjddqPwlXaybTAj7wsuAhoa=w529-h298-k-no"
            }
        ],
        "link": "https://www.google.com/maps/place/Masjid-e-Hasan+%28AHMADIYYA+MASJID%29/data=!4m7!3m6!1s0x3bc86b00ccf3d241:0x2b48bdbc570aa956!8m2!3d16.5325913!4d76.774195!16s%2Fg%2F11cn93j1hw!19sChIJQdLzzABryDsRVqkKV7y9SCs?authuser=0&hl=en&rclk=1",
        "coordinates": {
            "latitude": 16.5325913,
            "longitude": 76.77419499999999
        }
    },
    {
        "name": "MASJID-E-RAHMAN",
        "main_category": "Mosque",
        "address": "GQJ9+PWJ MASJID-E-RAHMAN, Rangampet, Karnataka 585220",
        "detailed_address": {
            "ward": null,
            "street": "GQJ9+PWJ",
            "city": "Rangampet",
            "postal_code": "585220",
            "state": "Karnataka",
            "country_code": "IN"
        },
        "images": [
            {
                "about": "All",
                "link": "https://lh5.googleusercontent.com/p/AF1QipMZe1sE3ScrtdM9kprqhY0Il7piQreOkdkeZoOI=w397-h298-k-no"
            }
        ],
        "link": "https://www.google.com/maps/place/MASJID-E-RAHMAN/data=!4m7!3m6!1s0x3bc86b07c861f58d:0xd7e2d5e272da0fe9!8m2!3d16.5318482!4d76.7697663!16s%2Fg%2F11cnwnrd25!19sChIJjfVhyAdryDsR6Q_acuLV4tc?authuser=0&hl=en&rclk=1",
        "coordinates": {
            "latitude": 16.5318482,
            "longitude": 76.7697663
        }
    },
    {
        "name": "Jamiya Masjid ( Ahle Hadees)",
        "main_category": "Mosque",
        "address": "GQ97+43X Jamiya Masjid ( Ahle Hadees), Qureshi Colony, Shorapur, Karnataka 585224",
        "detailed_address": {
            "ward": "Qureshi Colony",
            "street": "GQ97+43X",
            "city": "Shorapur",
            "postal_code": "585224",
            "state": "Karnataka",
            "country_code": "IN"
        },
        "images": [
            {
                "about": "All",
                "link": "https://lh5.googleusercontent.com/p/AF1QipPjZiSyDpXmczeekIVlvq8j9r_cHTyeA32uZGTA=w392-h298-k-no"
            },
            {
                "about": "Dome",
                "link": "https://lh5.googleusercontent.com/p/AF1QipNnatAMipUCxPyHWejRUwUBcVs59esdKWvFZRxz=w529-h298-k-no"
            },
            {
                "about": "Videos",
                "link": "https://lh5.googleusercontent.com/p/AF1QipPzcmrQWE71Q1BMFYKz3nnavudYvUyulprXOTRV=w224-h398-k-no"
            }
        ],
        "link": "https://www.google.com/maps/place/Jamiya+Masjid+%28+Ahle+Hadees%29/data=!4m7!3m6!1s0x3bc86b1160199e7f:0x2d4a6510b1639391!8m2!3d16.5178635!4d76.7627289!16s%2Fg%2F11bz0bcwy1!19sChIJf54ZYBFryDsRkZNjsRBlSi0?authuser=0&hl=en&rclk=1",
        "coordinates": {
            "latitude": 16.5178635,
            "longitude": 76.7627289
        }
    },
    {
        "name": "Ayesha Masjid",
        "main_category": "Mosque",
        "address": "GQJG+H5F Ayesha Masjid, Rangampet, Karnataka 585224",
        "detailed_address": {
            "ward": null,
            "street": "GQJG+H5F",
            "city": "Rangampet",
            "postal_code": "585224",
            "state": "Karnataka",
            "country_code": "IN"
        },
        "images": [
            {
                "about": "All",
                "link": "https://lh5.googleusercontent.com/p/AF1QipM9roaGVV7BQW73zCVEKk3BXopsa_3TyPGjaUQK=w397-h298-k-no"
            },
            {
                "about": "Street View & 360deg",
                "link": "https://streetviewpixels-pa.googleapis.com/v1/thumbnail?panoid=kFL0-ucNb_kjvdzQYQe_vw&cb_client=maps_sv.tactile.gps&w=224&h=298&yaw=345.80527&pitch=0&thumbfov=100"
            },
            {
                "about": "Videos",
                "link": "https://lh5.googleusercontent.com/p/AF1QipP38JavqFTk6p4Stt2EkbKMZv4QY33-mnOuzNuQ=w224-h398-k-no"
            }
        ],
        "link": "https://www.google.com/maps/place/Ayesha+Masjid/data=!4m7!3m6!1s0x3bc86b0123991b6b:0xafa2dc15a9bccb7f!8m2!3d16.5314276!4d76.7754233!16s%2Fg%2F11c3yrycn0!19sChIJaxuZIwFryDsRf8u8qRXcoq8?authuser=0&hl=en&rclk=1",
        "coordinates": {
            "latitude": 16.5314276,
            "longitude": 76.7754233
        }
    },
    {
        "name": "Masjid-e-Shaikh (Markaz)",
        "main_category": "Mosque",
        "address": "Masjid-e-Shaikh (Markaz), main road,, main road, SH 19, Rangampet, Karnataka 585220",
        "detailed_address": {
            "ward": null,
            "street": "main road,, main road, SH 19",
            "city": "Rangampet",
            "postal_code": "585220",
            "state": "Karnataka",
            "country_code": "IN"
        },
        "images": [
            {
                "about": "All",
                "link": "https://lh5.googleusercontent.com/p/AF1QipPWtnvMy7PdsaLtyJS6LFXGKvNTyKyq2jfKB0ij=w529-h298-k-no"
            }
        ],
        "link": "https://www.google.com/maps/place/Masjid-e-Shaikh+%28Markaz%29/data=!4m7!3m6!1s0x3bc86b062de3dad9:0xf0f3d109455db0ff!8m2!3d16.5307374!4d76.7689644!16s%2Fg%2F11c60414cs!19sChIJ2drjLQZryDsR_7BdRQnR8_A?authuser=0&hl=en&rclk=1",
        "coordinates": {
            "latitude": 16.5307374,
            "longitude": 76.7689644
        }
    },
    {
        "name": "MAKKAH MASJID",
        "main_category": "Mosque",
        "address": "GQJF+H5F MAKKAH MASJID, Rangampet, Karnataka 585224",
        "detailed_address": {
            "ward": null,
            "street": "GQJF+H5F",
            "city": "Rangampet",
            "postal_code": "585224",
            "state": "Karnataka",
            "country_code": "IN"
        },
        "images": [
            {
                "about": "All",
                "link": "https://lh5.googleusercontent.com/p/AF1QipNfSHNvq07QtoFdskNhA0bV1dbA6GWsuwgPR802=w397-h298-k-no"
            }
        ],
        "link": "https://www.google.com/maps/place/MAKKAH+MASJID/data=!4m7!3m6!1s0x3bc86b0720abc861:0x7fccb91830c56ce4!8m2!3d16.5314452!4d76.7729112!16s%2Fg%2F11c5bt0xxl!19sChIJYcirIAdryDsR5GzFMBi5zH8?authuser=0&hl=en&rclk=1",
        "coordinates": {
            "latitude": 16.5314452,
            "longitude": 76.7729112
        }
    },
    {
        "name": "Masjid e hanafiya arifpura",
        "main_category": "Mosque",
        "address": "GQG4+CHJ Masjid e hanafiya arifpura, SH 60, Shorapur, Karnataka 585220",
        "detailed_address": {
            "ward": null,
            "street": "GQG4+CHJ, SH 60",
            "city": "Shorapur",
            "postal_code": "585220",
            "state": "Karnataka",
            "country_code": "IN"
        },
        "images": [
            {
                "about": "All",
                "link": "https://lh5.googleusercontent.com/p/AF1QipOu55mfiP_S6uN99C4c0ZUb_s6q6wJ7YNrcZHuE=w224-h298-k-no"
            },
            {
                "about": "Dome",
                "link": "https://lh5.googleusercontent.com/p/AF1QipOu55mfiP_S6uN99C4c0ZUb_s6q6wJ7YNrcZHuE=w224-h298-k-no"
            }
        ],
        "link": "https://www.google.com/maps/place/Masjid+e+hanafiya+arifpura/data=!4m7!3m6!1s0x3bc86b73482a413f:0xe6bddc0ad1d8bd91!8m2!3d16.5260983!4d76.7563942!16s%2Fg%2F1thmcv_p!19sChIJP0EqSHNryDsRkb3Y0QrcveY?authuser=0&hl=en&rclk=1",
        "coordinates": {
            "latitude": 16.5260983,
            "longitude": 76.7563942
        }
    },
    {
        "name": "Yousufia Masjid",
        "main_category": "Mosque",
        "address": "GQJ9+X86 Yousufia Masjid, Rangampet, Karnataka 585224",
        "detailed_address": {
            "ward": null,
            "street": "GQJ9+X86",
            "city": "Rangampet",
            "postal_code": "585224",
            "state": "Karnataka",
            "country_code": "IN"
        },
        "images": [
            {
                "about": "All",
                "link": "https://streetviewpixels-pa.googleapis.com/v1/thumbnail?panoid=uyB6WpibnNupbjvoHRR-_w&cb_client=maps_sv.tactile.gps&w=224&h=298&yaw=20.067556&pitch=0&thumbfov=100"
            },
            {
                "about": "Street View & 360deg",
                "link": "https://streetviewpixels-pa.googleapis.com/v1/thumbnail?panoid=uyB6WpibnNupbjvoHRR-_w&cb_client=maps_sv.tactile.gps&w=224&h=298&yaw=20.067556&pitch=0&thumbfov=100"
            }
        ],
        "link": "https://www.google.com/maps/place/Yousufia+Masjid/data=!4m7!3m6!1s0x3bc86b0875c74421:0xb8567175dfbfd21f!8m2!3d16.5324039!4d76.7682554!16s%2Fg%2F11g8cl0vtc!19sChIJIUTHdQhryDsRH9K_33VxVrg?authuser=0&hl=en&rclk=1",
        "coordinates": {
            "latitude": 16.5324039,
            "longitude": 76.7682554
        }
    },
    {
        "name": "Badi Masjid Shorapur",
        "main_category": "Place of worship",
        "address": "GQC6+34C Badi Masjid Shorapur, Badi Masjid Mohalla, Shorapur, Karnataka 585224",
        "detailed_address": {
            "ward": null,
            "street": "GQC6+34C, Badi Masjid Mohalla",
            "city": "Shorapur",
            "postal_code": "585224",
            "state": "Karnataka",
            "country_code": "IN"
        },
        "images": [
            {
                "about": "All",
                "link": "https://lh5.googleusercontent.com/p/AF1QipMqhJYtMz1jicRiy_hc7N8JNIK-j04S17q27G_L=w397-h298-k-no"
            },
            {
                "about": "Street View & 360deg",
                "link": "https://streetviewpixels-pa.googleapis.com/v1/thumbnail?panoid=CvUfXflIw3CgxtRakiuL0g&cb_client=maps_sv.tactile.gps&w=224&h=298&yaw=58.1652&pitch=0&thumbfov=100"
            }
        ],
        "link": "https://www.google.com/maps/place/Badi+Masjid+Shorapur/data=!4m7!3m6!1s0x3bc86b125b43e689:0x73bee7abf2055709!8m2!3d16.5201991!4d76.7602713!16s%2Fg%2F11cllhky7w!19sChIJieZDWxJryDsRCVcF8qvnvnM?authuser=0&hl=en&rclk=1",
        "coordinates": {
            "latitude": 16.5201991,
            "longitude": 76.7602713
        }
    },
    {
        "name": "Jamiya Masjid Mozampura",
        "main_category": "Mosque",
        "address": "GQF6+383 Jamiya Masjid Mozampura, Shorapur, Karnataka 585224",
        "detailed_address": {
            "ward": null,
            "street": "GQF6+383",
            "city": "Shorapur",
            "postal_code": "585224",
            "state": "Karnataka",
            "country_code": "IN"
        },
        "images": [
            {
                "about": "All",
                "link": "https://lh5.googleusercontent.com/p/AF1QipP7p23fvZD55B7xxTgWlIKzTBcylcjfQdmqlAgJ=w349-h298-k-no"
            },
            {
                "about": "Dome",
                "link": "https://lh5.googleusercontent.com/p/AF1QipM3EoyhMQrnigMiG_LOtcme_oD3MtFcfGnbPbQr=w224-h298-k-no"
            },
            {
                "about": "Videos",
                "link": "https://lh5.googleusercontent.com/p/AF1QipO9BdBOdzs1dXVbhl1o4biq_SjoqQWIh8QIO3mL=w224-h398-k-no"
            }
        ],
        "link": "https://www.google.com/maps/place/Jamiya+Masjid+Mozampura/data=!4m7!3m6!1s0x3bc86b0d8c3566d7:0x9afe73f9c135a037!8m2!3d16.5226365!4d76.7607927!16s%2Fg%2F11f0432y7m!19sChIJ12Y1jA1ryDsRN6A1wflz_po?authuser=0&hl=en&rclk=1",
        "coordinates": {
            "latitude": 16.5226365,
            "longitude": 76.7607927
        }
    },
    {
        "name": "Masjid E Talha",
        "main_category": "Mosque",
        "address": "GQG5+GXV Masjid E Talha, Rangampet- main road shorapur, Shorapur, Karnataka 585224",
        "detailed_address": {
            "ward": null,
            "street": "GQG5+GXV, Rangampet- main road shorapur",
            "city": "Shorapur",
            "postal_code": "585224",
            "state": "Karnataka",
            "country_code": "IN"
        },
        "images": [
            {
                "about": "All",
                "link": "https://streetviewpixels-pa.googleapis.com/v1/thumbnail?panoid=MhXcj6Wi5hj6fGu_GLmKPQ&cb_client=maps_sv.tactile.gps&w=224&h=298&yaw=203.46883&pitch=0&thumbfov=100"
            },
            {
                "about": "Street View & 360deg",
                "link": "https://streetviewpixels-pa.googleapis.com/v1/thumbnail?panoid=MhXcj6Wi5hj6fGu_GLmKPQ&cb_client=maps_sv.tactile.gps&w=224&h=298&yaw=203.46883&pitch=0&thumbfov=100"
            }
        ],
        "link": "https://www.google.com/maps/place/Masjid+E+Talha/data=!4m7!3m6!1s0x3bc86b0c5e0365df:0x694931e331cdf98c!8m2!3d16.5263619!4d76.7599279!16s%2Fg%2F11cm056jpd!19sChIJ32UDXgxryDsRjPnNMeMxSWk?authuser=0&hl=en&rclk=1",
        "coordinates": {
            "latitude": 16.526361899999998,
            "longitude": 76.7599279
        }
    },
    {
        "name": "Masjide Umar (AhleHadees masjid)",
        "main_category": "Mosque",
        "address": "GQ96+4C8 Masjide Umar (AhleHadees masjid), Shorapur, Karnataka 585224",
        "detailed_address": {
            "ward": null,
            "street": "GQ96+4C8",
            "city": "Shorapur",
            "postal_code": "585224",
            "state": "Karnataka",
            "country_code": "IN"
        },
        "images": [
            {
                "about": "All",
                "link": "https://lh5.googleusercontent.com/p/AF1QipO7Gyi_BfCIz6eWw-SJRJQ2XpHL4AdqwYdTl3ud=w224-h398-k-no"
            },
            {
                "about": "Street View & 360deg",
                "link": "https://streetviewpixels-pa.googleapis.com/v1/thumbnail?panoid=HagJKjGmAYrObFDIbXZX4A&cb_client=maps_sv.tactile.gps&w=224&h=298&yaw=215.49384&pitch=0&thumbfov=100"
            }
        ],
        "link": "https://www.google.com/maps/place/Masjide+Umar+%28AhleHadees+masjid%29/data=!4m7!3m6!1s0x3bc86b13bffad653:0xeb085da9a69750e5!8m2!3d16.5177989!4d76.7610741!16s%2Fg%2F11by_xk441!19sChIJU9b6vxNryDsR5VCXpqldCOs?authuser=0&hl=en&rclk=1",
        "coordinates": {
            "latitude": 16.5177989,
            "longitude": 76.7610741
        }
    },
    {
        "name": "Masjid E Afzal ud Doula Bahadur",
        "main_category": "Mosque",
        "address": "GQ94+52F Masjid E Afzal ud Doula Bahadur, Shorapur, Karnataka 585220",
        "detailed_address": {
            "ward": null,
            "street": "GQ94+52F",
            "city": "Shorapur",
            "postal_code": null,
            "state": "Karnataka",
            "country_code": "IN"
        },
        "images": [
            {
                "about": "All",
                "link": "https://lh5.googleusercontent.com/p/AF1QipOXjov2on0Zyf-75cDbPA87jMK-fIGbCqxpMhPx=w224-h298-k-no"
            }
        ],
        "link": "https://www.google.com/maps/place/Masjid+E+Afzal+ud+Doula+Bahadur/data=!4m7!3m6!1s0x3bc86b6ce905ea4b:0x131ddce7daeda181!8m2!3d16.5179394!4d76.7550353!16s%2Fg%2F11gf1l21f8!19sChIJS-oF6WxryDsRgaHt2ufcHRM?authuser=0&hl=en&rclk=1",
        "coordinates": {
            "latitude": 16.5179394,
            "longitude": 76.7550353
        }
    },
    {
        "name": "Jamiya masjid Rukmapur",
        "main_category": "Mosque",
        "address": "Jamiya masjid Rukmapur, Rukmapur, Karnataka 585224",
        "detailed_address": {
            "ward": null,
            "street": null,
            "city": "Rukmapur",
            "postal_code": "585224",
            "state": "Karnataka",
            "country_code": "IN"
        },
        "images": [
            {
                "about": "All",
                "link": "https://lh5.googleusercontent.com/p/AF1QipPFJkcDCCdywoCDpY7J6qFPSMYxDehqNQtGk4x0=w397-h298-k-no"
            },
            {
                "about": "By owner",
                "link": "https://lh5.googleusercontent.com/p/AF1QipPIekBuABhRTQVSkw0htyXFZPDNC4tC0QzO69k1=w528-h298-k-no"
            }
        ],
        "link": "https://www.google.com/maps/place/Jamiya+masjid+Rukmapur/data=!4m7!3m6!1s0x3bc86b324a5f5c95:0x66a9b9b476679ded!8m2!3d16.5068647!4d76.7848025!16s%2Fg%2F11rtmf2n2g!19sChIJlVxfSjJryDsR7Z1ndrS5qWY?authuser=0&hl=en&rclk=1",
        "coordinates": {
            "latitude": 16.506864699999998,
            "longitude": 76.7848025
        }
    },
    {
        "name": "Husen Saiyadh Masjid",
        "main_category": "Mosque",
        "address": "GQ53+XCV Husen Saiyadh Masjid, Kumbarpet, Shorapur, Karnataka 585290",
        "detailed_address": {
            "ward": "Kumbarpet",
            "street": "GQ53+XCV",
            "city": "Shorapur",
            "postal_code": "585290",
            "state": "Karnataka",
            "country_code": "IN"
        },
        "images": [
            {
                "about": "All",
                "link": "https://lh5.googleusercontent.com/p/AF1QipPmWLnFRku52iVypGsyqHylW8-gFT_xecTiiKKQ=w566-h298-k-no"
            },
            {
                "about": "Latest",
                "link": "https://lh5.googleusercontent.com/p/AF1QipPmWLnFRku52iVypGsyqHylW8-gFT_xecTiiKKQ=w566-h298-k-no"
            },
            {
                "about": "Videos",
                "link": "https://lh5.googleusercontent.com/p/AF1QipOpllLKt1ss6wSFYbukoc5aNlK3gUMV7jAnuzLs=w238-h298-k-no"
            }
        ],
        "link": "https://www.google.com/maps/place/Husen+Saiyadh+Masjid/data=!4m7!3m6!1s0x3bc86bf74959d74b:0x4909ced6ae104b00!8m2!3d16.5099778!4d76.7535323!16s%2Fg%2F11rwq7ngdn!19sChIJS9dZSfdryDsRAEsQrtbOCUk?authuser=0&hl=en&rclk=1",
        "coordinates": {
            "latitude": 16.509977799999998,
            "longitude": 76.7535323
        }
    },
    {
        "name": "MASJID-E-IQRA",
        "main_category": "Mosque",
        "address": "GQMP+5C3 MASJID-E-IQRA, Jevargi - Chamarajanagar Rd, Karnataka 585224",
        "detailed_address": {
            "ward": null,
            "street": "GQMP+5C3, Jevargi - Chamarajanagar Rd",
            "city": null,
            "postal_code": "585224",
            "state": "Karnataka",
            "country_code": "IN"
        },
        "images": [
            {
                "about": "All",
                "link": "https://lh5.googleusercontent.com/p/AF1QipML7oMxMZ8X3-MCxl0jRG9dAadrUM_GE1XoqwJp=w397-h298-k-no"
            },
            {
                "about": "Street View & 360deg",
                "link": "https://streetviewpixels-pa.googleapis.com/v1/thumbnail?panoid=JCti95RM58fz0084Nex1Uw&cb_client=maps_sv.tactile.gps&w=224&h=298&yaw=73.45453&pitch=0&thumbfov=100"
            }
        ],
        "link": "https://www.google.com/maps/place/MASJID-E-IQRA/data=!4m7!3m6!1s0x3bc86af8d172dc15:0xf9f005635097db1d!8m2!3d16.5328835!4d76.7860328!16s%2Fg%2F11c2psk6l7!19sChIJFdxy0fhqyDsRHduXUGMF8Pk?authuser=0&hl=en&rclk=1",
        "coordinates": {
            "latitude": 16.5328835,
            "longitude": 76.7860328
        }
    },
    {
        "name": "Masjid E Talha Bin Zubair Shorapur",
        "main_category": "Mosque",
        "address": "GQG6+J6F Masjid E Talha Bin Zubair Shorapur, Rangampet- main road shorapur, Shorapur, Karnataka 585224",
        "detailed_address": {
            "ward": null,
            "street": "GQG6+J6F, Rangampet- main road shorapur",
            "city": "Shorapur",
            "postal_code": "585224",
            "state": "Karnataka",
            "country_code": "IN"
        },
        "images": [
            {
                "about": "All",
                "link": "https://streetviewpixels-pa.googleapis.com/v1/thumbnail?panoid=n-yPdtws-Kip15KD6cflzA&cb_client=maps_sv.tactile.gps&w=224&h=298&yaw=215.99025&pitch=0&thumbfov=100"
            },
            {
                "about": "Street View & 360deg",
                "link": "https://streetviewpixels-pa.googleapis.com/v1/thumbnail?panoid=n-yPdtws-Kip15KD6cflzA&cb_client=maps_sv.tactile.gps&w=224&h=298&yaw=215.99025&pitch=0&thumbfov=100"
            }
        ],
        "link": "https://www.google.com/maps/place/Masjid+E+Talha+Bin+Zubair+Shorapur/data=!4m7!3m6!1s0x3bc86b4e2be2be67:0x53bf7eb2b853240a!8m2!3d16.5265589!4d76.7605546!16s%2Fg%2F11lqrjz_x2!19sChIJZ77iK05ryDsRCiRTuLJ-v1M?authuser=0&hl=en&rclk=1",
        "coordinates": {
            "latitude": 16.526558899999998,
            "longitude": 76.76055459999999
        }
    },
    {
        "name": "Masjid-e-Asar Shareef",
        "main_category": "Mosque",
        "address": "GQF6+CR7 Masjid-e-Asar Shareef, Shorapur, Karnataka 585224",
        "detailed_address": {
            "ward": null,
            "street": "GQF6+CR7",
            "city": "Shorapur",
            "postal_code": null,
            "state": "Karnataka",
            "country_code": "IN"
        },
        "images": [
            {
                "about": "All",
                "link": "https://lh5.googleusercontent.com/p/AF1QipMFPbdMOsh_iCCudtrLEqfWGv1cmZYUE9aKC3pb=w224-h298-k-no"
            },
            {
                "about": "Street View & 360deg",
                "link": "https://streetviewpixels-pa.googleapis.com/v1/thumbnail?panoid=6l3HnXlmVib-o9uTE21otQ&cb_client=maps_sv.tactile.gps&w=224&h=298&yaw=285.06293&pitch=0&thumbfov=100"
            }
        ],
        "link": "https://www.google.com/maps/place/Masjid-e-Asar+Shareef/data=!4m7!3m6!1s0x3bc86b080f913365:0x8c251719747cdb20!8m2!3d16.5235256!4d76.7620367!16s%2Fg%2F11h2vjzr4r!19sChIJZTORDwhryDsRINt8dBkXJYw?authuser=0&hl=en&rclk=1",
        "coordinates": {
            "latitude": 16.5235256,
            "longitude": 76.7620367
        }
    },
    {
        "name": "Taylor's bangalow masjid",
        "main_category": "Mosque",
        "address": "Taylor's bangalow masjid, Taylor's Bungalow, Shorapur, Talwargera, Karnataka 585220",
        "detailed_address": {
            "ward": null,
            "street": "Taylor's Bungalow",
            "city": "Shorapur, Talwargera",
            "postal_code": "585220",
            "state": "Karnataka",
            "country_code": "IN"
        },
        "images": [
            {
                "about": "All",
                "link": "https://lh5.googleusercontent.com/p/AF1QipNyrUP8cniNqy6vR-KwLwTpZ6RRAgN9cqIbDJ5k=w397-h298-k-no"
            }
        ],
        "link": "https://www.google.com/maps/place/Taylor%27s+bangalow+masjid/data=!4m7!3m6!1s0x3bc86b474db7a6c5:0x16bf173e09d2d5f4!8m2!3d16.5251068!4d76.7518333!16s%2Fg%2F11s2qqwlkq!19sChIJxaa3TUdryDsR9NXSCT4XvxY?authuser=0&hl=en&rclk=1",
        "coordinates": {
            "latitude": 16.5251068,
            "longitude": 76.7518333
        }
    },
    {
        "name": "madina masjid jalaal mohella",
        "main_category": "School",
        "address": "GQ95+H25 madina masjid jalaal mohella, Shorapur, Karnataka 585224",
        "detailed_address": {
            "ward": null,
            "street": "GQ95+H25",
            "city": "Shorapur",
            "postal_code": null,
            "state": "Karnataka",
            "country_code": "IN"
        },
        "images": [
            {
                "about": "All",
                "link": "https://lh5.googleusercontent.com/p/AF1QipPZdqzSB07LP71sBsaFf3QvF7hw61pytyyNj2Cy=w395-h298-k-no"
            }
        ],
        "link": "https://www.google.com/maps/place/madina+masjid+jalaal+mohella/data=!4m7!3m6!1s0x3bc86b1327a305d7:0x2bcf7dbd398b9b74!8m2!3d16.5188837!4d76.7576037!16s%2Fg%2F11hcnc9kjx!19sChIJ1wWjJxNryDsRdJuLOb19zys?authuser=0&hl=en&rclk=1",
        "coordinates": {
            "latitude": 16.5188837,
            "longitude": 76.75760369999999
        }
    },
    {
        "name": "SUBEDAR masjid",
        "main_category": "Mosque",
        "address": "SUBEDAR masjid, Road, near court complex, Shorapur, Karnataka 585220",
        "detailed_address": {
            "ward": null,
            "street": "Road, near court complex",
            "city": "Shorapur",
            "postal_code": "585220",
            "state": "Karnataka",
            "country_code": "IN"
        },
        "images": [],
        "link": "https://www.google.com/maps/place/SUBEDAR+masjid/data=!4m7!3m6!1s0x3bc86b89a96d6051:0x428f2f7aaecba87e!8m2!3d16.5234404!4d76.7461887!16s%2Fg%2F11nwc9l8rk!19sChIJUWBtqYlryDsRfqjLrnovj0I?authuser=0&hl=en&rclk=1",
        "coordinates": {
            "latitude": 16.5234404,
            "longitude": 76.74618869999999
        }
    },
    {
        "name": "Masjid e ansariya",
        "main_category": "Mosque",
        "address": "GQF4+6H2 Masjid e ansariya, SH 60, Shorapur, Karnataka 585224",
        "detailed_address": {
            "ward": null,
            "street": "GQF4+6H2, SH 60",
            "city": "Shorapur",
            "postal_code": "585224",
            "state": "Karnataka",
            "country_code": "IN"
        },
        "images": [
            {
                "about": "All",
                "link": "https://lh5.googleusercontent.com/p/AF1QipO2HbvldIM2u-DTQuJbaShLVs2dSuFfYWslYKwz=w529-h298-k-no"
            },
            {
                "about": "Videos",
                "link": "https://lh5.googleusercontent.com/p/AF1QipMbk_BLOEAPhjmoNQ5Jv6dB9-VlqNRh_z0bYxl_=w224-h398-k-no"
            }
        ],
        "link": "https://www.google.com/maps/place/Masjid+e+ansariya/data=!4m7!3m6!1s0x3bc86b636a5e7905:0xb1b88b1591de2bb4!8m2!3d16.5230104!4d76.7563755!16s%2Fg%2F11rsf0qp0j!19sChIJBXleamNryDsRtCvekRWLuLE?authuser=0&hl=en&rclk=1",
        "coordinates": {
            "latitude": 16.5230104,
            "longitude": 76.75637549999999
        }
    },
    {
        "name": "Lal Sahib Masjid",
        "main_category": "Mosque",
        "address": "GQ62+7XQ Lal Sahib Masjid, Kumbarpet, Shorapur, Karnataka 585290",
        "detailed_address": {
            "ward": "Kumbarpet",
            "street": "GQ62+7XQ",
            "city": "Shorapur",
            "postal_code": "585290",
            "state": "Karnataka",
            "country_code": "IN"
        },
        "images": [],
        "link": "https://www.google.com/maps/place/Lal+Sahib+Masjid/data=!4m7!3m6!1s0x3bc86b4b752b95ed:0x9d517484d458d787!8m2!3d16.5107187!4d76.7524741!16s%2Fg%2F11qg44vzg3!19sChIJ7ZUrdUtryDsRh9dY1IR0UZ0?authuser=0&hl=en&rclk=1",
        "coordinates": {
            "latitude": 16.510718699999998,
            "longitude": 76.7524741
        }
    },
    {
        "name": "ranagmpet moharam masjid",
        "main_category": "Mosque",
        "address": "GQM9+24F ranagmpet moharam masjid, taluk, Rangampet, Karnataka 585220",
        "detailed_address": {
            "ward": null,
            "street": "GQM9+24F, taluk",
            "city": "Rangampet",
            "postal_code": null,
            "state": "Karnataka",
            "country_code": "IN"
        },
        "images": [
            {
                "about": "All",
                "link": "https://streetviewpixels-pa.googleapis.com/v1/thumbnail?panoid=cmfJqd56p5Xm3NMA9lCL7w&cb_client=maps_sv.tactile.gps&w=224&h=298&yaw=316.79016&pitch=0&thumbfov=100"
            },
            {
                "about": "Street View & 360deg",
                "link": "https://streetviewpixels-pa.googleapis.com/v1/thumbnail?panoid=cmfJqd56p5Xm3NMA9lCL7w&cb_client=maps_sv.tactile.gps&w=224&h=298&yaw=316.79016&pitch=0&thumbfov=100"
            }
        ],
        "link": "https://www.google.com/maps/place/ranagmpet+moharam+masjid/data=!4m7!3m6!1s0x3bc86b9873f817a5:0x9d83a904c6ebcf55!8m2!3d16.5325543!4d76.7677819!16s%2Fg%2F11s9gfmpjl!19sChIJpRf4c5hryDsRVc_rxgSpg50?authuser=0&hl=en&rclk=1",
        "coordinates": {
            "latitude": 16.532554299999997,
            "longitude": 76.7677819
        }
    },
    {
        "name": "Masjid of MOZAMPURA",
        "main_category": "Mosque",
        "address": "GQ96+J88 Masjid of MOZAMPURA, Unnamed Road, Shorapur, Karnataka 585224",
        "detailed_address": {
            "ward": null,
            "street": "GQ96+J88, Unnamed Road",
            "city": "Shorapur",
            "postal_code": "585224",
            "state": "Karnataka",
            "country_code": "IN"
        },
        "images": [],
        "link": "https://www.google.com/maps/place/Masjid+of+MOZAMPURA/data=!4m7!3m6!1s0x3bc86b31fb183747:0xa50325e8960853f6!8m2!3d16.5190384!4d76.7608334!16s%2Fg%2F11lb13s3r9!19sChIJRzcY-zFryDsR9lMIluglA6U?authuser=0&hl=en&rclk=1",
        "coordinates": {
            "latitude": 16.5190384,
            "longitude": 76.7608334
        }
    },
    {
        "name": "Syed Kashim Masjid",
        "main_category": "Mosque",
        "address": "GQ94+P6X Syed Kashim Masjid, Shorapur, Karnataka 585220",
        "detailed_address": {
            "ward": null,
            "street": "GQ94+P6X",
            "city": "Shorapur",
            "postal_code": null,
            "state": "Karnataka",
            "country_code": "IN"
        },
        "images": [
            {
                "about": "All",
                "link": "https://streetviewpixels-pa.googleapis.com/v1/thumbnail?panoid=NXDLIVLEj8JmUNnoEbAQcw&cb_client=maps_sv.tactile.gps&w=224&h=298&yaw=240.89626&pitch=0&thumbfov=100"
            },
            {
                "about": "Street View & 360deg",
                "link": "https://streetviewpixels-pa.googleapis.com/v1/thumbnail?panoid=NXDLIVLEj8JmUNnoEbAQcw&cb_client=maps_sv.tactile.gps&w=224&h=298&yaw=240.89626&pitch=0&thumbfov=100"
            }
        ],
        "link": "https://www.google.com/maps/place/Syed+Kashim+Masjid/data=!4m7!3m6!1s0x3bc86b5c16bb0117:0xe7bb17524f209c49!8m2!3d16.5193556!4d76.755614!16s%2Fg%2F11p01v5jtr!19sChIJFwG7FlxryDsRSZwgT1IXu-c?authuser=0&hl=en&rclk=1",
        "coordinates": {
            "latitude": 16.5193556,
            "longitude": 76.755614
        }
    },
    {
        "name": "Bara-E-Imam Aashirkhana Masjid",
        "main_category": "Mosque",
        "address": "GQ96+RJM Bara-E-Imam Aashirkhana Masjid, Shorapur, Karnataka 585224",
        "detailed_address": {
            "ward": null,
            "street": "GQ96+RJM",
            "city": "Shorapur",
            "postal_code": null,
            "state": "Karnataka",
            "country_code": "IN"
        },
        "images": [],
        "link": "https://www.google.com/maps/place/Bara-E-Imam+Aashirkhana+Masjid/data=!4m7!3m6!1s0x3bc86b78ee27c1c3:0x3993910fc1cbed0d!8m2!3d16.5195821!4d76.761534!16s%2Fg%2F11q24gxfdj!19sChIJw8En7nhryDsRDe3LwQ-Rkzk?authuser=0&hl=en&rclk=1",
        "coordinates": {
            "latitude": 16.5195821,
            "longitude": 76.761534
        }
    },
    {
        "name": "Shorapur Hanuman talkies uppar mohalla",
        "main_category": "Mosque",
        "address": "Shorapur Hanuman talkies uppar mohalla, Ansariya Masjid, Shorapur, Karnataka 585224",
        "detailed_address": {
            "ward": null,
            "street": "Ansariya Masjid",
            "city": "Shorapur",
            "postal_code": "585224",
            "state": "Karnataka",
            "country_code": "IN"
        },
        "images": [],
        "link": "https://www.google.com/maps/place/Shorapur+Hanuman+talkies+uppar+mohalla/data=!4m7!3m6!1s0x3bc86b19d3165e57:0x8cd22d4f82ecf749!8m2!3d16.5232796!4d76.7563433!16s%2Fg%2F11s8rcyb2t!19sChIJV14W0xlryDsRSffsgk8t0ow?authuser=0&hl=en&rclk=1",
        "coordinates": {
            "latitude": 16.5232796,
            "longitude": 76.7563433
        }
    },
    {
        "name": "ranagmpet moharram masjid",
        "main_category": "Mosque",
        "address": "GQC6+M9H ranagmpet moharram masjid, ranagmpet quraishi maula, taluk, Shorapur",
        "detailed_address": {
            "ward": null,
            "street": "GQC6+M9H, ranagmpet quraishi maula, taluk",
            "city": "Shorapur",
            "postal_code": null,
            "state": "Karnataka",
            "country_code": "IN"
        },
        "images": [
            {
                "about": "All",
                "link": "https://streetviewpixels-pa.googleapis.com/v1/thumbnail?panoid=dhjEfWKaqLCdxH90QlKv5w&cb_client=maps_sv.tactile.gps&w=224&h=298&yaw=14.019204&pitch=0&thumbfov=100"
            },
            {
                "about": "Street View & 360deg",
                "link": "https://streetviewpixels-pa.googleapis.com/v1/thumbnail?panoid=dhjEfWKaqLCdxH90QlKv5w&cb_client=maps_sv.tactile.gps&w=224&h=298&yaw=14.019204&pitch=0&thumbfov=100"
            }
        ],
        "link": "https://www.google.com/maps/place/ranagmpet+moharram+masjid/data=!4m7!3m6!1s0x3bc86b5cb59ca695:0xb48a05718c0ebda6!8m2!3d16.5216869!4d76.7609987!16s%2Fg%2F11jyjdb2_l!19sChIJlaactVxryDsRpr0OjHEFirQ?authuser=0&hl=en&rclk=1",
        "coordinates": {
            "latitude": 16.5216869,
            "longitude": 76.7609987
        }
    }
]