[
    {
        "name": "Bann Masjid",
        "main_category": "Mosque",
        "address": "PFH5+X6J Bann Masjid, Nadaun, Himachal Pradesh 177033",
        "detailed_address": {
            "ward": null,
            "street": "PFH5+X6J",
            "city": "Nadaun",
            "postal_code": "177033",
            "state": "Himachal Pradesh",
            "country_code": "IN"
        },
        "images": [
            {
                "about": "All",
                "link": "https://lh5.googleusercontent.com/p/AF1QipP06Py3MsAnHZdn-WWonYXe-Y9iroeVD8PSyWCE=w397-h298-k-no"
            }
        ],
        "link": "https://www.google.com/maps/place/Bann+Masjid/data=!4m7!3m6!1s0x3904d3b7a125f795:0xc5ffdf0dd129f9fc!8m2!3d31.7299633!4d76.4580148!16s%2Fg%2F11ssx6nmw7!19sChIJlfclobfTBDkR_Pkp0Q3f_8U?authuser=0&hl=en&rclk=1",
        "coordinates": {
            "latitude": 31.729963299999998,
            "longitude": 76.4580148
        }
    },
    {
        "name": "MASJID",
        "main_category": "Mosque",
        "address": "MFPX+C52 MASJID, Daruhi, Himachal Pradesh 177001",
        "detailed_address": {
            "ward": null,
            "street": "MFPX+C52",
            "city": "Daruhi",
            "postal_code": "177001",
            "state": "Himachal Pradesh",
            "country_code": "IN"
        },
        "images": [
            {
                "about": "All",
                "link": "https://lh5.googleusercontent.com/p/AF1QipN6eKIONd_x5UdbOR13bUlgZk2I1IqCax2_HBd7=w529-h298-k-no"
            }
        ],
        "link": "https://www.google.com/maps/place/MASJID/data=!4m7!3m6!1s0x3904d54d8bc4835b:0xac5cda749301bc4!8m2!3d31.6860602!4d76.4978269!16s%2Fg%2F11krptcbmt!19sChIJW4PEi03VBDkRxBswSafNxQo?authuser=0&hl=en&rclk=1",
        "coordinates": {
            "latitude": 31.6860602,
            "longitude": 76.49782689999999
        }
    },
    {
        "name": "peer Baba Hamirpur",
        "main_category": "Hindu temple",
        "address": "peer Baba Hamirpur, Chakmoh, Galore, Hamirpur, Himachal Pradesh 177001",
        "detailed_address": {
            "ward": "Chakmoh, Galore",
            "street": null,
            "city": "Hamirpur",
            "postal_code": null,
            "state": "Himachal Pradesh",
            "country_code": "IN"
        },
        "images": [
            {
                "about": "All",
                "link": "https://lh5.googleusercontent.com/p/AF1QipMie473t4Lb5tcUWOCbar0Y50t0MG2wiy71Z9lz=w397-h298-k-no"
            }
        ],
        "link": "https://www.google.com/maps/place/peer+Baba+Hamirpur/data=!4m7!3m6!1s0x3904d546323c4f3b:0x2b1cdfd91e5d1f1f!8m2!3d31.6861745!4d76.5213091!16s%2Fg%2F11g4f291cn!19sChIJO088MkbVBDkRHx9dHtnfHCs?authuser=0&hl=en&rclk=1",
        "coordinates": {
            "latitude": 31.6861745,
            "longitude": 76.5213091
        }
    },
    {
        "name": "Ashu_hp_22_wala_",
        "main_category": "Mosque",
        "address": "MGPC+FG7 Ashu_hp_22_wala_, Chakmoh, Galore, Hamirpur, Himachal Pradesh 177001",
        "detailed_address": {
            "ward": "Chakmoh, Galore",
            "street": "MGPC+FG7",
            "city": "Hamirpur",
            "postal_code": null,
            "state": "Himachal Pradesh",
            "country_code": "IN"
        },
        "images": [],
        "link": "https://www.google.com/maps/place/Ashu_hp_22_wala_%E2%9D%A3%EF%B8%8F/data=!4m7!3m6!1s0x3904d5219be684ad:0x8b581bc8d9217991!8m2!3d31.6861745!4d76.5213092!16s%2Fg%2F11kpsvtryj!19sChIJrYTmmyHVBDkRkXkh2cgbWIs?authuser=0&hl=en&rclk=1",
        "coordinates": {
            "latitude": 31.6861745,
            "longitude": 76.52130919999999
        }
    }
]