[
    {
        "name": "Jama Masjid",
        "main_category": "Mosque",
        "address": "Jama Masjid, Old Delhi, Delhi, 110006",
        "detailed_address": {
            "ward": "Jama Masjid, Old Delhi",
            "street": null,
            "city": "Delhi",
            "postal_code": "110006",
            "state": "Delhi",
            "country_code": "IN"
        },
        "images": [
            {
                "about": "All",
                "link": "https://lh5.googleusercontent.com/p/AF1QipMak1D51ms3fAec8Hv85TWzznlDqiSG6WVzH1oo=w447-h298-k-no"
            },
            {
                "about": "Latest",
                "link": "https://lh5.googleusercontent.com/p/AF1QipNNRpm0-dXpgV9oJsKWwcImDfg9o81awCWu2hlm=w224-h398-k-no"
            },
            {
                "about": "Videos",
                "link": "https://lh5.googleusercontent.com/p/AF1QipMlxs5wfHk0o905fntq2LudrTJLkjZky0yCrLHV=w529-h298-k-no"
            },
            {
                "about": "National Boot House",
                "link": "https://lh5.googleusercontent.com/p/AF1QipM5PMl5iJ13XFmdtykdBe9uqqkRj7XNcGjDk_Gd=w529-h298-k-no"
            },
            {
                "about": "Dome",
                "link": "https://lh5.googleusercontent.com/p/AF1QipN2U6zM28o9erhatzJ_mJpeLOkFiGCQiEtj0B9g=w274-h298-k-no"
            },
            {
                "about": "Street View & 360deg",
                "link": "https://lh5.googleusercontent.com/p/AF1QipPz_Omqh6xT1_brAdCRe0ER_BM8EZGxJGXxUSA=w224-h298-k-no-pi-30.000002-ya291.3302-ro-0-fo100"
            }
        ],
        "link": "https://www.google.com/maps/place/Jama+Masjid/data=!4m7!3m6!1s0x390cfd18df89b215:0xdd57369e29bf9d96!8m2!3d28.6506792!4d77.2334421!16zL20vMDR5emo1!19sChIJFbKJ3xj9DDkRlp2_KZ42V90?authuser=0&hl=en&rclk=1",
        "coordinates": {
            "latitude": 28.6506792,
            "longitude": 77.23344209999999
        }
    },
    {
        "name": "Jama Masjid Yawal",
        "main_category": "Religious organization",
        "address": "5M8V+VQ7 Jama Masjid Yawal, Qureshi Wada, Yawal, Maharashtra 425301",
        "detailed_address": {
            "ward": "Qureshi Wada",
            "street": "5M8V+VQ7",
            "city": "Yawal",
            "postal_code": "425301",
            "state": "Maharashtra",
            "country_code": "IN"
        },
        "images": [
            {
                "about": "All",
                "link": "https://lh5.googleusercontent.com/p/AF1QipPA0muEudIYjORSYLyB49oBrJ9hk8ylcpamkuPL=w224-h298-k-no"
            }
        ],
        "link": "https://www.google.com/maps/place/Jama+Masjid+Yawal/data=!4m7!3m6!1s0x3bd9011759ec97f5:0xf11b86d55b1f84e8!8m2!3d21.1671746!4d75.6944309!16s%2Fg%2F11gj72p0sr!19sChIJ9ZfsWRcB2TsR6IQfW9WGG_E?authuser=0&hl=en&rclk=1",
        "coordinates": {
            "latitude": 21.1671746,
            "longitude": 75.6944309
        }
    },
    {
        "name": "JAMA Masjid",
        "main_category": "Mosque",
        "address": "JAMA Masjid, Unnamed Road, Khajli Kalan, Haryana 122508",
        "detailed_address": {
            "ward": null,
            "street": "Unnamed Road",
            "city": "Khajli Kalan",
            "postal_code": "122508",
            "state": "Haryana",
            "country_code": "IN"
        },
        "images": [
            {
                "about": "All",
                "link": "https://lh5.googleusercontent.com/p/AF1QipO52qQeTqqVFceRixc3yJH1ZYWQO3V8tRTGX0g3=w224-h398-k-no"
            }
        ],
        "link": "https://www.google.com/maps/place/JAMA+Masjid/data=!4m7!3m6!1s0x3972d7fc48768f1d:0x842575f2b5f1ccb9!8m2!3d27.9502905!4d77.11907!16s%2Fg%2F11l3mkkgl0!19sChIJHY92SPzXcjkRuczxtfJ1JYQ?authuser=0&hl=en&rclk=1",
        "coordinates": {
            "latitude": 27.950290499999998,
            "longitude": 77.11907
        }
    },
    {
        "name": "Jama Wali Masjid",
        "main_category": "Mosque",
        "address": "V664+P6R Jama Wali Masjid, Punhana, Haryana 122508",
        "detailed_address": {
            "ward": null,
            "street": "V664+P6R",
            "city": "Punhana",
            "postal_code": "122508",
            "state": "Haryana",
            "country_code": "IN"
        },
        "images": [],
        "link": "https://www.google.com/maps/place/Jama+Wali+Masjid/data=!4m7!3m6!1s0x3973279752f004cf:0xd79d27bae0592975!8m2!3d27.861863!4d77.2055244!16s%2Fg%2F11qzks4trz!19sChIJzwTwUpcnczkRdSlZ4Lonndc?authuser=0&hl=en&rclk=1",
        "coordinates": {
            "latitude": 27.861863,
            "longitude": 77.2055244
        }
    }
]