[
    {
        "name": "Madina Masjid",
        "main_category": "Mosque",
        "address": "6X2C+X4G Madina Masjid, Kotma, Madhya Pradesh 484334",
        "detailed_address": {
            "ward": null,
            "street": "6X2C+X4G",
            "city": "Kotma",
            "postal_code": "484334",
            "state": "Madhya Pradesh",
            "country_code": "IN"
        },
        "images": [
            {
                "about": "All",
                "link": "https://lh5.googleusercontent.com/p/AF1QipMkye3b_DlIFe0NrrtyDw_gztMgmc9XugCPEDhc=w224-h473-k-no"
            },
            {
                "about": "Street View & 360deg",
                "link": "https://streetviewpixels-pa.googleapis.com/v1/thumbnail?panoid=4s7yxllitAyNBRhdlxg6iA&cb_client=maps_sv.tactile.gps&w=224&h=298&yaw=313.23752&pitch=0&thumbfov=100"
            }
        ],
        "link": "https://www.google.com/maps/place/Madina+Masjid/data=!4m7!3m6!1s0x3986336a1882f601:0xee040617aed3ce47!8m2!3d23.2024476!4d81.9703369!16s%2Fg%2F11c6q37zvp!19sChIJAfaCGGozhjkRR87TrhcGBO4?authuser=0&hl=en&rclk=1",
        "coordinates": {
            "latitude": 23.2024476,
            "longitude": 81.97033689999999
        }
    },
    {
        "name": "Masjide aqsa",
        "main_category": "Mosque",
        "address": "Ward No : 10, Masjide aqsa, Ali Nagar, Petrol Pump Road, Bijuri, Madhya Pradesh 484440",
        "detailed_address": {
            "ward": null,
            "street": "Ward No : 10, Ali Nagar, Petrol Pump Road",
            "city": "Bijuri",
            "postal_code": "484440",
            "state": "Madhya Pradesh",
            "country_code": "IN"
        },
        "images": [
            {
                "about": "All",
                "link": "https://lh5.googleusercontent.com/p/AF1QipPbVMddOcyHg6dItnlk2g9JXVSCHn4G32Or742q=w529-h298-k-no"
            },
            {
                "about": "Videos",
                "link": "https://lh5.googleusercontent.com/p/AF1QipMCeLhYOsDtAfCXJznY4HCHgfBLyX6eBM6bqa05=w224-h398-k-no"
            }
        ],
        "link": "https://www.google.com/maps/place/Masjide+aqsa/data=!4m7!3m6!1s0x39862dfd2cc4f82b:0x6b6d3ec273960623!8m2!3d23.2566085!4d82.1131622!16s%2Fg%2F11ssbh1zx6!19sChIJK_jELP0thjkRIwaWc8I-bWs?authuser=0&hl=en&rclk=1",
        "coordinates": {
            "latitude": 23.2566085,
            "longitude": 82.11316219999999
        }
    },
    {
        "name": "Islam ganj jama masjid kotma",
        "main_category": "Mosque",
        "address": "6X2G+5FM Islam ganj jama masjid kotma, Vikash Nagar, Kotma, Madhya Pradesh 484336",
        "detailed_address": {
            "ward": "Vikash Nagar",
            "street": "6X2G+5FM",
            "city": "Kotma",
            "postal_code": "484336",
            "state": "Madhya Pradesh",
            "country_code": "IN"
        },
        "images": [
            {
                "about": "All",
                "link": "https://streetviewpixels-pa.googleapis.com/v1/thumbnail?panoid=eozytrg-ri0VafAkgOy5zg&cb_client=maps_sv.tactile.gps&w=224&h=298&yaw=259.28784&pitch=0&thumbfov=100"
            },
            {
                "about": "Street View & 360deg",
                "link": "https://streetviewpixels-pa.googleapis.com/v1/thumbnail?panoid=eozytrg-ri0VafAkgOy5zg&cb_client=maps_sv.tactile.gps&w=224&h=298&yaw=259.28784&pitch=0&thumbfov=100"
            }
        ],
        "link": "https://www.google.com/maps/place/Islam+ganj+jama+masjid+kotma/data=!4m7!3m6!1s0x39863303a036e9df:0x894b3023ce848a84!8m2!3d23.2005414!4d81.9761969!16s%2Fg%2F11l399bw2p!19sChIJ3-k2oAMzhjkRhIqEziMwS4k?authuser=0&hl=en&rclk=1",
        "coordinates": {
            "latitude": 23.2005414,
            "longitude": 81.97619689999999
        }
    },
    {
        "name": "Masjid Vikash Nagar",
        "main_category": "Mosque",
        "address": "6X2G+5FM Masjid Vikash Nagar, Vikash Nagar, Kotma, Madhya Pradesh 484336",
        "detailed_address": {
            "ward": "Vikash Nagar",
            "street": "6X2G+5FM",
            "city": "Kotma",
            "postal_code": null,
            "state": "Madhya Pradesh",
            "country_code": "IN"
        },
        "images": [
            {
                "about": "All",
                "link": "https://streetviewpixels-pa.googleapis.com/v1/thumbnail?panoid=5ddy9G0nBudFb4scdeUklw&cb_client=maps_sv.tactile.gps&w=224&h=298&yaw=261.41144&pitch=0&thumbfov=100"
            },
            {
                "about": "Street View & 360deg",
                "link": "https://streetviewpixels-pa.googleapis.com/v1/thumbnail?panoid=5ddy9G0nBudFb4scdeUklw&cb_client=maps_sv.tactile.gps&w=224&h=298&yaw=261.41144&pitch=0&thumbfov=100"
            }
        ],
        "link": "https://www.google.com/maps/place/Masjid+Vikash+Nagar/data=!4m7!3m6!1s0x3986337d912addd9:0x621430e43e794026!8m2!3d23.2004505!4d81.9761597!16s%2Fg%2F11g07z69gk!19sChIJ2d0qkX0zhjkRJkB5PuQwFGI?authuser=0&hl=en&rclk=1",
        "coordinates": {
            "latitude": 23.2004505,
            "longitude": 81.9761597
        }
    },
    {
        "name": "Masjid baitul hammd",
        "main_category": "Place of worship",
        "address": "6X7C+JH6 Masjid baitul hammd, Baniya Tola, Kotma, Bijuri, Madhya Pradesh 484334",
        "detailed_address": {
            "ward": "Baniya Tola",
            "street": "6X7C+JH6",
            "city": "Kotma, Bijuri",
            "postal_code": "484334",
            "state": "Madhya Pradesh",
            "country_code": "IN"
        },
        "images": [],
        "link": "https://www.google.com/maps/place/Masjid+baitul+hammd/data=!4m7!3m6!1s0x3986337ac3fce085:0x32ff6b16b14a045b!8m2!3d23.2140416!4d81.9713803!16s%2Fg%2F11q8x6dch8!19sChIJheD8w3ozhjkRWwRKsRZr_zI?authuser=0&hl=en&rclk=1",
        "coordinates": {
            "latitude": 23.214041599999998,
            "longitude": 81.97138029999999
        }
    }
]