[
    {
        "name": "HAZRAT UMAR JAMA masjid",
        "main_category": "Mosque",
        "address": "M546+FJ9 HAZRAT UMAR JAMA masjid, Baloda Bazar, Chhattisgarh 493332",
        "detailed_address": {
            "ward": null,
            "street": "M546+FJ9",
            "city": "Baloda Bazar",
            "postal_code": "493332",
            "state": "Chhattisgarh",
            "country_code": "IN"
        },
        "images": [
            {
                "about": "All",
                "link": "https://streetviewpixels-pa.googleapis.com/v1/thumbnail?panoid=7q4FJlZxRFg5alp4LIn1hw&cb_client=maps_sv.tactile.gps&w=224&h=298&yaw=96.32763&pitch=0&thumbfov=100"
            },
            {
                "about": "Street View & 360deg",
                "link": "https://streetviewpixels-pa.googleapis.com/v1/thumbnail?panoid=7q4FJlZxRFg5alp4LIn1hw&cb_client=maps_sv.tactile.gps&w=224&h=298&yaw=96.32763&pitch=0&thumbfov=100"
            }
        ],
        "link": "https://www.google.com/maps/place/HAZRAT+UMAR+JAMA+masjid/data=!4m7!3m6!1s0x3a28808e376cfa8b:0xb6c1b59ae9d68f74!8m2!3d21.6561715!4d82.1616105!16s%2Fg%2F11ddwzbrw0!19sChIJi_psN46AKDoRdI_W6Zq1wbY?authuser=0&hl=en&rclk=1",
        "coordinates": {
            "latitude": 21.6561715,
            "longitude": 82.1616105
        }
    },
    {
        "name": "Minaar-e-Haidari",
        "main_category": "Mosque",
        "address": "M546+FJ8 Minaar-e-Haidari, Baloda Bazar, Chhattisgarh 493332",
        "detailed_address": {
            "ward": null,
            "street": "M546+FJ8",
            "city": "Baloda Bazar",
            "postal_code": "493332",
            "state": "Chhattisgarh",
            "country_code": "IN"
        },
        "images": [
            {
                "about": "All",
                "link": "https://lh5.googleusercontent.com/p/AF1QipOfy5qBXEMPcH6A9YLkyAoe_SDUu2aU-ScC-x28=w224-h298-k-no"
            },
            {
                "about": "Street View & 360deg",
                "link": "https://streetviewpixels-pa.googleapis.com/v1/thumbnail?panoid=7q4FJlZxRFg5alp4LIn1hw&cb_client=maps_sv.tactile.gps&w=224&h=298&yaw=100.36238&pitch=0&thumbfov=100"
            }
        ],
        "link": "https://www.google.com/maps/place/Minaar-e-Haidari/data=!4m7!3m6!1s0x3a28808e37427629:0xfed5e74d0db39130!8m2!3d21.6561637!4d82.1615898!16s%2Fg%2F11c37n7qww!19sChIJKXZCN46AKDoRMJGzDU3n1f4?authuser=0&hl=en&rclk=1",
        "coordinates": {
            "latitude": 21.6561637,
            "longitude": 82.1615898
        }
    },
    {
        "name": "Masjide Ameen E Shariat",
        "main_category": "Mosque",
        "address": "M535+W5F Masjide Ameen E Shariat, Masjid Road, Baloda Bazar, Chhattisgarh 493332",
        "detailed_address": {
            "ward": null,
            "street": "M535+W5F, Masjid Road",
            "city": "Baloda Bazar",
            "postal_code": "493332",
            "state": "Chhattisgarh",
            "country_code": "IN"
        },
        "images": [
            {
                "about": "All",
                "link": "https://lh5.googleusercontent.com/p/AF1QipOB34U2-01U2YwCTb26ULp1lMYjpL9UKq7JuNOQ=w397-h298-k-no"
            },
            {
                "about": "Street View & 360deg",
                "link": "https://streetviewpixels-pa.googleapis.com/v1/thumbnail?panoid=4k1IoQ-W-EtWtxBUBH1ktA&cb_client=maps_sv.tactile.gps&w=224&h=298&yaw=33.582764&pitch=0&thumbfov=100"
            }
        ],
        "link": "https://www.google.com/maps/place/Masjide+Ameen+E+Shariat/data=!4m7!3m6!1s0x3a2881331a26c6ad:0x3df9cdaa83c574c7!8m2!3d21.6548064!4d82.1579069!16s%2Fg%2F11h27mzpvy!19sChIJrcYmGjOBKDoRx3TFg6rN-T0?authuser=0&hl=en&rclk=1",
        "coordinates": {
            "latitude": 21.6548064,
            "longitude": 82.1579069
        }
    },
    {
        "name": "Vikas jewellers masjid complex Sadar road Baloda Bazar (CG)",
        "main_category": "Jeweler",
        "address": "Vikas jewellers masjid complex Sadar road Baloda Bazar (CG), Masjid complex, Sadar Rd, Baloda Bazar, Chhattisgarh 493332",
        "detailed_address": {
            "ward": null,
            "street": "Masjid complex, Sadar Rd",
            "city": "Baloda Bazar",
            "postal_code": "493332",
            "state": "Chhattisgarh",
            "country_code": "IN"
        },
        "images": [
            {
                "about": "All",
                "link": "https://streetviewpixels-pa.googleapis.com/v1/thumbnail?panoid=mVMA3WOmDS9XXnjWdj7OiQ&cb_client=maps_sv.tactile.gps&w=224&h=298&yaw=227.43642&pitch=0&thumbfov=100"
            },
            {
                "about": "Street View & 360deg",
                "link": "https://streetviewpixels-pa.googleapis.com/v1/thumbnail?panoid=mVMA3WOmDS9XXnjWdj7OiQ&cb_client=maps_sv.tactile.gps&w=224&h=298&yaw=227.43642&pitch=0&thumbfov=100"
            }
        ],
        "link": "https://www.google.com/maps/place/Vikas+jewellers+masjid+complex+Sadar+road+Baloda+Bazar+%28CG%29/data=!4m7!3m6!1s0x3a2881d2e0622e59:0x622651aaeb42487c!8m2!3d21.6550816!4d82.1620313!16s%2Fg%2F11fr_vyzhd!19sChIJWS5i4NKBKDoRfEhC66pRJmI?authuser=0&hl=en&rclk=1",
        "coordinates": {
            "latitude": 21.6550816,
            "longitude": 82.1620313
        }
    },
    {
        "name": "Eidgah Sharif",
        "main_category": "Mosque",
        "address": "M535+M2X Eidgah Sharif, Kokadi, Baloda Bazar, Chhattisgarh 493332",
        "detailed_address": {
            "ward": null,
            "street": "M535+M2X",
            "city": "Kokadi, Baloda Bazar",
            "postal_code": "493332",
            "state": "Chhattisgarh",
            "country_code": "IN"
        },
        "images": [
            {
                "about": "All",
                "link": "https://lh5.googleusercontent.com/p/AF1QipP1Z22_dDtcFtzLlZ0pewEXFgNseqOy7uHDQxG-=w224-h298-k-no"
            },
            {
                "about": "Street View & 360deg",
                "link": "https://streetviewpixels-pa.googleapis.com/v1/thumbnail?panoid=S9npxsEus32VQLWAg_6z_g&cb_client=maps_sv.tactile.gps&w=224&h=298&yaw=220.91878&pitch=0&thumbfov=100"
            }
        ],
        "link": "https://www.google.com/maps/place/Eidgah+Sharif/data=!4m7!3m6!1s0x3a2881f019191c03:0xce4c3c1eb3d36b47!8m2!3d21.6542479!4d82.157595!16s%2Fg%2F11t6476nxl!19sChIJAxwZGfCBKDoRR2vTsx48TM4?authuser=0&hl=en&rclk=1",
        "coordinates": {
            "latitude": 21.654247899999998,
            "longitude": 82.157595
        }
    },
    {
        "name": "Paras ka khet",
        "main_category": "Mosque",
        "address": "J4CH+FHJ Paras ka khet, Baloda Bazar, Chhattisgarh 493332",
        "detailed_address": {
            "ward": null,
            "street": "J4CH+FHJ",
            "city": "Baloda Bazar",
            "postal_code": "493332",
            "state": "Chhattisgarh",
            "country_code": "IN"
        },
        "images": [],
        "link": "https://www.google.com/maps/place/Paras+ka+khet/data=!4m7!3m6!1s0x3a2881165dace4ed:0xb3d0344c3a1b47f3!8m2!3d21.6212123!4d82.1288863!16s%2Fg%2F11y1_48rrb!19sChIJ7eSsXRaBKDoR80cbOkw00LM?authuser=0&hl=en&rclk=1",
        "coordinates": {
            "latitude": 21.6212123,
            "longitude": 82.12888629999999
        }
    }
]