[
    {
        "name": "Morigaon Bor Masjid",
        "main_category": "Mosque",
        "address": "Morigaon Bor Masjid, Nabheti, Morigaon, Ghoramara Pathar, Assam 782105",
        "detailed_address": {
            "ward": "Nabheti",
            "street": null,
            "city": "Morigaon, Ghoramara Pathar",
            "postal_code": "782105",
            "state": "Assam",
            "country_code": "IN"
        },
        "images": [],
        "link": "https://www.google.com/maps/place/Morigaon+Bor+Masjid/data=!4m7!3m6!1s0x375ad1afabc8a629:0xdd37a3685fa08c24!8m2!3d26.2528853!4d92.336955!16s%2Fg%2F11d_pkxytz!19sChIJKabIq6_RWjcRJIygX2ijN90?authuser=0&hl=en&rclk=1",
        "coordinates": {
            "latitude": 26.2528853,
            "longitude": 92.33695499999999
        }
    },
    {
        "name": "Town Masjid",
        "main_category": "Mosque",
        "address": "7934+62V Town Masjid, Ward Number 7, Ghasbari, Assam 782105",
        "detailed_address": {
            "ward": "Ward Number 7",
            "street": "7934+62V",
            "city": "Ghasbari",
            "postal_code": "782105",
            "state": "Assam",
            "country_code": "IN"
        },
        "images": [
            {
                "about": "All",
                "link": "https://lh5.googleusercontent.com/p/AF1QipNvYtpArZM_-iS0IA9mjlyhha1W14gzQoSqU77e=w529-h298-k-no"
            },
            {
                "about": "Latest",
                "link": "https://streetviewpixels-pa.googleapis.com/v1/thumbnail?panoid=aw8tohFvxCXrcyuU-KPkMQ&cb_client=maps_sv.tactile.gps&w=224&h=298&yaw=150.91783&pitch=0&thumbfov=100"
            },
            {
                "about": "Street View & 360deg",
                "link": "https://streetviewpixels-pa.googleapis.com/v1/thumbnail?panoid=aw8tohFvxCXrcyuU-KPkMQ&cb_client=maps_sv.tactile.gps&w=224&h=298&yaw=150.91783&pitch=0&thumbfov=100"
            }
        ],
        "link": "https://www.google.com/maps/place/Town+Masjid/data=!4m7!3m6!1s0x375ad19097f54535:0x83b1958dc44d609f!8m2!3d26.253111!4d92.3550579!16s%2Fg%2F11f61pz28l!19sChIJNUX1l5DRWjcRn2BNxI2VsYM?authuser=0&hl=en&rclk=1",
        "coordinates": {
            "latitude": 26.253111,
            "longitude": 92.35505789999999
        }
    },
    {
        "name": "Milanpur Jame Masjid,Morigaon",
        "main_category": "Mosque",
        "address": "782W+MP9 Milanpur Jame Masjid,Morigaon, Morigaon, Rajagaon, Assam 782105",
        "detailed_address": {
            "ward": null,
            "street": "782W+MP9",
            "city": "Morigaon, Rajagaon",
            "postal_code": "782105",
            "state": "Assam",
            "country_code": "IN"
        },
        "images": [
            {
                "about": "All",
                "link": "https://lh5.googleusercontent.com/p/AF1QipOHjjo4yU3zteP7cnLZ8a8ng7u5cvTLAVsSSPEh=w397-h298-k-no"
            },
            {
                "about": "Videos",
                "link": "https://lh5.googleusercontent.com/p/AF1QipMAB9phx_52iOucjCLFrPP1oay1NP4YkHCvq4NJ=w224-h398-k-no"
            }
        ],
        "link": "https://www.google.com/maps/place/Milanpur+Jame+Masjid,Morigaon/data=!4m7!3m6!1s0x375ad1aae1e270f3:0x13559346980c06aa!8m2!3d26.25167!4d92.3468457!16s%2Fg%2F11frltc636!19sChIJ83Di4arRWjcRqgYMmEaTVRM?authuser=0&hl=en&rclk=1",
        "coordinates": {
            "latitude": 26.251669999999997,
            "longitude": 92.3468457
        }
    },
    {
        "name": "Bar MASJID",
        "main_category": "Mosque",
        "address": "68XX+RRM Bar MASJID, Rajagaon, Assam 782105",
        "detailed_address": {
            "ward": null,
            "street": "68XX+RRM",
            "city": "Rajagaon",
            "postal_code": "782105",
            "state": "Assam",
            "country_code": "IN"
        },
        "images": [
            {
                "about": "All",
                "link": "https://lh5.googleusercontent.com/p/AF1QipN9IOEls8yfbv30T5jp7M6tgMGV57cas8Hc6ooN=w395-h298-k-no"
            }
        ],
        "link": "https://www.google.com/maps/place/Bar+MASJID/data=!4m7!3m6!1s0x375ad1d160e908c5:0x3e283d6787238925!8m2!3d26.2495912!4d92.3495557!16s%2Fg%2F11ll5rw2_6!19sChIJxQjpYNHRWjcRJYkjh2c9KD4?authuser=0&hl=en&rclk=1",
        "coordinates": {
            "latitude": 26.249591199999998,
            "longitude": 92.3495557
        }
    },
    {
        "name": "Morimuslim gaon",
        "main_category": "Mosque",
        "address": "Morimuslim gaon, Wajid Ali(Ritu, Morigaon, m0ni, Assam 782105",
        "detailed_address": {
            "ward": null,
            "street": "Wajid Ali(Ritu, Morigaon",
            "city": "m0ni, Rajagaon",
            "postal_code": "782105",
            "state": "Assam",
            "country_code": "IN"
        },
        "images": [],
        "link": "https://www.google.com/maps/place/Morimuslim+gaon/data=!4m7!3m6!1s0x375ad16b946b1e03:0x5caa2a62c4f396c8!8m2!3d26.2505216!4d92.3530233!16s%2Fg%2F11smbvkzzz!19sChIJAx5rlGvRWjcRyJbzxGIqqlw?authuser=0&hl=en&rclk=1",
        "coordinates": {
            "latitude": 26.2505216,
            "longitude": 92.35302329999999
        }
    },
    {
        "name": "Noor Masjid Morigaon Milanpur",
        "main_category": "Mosque",
        "address": "68WX+Q4C Noor Masjid Morigaon Milanpur, Rajagaon, Assam 782105",
        "detailed_address": {
            "ward": null,
            "street": "68WX+Q4C",
            "city": "Rajagaon",
            "postal_code": "782105",
            "state": "Assam",
            "country_code": "IN"
        },
        "images": [],
        "link": "https://www.google.com/maps/place/Noor+Masjid+Morigaon+Milanpur/data=!4m7!3m6!1s0x375ad13452a99711:0xd7fd1013fe4a5fb6!8m2!3d26.2469779!4d92.3478183!16s%2Fg%2F11q3qwhp11!19sChIJEZepUjTRWjcRtl9K_hMQ_dc?authuser=0&hl=en&rclk=1",
        "coordinates": {
            "latitude": 26.246977899999997,
            "longitude": 92.3478183
        }
    },
    {
        "name": "Milonpur Jame masjid",
        "main_category": "Mosque",
        "address": "68VX+M53 Milonpur Jame masjid, Rajagaon, Assam 782105",
        "detailed_address": {
            "ward": null,
            "street": "68VX+M53",
            "city": "Rajagaon",
            "postal_code": "782105",
            "state": "Assam",
            "country_code": "IN"
        },
        "images": [],
        "link": "https://www.google.com/maps/place/Milonpur+Jame+masjid/data=!4m7!3m6!1s0x375ad10f8171ca7f:0xd4e14cc95c4984b5!8m2!3d26.2440841!4d92.3479371!16s%2Fg%2F11scl2xn04!19sChIJf8pxgQ_RWjcRtYRJXMlM4dQ?authuser=0&hl=en&rclk=1",
        "coordinates": {
            "latitude": 26.2440841,
            "longitude": 92.3479371
        }
    },
    {
        "name": "Halka ghar",
        "main_category": "Mosque",
        "address": "7923+526 Halka ghar, Morigaon, Rajagaon, Assam 782105",
        "detailed_address": {
            "ward": null,
            "street": "7923+526",
            "city": "Morigaon, Rajagaon",
            "postal_code": "782105",
            "state": "Assam",
            "country_code": "IN"
        },
        "images": [],
        "link": "https://www.google.com/maps/place/Halka+ghar/data=!4m7!3m6!1s0x375ad1dd1ca508f9:0xb219569a80e3b047!8m2!3d26.2504205!4d92.3525023!16s%2Fg%2F11qn0_dfvd!19sChIJ-QilHN3RWjcRR7DjgJpWGbI?authuser=0&hl=en&rclk=1",
        "coordinates": {
            "latitude": 26.250420499999997,
            "longitude": 92.3525023
        }
    },
    {
        "name": "Morigaon Eidgah Gate",
        "main_category": "Mosque",
        "address": "7923+7PP Morigaon Eidgah Gate, Ward Number 7, Rajagaon, Morigaon, Assam 782105",
        "detailed_address": {
            "ward": "Ward Number 7",
            "street": "7923+7PP",
            "city": "Rajagaon, Morigaon",
            "postal_code": "782105",
            "state": "Assam",
            "country_code": "IN"
        },
        "images": [],
        "link": "https://www.google.com/maps/place/Morigaon+Eidgah+Gate/data=!4m7!3m6!1s0x375ad1fd579785b7:0x88ae2194de2a0639!8m2!3d26.2507174!4d92.3543264!16s%2Fg%2F11m0pxpd8c!19sChIJt4WXV_3RWjcROQYq3pQhrog?authuser=0&hl=en&rclk=1",
        "coordinates": {
            "latitude": 26.2507174,
            "longitude": 92.35432639999999
        }
    },
    {
        "name": "Morigaon Eidgah Maidan",
        "main_category": "Mosque",
        "address": "7923+CP5 Morigaon Eidgah Maidan, Ward Number 7, Morigaon, Rajagaon, Assam 782105",
        "detailed_address": {
            "ward": "Ward Number 7",
            "street": "7923+CP5",
            "city": "Morigaon, Rajagaon",
            "postal_code": "782105",
            "state": "Assam",
            "country_code": "IN"
        },
        "images": [
            {
                "about": "All",
                "link": "https://lh5.googleusercontent.com/p/AF1QipPQnbnC9B8LOI_2sIKPiqTCUBiXHnxsOTUrEnAK=w397-h298-k-no"
            }
        ],
        "link": "https://www.google.com/maps/place/Morigaon+Eidgah+Maidan/data=!4m7!3m6!1s0x375ad1db9dd7303b:0xb7a18247c43ffece!8m2!3d26.2510175!4d92.3543737!16s%2Fg%2F11ndvmkysd!19sChIJOzDXndvRWjcRzv4_xEeCobc?authuser=0&hl=en&rclk=1",
        "coordinates": {
            "latitude": 26.2510175,
            "longitude": 92.3543737
        }
    }
]