[
    {
        "name": "Madeena Masjid",
        "main_category": "Mosque",
        "address": "XQP9+6Q6 Madeena Masjid, Gorantla - Gangampalli Rd, Gorantla, Andhra Pradesh 515231",
        "detailed_address": {
            "ward": null,
            "street": "XQP9+6Q6, Gorantla - Gangampalli Rd",
            "city": "Gorantla",
            "postal_code": "515231",
            "state": "Andhra Pradesh",
            "country_code": "IN"
        },
        "images": [
            {
                "about": "All",
                "link": "https://lh5.googleusercontent.com/p/AF1QipPBv1L8LoAcWV-qL91yDO-5nsyeF7WI88XcbbMc=w529-h298-k-no"
            }
        ],
        "link": "https://www.google.com/maps/place/Madeena+Masjid/data=!4m7!3m6!1s0x3bb17872a2f26f93:0xa6be28e4f55f739d!8m2!3d13.9855413!4d77.7694005!16s%2Fg%2F1v46yt6h!19sChIJk2_yonJ4sTsRnXNf9eQovqY?authuser=0&hl=en&rclk=1",
        "coordinates": {
            "latitude": 13.9855413,
            "longitude": 77.7694005
        }
    },
    {
        "name": "Jamia Masjid",
        "main_category": "Mosque",
        "address": "XQM9+6XH Jamia Masjid, Kadiri Hindupur Rd, Gorantla, Andhra Pradesh 515231",
        "detailed_address": {
            "ward": null,
            "street": "XQM9+6XH, Kadiri Hindupur Rd",
            "city": "Gorantla",
            "postal_code": "515231",
            "state": "Andhra Pradesh",
            "country_code": "IN"
        },
        "images": [
            {
                "about": "All",
                "link": "https://lh5.googleusercontent.com/p/AF1QipP7kfUEVYMVBNIAKsyG8em6XGC4SIO826JTSU8=w397-h298-k-no"
            }
        ],
        "link": "https://www.google.com/maps/place/Jamia+Masjid/data=!4m7!3m6!1s0x3bb178731c480687:0x6e796e0a97d3eefe!8m2!3d13.9830609!4d77.7699745!16s%2Fg%2F1x5qr6_g!19sChIJhwZIHHN4sTsR_u7TlwpueW4?authuser=0&hl=en&rclk=1",
        "coordinates": {
            "latitude": 13.9830609,
            "longitude": 77.7699745
        }
    },
    {
        "name": "Gorantla Masjid",
        "main_category": "Mosque",
        "address": "8CVR+57P Gorantla Masjid, Ravinagar, Gorantla, Guntur, Andhra Pradesh 522034",
        "detailed_address": {
            "ward": "Ravinagar, Gorantla",
            "street": "8CVR+57P",
            "city": "Guntur",
            "postal_code": "522034",
            "state": "Andhra Pradesh",
            "country_code": "IN"
        },
        "images": [
            {
                "about": "All",
                "link": "https://lh5.googleusercontent.com/p/AF1QipNkVD0fOISI6ywzUThDqwwcYmnCxyS3LbWMuO7n=w224-h486-k-no"
            },
            {
                "about": "Dome",
                "link": "https://lh5.googleusercontent.com/p/AF1QipO38A4q1zcQ61z_E07zxkjXk0YcnGm30IdOWQVn=w224-h486-k-no"
            },
            {
                "about": "Street View & 360deg",
                "link": "https://streetviewpixels-pa.googleapis.com/v1/thumbnail?panoid=BJVhjkTVzL5N9TnOIV2h-A&cb_client=maps_sv.tactile.gps&w=224&h=298&yaw=349.15778&pitch=0&thumbfov=100"
            }
        ],
        "link": "https://www.google.com/maps/place/Gorantla+Masjid/data=!4m7!3m6!1s0x3a358ac708b778a9:0x17a6458b1c121a8d!8m2!3d16.3429535!4d80.4406882!16s%2Fg%2F1pyqj4lwq!19sChIJqXi3CMeKNToRjRoSHItFphc?authuser=0&hl=en&rclk=1",
        "coordinates": {
            "latitude": 16.3429535,
            "longitude": 80.4406882
        }
    },
    {
        "name": "Masjide Aksa",
        "main_category": "Mosque",
        "address": "8CPR+P55 Masjide Aksa, Venkateswara Colony Rd, Gorantla, Guntur, Andhra Pradesh 522034",
        "detailed_address": {
            "ward": "Gorantla",
            "street": "8CPR+P55, Venkateswara Colony Rd",
            "city": "Guntur",
            "postal_code": "522034",
            "state": "Andhra Pradesh",
            "country_code": "IN"
        },
        "images": [
            {
                "about": "All",
                "link": "https://lh5.googleusercontent.com/p/AF1QipNfl0Sfao92wBXZNuQa9PfwFyBZyoiflZVtnBVd=w529-h298-k-no"
            },
            {
                "about": "Street View & 360deg",
                "link": "https://streetviewpixels-pa.googleapis.com/v1/thumbnail?panoid=q0fkJ86eenRauTPJ_Xs_xQ&cb_client=maps_sv.tactile.gps&w=224&h=298&yaw=299.44702&pitch=0&thumbfov=100"
            }
        ],
        "link": "https://www.google.com/maps/place/Masjide+Aksa/data=!4m7!3m6!1s0x3a358bd89f052985:0xe4bbebdf3b180b1c!8m2!3d16.3367531!4d80.4404867!16s%2Fg%2F11j0tktfbx!19sChIJhSkFn9iLNToRHAsYO9_ru-Q?authuser=0&hl=en&rclk=1",
        "coordinates": {
            "latitude": 16.3367531,
            "longitude": 80.4404867
        }
    },
    {
        "name": "Masjid e Noor",
        "main_category": "Mosque",
        "address": "XQJF+MXC Masjid e Noor, Cheruvu Rd, Gorantla, Andhra Pradesh 515231",
        "detailed_address": {
            "ward": null,
            "street": "XQJF+MXC, Cheruvu Rd",
            "city": "Gorantla",
            "postal_code": "515231",
            "state": "Andhra Pradesh",
            "country_code": "IN"
        },
        "images": [
            {
                "about": "All",
                "link": "https://lh5.googleusercontent.com/p/AF1QipMN2JysYx9OMeKnnmdUuQgVbraSqfsMq_yN8CUZ=w224-h317-k-no"
            }
        ],
        "link": "https://www.google.com/maps/place/Masjid+e+Noor/data=!4m7!3m6!1s0x3bb17871441f00b1:0x34c80d50a92728cc!8m2!3d13.9816897!4d77.774886!16s%2Fg%2F1tnmq4t5!19sChIJsQAfRHF4sTsRzCgnqVANyDQ?authuser=0&hl=en&rclk=1",
        "coordinates": {
            "latitude": 13.981689699999999,
            "longitude": 77.774886
        }
    },
    {
        "name": "Masjid E Aisha",
        "main_category": "Mosque",
        "address": "XQJ8+VMJ Masjid E Aisha, Cheruvu Rd, Gorantla, Andhra Pradesh 515231",
        "detailed_address": {
            "ward": null,
            "street": "XQJ8+VMJ, Cheruvu Rd",
            "city": "Gorantla",
            "postal_code": "515231",
            "state": "Andhra Pradesh",
            "country_code": "IN"
        },
        "images": [
            {
                "about": "All",
                "link": "https://lh5.googleusercontent.com/p/AF1QipMst4UPpkEzkGGrhfsKyMT0l9wQQGi0nqaHYUs0=w529-h298-k-no"
            },
            {
                "about": "Videos",
                "link": "https://lh5.googleusercontent.com/p/AF1QipMst4UPpkEzkGGrhfsKyMT0l9wQQGi0nqaHYUs0=w529-h298-k-no"
            }
        ],
        "link": "https://www.google.com/maps/place/Masjid+E+Aisha/data=!4m7!3m6!1s0x3bb1780ce9b4f5fb:0xd3832551506f3dbc!8m2!3d13.9822001!4d77.7666426!16s%2Fg%2F1thxz7ds!19sChIJ-_W06Qx4sTsRvD1vUFElg9M?authuser=0&hl=en&rclk=1",
        "coordinates": {
            "latitude": 13.9822001,
            "longitude": 77.7666426
        }
    },
    {
        "name": "Masjid E Bilal",
        "main_category": "Mosque",
        "address": "XQQ8+HMQ Masjid E Bilal, Gorantla, Andhra Pradesh 515231",
        "detailed_address": {
            "ward": null,
            "street": "XQQ8+HMQ",
            "city": "Gorantla",
            "postal_code": "515231",
            "state": "Andhra Pradesh",
            "country_code": "IN"
        },
        "images": [],
        "link": "https://www.google.com/maps/place/Masjid+E+Bilal/data=!4m7!3m6!1s0x3bb178132030b619:0x7ac6e2fd37ed2b38!8m2!3d13.988956!4d77.7667303!16s%2Fg%2F11g9m9029f!19sChIJGbYwIBN4sTsROCvtN_3ixno?authuser=0&hl=en&rclk=1",
        "coordinates": {
            "latitude": 13.988956,
            "longitude": 77.76673029999999
        }
    },
    {
        "name": "Masjid e Quba",
        "main_category": "Mosque",
        "address": "XQP7+56Q Masjid e Quba, Kadiri Hindupur Rd, Rajiv Colony, Gorantla, Andhra Pradesh 515231",
        "detailed_address": {
            "ward": "Rajiv Colony",
            "street": "XQP7+56Q, Kadiri Hindupur Rd",
            "city": "Gorantla",
            "postal_code": null,
            "state": "Andhra Pradesh",
            "country_code": "IN"
        },
        "images": [],
        "link": "https://www.google.com/maps/place/Masjid+e+Quba/data=!4m7!3m6!1s0x3bb1780df7626a75:0x79a7e568d8b15af2!8m2!3d13.9854695!4d77.7630943!16s%2Fg%2F1thcqsns!19sChIJdWpi9w14sTsR8lqx2Gjlp3k?authuser=0&hl=en&rclk=1",
        "coordinates": {
            "latitude": 13.985469499999999,
            "longitude": 77.76309429999999
        }
    },
    {
        "name": "Masjid E Mohiuddin",
        "main_category": "Mosque",
        "address": "XQJ6+X5X Masjid E Mohiuddin, Gorantla, Andhra Pradesh 515231",
        "detailed_address": {
            "ward": null,
            "street": "XQJ6+X5X",
            "city": "Gorantla",
            "postal_code": "515231",
            "state": "Andhra Pradesh",
            "country_code": "IN"
        },
        "images": [
            {
                "about": "All",
                "link": "https://lh5.googleusercontent.com/p/AF1QipNR3dFM6h6IuX6wqY38gMUtNLv4S5o3o2VcBSQp=w224-h299-k-no"
            },
            {
                "about": "Street View & 360deg",
                "link": "https://streetviewpixels-pa.googleapis.com/v1/thumbnail?panoid=fn28xiJbkusj-ATpZKbhmg&cb_client=maps_sv.tactile.gps&w=224&h=298&yaw=168.59587&pitch=0&thumbfov=100"
            }
        ],
        "link": "https://www.google.com/maps/place/Masjid+E+Mohiuddin/data=!4m7!3m6!1s0x3bb179e9721c4bd1:0x984a776107f4ba02!8m2!3d13.9824992!4d77.7604889!16s%2Fg%2F11h3sq63yn!19sChIJ0Usccul5sTsRArr0B2F3Spg?authuser=0&hl=en&rclk=1",
        "coordinates": {
            "latitude": 13.9824992,
            "longitude": 77.7604889
        }
    },
    {
        "name": "Makka Masjid",
        "main_category": "Mosque",
        "address": "XQPF+9G7 Makka Masjid, Kadiri Hindupur Rd, Gorantla, Andhra Pradesh 515231",
        "detailed_address": {
            "ward": null,
            "street": "XQPF+9G7, Kadiri Hindupur Rd",
            "city": "Gorantla",
            "postal_code": "515231",
            "state": "Andhra Pradesh",
            "country_code": "IN"
        },
        "images": [
            {
                "about": "All",
                "link": "https://lh5.googleusercontent.com/p/AF1QipOD9dQQ8Gwz-UcXReA12zBkz2XlMpk_hn3CxHfZ=w224-h398-k-no"
            },
            {
                "about": "Videos",
                "link": "https://lh5.googleusercontent.com/p/AF1QipOD9dQQ8Gwz-UcXReA12zBkz2XlMpk_hn3CxHfZ=w224-h398-k-no"
            }
        ],
        "link": "https://www.google.com/maps/place/Makka+Masjid/data=!4m7!3m6!1s0x3bb1787202092dd7:0x441f4f71f0ae54f5!8m2!3d13.9859122!4d77.7737953!16s%2Fg%2F1tdncpww!19sChIJ1y0JAnJ4sTsR9VSu8HFPH0Q?authuser=0&hl=en&rclk=1",
        "coordinates": {
            "latitude": 13.9859122,
            "longitude": 77.7737953
        }
    },
    {
        "name": "Jamiya Masjid Khabrastan",
        "main_category": "Religious destination",
        "address": "XQJ9+WXH Jamiya Masjid Khabrastan, Gorantla, Andhra Pradesh 515231",
        "detailed_address": {
            "ward": null,
            "street": "XQJ9+WXH",
            "city": "Gorantla",
            "postal_code": "515231",
            "state": "Andhra Pradesh",
            "country_code": "IN"
        },
        "images": [
            {
                "about": "All",
                "link": "https://lh5.googleusercontent.com/p/AF1QipPOeNUnHmKANky2H4TqknmqvkTWrbLwrgryARzv=w224-h497-k-no"
            }
        ],
        "link": "https://www.google.com/maps/place/Jamiya+Masjid+Khabrastan/data=!4m7!3m6!1s0x3bb17971c40fe72d:0xd59bb4cef1ece554!8m2!3d13.9823146!4d77.7699858!16s%2Fg%2F11pz6wbkn8!19sChIJLecPxHF5sTsRVOXs8c60m9U?authuser=0&hl=en&rclk=1",
        "coordinates": {
            "latitude": 13.982314599999999,
            "longitude": 77.7699858
        }
    },
    {
        "name": "Masjid-e-Firdouse",
        "main_category": "Mosque",
        "address": "XQP5+JFF Masjid-e-Firdouse, Gorantla, Andhra Pradesh 515231",
        "detailed_address": {
            "ward": null,
            "street": "XQP5+JFF",
            "city": "Gorantla",
            "postal_code": "515231",
            "state": "Andhra Pradesh",
            "country_code": "IN"
        },
        "images": [
            {
                "about": "All",
                "link": "https://lh5.googleusercontent.com/p/AF1QipNUw9SQtGdhEmgXyvy66DynbeOaO8rZnCqIzzRi=w224-h298-k-no"
            }
        ],
        "link": "https://www.google.com/maps/place/Masjid-e-Firdouse/data=!4m7!3m6!1s0x3bb179047734ae6b:0x5c1579a244dc9cb2!8m2!3d13.9865502!4d77.7586733!16s%2Fg%2F11hlrsg9t7!19sChIJa640dwR5sTsRspzcRKJ5FVw?authuser=0&hl=en&rclk=1",
        "coordinates": {
            "latitude": 13.9865502,
            "longitude": 77.7586733
        }
    },
    {
        "name": ".",
        "main_category": "Mosque",
        "address": "., Indiramma Colony, Dharmavaram, Regatipalli, Andhra Pradesh 515671",
        "detailed_address": {
            "ward": "Indiramma Colony",
            "street": null,
            "city": "Dharmavaram, Regatipalli",
            "postal_code": "515671",
            "state": "Andhra Pradesh",
            "country_code": "IN"
        },
        "images": [
            {
                "about": "All",
                "link": "https://lh5.googleusercontent.com/p/AF1QipObokkVN4l3uJuLeifGWIzShITGKpRlzZ-GkDOp=w662-h298-k-no"
            },
            {
                "about": "By owner",
                "link": "https://lh5.googleusercontent.com/p/AF1QipMy3H1tweFlkTPg9Dh819f3JAsbDUwMOgapJTfV=w224-h298-k-no"
            },
            {
                "about": "Street View & 360deg",
                "link": "https://streetviewpixels-pa.googleapis.com/v1/thumbnail?panoid=RpjmqmDx-RiFLXYhC2APMA&cb_client=maps_sv.tactile.gps&w=224&h=298&yaw=281.30426&pitch=0&thumbfov=100"
            }
        ],
        "link": "https://www.google.com/maps/place/data=!4m7!3m6!1s0x3bb1431c889502dd:0x264213a0998c4c68!8m2!3d14.3850625!4d77.6984375!16s%2Fg%2F11sgnwmqqn!19sChIJ3QKViBxDsTsRaEyMmaATQiY?authuser=0&hl=en&rclk=1",
        "coordinates": {
            "latitude": 14.3850625,
            "longitude": 77.6984375
        }
    }
]