[
    {
        "name": "Jama masjid merta city",
        "main_category": "Mosque",
        "address": "J2WM+W8X Jama masjid merta city, Sikhwalo Ka Mohala, Merta, Rajasthan 341510",
        "detailed_address": {
            "ward": "Sikhwalo Ka Mohala",
            "street": "J2WM+W8X",
            "city": "Merta",
            "postal_code": "341510",
            "state": "Rajasthan",
            "country_code": "IN"
        },
        "images": [
            {
                "about": "All",
                "link": "https://lh5.googleusercontent.com/p/AF1QipPf7yOlClh_08rnb0pKKFw6e46_JRNP66OHGsCC=w447-h298-k-no"
            },
            {
                "about": "Dome",
                "link": "https://lh5.googleusercontent.com/p/AF1QipMJQaLRYnnbQg3ZHdWVQcrM9_QSOpc6-9Brmelq=w298-h298-k-no"
            },
            {
                "about": "Videos",
                "link": "https://lh5.googleusercontent.com/p/AF1QipNj7So82zr3RGbdzzJL0DRy4lay-8L9Y2RyM3Hy=w224-h398-k-no"
            }
        ],
        "link": "https://www.google.com/maps/place/Jama+masjid+merta+city/data=!4m7!3m6!1s0x396a49900aaa8ce5:0xf52d8264703922b6!8m2!3d26.6473715!4d74.033366!16s%2Fg%2F11t4wprvws!19sChIJ5YyqCpBJajkRtiI5cGSCLfU?authuser=0&hl=en&rclk=1",
        "coordinates": {
            "latitude": 26.6473715,
            "longitude": 74.033366
        }
    },
    {
        "name": "Muhammadi Masjid",
        "main_category": "Mosque",
        "address": "PWF7+FW7 Muhammadi Masjid, Merta Road, Rajasthan 341511",
        "detailed_address": {
            "ward": null,
            "street": "PWF7+FW7",
            "city": "Merta Road",
            "postal_code": "341511",
            "state": "Rajasthan",
            "country_code": "IN"
        },
        "images": [
            {
                "about": "All",
                "link": "https://lh5.googleusercontent.com/p/AF1QipNQ0USzfw-anNRYbg87NZU18tksucPwy6AoqPdp=w224-h298-k-no"
            }
        ],
        "link": "https://www.google.com/maps/place/Muhammadi+Masjid/data=!4m7!3m6!1s0x396a43e7b71ba37d:0x6b6583c79948e4bc!8m2!3d26.7236684!4d73.914812!16s%2Fg%2F11csq5637w!19sChIJfaMbt-dDajkRvORImceDZWs?authuser=0&hl=en&rclk=1",
        "coordinates": {
            "latitude": 26.723668399999998,
            "longitude": 73.914812
        }
    },
    {
        "name": "msjid e nivaarghraan",
        "main_category": "Mosque",
        "address": "msjid e nivaarghraan, Niwargharo ka mohalla, Merta, Rajasthan 341510",
        "detailed_address": {
            "ward": null,
            "street": "Niwargharo ka mohalla",
            "city": "Merta",
            "postal_code": "341510",
            "state": "Rajasthan",
            "country_code": "IN"
        },
        "images": [
            {
                "about": "All",
                "link": "https://lh5.googleusercontent.com/p/AF1QipNLNXGEUKz-mvA74die-H06uCo9xHJHwICoaId9=w367-h298-k-no"
            },
            {
                "about": "By owner",
                "link": "https://lh5.googleusercontent.com/p/AF1QipNiyiJsGMjuoizs-XdVS2VYH3T1JHXGL2pW1brG=w224-h298-k-no"
            }
        ],
        "link": "https://www.google.com/maps/place/%E0%A4%AE%E0%A4%B8%E0%A5%8D%E0%A4%9C%E0%A4%BF%E0%A4%A6+%E0%A4%8F+%E0%A4%A8%E0%A4%BF%E0%A4%B5%E0%A4%BE%E0%A4%B0%E0%A4%98%E0%A4%B0%E0%A4%BE%E0%A4%A8/data=!4m7!3m6!1s0x396a498d0b8277b7:0x5a6ae7434c052292!8m2!3d26.6471656!4d74.0369178!16s%2Fg%2F11n2w545rw!19sChIJt3eCC41JajkRkiIFTEPnalo?authuser=0&hl=en&rclk=1",
        "coordinates": {
            "latitude": 26.647165599999997,
            "longitude": 74.0369178
        }
    },
    {
        "name": "Purani Jama masjid",
        "main_category": "Mosque",
        "address": "M22J+MJ8 Purani Jama masjid, Merta, Rajasthan 341510",
        "detailed_address": {
            "ward": null,
            "street": "M22J+MJ8",
            "city": "Merta",
            "postal_code": "341510",
            "state": "Rajasthan",
            "country_code": "IN"
        },
        "images": [
            {
                "about": "All",
                "link": "https://lh5.googleusercontent.com/p/AF1QipPNrWWpobDCjZiZwX0vxu3R7abt2aVi7wekSyDE=w397-h298-k-no"
            },
            {
                "about": "Videos",
                "link": "https://lh5.googleusercontent.com/p/AF1QipMlgcHC8uy7V6kogiHGnpbZonluxa-L0tEYv2JM=w224-h398-k-no"
            }
        ],
        "link": "https://www.google.com/maps/place/Purani+Jama+masjid/data=!4m7!3m6!1s0x396a491ad3ff077d:0xbcb3eca44ebe33a4!8m2!3d26.6516563!4d74.0315783!16s%2Fg%2F11f7r43p6g!19sChIJfQf_0xpJajkRpDO-TqTss7w?authuser=0&hl=en&rclk=1",
        "coordinates": {
            "latitude": 26.6516563,
            "longitude": 74.03157829999999
        }
    },
    {
        "name": "Jinasa Baba Ki Dargah, Merta City",
        "main_category": "Mosque",
        "address": "J2WG+VQ6 Jinasa Baba Ki Dargah, Merta City, Jaitaran Road, Baldev Nagar colony, Merta, Rajasthan 341510",
        "detailed_address": {
            "ward": "Baldev Nagar colony",
            "street": "J2WG+VQ6, Jaitaran Road",
            "city": "Merta",
            "postal_code": "341510",
            "state": "Rajasthan",
            "country_code": "IN"
        },
        "images": [
            {
                "about": "All",
                "link": "https://lh5.googleusercontent.com/p/AF1QipNdMlrr7A9ReDknTNf9mYgnV1eik1s2fNPu1E89=w397-h298-k-no"
            }
        ],
        "link": "https://www.google.com/maps/place/Jinasa+Baba+Ki+Dargah,+Merta+City/data=!4m7!3m6!1s0x396a47218898672f:0x2a6b72ef1f5b8b4!8m2!3d26.6471687!4d74.0268756!16s%2Fg%2F11gwkhzsrt!19sChIJL2eYiCFHajkRtLj18S63pgI?authuser=0&hl=en&rclk=1",
        "coordinates": {
            "latitude": 26.647168699999998,
            "longitude": 74.0268756
        }
    },
    {
        "name": "Qadri Masjid Merta city",
        "main_category": "Mosque",
        "address": "M23P+46Q Qadri Masjid Merta city, Merta, Rajasthan 341510",
        "detailed_address": {
            "ward": null,
            "street": "M23P+46Q",
            "city": "Merta",
            "postal_code": "341510",
            "state": "Rajasthan",
            "country_code": "IN"
        },
        "images": [
            {
                "about": "All",
                "link": "https://streetviewpixels-pa.googleapis.com/v1/thumbnail?panoid=nNzpqRcKEtm3eDidpBRyVg&cb_client=maps_sv.tactile.gps&w=224&h=298&yaw=266.72238&pitch=0&thumbfov=100"
            },
            {
                "about": "Street View & 360deg",
                "link": "https://streetviewpixels-pa.googleapis.com/v1/thumbnail?panoid=nNzpqRcKEtm3eDidpBRyVg&cb_client=maps_sv.tactile.gps&w=224&h=298&yaw=266.72238&pitch=0&thumbfov=100"
            }
        ],
        "link": "https://www.google.com/maps/place/Qadri+Masjid+Merta+city/data=!4m7!3m6!1s0x396a48095407ee4b:0x802095c17f7f8349!8m2!3d26.6528498!4d74.0355967!16s%2Fg%2F11fzpfz4fh!19sChIJS-4HVAlIajkRSYN_f8GVIIA?authuser=0&hl=en&rclk=1",
        "coordinates": {
            "latitude": 26.6528498,
            "longitude": 74.0355967
        }
    },
    {
        "name": "Khwaza Garib Nawaz Masjid",
        "main_category": "Mosque",
        "address": "M24M+2F9 Khwaza Garib Nawaz Masjid, Merta, Rajasthan 341510",
        "detailed_address": {
            "ward": null,
            "street": "M24M+2F9",
            "city": "Merta",
            "postal_code": "341510",
            "state": "Rajasthan",
            "country_code": "IN"
        },
        "images": [
            {
                "about": "All",
                "link": "https://lh5.googleusercontent.com/p/AF1QipOBLXc1nPR2byM-AfHSkOAnJbYIj53T9xugZPMR=w397-h298-k-no"
            },
            {
                "about": "Street View & 360deg",
                "link": "https://streetviewpixels-pa.googleapis.com/v1/thumbnail?panoid=iZz6llqcdaIc6CwXjMvWyA&cb_client=maps_sv.tactile.gps&w=224&h=298&yaw=45.963432&pitch=0&thumbfov=100"
            }
        ],
        "link": "https://www.google.com/maps/place/Khwaza+Garib+Nawaz+Masjid/data=!4m7!3m6!1s0x396a4960df728109:0x3bab36488fc5d4a9!8m2!3d26.6550409!4d74.0337207!16s%2Fg%2F11g232gg9h!19sChIJCYFy32BJajkRqdTFj0g2qzs?authuser=0&hl=en&rclk=1",
        "coordinates": {
            "latitude": 26.6550409,
            "longitude": 74.0337207
        }
    },
    {
        "name": "Mochiyo Ki Masjid",
        "main_category": "Mosque",
        "address": "J2WH+HQ8 Mochiyo Ki Masjid, Janpath Marg, Khatiyon Ka Mohalla, Merta, Rajasthan 341510",
        "detailed_address": {
            "ward": "Khatiyon Ka Mohalla",
            "street": "J2WH+HQ8, Janpath Marg",
            "city": "Merta",
            "postal_code": "341510",
            "state": "Rajasthan",
            "country_code": "IN"
        },
        "images": [
            {
                "about": "All",
                "link": "https://streetviewpixels-pa.googleapis.com/v1/thumbnail?panoid=oXC1yY4jE8d_W9PoBehUhg&cb_client=maps_sv.tactile.gps&w=224&h=298&yaw=163.3397&pitch=0&thumbfov=100"
            },
            {
                "about": "Street View & 360deg",
                "link": "https://streetviewpixels-pa.googleapis.com/v1/thumbnail?panoid=oXC1yY4jE8d_W9PoBehUhg&cb_client=maps_sv.tactile.gps&w=224&h=298&yaw=163.3397&pitch=0&thumbfov=100"
            }
        ],
        "link": "https://www.google.com/maps/place/Mochiyo+Ki+Masjid/data=!4m7!3m6!1s0x396a4736a0c17449:0xcab755300519ad54!8m2!3d26.6464205!4d74.0294488!16s%2Fg%2F11gmc64c0v!19sChIJSXTBoDZHajkRVK0ZBTBVt8o?authuser=0&hl=en&rclk=1",
        "coordinates": {
            "latitude": 26.646420499999998,
            "longitude": 74.0294488
        }
    },
    {
        "name": "Masjid E Ghosiyan",
        "main_category": "Mosque",
        "address": "J2VH+JMG Masjid E Ghosiyan, Opp. Railway Station NH 89, Merta, Rajasthan 341510",
        "detailed_address": {
            "ward": null,
            "street": "J2VH+JMG, Opp. Railway Station NH 89",
            "city": "Merta",
            "postal_code": "341510",
            "state": "Rajasthan",
            "country_code": "IN"
        },
        "images": [
            {
                "about": "All",
                "link": "https://streetviewpixels-pa.googleapis.com/v1/thumbnail?panoid=0dwv_jnuWffAE_ETCWCutQ&cb_client=maps_sv.tactile.gps&w=224&h=298&yaw=155.25285&pitch=0&thumbfov=100"
            },
            {
                "about": "Street View & 360deg",
                "link": "https://streetviewpixels-pa.googleapis.com/v1/thumbnail?panoid=0dwv_jnuWffAE_ETCWCutQ&cb_client=maps_sv.tactile.gps&w=224&h=298&yaw=155.25285&pitch=0&thumbfov=100"
            }
        ],
        "link": "https://www.google.com/maps/place/Masjid+E+Ghosiyan/data=!4m7!3m6!1s0x396a49771b76a1c7:0x37305acdac7fc6fb!8m2!3d26.6509965!4d74.0355003!16s%2Fg%2F11f7r44gkt!19sChIJx6F2G3dJajkR-8Z_rM1aMDc?authuser=0&hl=en&rclk=1",
        "coordinates": {
            "latitude": 26.650996499999998,
            "longitude": 74.0355003
        }
    },
    {
        "name": "Masjid Ek Minaar",
        "main_category": "Mosque",
        "address": "M22M+25J Masjid Ek Minaar, Nanha Bazar Road, Merta, Rajasthan 341510",
        "detailed_address": {
            "ward": null,
            "street": "M22M+25J, Nanha Bazar Road",
            "city": "Merta",
            "postal_code": "341510",
            "state": "Rajasthan",
            "country_code": "IN"
        },
        "images": [],
        "link": "https://www.google.com/maps/place/Masjid+Ek+Minaar/data=!4m7!3m6!1s0x396a4914ef23e35f:0xe82c000e70084d16!8m2!3d26.6500765!4d74.0328867!16s%2Fg%2F11gk8v1gcl!19sChIJX-Mj7xRJajkRFk0IcA4ALOg?authuser=0&hl=en&rclk=1",
        "coordinates": {
            "latitude": 26.650076499999997,
            "longitude": 74.03288669999999
        }
    },
    {
        "name": "banspatta masjid",
        "main_category": "Mosque",
        "address": "J2WP+P98 banspatta masjid, Merta, Rajasthan 341510",
        "detailed_address": {
            "ward": null,
            "street": "J2WP+P98",
            "city": "Merta",
            "postal_code": "341510",
            "state": "Rajasthan",
            "country_code": "IN"
        },
        "images": [],
        "link": "https://www.google.com/maps/place/banspatta+masjid/data=!4m7!3m6!1s0x396a4973293ef94b:0xa4f67ada4a3cba09!8m2!3d26.6467992!4d74.0359574!16s%2Fg%2F11gmy1bmg_!19sChIJS_k-KXNJajkRCbo8Stp69qQ?authuser=0&hl=en&rclk=1",
        "coordinates": {
            "latitude": 26.6467992,
            "longitude": 74.0359574
        }
    },
    {
        "name": "Raza Masjid",
        "main_category": "Mosque",
        "address": "J2XP+CQR Raza Masjid, Merta, Rajasthan 341510",
        "detailed_address": {
            "ward": null,
            "street": "J2XP+CQR",
            "city": "Merta",
            "postal_code": "341510",
            "state": "Rajasthan",
            "country_code": "IN"
        },
        "images": [],
        "link": "https://www.google.com/maps/place/Raza+Masjid/data=!4m7!3m6!1s0x396a49d4c8c8436f:0x6e0ffb2211c32a22!8m2!3d26.6486178!4d74.0368763!16s%2Fg%2F11gk8v2v27!19sChIJb0PIyNRJajkRIirDESL7D24?authuser=0&hl=en&rclk=1",
        "coordinates": {
            "latitude": 26.6486178,
            "longitude": 74.0368763
        }
    },
    {
        "name": "Masjid",
        "main_category": "Mosque",
        "address": "J2XQ+FJH Masjid, Merta, Rajasthan 341510",
        "detailed_address": {
            "ward": null,
            "street": "J2XQ+FJH",
            "city": "Merta",
            "postal_code": "341510",
            "state": "Rajasthan",
            "country_code": "IN"
        },
        "images": [],
        "link": "https://www.google.com/maps/place/Masjid/data=!4m7!3m6!1s0x396a491b6b4c97d1:0x616cfca4b827edab!8m2!3d26.6486795!4d74.0391152!16s%2Fg%2F11s39f4bv1!19sChIJ0ZdMaxtJajkRq-0nuKT8bGE?authuser=0&hl=en&rclk=1",
        "coordinates": {
            "latitude": 26.6486795,
            "longitude": 74.0391152
        }
    },
    {
        "name": "Jama Masjid",
        "main_category": "Mosque",
        "address": "PWG9+HC4 Jama Masjid, main bazar, Merta Road, Rajasthan 341511",
        "detailed_address": {
            "ward": null,
            "street": "PWG9+HC4, main bazar",
            "city": "Merta Road",
            "postal_code": "341511",
            "state": "Rajasthan",
            "country_code": "IN"
        },
        "images": [],
        "link": "https://www.google.com/maps/place/Jama+Masjid/data=!4m7!3m6!1s0x396a4332223484e1:0xf4c477916eb816c7!8m2!3d26.7263791!4d73.9185788!16s%2Fg%2F11s5dwhdjq!19sChIJ4YQ0IjJDajkRxxa4bpF3xPQ?authuser=0&hl=en&rclk=1",
        "coordinates": {
            "latitude": 26.7263791,
            "longitude": 73.91857879999999
        }
    },
    {
        "name": "Masjid E Qajiyaan",
        "main_category": "Mosque",
        "address": "J2XQ+77F Masjid E Qajiyaan, Merta, Rajasthan 341510",
        "detailed_address": {
            "ward": null,
            "street": "J2XQ+77F",
            "city": "Merta",
            "postal_code": "341510",
            "state": "Rajasthan",
            "country_code": "IN"
        },
        "images": [],
        "link": "https://www.google.com/maps/place/Masjid+E+Qajiyaan/data=!4m7!3m6!1s0x396a4927e845c7f5:0x406dd3b65eb5e644!8m2!3d26.6481911!4d74.0381661!16s%2Fg%2F11fct0jrxt!19sChIJ9cdF6CdJajkRROa1XrbTbUA?authuser=0&hl=en&rclk=1",
        "coordinates": {
            "latitude": 26.6481911,
            "longitude": 74.0381661
        }
    },
    {
        "name": "MASJID - E - KALRAN",
        "main_category": "Mosque",
        "address": "M22J+GRC MASJID - E - KALRAN, Merta, Rajasthan 341510",
        "detailed_address": {
            "ward": null,
            "street": "M22J+GRC",
            "city": "Merta",
            "postal_code": "341510",
            "state": "Rajasthan",
            "country_code": "IN"
        },
        "images": [],
        "link": "https://www.google.com/maps/place/MASJID+-+E+-+KALRAN/data=!4m7!3m6!1s0x396a490932cf31c5:0x496bb101bec85f0f!8m2!3d26.651317!4d74.0320037!16s%2Fg%2F11gm9dkhff!19sChIJxTHPMglJajkRD1_IvgGxa0k?authuser=0&hl=en&rclk=1",
        "coordinates": {
            "latitude": 26.651317,
            "longitude": 74.03200369999999
        }
    }
]