[
    {
        "name": "Datankathi Tala Mosjid",
        "main_category": "Mosque",
        "address": "698C+RJ3 Datankathi Tala Mosjid, Kalna, West Bengal 713409",
        "detailed_address": {
            "ward": null,
            "street": "698C+RJ3",
            "city": "Kalna",
            "postal_code": "713409",
            "state": "West Bengal",
            "country_code": "IN"
        },
        "images": [
            {
                "about": "All",
                "link": "https://lh5.googleusercontent.com/p/AF1QipPS63b94EhcxFlWuPJk7JjVyVafWLPcA6_TjC-e=w447-h298-k-no"
            },
            {
                "about": "Latest",
                "link": "https://lh5.googleusercontent.com/p/AF1QipOAbUhTMpyt1HkNH427-WErpoRQO5ShcalGBtJE=w224-h298-k-no"
            },
            {
                "about": "Videos",
                "link": "https://lh5.googleusercontent.com/p/AF1QipNYmPceMRcIfPpu_QSFAdYgniksq2Hjb7GFOm8D=w529-h298-k-no"
            },
            {
                "about": "Dome",
                "link": "https://lh5.googleusercontent.com/p/AF1QipNZHio_xSa0JhS2EXAYAE46BbqNcLfWv_0Z5AG_=w397-h298-k-no"
            },
            {
                "about": "Street View & 360deg",
                "link": "https://streetviewpixels-pa.googleapis.com/v1/thumbnail?panoid=7MtDAlSXyAGun9CrujAc5w&cb_client=maps_sv.tactile.gps&w=224&h=298&yaw=19.0896&pitch=0&thumbfov=100"
            }
        ],
        "link": "https://www.google.com/maps/place/Datankathi+Tala+Mosjid/data=!4m7!3m6!1s0x39f8e5a53c963327:0x8753c2aa41cbab4d!8m2!3d23.2170117!4d88.3715354!16s%2Fg%2F11gd1vxx7h!19sChIJJzOWPKXl-DkRTavLQarCU4c?authuser=0&hl=en&rclk=1",
        "coordinates": {
            "latitude": 23.2170117,
            "longitude": 88.3715354
        }
    },
    {
        "name": "Nibhuji Jama Masjid",
        "main_category": "Mosque",
        "address": "68QV+M6Q Nibhuji Jama Masjid, SH6, Hatkalna, West Bengal 713409",
        "detailed_address": {
            "ward": null,
            "street": "68QV+M6Q, SH6",
            "city": "Hatkalna",
            "postal_code": "713409",
            "state": "West Bengal",
            "country_code": "IN"
        },
        "images": [
            {
                "about": "All",
                "link": "https://lh5.googleusercontent.com/p/AF1QipMLOIoWPmICVMf_j-xYG-gSeNKNPyMeWB5c0JGA=w224-h398-k-no"
            },
            {
                "about": "Street View & 360deg",
                "link": "https://streetviewpixels-pa.googleapis.com/v1/thumbnail?panoid=_Jwe0Vnn5i2M9DDHz4bLjA&cb_client=maps_sv.tactile.gps&w=224&h=298&yaw=354.5729&pitch=0&thumbfov=100"
            }
        ],
        "link": "https://www.google.com/maps/place/Nibhuji+Jama+Masjid/data=!4m7!3m6!1s0x39f8e4dd86a226a5:0x1aefd1ce5b4cb35a!8m2!3d23.2392142!4d88.3431083!16s%2Fg%2F11g6bqr5w9!19sChIJpSaiht3k-DkRWrNMW87R7xo?authuser=0&hl=en&rclk=1",
        "coordinates": {
            "latitude": 23.2392142,
            "longitude": 88.3431083
        }
    },
    {
        "name": "Balir Bazar Jame Mosque",
        "main_category": "Mosque",
        "address": "69H4+JM6 Balir Bazar Jame Mosque, Kalna, West Bengal 713409",
        "detailed_address": {
            "ward": null,
            "street": "69H4+JM6",
            "city": "Kalna",
            "postal_code": "713409",
            "state": "West Bengal",
            "country_code": "IN"
        },
        "images": [
            {
                "about": "All",
                "link": "https://lh5.googleusercontent.com/p/AF1QipPiT7ne28xEKV3HVcCK9l1C7xk5qQj6LxyF4byp=w397-h298-k-no"
            },
            {
                "about": "Dome",
                "link": "https://lh5.googleusercontent.com/p/AF1QipM9HD2hdGvNmAkgJ2m8mu4l2BiD-beNmby2vXXK=w224-h298-k-no"
            },
            {
                "about": "Street View & 360deg",
                "link": "https://streetviewpixels-pa.googleapis.com/v1/thumbnail?panoid=0LTzeRDzMVNjuYNyWLzjGw&cb_client=maps_sv.tactile.gps&w=224&h=298&yaw=271.48773&pitch=0&thumbfov=100"
            }
        ],
        "link": "https://www.google.com/maps/place/Balir+Bazar+Jame+Mosque/data=!4m7!3m6!1s0x39f8e5878ae30bd3:0xde35ced05a501d61!8m2!3d23.2290465!4d88.3566384!16s%2Fg%2F11f653x8g4!19sChIJ0wvjiofl-DkRYR1QWtDONd4?authuser=0&hl=en&rclk=1",
        "coordinates": {
            "latitude": 23.2290465,
            "longitude": 88.3566384
        }
    },
    {
        "name": "Kalna Masjid",
        "main_category": "Mosque",
        "address": "6982+MHW Kalna Masjid, Kalna, Rameswarpur P, West Bengal 713409",
        "detailed_address": {
            "ward": null,
            "street": "6982+MHW",
            "city": "Kalna, Rameswarpur P",
            "postal_code": "713409",
            "state": "West Bengal",
            "country_code": "IN"
        },
        "images": [
            {
                "about": "All",
                "link": "https://lh5.googleusercontent.com/p/AF1QipPQNGkr5Qlo5cPLY9qHEre3gY-WVRtve5ivC-Ex=w224-h398-k-no"
            },
            {
                "about": "Street View & 360deg",
                "link": "https://streetviewpixels-pa.googleapis.com/v1/thumbnail?panoid=OeY2Rpm3jmREWCuQtp1RXQ&cb_client=maps_sv.tactile.gps&w=224&h=298&yaw=194.69875&pitch=0&thumbfov=100"
            }
        ],
        "link": "https://www.google.com/maps/place/Kalna+Masjid/data=!4m7!3m6!1s0x39f8e533a66f6bf5:0x8fe655a2cf905bc5!8m2!3d23.2167273!4d88.3514389!16s%2Fg%2F11f5djp5ld!19sChIJ9WtvpjPl-DkRxVuQz6JV5o8?authuser=0&hl=en&rclk=1",
        "coordinates": {
            "latitude": 23.2167273,
            "longitude": 88.35143889999999
        }
    },
    {
        "name": "Uttar Goara Nabapalli Masjid",
        "main_category": "Mosque",
        "address": "68PR+M8F Uttar Goara Nabapalli Masjid, Hatkalna, West Bengal 713434",
        "detailed_address": {
            "ward": null,
            "street": "68PR+M8F",
            "city": "Hatkalna",
            "postal_code": "713434",
            "state": "West Bengal",
            "country_code": "IN"
        },
        "images": [],
        "link": "https://www.google.com/maps/place/Uttar+Goara+Nabapalli+Masjid/data=!4m7!3m6!1s0x39f8e4de802bd683:0x86fd3d6465cd193!8m2!3d23.2366754!4d88.3408003!16s%2Fg%2F11gdg7lpsy!19sChIJg9YrgN7k-DkRk9FcRtbTbwg?authuser=0&hl=en&rclk=1",
        "coordinates": {
            "latitude": 23.2366754,
            "longitude": 88.3408003
        }
    },
    {
        "name": "maarkaaj jaame msjid Markaj Jame Masjid",
        "main_category": "Mosque",
        "address": "maarkaaj jaame msjid Markaj Jame Masjid, Danga para, Kalna, West Bengal 713409",
        "detailed_address": {
            "ward": null,
            "street": "Danga para",
            "city": "Kalna",
            "postal_code": null,
            "state": "West Bengal",
            "country_code": "IN"
        },
        "images": [
            {
                "about": "All",
                "link": "https://lh5.googleusercontent.com/p/AF1QipOBREAcqIai2RIwk6G9j3zHwdhXlCDVzsKooCiu=w224-h298-k-no"
            },
            {
                "about": "Street View & 360deg",
                "link": "https://streetviewpixels-pa.googleapis.com/v1/thumbnail?panoid=dDxUcNjdlumHywl5ZkGilg&cb_client=maps_sv.tactile.gps&w=224&h=298&yaw=293.1767&pitch=0&thumbfov=100"
            }
        ],
        "link": "https://www.google.com/maps/place/%E0%A6%AE%E0%A6%BE%E0%A6%B0%E0%A7%8D%E0%A6%95%E0%A6%BE%E0%A6%9C+%E0%A6%9C%E0%A6%BE%E0%A6%AE%E0%A7%87+%E0%A6%AE%E0%A6%B8%E0%A6%9C%E0%A6%BF%E0%A6%A6+Markaj+Jame+Masjid/data=!4m7!3m6!1s0x39f8e5b80bd80085:0x99843bd9f573e064!8m2!3d23.2257083!4d88.3612145!16s%2Fg%2F11scyfvl2p!19sChIJhQDYC7jl-DkRZOBz9dk7hJk?authuser=0&hl=en&rclk=1",
        "coordinates": {
            "latitude": 23.225708299999997,
            "longitude": 88.3612145
        }
    },
    {
        "name": "Kompanidanga Masjid",
        "main_category": "Mosque",
        "address": "68RV+7MJ Kompanidanga Masjid, Kalna, West Bengal 713409",
        "detailed_address": {
            "ward": null,
            "street": "68RV+7MJ",
            "city": "Kalna",
            "postal_code": "713409",
            "state": "West Bengal",
            "country_code": "IN"
        },
        "images": [
            {
                "about": "All",
                "link": "https://lh5.googleusercontent.com/p/AF1QipPsurvOfwt4PjZ7Z3eXihEYRl_4K2qQIzelJt_H=w224-h398-k-no"
            }
        ],
        "link": "https://www.google.com/maps/place/Kompanidanga+Masjid/data=!4m7!3m6!1s0x39f8e5ed045abe6f:0xe0b1096eb248ee00!8m2!3d23.2407109!4d88.3441369!16s%2Fg%2F11sfr8tkdw!19sChIJb75aBO3l-DkRAO5Ism4JseA?authuser=0&hl=en&rclk=1",
        "coordinates": {
            "latitude": 23.2407109,
            "longitude": 88.3441369
        }
    },
    {
        "name": "Bijara,Majherpara, Masjid",
        "main_category": "Mosque",
        "address": "6983+H4H Bijara,Majherpara, Masjid, 67JW+P Bijara, Baghanapa, Kalna, Rameswarpur P, West Bengal 713409",
        "detailed_address": {
            "ward": "Baghanapa",
            "street": "6983+H4H, 67JW+P Bijara",
            "city": "Kalna, Rameswarpur P",
            "postal_code": "713409",
            "state": "West Bengal",
            "country_code": "IN"
        },
        "images": [
            {
                "about": "All",
                "link": "https://lh5.googleusercontent.com/p/AF1QipM6a93aSlqOM8k5-eULX8u65VGWf-3WjVMQweIx=w397-h298-k-no"
            },
            {
                "about": "Street View & 360deg",
                "link": "https://streetviewpixels-pa.googleapis.com/v1/thumbnail?panoid=x2R6ZEr1ZBzLSPFrJ9mZIw&cb_client=maps_sv.tactile.gps&w=224&h=298&yaw=359.50528&pitch=0&thumbfov=100"
            }
        ],
        "link": "https://www.google.com/maps/place/Bijara,Majherpara,+Masjid/data=!4m7!3m6!1s0x39f8e5beb240656b:0x2534bf7c1bd90971!8m2!3d23.2164297!4d88.3528538!16s%2Fg%2F11s56sv3m0!19sChIJa2VAsr7l-DkRcQnZG3y_NCU?authuser=0&hl=en&rclk=1",
        "coordinates": {
            "latitude": 23.2164297,
            "longitude": 88.35285379999999
        }
    },
    {
        "name": "Kalna maszid",
        "main_category": "Mosque",
        "address": "Kalna maszid, new busstand, Kalna, Rameswarpur P, West Bengal 713409",
        "detailed_address": {
            "ward": null,
            "street": "new busstand, Kalna",
            "city": "Rameswarpur P",
            "postal_code": "713409",
            "state": "West Bengal",
            "country_code": "IN"
        },
        "images": [],
        "link": "https://www.google.com/maps/place/Kalna+maszid/data=!4m7!3m6!1s0x39f8e5f220d8e835:0xe91379f26d61ab33!8m2!3d23.2163112!4d88.3511912!16s%2Fg%2F11rvjfhmvt!19sChIJNejYIPLl-DkRM6thbfJ5E-k?authuser=0&hl=en&rclk=1",
        "coordinates": {
            "latitude": 23.2163112,
            "longitude": 88.3511912
        }
    },
    {
        "name": "Ambia Jame Masjid Jabari Para",
        "main_category": "Mosque",
        "address": "69F6+6HQ Ambia Jame Masjid Jabari Para, Kalna, West Bengal 713409",
        "detailed_address": {
            "ward": null,
            "street": "69F6+6HQ",
            "city": "Kalna",
            "postal_code": "713409",
            "state": "West Bengal",
            "country_code": "IN"
        },
        "images": [
            {
                "about": "All",
                "link": "https://lh5.googleusercontent.com/p/AF1QipPSGYnfBE6aw4XX90TCqigYzVkf9gvpre9SQx9I=w528-h298-k-no"
            },
            {
                "about": "Street View & 360deg",
                "link": "https://streetviewpixels-pa.googleapis.com/v1/thumbnail?panoid=EGbF_H1UF-lkfLO9qlFySg&cb_client=maps_sv.tactile.gps&w=224&h=298&yaw=55.632&pitch=0&thumbfov=100"
            }
        ],
        "link": "https://www.google.com/maps/place/Ambia+Jame+Masjid+Jabari+Para/data=!4m7!3m6!1s0x39f8e5c3d64f1da3:0x15f0459228d50207!8m2!3d23.2230893!4d88.3614912!16s%2Fg%2F11pysj3tp7!19sChIJox1P1sPl-DkRBwLVKJJF8BU?authuser=0&hl=en&rclk=1",
        "coordinates": {
            "latitude": 23.223089299999998,
            "longitude": 88.36149119999999
        }
    },
    {
        "name": "Rameshwarpur Jumma Mosjid",
        "main_category": "Mosque",
        "address": "6962+HQR Rameshwarpur Jumma Mosjid, Rameswarpur, Kumarsanda, Rameswarpur P, West Bengal 742136",
        "detailed_address": {
            "ward": "Rameswarpur",
            "street": "6962+HQR",
            "city": "Kumarsanda, Rameswarpur P",
            "postal_code": "742136",
            "state": "West Bengal",
            "country_code": "IN"
        },
        "images": [],
        "link": "https://www.google.com/maps/place/Rameshwarpur+Jumma+Mosjid/data=!4m7!3m6!1s0x39f8e58b035a157b:0xc3def5070bf270e2!8m2!3d23.2114957!4d88.3518998!16s%2Fg%2F11grc8_bhb!19sChIJexVaA4vl-DkR4nDyCwf13sM?authuser=0&hl=en&rclk=1",
        "coordinates": {
            "latitude": 23.2114957,
            "longitude": 88.3518998
        }
    },
    {
        "name": "Bijaynagar Masjid",
        "main_category": "Mosque",
        "address": "68RR+8R4 Bijaynagar Masjid, Kalna, West Bengal 713409",
        "detailed_address": {
            "ward": null,
            "street": "68RR+8R4",
            "city": "Kalna",
            "postal_code": "713409",
            "state": "West Bengal",
            "country_code": "IN"
        },
        "images": [],
        "link": "https://www.google.com/maps/place/Bijaynagar+Masjid/data=!4m7!3m6!1s0x39f8e53aefcedc2b:0x32e87d0146021dc4!8m2!3d23.2407716!4d88.3420812!16s%2Fg%2F11rj5m_zhp!19sChIJK9zO7zrl-DkRxB0CRgF96DI?authuser=0&hl=en&rclk=1",
        "coordinates": {
            "latitude": 23.2407716,
            "longitude": 88.3420812
        }
    },
    {
        "name": "Kalbari Jame Masjid, Hatkalna",
        "main_category": "Mosque",
        "address": "68QR+M7X Kalbari Jame Masjid, Hatkalna, kalbari masjid klbaarri msjid, Hatkalna, Kalna, West Bengal 713434",
        "detailed_address": {
            "ward": null,
            "street": "68QR+M7X kalbari masjid klbaarri msjid",
            "city": "Hatkalna, Kalna",
            "postal_code": "713434",
            "state": "West Bengal",
            "country_code": "IN"
        },
        "images": [],
        "link": "https://www.google.com/maps/place/Kalbari+Jame+Masjid,+Hatkalna/data=!4m7!3m6!1s0x39f8e5771d3d0ee7:0x829c0659e0a2c5c7!8m2!3d23.2392401!4d88.3407264!16s%2Fg%2F11mw4yfhxh!19sChIJ5w49HXfl-DkRx8Wi4FkGnII?authuser=0&hl=en&rclk=1",
        "coordinates": {
            "latitude": 23.2392401,
            "longitude": 88.3407264
        }
    },
    {
        "name": "iy'aa piirbaabaar drbaar",
        "main_category": "Mosque",
        "address": "68RQ+225 iy'aa piirbaabaar drbaar, Nibhuji Bazar, Kalna, West Bengal 713409",
        "detailed_address": {
            "ward": "Nibhuji Bazar",
            "street": "68RQ+225",
            "city": "Kalna",
            "postal_code": null,
            "state": "West Bengal",
            "country_code": "IN"
        },
        "images": [
            {
                "about": "All",
                "link": "https://streetviewpixels-pa.googleapis.com/v1/thumbnail?panoid=uuYKp2zBpXGMumshPLOyug&cb_client=maps_sv.tactile.gps&w=224&h=298&yaw=65.12624&pitch=0&thumbfov=100"
            },
            {
                "about": "Street View & 360deg",
                "link": "https://streetviewpixels-pa.googleapis.com/v1/thumbnail?panoid=uuYKp2zBpXGMumshPLOyug&cb_client=maps_sv.tactile.gps&w=224&h=298&yaw=65.12624&pitch=0&thumbfov=100"
            }
        ],
        "link": "https://www.google.com/maps/place/%E0%A6%87%E0%A6%AF%E0%A6%BC%E0%A6%BE+%E0%A6%AA%E0%A7%80%E0%A6%B0%E0%A6%AC%E0%A6%BE%E0%A6%AC%E0%A6%BE%E0%A6%B0+%E0%A6%A6%E0%A6%B0%E0%A6%AC%E0%A6%BE%E0%A6%B0/data=!4m7!3m6!1s0x39f8e505fa714727:0x70b6ba8382d30717!8m2!3d23.2400036!4d88.3375945!16s%2Fg%2F11tj92gqqg!19sChIJJ0dx-gXl-DkRFwfTgoO6tnA?authuser=0&hl=en&rclk=1",
        "coordinates": {
            "latitude": 23.240003599999998,
            "longitude": 88.3375945
        }
    },
    {
        "name": "Habshi Mosque. Kalna.",
        "main_category": "Mosque",
        "address": "697F+7CH Habshi Mosque. Kalna., Shashpur, West Bengal 713409",
        "detailed_address": {
            "ward": "Shashpur",
            "street": "697F+7CH",
            "city": null,
            "postal_code": "713409",
            "state": "West Bengal",
            "country_code": "IN"
        },
        "images": [
            {
                "about": "All",
                "link": "https://streetviewpixels-pa.googleapis.com/v1/thumbnail?panoid=h7rkVLEC-jhe4v9xliMAWQ&cb_client=maps_sv.tactile.gps&w=224&h=298&yaw=262.6133&pitch=0&thumbfov=100"
            },
            {
                "about": "Street View & 360deg",
                "link": "https://streetviewpixels-pa.googleapis.com/v1/thumbnail?panoid=h7rkVLEC-jhe4v9xliMAWQ&cb_client=maps_sv.tactile.gps&w=224&h=298&yaw=262.6133&pitch=0&thumbfov=100"
            }
        ],
        "link": "https://www.google.com/maps/place/Habshi+Mosque.+Kalna./data=!4m7!3m6!1s0x39f8e5b9e2d3ef49:0x10927a18a7e55078!8m2!3d23.213188!4d88.3736145!16s%2Fg%2F11tssrfmsw!19sChIJSe_T4rnl-DkReFDlpxh6khA?authuser=0&hl=en&rclk=1",
        "coordinates": {
            "latitude": 23.213188,
            "longitude": 88.3736145
        }
    }
]