[
    {
        "name": "Na- Mosjid.",
        "main_category": "Mosque",
        "address": "GX76+CHV Na- Mosjid., Kumarpatty, Golaghat, Assam 785702",
        "detailed_address": {
            "ward": null,
            "street": "GX76+CHV",
            "city": "Kumarpatty, Golaghat",
            "postal_code": "785702",
            "state": "Assam",
            "country_code": "IN"
        },
        "images": [
            {
                "about": "All",
                "link": "https://lh5.googleusercontent.com/p/AF1QipPQRs_0W3Ktzu5ekgYJHDYlYiGpfF5bhq4Zb_SZ=w224-h384-k-no"
            }
        ],
        "link": "https://www.google.com/maps/place/Na-+Mosjid./data=!4m7!3m6!1s0x37468e5b9354784b:0xc78ab9ef068be19b!8m2!3d26.5136217!4d93.9614321!16s%2Fg%2F11g7kvv7cc!19sChIJS3hUk1uORjcRm-GLBu-5isc?authuser=0&hl=en&rclk=1",
        "coordinates": {
            "latitude": 26.513621699999998,
            "longitude": 93.9614321
        }
    },
    {
        "name": "Golaghat Mosque",
        "main_category": "Mosque",
        "address": "GX6H+549 Golaghat Mosque, Dhodar Ali Rd, Golaghat, Assam 785621",
        "detailed_address": {
            "ward": null,
            "street": "GX6H+549, Dhodar Ali Rd",
            "city": "Golaghat",
            "postal_code": "785621",
            "state": "Assam",
            "country_code": "IN"
        },
        "images": [
            {
                "about": "All",
                "link": "https://lh5.googleusercontent.com/p/AF1QipNoxzWH7wJOEqVMLncC0KNjkdqrAaealtIwkdp0=w397-h298-k-no"
            }
        ],
        "link": "https://www.google.com/maps/place/Golaghat+Mosque/data=!4m7!3m6!1s0x37468e7cb445a503:0xfead1bf356017c39!8m2!3d26.5104086!4d93.9778501!16s%2Fg%2F1261vtsd3!19sChIJA6VFtHyORjcROXwBVvMbrf4?authuser=0&hl=en&rclk=1",
        "coordinates": {
            "latitude": 26.510408599999998,
            "longitude": 93.9778501
        }
    },
    {
        "name": "Mosque msjd",
        "main_category": "Mosque",
        "address": "GX67+98C Mosque msjd, Golaghat, Assam 785702",
        "detailed_address": {
            "ward": null,
            "street": "GX67+98C",
            "city": "Golaghat",
            "postal_code": "785702",
            "state": "Assam",
            "country_code": "IN"
        },
        "images": [
            {
                "about": "All",
                "link": "https://lh5.googleusercontent.com/p/AF1QipNNIRLkFdYn2k2xHGOmiFWHxUGJ_nBFbt-6Oz31=w224-h398-k-no"
            },
            {
                "about": "Street View & 360deg",
                "link": "https://streetviewpixels-pa.googleapis.com/v1/thumbnail?panoid=ODxGjCsKVMnFplC7zAQFpQ&cb_client=maps_sv.tactile.gps&w=224&h=298&yaw=179.613&pitch=0&thumbfov=100"
            },
            {
                "about": "Videos",
                "link": "https://lh5.googleusercontent.com/p/AF1QipPxZvg5-31H4eMhgdtx9EU8uYMUdMwjMseFwxO4=w224-h398-k-no"
            }
        ],
        "link": "https://www.google.com/maps/place/Mosque+%D9%85%D8%B3%D8%AC%D8%AF%E2%80%AD/data=!4m7!3m6!1s0x37468e5ebbfe1201:0xd8253a1aaa838c93!8m2!3d26.5109471!4d93.9632758!16s%2Fg%2F11dymmr12z!19sChIJARL-u16ORjcRk4yDqho6Jdg?authuser=0&hl=en&rclk=1",
        "coordinates": {
            "latitude": 26.5109471,
            "longitude": 93.96327579999999
        }
    },
    {
        "name": "Janpar Jamme Masjid",
        "main_category": "Mosque",
        "address": "GXF7+QFC Janpar Jamme Masjid, Selengi, Golaghat, Assam 785621",
        "detailed_address": {
            "ward": null,
            "street": "GXF7+QFC",
            "city": "Selengi, Golaghat",
            "postal_code": "785621",
            "state": "Assam",
            "country_code": "IN"
        },
        "images": [
            {
                "about": "All",
                "link": "https://lh5.googleusercontent.com/p/AF1QipNsIJNU5ond6Y1GxR95CDOQ8zCZM4X6h_MYOvls=w529-h298-k-no"
            }
        ],
        "link": "https://www.google.com/maps/place/Janpar+Jamme+Masjid/data=!4m7!3m6!1s0x37468e41678d73d3:0x7b59af47e81e5745!8m2!3d26.5244484!4d93.9636435!16s%2Fg%2F11fx8zgjjr!19sChIJ03ONZ0GORjcRRVce6EevWXs?authuser=0&hl=en&rclk=1",
        "coordinates": {
            "latitude": 26.524448399999997,
            "longitude": 93.96364349999999
        }
    },
    {
        "name": "jalilcottonshop",
        "main_category": "Store",
        "address": "jalilcottonshop, Assam, Dhakapaty Masjid, Hindi School Rd, near Golaghat Dhakapatty, Golaghat, Assam 785621",
        "detailed_address": {
            "ward": null,
            "street": "Assam, Dhakapaty Masjid, Hindi School Rd, near Golaghat Dhakapatty",
            "city": "Golaghat",
            "postal_code": "785621",
            "state": "Assam",
            "country_code": "IN"
        },
        "images": [
            {
                "about": "All",
                "link": "https://lh5.googleusercontent.com/p/AF1QipOtuDNgRbhXx6Gn13zH_pSC-c8xmnbCPRzgBvlR=w224-h298-k-no"
            },
            {
                "about": "Inside",
                "link": "https://lh5.googleusercontent.com/p/AF1QipMjup4LkpVZaKbnpQlwBop6MUecCAzTEC1ca8Qt=w388-h298-k-no"
            },
            {
                "about": "By owner",
                "link": "https://lh5.googleusercontent.com/p/AF1QipMjup4LkpVZaKbnpQlwBop6MUecCAzTEC1ca8Qt=w388-h298-k-no"
            },
            {
                "about": "Street View & 360deg",
                "link": "https://streetviewpixels-pa.googleapis.com/v1/thumbnail?panoid=pC8JniQsMIE-6Y9ddVGbfA&cb_client=maps_sv.tactile.gps&w=224&h=298&yaw=303.1671&pitch=0&thumbfov=100"
            }
        ],
        "link": "https://www.google.com/maps/place/jalilcottonshop/data=!4m7!3m6!1s0x37468e5e1c426de5:0xd85b2a39c97bec4e!8m2!3d26.5138771!4d93.9623084!16s%2Fg%2F11f_0sy_v4!19sChIJ5W1CHF6ORjcRTux7yTkqW9g?authuser=0&hl=en&rclk=1",
        "coordinates": {
            "latitude": 26.5138771,
            "longitude": 93.9623084
        }
    },
    {
        "name": "Santipur Muktab",
        "main_category": "Mosque",
        "address": "GXC7+CW6 Santipur Muktab, Tenpur, Golaghat, Assam 785621",
        "detailed_address": {
            "ward": "Tenpur",
            "street": "GXC7+CW6",
            "city": "Golaghat",
            "postal_code": "785621",
            "state": "Assam",
            "country_code": "IN"
        },
        "images": [
            {
                "about": "All",
                "link": "https://lh5.googleusercontent.com/p/AF1QipMUEXuY9YikCvKUFfgx9ZzswiHgPUQYrMuBXJL2=w529-h298-k-no"
            }
        ],
        "link": "https://www.google.com/maps/place/Santipur+Muktab/data=!4m7!3m6!1s0x37468e43ab02151f:0x27b853f214bb3727!8m2!3d26.5210292!4d93.9647522!16s%2Fg%2F11fy4tmhls!19sChIJHxUCq0OORjcRJze7FPJTuCc?authuser=0&hl=en&rclk=1",
        "coordinates": {
            "latitude": 26.521029199999997,
            "longitude": 93.96475219999999
        }
    },
    {
        "name": "Hedayetpur Masjid",
        "main_category": "Mosque",
        "address": "GX84+XJX Hedayetpur Masjid, Golaghat, Assam 785621",
        "detailed_address": {
            "ward": null,
            "street": "GX84+XJX",
            "city": "Golaghat",
            "postal_code": "785621",
            "state": "Assam",
            "country_code": "IN"
        },
        "images": [
            {
                "about": "All",
                "link": "https://lh5.googleusercontent.com/p/AF1QipMPIHvazg7VIASfJz5RR9q8C1Agu4TXC9bwrTVC=w397-h298-k-no"
            },
            {
                "about": "Dome",
                "link": "https://lh5.googleusercontent.com/p/AF1QipP9W2t4q9Z8dO5zAyN_5aWF4DOZF4d9NUizrbGX=w529-h298-k-no"
            },
            {
                "about": "Videos",
                "link": "https://lh5.googleusercontent.com/p/AF1QipM0L2RopkwCuzIbr0JOF3cAahOH0XWVK-FBGP-f=w529-h298-k-no"
            },
            {
                "about": "Street View & 360deg",
                "link": "https://streetviewpixels-pa.googleapis.com/v1/thumbnail?panoid=7jaC0OmyxVwUh4Pw2IzEcg&cb_client=maps_sv.tactile.gps&w=224&h=298&yaw=32.304466&pitch=0&thumbfov=100"
            }
        ],
        "link": "https://www.google.com/maps/place/Hedayetpur+Masjid/data=!4m7!3m6!1s0x37468e501acaa4ed:0xfb241d0dd6350345!8m2!3d26.5174793!4d93.9565966!16s%2Fg%2F11h9wpl49j!19sChIJ7aTKGlCORjcRRQM11g0dJPs?authuser=0&hl=en&rclk=1",
        "coordinates": {
            "latitude": 26.517479299999998,
            "longitude": 93.9565966
        }
    },
    {
        "name": "Santipur Jame Masjid",
        "main_category": "Mosque",
        "address": "GX99+3G3 Santipur Jame Masjid, Bhoga Gaon, Golaghat, Assam 785621",
        "detailed_address": {
            "ward": null,
            "street": "GX99+3G3",
            "city": "Bhoga Gaon, Golaghat",
            "postal_code": null,
            "state": "Assam",
            "country_code": "IN"
        },
        "images": [
            {
                "about": "All",
                "link": "https://lh5.googleusercontent.com/p/AF1QipPaaMAshzz5IKSFV2UddN1mwHq4tb8BHX5qt0w5=w397-h298-k-no"
            },
            {
                "about": "Street View & 360deg",
                "link": "https://streetviewpixels-pa.googleapis.com/v1/thumbnail?panoid=fVCc9RUreSyzj1NmlOLlaQ&cb_client=maps_sv.tactile.gps&w=224&h=298&yaw=109.83269&pitch=0&thumbfov=100"
            }
        ],
        "link": "https://www.google.com/maps/place/Santipur+Jame+Masjid/data=!4m7!3m6!1s0x37468f757f84a30d:0xbd478819ea317ea6!8m2!3d26.5176389!4d93.9687993!16s%2Fg%2F11ghtbf8nm!19sChIJDaOEf3WPRjcRpn4x6hmIR70?authuser=0&hl=en&rclk=1",
        "coordinates": {
            "latitude": 26.517638899999998,
            "longitude": 93.9687993
        }
    },
    {
        "name": "Bazar Patty Masjid",
        "main_category": "Mosque",
        "address": "GX65+R88 Bazar Patty Masjid, Kumarpatty, Golaghat, Assam 785702",
        "detailed_address": {
            "ward": null,
            "street": "GX65+R88",
            "city": "Kumarpatty, Golaghat",
            "postal_code": null,
            "state": "Assam",
            "country_code": "IN"
        },
        "images": [],
        "link": "https://www.google.com/maps/place/Bazar+Patty+Masjid/data=!4m7!3m6!1s0x37468fb118c50a09:0x7e3fa33b220962b5!8m2!3d26.5120488!4d93.9583216!16s%2Fg%2F11f5t63w00!19sChIJCQrFGLGPRjcRtWIJIjujP34?authuser=0&hl=en&rclk=1",
        "coordinates": {
            "latitude": 26.5120488,
            "longitude": 93.95832159999999
        }
    },
    {
        "name": "uday nagar masjid",
        "main_category": "Religious destination",
        "address": "GX47+P78 uday nagar masjid, Golaghat, Assam 785702",
        "detailed_address": {
            "ward": null,
            "street": "GX47+P78",
            "city": "Golaghat",
            "postal_code": null,
            "state": "Assam",
            "country_code": "IN"
        },
        "images": [
            {
                "about": "All",
                "link": "https://lh5.googleusercontent.com/p/AF1QipOi-StHWC1zftck7vivkVTBO3Sv_8LOm8jEwyRW=w224-h298-k-no"
            }
        ],
        "link": "https://www.google.com/maps/place/uday+nagar+masjid/data=!4m7!3m6!1s0x37468f0563efea7d:0xa4de399dbed04a4!8m2!3d26.5067956!4d93.9632106!16s%2Fg%2F11qyg3jb_z!19sChIJfervYwWPRjcRpATt25njTQo?authuser=0&hl=en&rclk=1",
        "coordinates": {
            "latitude": 26.5067956,
            "longitude": 93.9632106
        }
    },
    {
        "name": "Purana masjid (arangapara)",
        "main_category": "Mosque",
        "address": "GX54+8P2 Purana masjid (arangapara), Maruwaripotty, Golaghat, Assam 785702",
        "detailed_address": {
            "ward": null,
            "street": "GX54+8P2",
            "city": "Maruwaripotty, Golaghat",
            "postal_code": "785702",
            "state": "Assam",
            "country_code": "IN"
        },
        "images": [
            {
                "about": "All",
                "link": "https://streetviewpixels-pa.googleapis.com/v1/thumbnail?panoid=KTWvM7wrI8OlY1hPiUfy_Q&cb_client=maps_sv.tactile.gps&w=224&h=298&yaw=331.78842&pitch=0&thumbfov=100"
            },
            {
                "about": "Street View & 360deg",
                "link": "https://streetviewpixels-pa.googleapis.com/v1/thumbnail?panoid=KTWvM7wrI8OlY1hPiUfy_Q&cb_client=maps_sv.tactile.gps&w=224&h=298&yaw=331.78842&pitch=0&thumbfov=100"
            }
        ],
        "link": "https://www.google.com/maps/place/Purana+masjid+%28arangapara%29/data=!4m7!3m6!1s0x37468f107c5089b5:0x2c49da96ba66996a!8m2!3d26.508273!4d93.9567579!16s%2Fg%2F11h11kthz4!19sChIJtYlQfBCPRjcRaplmupbaSSw?authuser=0&hl=en&rclk=1",
        "coordinates": {
            "latitude": 26.508273,
            "longitude": 93.9567579
        }
    },
    {
        "name": "KEAPATTY Masjid",
        "main_category": "Mosque",
        "address": "GX65+85M KEAPATTY Masjid, Maruwaripotty, Golaghat, Assam 785702",
        "detailed_address": {
            "ward": null,
            "street": "GX65+85M",
            "city": "Maruwaripotty, Golaghat",
            "postal_code": "785702",
            "state": "Assam",
            "country_code": "IN"
        },
        "images": [],
        "link": "https://www.google.com/maps/place/KEAPATTY+Masjid/data=!4m7!3m6!1s0x37468fa78a62e4c5:0xd5d97be83e7390d0!8m2!3d26.5108448!4d93.9579125!16s%2Fg%2F11gvrpctzz!19sChIJxeRiiqePRjcR0JBzPuh72dU?authuser=0&hl=en&rclk=1",
        "coordinates": {
            "latitude": 26.510844799999997,
            "longitude": 93.95791249999999
        }
    },
    {
        "name": "Tetelitol Masjid, Bengenakhowa Grant, Golaghat, Assam 785702",
        "main_category": "Mosque",
        "address": "FXMG+QG Tetelitol Masjid, Bengenakhowa Grant, Golaghat, Assam 785702, Chinatoli Gaon, Assam 785702",
        "detailed_address": {
            "ward": null,
            "street": "FXMG+QG",
            "city": "Chinatoli Gaon",
            "postal_code": null,
            "state": "Assam",
            "country_code": "IN"
        },
        "images": [],
        "link": "https://www.google.com/maps/place/Tetelitol+Masjid,+Bengenakhowa+Grant,+Golaghat,+Assam+785702/data=!4m7!3m6!1s0x37468f7c6bed5337:0xb651c68304c5fa4d!8m2!3d26.4844091!4d93.9764546!16s%2Fg%2F11t9kyvcmd!19sChIJN1Pta3yPRjcRTfrFBIPGUbY?authuser=0&hl=en&rclk=1",
        "coordinates": {
            "latitude": 26.484409099999997,
            "longitude": 93.9764546
        }
    },
    {
        "name": "Dhaka Patty Town Masjid",
        "main_category": "Mosque",
        "address": "GX68+9VP Dhaka Patty Town Masjid, Golaghat, Assam 785702",
        "detailed_address": {
            "ward": null,
            "street": "GX68+9VP",
            "city": "Golaghat",
            "postal_code": "785702",
            "state": "Assam",
            "country_code": "IN"
        },
        "images": [
            {
                "about": "All",
                "link": "https://lh5.googleusercontent.com/p/AF1QipPW94aVUzfP-OIDDuanbqAPkVj8QrxtG-NgrrnK=w238-h298-k-no"
            },
            {
                "about": "Street View & 360deg",
                "link": "https://streetviewpixels-pa.googleapis.com/v1/thumbnail?panoid=no_LQF31n1V8RaQJrYeVPg&cb_client=maps_sv.tactile.gps&w=224&h=298&yaw=268.26517&pitch=0&thumbfov=100"
            }
        ],
        "link": "https://www.google.com/maps/place/Dhaka+Patty+Town+Masjid/data=!4m7!3m6!1s0x37468f14034bcb9b:0xf328012b92ad507c!8m2!3d26.5110032!4d93.9672328!16s%2Fg%2F11l5dlsw2m!19sChIJm8tLAxSPRjcRfFCtkisBKPM?authuser=0&hl=en&rclk=1",
        "coordinates": {
            "latitude": 26.511003199999998,
            "longitude": 93.96723279999999
        }
    }
]