[
    {
        "name": "Jama Masjid Taloda",
        "main_category": "Mosque",
        "address": "H667+4W6 Jama Masjid Taloda, Shahada Rd, Taloda, Maharashtra 425413",
        "detailed_address": {
            "ward": null,
            "street": "H667+4W6, Shahada Rd",
            "city": "Taloda",
            "postal_code": "425413",
            "state": "Maharashtra",
            "country_code": "IN"
        },
        "images": [
            {
                "about": "All",
                "link": "https://lh5.googleusercontent.com/p/AF1QipO91sKtFjHzSs9fcWlr-yQEPSytmMW6zFCHY-dp=w224-h398-k-no"
            }
        ],
        "link": "https://www.google.com/maps/place/Jama+Masjid+Taloda/data=!4m7!3m6!1s0x3bdf9e031ef27c85:0x3558f69a8a08b0d3!8m2!3d21.5602885!4d74.2147708!16s%2Fg%2F11bw46jhbn!19sChIJhXzyHgOe3zsR07AIipr2WDU?authuser=0&hl=en&rclk=1",
        "coordinates": {
            "latitude": 21.5602885,
            "longitude": 74.2147708
        }
    },
    {
        "name": "Masjid -e- Siddiqiya",
        "main_category": "Mosque",
        "address": "H678+F99 Masjid -e- Siddiqiya, Gurukul Colony, Badri colony, Taloda, Maharashtra 425413",
        "detailed_address": {
            "ward": "Gurukul Colony, Badri colony",
            "street": "H678+F99",
            "city": "Taloda",
            "postal_code": "425413",
            "state": "Maharashtra",
            "country_code": "IN"
        },
        "images": [
            {
                "about": "All",
                "link": "https://lh5.googleusercontent.com/p/AF1QipOsCAsszOujAF6wPMIRTM61NkbnkuqIDZsBhmWs=w224-h298-k-no"
            },
            {
                "about": "Videos",
                "link": "https://lh5.googleusercontent.com/p/AF1QipMFlXeSKOOzbWMjHJ3iKh_11PGW0B7d_qpZ-6Jj=w224-h398-k-no"
            }
        ],
        "link": "https://www.google.com/maps/place/Masjid+-e-+Siddiqiya/data=!4m7!3m6!1s0x3bdf9e02300ef6f9:0x1dd43d11438c7d55!8m2!3d21.5636596!4d74.2159932!16s%2Fg%2F11c1ljhxx9!19sChIJ-fYOMAKe3zsRVX2MQxE91B0?authuser=0&hl=en&rclk=1",
        "coordinates": {
            "latitude": 21.563659599999998,
            "longitude": 74.2159932
        }
    },
    {
        "name": "Burhani Masjid",
        "main_category": "Place of worship",
        "address": "Burhani Masjid, Taloda, Maharashtra 425413",
        "detailed_address": {
            "ward": null,
            "street": "Burhani Masjid",
            "city": "Taloda",
            "postal_code": "425413",
            "state": "Maharashtra",
            "country_code": "IN"
        },
        "images": [
            {
                "about": "All",
                "link": "https://lh5.googleusercontent.com/p/AF1QipPxXSB8RONELlrBKl5cZ_OldZOnMwQ_LR4CZI5f=w508-h298-k-no"
            }
        ],
        "link": "https://www.google.com/maps/place/Burhani+Masjid/data=!4m7!3m6!1s0x3bdf9e03688b4b1b:0x7e3d7b9b2436ac1c!8m2!3d21.5600464!4d74.2128879!16s%2Fg%2F11bxflvdm4!19sChIJG0uLaAOe3zsRHKw2JJt7PX4?authuser=0&hl=en&rclk=1",
        "coordinates": {
            "latitude": 21.560046399999997,
            "longitude": 74.2128879
        }
    }
]