[
    {
        "name": "Juma Jamia Masjid",
        "main_category": "Mosque",
        "address": "Juma Jamia Masjid, Old Post Office Road, Bastipeth Rd, Kumta, Karnataka 581343",
        "detailed_address": {
            "ward": null,
            "street": "Old Post Office Road, Bastipeth Rd",
            "city": "Kumta",
            "postal_code": "581343",
            "state": "Karnataka",
            "country_code": "IN"
        },
        "images": [
            {
                "about": "All",
                "link": "https://lh5.googleusercontent.com/p/AF1QipPdAcdzutDHDF2EVe_SZawcuH7rVoIU8_fP6qWB=w397-h298-k-no"
            },
            {
                "about": "Latest",
                "link": "https://lh5.googleusercontent.com/p/AF1QipPwCY_AG0_2Rtkj1L1w6bzS-rE0liDMs4lKmTKX=w224-h298-k-no"
            },
            {
                "about": "Videos",
                "link": "https://lh5.googleusercontent.com/p/AF1QipPlfDVa_L3uaMiWxk9QKCeTXOw6dbisAZ_-tSIl=w224-h401-k-no"
            },
            {
                "about": "By owner",
                "link": "https://lh5.googleusercontent.com/p/AF1QipN4jmfe6iT0S1-SXfkRx7eapSHW99YDt9yTEC1m=w397-h298-k-no"
            },
            {
                "about": "Street View & 360deg",
                "link": "https://streetviewpixels-pa.googleapis.com/v1/thumbnail?panoid=2AUi_8EsnaIx0HMpDW8YPA&cb_client=maps_sv.tactile.gps&w=224&h=298&yaw=313.86887&pitch=0&thumbfov=100"
            }
        ],
        "link": "https://www.google.com/maps/place/Juma+Jamia+Masjid/data=!4m7!3m6!1s0x3bbc261c56ed3c83:0xe7f98c4af141bf5b!8m2!3d14.4268288!4d74.4091438!16s%2Fg%2F11bx2h2h_f!19sChIJgzztVhwmvDsRW79B8UqM-ec?authuser=0&hl=en&rclk=1",
        "coordinates": {
            "latitude": 14.4268288,
            "longitude": 74.4091438
        }
    },
    {
        "name": "Juma Masjid",
        "main_category": "Mosque",
        "address": "CCF5+43J Juma Masjid, Gujjarr Galli, Kumta, Karnataka 581343",
        "detailed_address": {
            "ward": null,
            "street": "CCF5+43J, Gujjarr Galli",
            "city": "Kumta",
            "postal_code": "581343",
            "state": "Karnataka",
            "country_code": "IN"
        },
        "images": [
            {
                "about": "All",
                "link": "https://streetviewpixels-pa.googleapis.com/v1/thumbnail?panoid=ier3CJw9c5C09563Tw61AQ&cb_client=maps_sv.tactile.gps&w=224&h=298&yaw=107.31782&pitch=0&thumbfov=100"
            },
            {
                "about": "Street View & 360deg",
                "link": "https://streetviewpixels-pa.googleapis.com/v1/thumbnail?panoid=ier3CJw9c5C09563Tw61AQ&cb_client=maps_sv.tactile.gps&w=224&h=298&yaw=107.31782&pitch=0&thumbfov=100"
            }
        ],
        "link": "https://www.google.com/maps/place/Juma+Masjid/data=!4m7!3m6!1s0x3bbc2602c4555551:0x4c99b1267aad863!8m2!3d14.4228453!4d74.4076371!16s%2Fg%2F11c5_7h7mb!19sChIJUVVVxAImvDsRY9iqZxKbyQQ?authuser=0&hl=en&rclk=1",
        "coordinates": {
            "latitude": 14.422845299999999,
            "longitude": 74.4076371
        }
    },
    {
        "name": "JAMIA MASJID BHANDAR KUMTA",
        "main_category": "Mosque",
        "address": "88WF+3QH JAMIA MASJID BHANDAR KUMTA, Bhandarkumta, Karnataka 585326",
        "detailed_address": {
            "ward": null,
            "street": "88WF+3QH",
            "city": "Bhandarkumta",
            "postal_code": "585326",
            "state": "Karnataka",
            "country_code": "IN"
        },
        "images": [
            {
                "about": "All",
                "link": "https://lh5.googleusercontent.com/p/AF1QipPe4N7cN-bS500VzhjyT57daDwsxijuc0BGp-DK=w397-h298-k-no"
            }
        ],
        "link": "https://www.google.com/maps/place/JAMIA+MASJID+BHANDAR+KUMTA/data=!4m7!3m6!1s0x3bcef8fa79ea075f:0x301214828808a872!8m2!3d18.3451754!4d77.3244763!16s%2Fg%2F11gc13x3w7!19sChIJXwfqefr4zjsRcqgIiIIUEjA?authuser=0&hl=en&rclk=1",
        "coordinates": {
            "latitude": 18.3451754,
            "longitude": 77.3244763
        }
    },
    {
        "name": "Masjid Syed Abubakar Siddique",
        "main_category": "Mosque",
        "address": "C9HR+C5W Masjid Syed Abubakar Siddique, Kumta, Vannalli, Karnataka 581351",
        "detailed_address": {
            "ward": null,
            "street": "C9HR+C5W",
            "city": "Kumta, Vannalli",
            "postal_code": "581351",
            "state": "Karnataka",
            "country_code": "IN"
        },
        "images": [
            {
                "about": "All",
                "link": "https://lh5.googleusercontent.com/p/AF1QipPZCCDuIoR113Y7pWo47U0f8KTx4PiaCylwXppN=w374-h298-k-no"
            },
            {
                "about": "Street View & 360deg",
                "link": "https://lh5.googleusercontent.com/p/AF1QipOX_M0ISjZGAbb47Lpq9t1Y-gxr63vXD11OUKff=w224-h298-k-no-pi-10-ya0-ro-0-fo100"
            }
        ],
        "link": "https://www.google.com/maps/place/Masjid+Syed+Abubakar+Siddique/data=!4m7!3m6!1s0x3bbc28bc7bb53697:0x3d8627f58414a998!8m2!3d14.428602!4d74.3904453!16s%2Fg%2F11bx2k9bh6!19sChIJlza1e7wovDsRmKkUhPUnhj0?authuser=0&hl=en&rclk=1",
        "coordinates": {
            "latitude": 14.428602,
            "longitude": 74.3904453
        }
    },
    {
        "name": "Madina Masjid",
        "main_category": "Mosque",
        "address": "CCG5+XF7 Madina Masjid, Kumta, Karnataka 581343",
        "detailed_address": {
            "ward": null,
            "street": "CCG5+XF7",
            "city": "Kumta",
            "postal_code": "581343",
            "state": "Karnataka",
            "country_code": "IN"
        },
        "images": [],
        "link": "https://www.google.com/maps/place/Madina+Masjid/data=!4m7!3m6!1s0x3bbc261c4d20bbd7:0x5245a7df69c5c6a1!8m2!3d14.4274139!4d74.4086622!16s%2Fg%2F11bwylzsqr!19sChIJ17sgTRwmvDsRocbFad-nRVI?authuser=0&hl=en&rclk=1",
        "coordinates": {
            "latitude": 14.4274139,
            "longitude": 74.4086622
        }
    },
    {
        "name": "Kumta masjid",
        "main_category": "Mosque",
        "address": "R3PR+4QF Kumta masjid, Lawan, Pokhran, Rajasthan 345021",
        "detailed_address": {
            "ward": "Lawan",
            "street": "R3PR+4QF",
            "city": "Lawan, Pokhran",
            "postal_code": "345021",
            "state": "Rajasthan",
            "country_code": "IN"
        },
        "images": [],
        "link": "https://www.google.com/maps/place/Kumta+masjid/data=!4m7!3m6!1s0x3940d721d7aad281:0xa5f43555bdf10443!8m2!3d26.8353357!4d72.0918969!16s%2Fg%2F11s836k442!19sChIJgdKq1yHXQDkRQwTxvVU19KU?authuser=0&hl=en&rclk=1",
        "coordinates": {
            "latitude": 26.835335699999998,
            "longitude": 72.0918969
        }
    },
    {
        "name": "Masjid Complex",
        "main_category": "Mosque",
        "address": "CCG5+QJ4 Masjid Complex, Kumbeshwar Temple Rd, Kumta, Karnataka 581343",
        "detailed_address": {
            "ward": null,
            "street": "CCG5+QJ4, Kumbeshwar Temple Rd",
            "city": "Kumta",
            "postal_code": "581343",
            "state": "Karnataka",
            "country_code": "IN"
        },
        "images": [
            {
                "about": "All",
                "link": "https://streetviewpixels-pa.googleapis.com/v1/thumbnail?panoid=2AUi_8EsnaIx0HMpDW8YPA&cb_client=maps_sv.tactile.gps&w=224&h=298&yaw=312.9596&pitch=0&thumbfov=100"
            },
            {
                "about": "Street View & 360deg",
                "link": "https://streetviewpixels-pa.googleapis.com/v1/thumbnail?panoid=2AUi_8EsnaIx0HMpDW8YPA&cb_client=maps_sv.tactile.gps&w=224&h=298&yaw=312.9596&pitch=0&thumbfov=100"
            }
        ],
        "link": "https://www.google.com/maps/place/Masjid+Complex/data=!4m7!3m6!1s0x3bbc261c56e95555:0x4911028a9e5e5af7!8m2!3d14.4268901!4d74.4090739!16s%2Fg%2F11txmz5yrt!19sChIJVVXpVhwmvDsR91penooCEUk?authuser=0&hl=en&rclk=1",
        "coordinates": {
            "latitude": 14.4268901,
            "longitude": 74.4090739
        }
    }
]