[
    {
        "name": "Masjid Hyatunnabi",
        "main_category": "Mosque",
        "address": "FVMX+GMP Masjid Hyatunnabi, Rura, Uttar Pradesh 209303",
        "detailed_address": {
            "ward": null,
            "street": "FVMX+GMP",
            "city": "Rura",
            "postal_code": "209303",
            "state": "Uttar Pradesh",
            "country_code": "IN"
        },
        "images": [
            {
                "about": "All",
                "link": "https://lh5.googleusercontent.com/p/AF1QipPQ3qWD9rW_P1tmbX8-ulFjXZ4Ip0BubZyu-teG=w224-h398-k-no"
            },
            {
                "about": "Videos",
                "link": "https://lh5.googleusercontent.com/p/AF1QipPAUXAlloMZ2MWVJxisEePsLe6_zH2eqGBsJp7J=w224-h395-k-no"
            }
        ],
        "link": "https://www.google.com/maps/place/Masjid+Hyatunnabi/data=!4m7!3m6!1s0x399dc7cadc508f99:0x1fade249568188b0!8m2!3d26.4838442!4d79.8992112!16s%2Fg%2F11g8c_8tbq!19sChIJmY9Q3MrHnTkRsIiBVknirR8?authuser=0&hl=en&rclk=1",
        "coordinates": {
            "latitude": 26.4838442,
            "longitude": 79.8992112
        }
    },
    {
        "name": "Noorani Masjid Mufti Aftab Raza Qadri",
        "main_category": "Mosque",
        "address": "64WF+9W5 Noorani Masjid Mufti Aftab Raza Qadri, Local Road Purani mau, Mauranipur, Mau Rural, Uttar Pradesh 284204",
        "detailed_address": {
            "ward": null,
            "street": "64WF+9W5, Local Road Purani mau",
            "city": "Mauranipur, Mau Rural",
            "postal_code": "284204",
            "state": "Uttar Pradesh",
            "country_code": "IN"
        },
        "images": [
            {
                "about": "All",
                "link": "https://lh5.googleusercontent.com/p/AF1QipN6Pljp53dLQCoh9OHk-OK3PGwGf2lMxxZ5XQsM=w529-h298-k-no"
            },
            {
                "about": "Street View & 360deg",
                "link": "https://streetviewpixels-pa.googleapis.com/v1/thumbnail?panoid=ivlGf4puL57mIxJfs4sNeA&cb_client=maps_sv.tactile.gps&w=224&h=298&yaw=271.7576&pitch=0&thumbfov=100"
            }
        ],
        "link": "https://www.google.com/maps/place/Noorani+Masjid+Mufti+Aftab+Raza+Qadri/data=!4m7!3m6!1s0x39781dee43556cf5:0x8371e7012c64fe47!8m2!3d25.2458829!4d79.1248527!16s%2Fg%2F11df0jttq7!19sChIJ9WxVQ-4deDkRR_5kLAHncYM?authuser=0&hl=en&rclk=1",
        "coordinates": {
            "latitude": 25.245882899999998,
            "longitude": 79.12485269999999
        }
    },
    {
        "name": "Masjid",
        "main_category": "Mosque",
        "address": "FWR3+86W Masjid, Rura, Uttar Pradesh 209303",
        "detailed_address": {
            "ward": null,
            "street": "FWR3+86W",
            "city": "Rura",
            "postal_code": "209303",
            "state": "Uttar Pradesh",
            "country_code": "IN"
        },
        "images": [
            {
                "about": "All",
                "link": "https://lh5.googleusercontent.com/p/AF1QipODEtuQvCkjVILGD8GQlYksCmJda3DqdepM8brv=w224-h477-k-no"
            }
        ],
        "link": "https://www.google.com/maps/place/Masjid/data=!4m7!3m6!1s0x399dc725c4371199:0x155f34652b3946eb!8m2!3d26.4908694!4d79.9030793!16s%2Fg%2F11lh671j7p!19sChIJmRE3xCXHnTkR60Y5K2U0XxU?authuser=0&hl=en&rclk=1",
        "coordinates": {
            "latitude": 26.490869399999998,
            "longitude": 79.9030793
        }
    },
    {
        "name": "hjrt bdd'e saiyd shaah baabaa",
        "main_category": "Mosque",
        "address": "MQ4F+8MW hjrt bdd'e saiyd shaah baabaa, Rasulabad - Rura Rd, Uttar Pradesh 209306",
        "detailed_address": {
            "ward": null,
            "street": "MQ4F+8MW, Rasulabad - Rura Rd",
            "city": null,
            "postal_code": "209306",
            "state": "Uttar Pradesh",
            "country_code": "IN"
        },
        "images": [
            {
                "about": "All",
                "link": "https://streetviewpixels-pa.googleapis.com/v1/thumbnail?panoid=-5kGgvJfXZUzXlbTLDy7kQ&cb_client=maps_sv.tactile.gps&w=224&h=298&yaw=279.34103&pitch=0&thumbfov=100"
            },
            {
                "about": "Street View & 360deg",
                "link": "https://streetviewpixels-pa.googleapis.com/v1/thumbnail?panoid=-5kGgvJfXZUzXlbTLDy7kQ&cb_client=maps_sv.tactile.gps&w=224&h=298&yaw=279.34103&pitch=0&thumbfov=100"
            }
        ],
        "link": "https://www.google.com/maps/place/%E0%A4%B9%E0%A4%9C%E0%A4%B0%E0%A4%A4+%E0%A4%AC%E0%A4%A1%E0%A4%BC%E0%A5%87+%E0%A4%B8%E0%A5%88%E0%A4%AF%E0%A4%A6+%E0%A4%B6%E0%A4%BE%E0%A4%B9+%E0%A4%AC%E0%A4%BE%E0%A4%AC%E0%A4%BE/data=!4m7!3m6!1s0x399ddd721332e527:0x1145e48e8e2a0583!8m2!3d26.6558568!4d79.7741972!16s%2Fg%2F11p5lg504q!19sChIJJ-UyE3LdnTkRgwUqjo7kRRE?authuser=0&hl=en&rclk=1",
        "coordinates": {
            "latitude": 26.6558568,
            "longitude": 79.7741972
        }
    },
    {
        "name": "Madina masjid",
        "main_category": "Mosque",
        "address": "2MG3+9QX Madina masjid, Talgram Rura, Uttar Pradesh 209731",
        "detailed_address": {
            "ward": null,
            "street": "2MG3+9QX",
            "city": "Talgram Rura",
            "postal_code": "209731",
            "state": "Uttar Pradesh",
            "country_code": "IN"
        },
        "images": [
            {
                "about": "All",
                "link": "https://lh5.googleusercontent.com/p/AF1QipNrIR0_8Oz0u-ao468JOvtCQl8LrbNz4762vb5D=w224-h497-k-no"
            }
        ],
        "link": "https://www.google.com/maps/place/Madina+masjid/data=!4m7!3m6!1s0x399e13fda63e728f:0xcb7fdd2deb72955a!8m2!3d27.0259945!4d79.6544794!16s%2Fg%2F11txhlthnt!19sChIJj3I-pv0TnjkRWpVy6y3df8s?authuser=0&hl=en&rclk=1",
        "coordinates": {
            "latitude": 27.0259945,
            "longitude": 79.6544794
        }
    }
]