[
    {
        "name": "masjid of Ahle Hadees Thakurapur",
        "main_category": "Mosque",
        "address": "3VMH+4WV masjid of Ahle Hadees Thakurapur, Road, Thakurapur, Uttar Pradesh 271125",
        "detailed_address": {
            "ward": null,
            "street": "3VMH+4WV, Road",
            "city": "Thakurapur",
            "postal_code": null,
            "state": "Uttar Pradesh",
            "country_code": "IN"
        },
        "images": [
            {
                "about": "All",
                "link": "https://lh5.googleusercontent.com/p/AF1QipMr2OWM1PXB2jnFRJP0uKFJr8aLu3PSVFgSNr0U=w529-h298-k-no"
            },
            {
                "about": "Videos",
                "link": "https://lh5.googleusercontent.com/p/AF1QipPrJALQJO9oCZCzcCTH23Etq-SiDfb3A-Dchd8q=w541-h298-k-no"
            }
        ],
        "link": "https://www.google.com/maps/place/masjid+of+Ahle+Hadees+Thakurapur/data=!4m7!3m6!1s0x3999f39938841177:0x8675527407183913!8m2!3d27.0828513!4d81.8797976!16s%2Fg%2F11f5tgxyh6!19sChIJdxGEOJnzmTkREzkYB3RSdYY?authuser=0&hl=en&rclk=1",
        "coordinates": {
            "latitude": 27.082851299999998,
            "longitude": 81.8797976
        }
    },
    {
        "name": "Mittoopur Azamgarh",
        "main_category": "Bazar",
        "address": "6PXC+XMG Mittoopur Azamgarh, Dattapur, Uttar Pradesh 276143",
        "detailed_address": {
            "ward": null,
            "street": "6PXC+XMG",
            "city": "Dattapur",
            "postal_code": "276143",
            "state": "Uttar Pradesh",
            "country_code": "IN"
        },
        "images": [
            {
                "about": "All",
                "link": "https://lh5.googleusercontent.com/p/AF1QipN_nZM8on4OOZbvZXe17vLk5IdMPc8rQ_T39z8N=w224-h486-k-no"
            },
            {
                "about": "Inside",
                "link": "https://lh5.googleusercontent.com/p/AF1QipN_nZM8on4OOZbvZXe17vLk5IdMPc8rQ_T39z8N=w224-h486-k-no"
            }
        ],
        "link": "https://www.google.com/maps/place/Mittoopur+Azamgarh/data=!4m7!3m6!1s0x3990f7b5ab83afcb:0x7f2d195addbbd169!8m2!3d26.2499321!4d82.721693!16s%2Fg%2F11qsqfw4w_!19sChIJy6-Dq7X3kDkRadG73VoZLX8?authuser=0&hl=en&rclk=1",
        "coordinates": {
            "latitude": 26.2499321,
            "longitude": 82.721693
        }
    },
    {
        "name": "JAMA MASJID TURSHAMPUR (JAMIA MOSQUE )",
        "main_category": "Mosque",
        "address": "HP69+363 JAMA MASJID TURSHAMPUR (JAMIA MOSQUE ), Vill Turshampur,Po. Distt., Deogaon, Uttar Pradesh 224153",
        "detailed_address": {
            "ward": null,
            "street": "HP69+363, Vill Turshampur,Po. Distt.",
            "city": "Deogaon, Ranikpur",
            "postal_code": "224153",
            "state": "Uttar Pradesh",
            "country_code": "IN"
        },
        "images": [
            {
                "about": "All",
                "link": "https://lh5.googleusercontent.com/p/AF1QipMu1lKR28DoJ7ECaJTZp7GXxwEXXc246FOpK_NL=w397-h298-k-no"
            },
            {
                "about": "Dome",
                "link": "https://lh5.googleusercontent.com/p/AF1QipPTEex5ABdwI4P0bVFmZciBYpbyY6DwK7942Dd9=w397-h298-k-no"
            }
        ],
        "link": "https://www.google.com/maps/place/JAMA+MASJID+TURSHAMPUR+%28JAMIA+MOSQUE+%29/data=!4m7!3m6!1s0x399a3874226798af:0xa12edcbb8d62028!8m2!3d26.5601284!4d81.7180457!16s%2Fg%2F11f0l3vt3_!19sChIJr5hnInQ4mjkRKCDWuMvtEgo?authuser=0&hl=en&rclk=1",
        "coordinates": {
            "latitude": 26.5601284,
            "longitude": 81.71804569999999
        }
    },
    {
        "name": "Adampur Masjid",
        "main_category": "Mosque",
        "address": "Adampur Masjid, Masjid, Adampur, Gangrouli, Uttar Pradesh 799285",
        "detailed_address": {
            "ward": null,
            "street": "Masjid",
            "city": "Adampur, Gangrouli",
            "postal_code": "799285",
            "state": "Uttar Pradesh",
            "country_code": "IN"
        },
        "images": [
            {
                "about": "All",
                "link": "https://lh5.googleusercontent.com/p/AF1QipOFoy8JJ8Nw2xNKjaNJS2gVHqoveXM_IiM3Bg7w=w224-h298-k-no"
            },
            {
                "about": "Videos",
                "link": "https://lh5.googleusercontent.com/p/AF1QipNkOD7as_i9rCuBxZOfIkBGJiYdpLLIjnkndCJY=w224-h398-k-no"
            }
        ],
        "link": "https://www.google.com/maps/place/Adampur+Masjid/data=!4m7!3m6!1s0x399a1fe58c879077:0xe4d6e40ae8cc1737!8m2!3d26.9284324!4d81.8809952!16s%2Fg%2F11dzt5r10n!19sChIJd5CHjOUfmjkRNxfM6Ark1uQ?authuser=0&hl=en&rclk=1",
        "coordinates": {
            "latitude": 26.9284324,
            "longitude": 81.8809952
        }
    },
    {
        "name": "Raheemia Purani Masjid Turshampur",
        "main_category": "Mosque",
        "address": "HP5C+75R Raheemia Purani Masjid Turshampur, Turshampur, Deogaon, Uttar Pradesh 224153",
        "detailed_address": {
            "ward": null,
            "street": "HP5C+75R, Turshampur",
            "city": "Deogaon, Ranikpur",
            "postal_code": "224153",
            "state": "Uttar Pradesh",
            "country_code": "IN"
        },
        "images": [
            {
                "about": "All",
                "link": "https://lh5.googleusercontent.com/p/AF1QipOxInYarZ_Gk-xkKautaKoflNDo45w42n93Y8-c=w224-h495-k-no"
            },
            {
                "about": "Dome",
                "link": "https://lh5.googleusercontent.com/p/AF1QipMuVqv7PojZBsnHt_7kOL2bvu9INSOnzo-9bZhP=w224-h298-k-no"
            }
        ],
        "link": "https://www.google.com/maps/place/Raheemia+Purani+Masjid+Turshampur/data=!4m7!3m6!1s0x399a38765b20e47b:0x1ed312f727c740db!8m2!3d26.5582319!4d81.7203973!16s%2Fg%2F11gb3z4vxt!19sChIJe-QgW3Y4mjkR20DHJ_cS0x4?authuser=0&hl=en&rclk=1",
        "coordinates": {
            "latitude": 26.5582319,
            "longitude": 81.7203973
        }
    },
    {
        "name": "Badi Masjid",
        "main_category": "Mosque",
        "address": "2QMH+RM3 Badi Masjid, Paraspur, Uttar Pradesh 271504",
        "detailed_address": {
            "ward": null,
            "street": "2QMH+RM3",
            "city": "Paraspur",
            "postal_code": "271504",
            "state": "Uttar Pradesh",
            "country_code": "IN"
        },
        "images": [
            {
                "about": "All",
                "link": "https://lh5.googleusercontent.com/p/AF1QipMSB3CTvDnQHwBUSqSYBNuZ_7y_B32cqa5dHrv7=w529-h298-k-no"
            },
            {
                "about": "Dome",
                "link": "https://lh5.googleusercontent.com/p/AF1QipM9z-gmeyBgaLXZ0fTqeOvOO-0sr74Rj8LClbt8=w298-h298-k-no"
            },
            {
                "about": "Videos",
                "link": "https://lh5.googleusercontent.com/p/AF1QipPljnyTZwP2xzZG8u2vaz1t4cCqm1pQMXxFqrHT=w224-h398-k-no"
            },
            {
                "about": "Street View & 360deg",
                "link": "https://streetviewpixels-pa.googleapis.com/v1/thumbnail?panoid=C_Yy7ME7bKbnoxkhZUKnsg&cb_client=maps_sv.tactile.gps&w=224&h=298&yaw=61.59646&pitch=0&thumbfov=100"
            }
        ],
        "link": "https://www.google.com/maps/place/Badi+Masjid/data=!4m7!3m6!1s0x39998c020ce8b6a5:0x9a62d2ecc20d3f62!8m2!3d27.0345088!4d81.7791866!16s%2Fg%2F11c2jw76_x!19sChIJpbboDAKMmTkRYj8NwuzSYpo?authuser=0&hl=en&rclk=1",
        "coordinates": {
            "latitude": 27.034508799999998,
            "longitude": 81.7791866
        }
    },
    {
        "name": "Masjid",
        "main_category": "Mosque",
        "address": "FM7X+5HR Masjid, Daulatpur, Uttar Pradesh 227816",
        "detailed_address": {
            "ward": null,
            "street": "FM7X+5HR",
            "city": "Daulatpur",
            "postal_code": "227816",
            "state": "Uttar Pradesh",
            "country_code": "IN"
        },
        "images": [
            {
                "about": "All",
                "link": "https://lh5.googleusercontent.com/p/AF1QipOQtOuVL1DnsiaFuAmknmqt-IjHPIpAoJezDcgh=w224-h298-k-no"
            }
        ],
        "link": "https://www.google.com/maps/place/Masjid/data=!4m7!3m6!1s0x399a46070ee62603:0x76079b77ed7078e2!8m2!3d26.4629811!4d81.6989031!16s%2Fg%2F11bwywg5cz!19sChIJAybmDgdGmjkR4nhw7XebB3Y?authuser=0&hl=en&rclk=1",
        "coordinates": {
            "latitude": 26.4629811,
            "longitude": 81.6989031
        }
    },
    {
        "name": "Jama Masjid Baddopur jaamaa msjid bddopuur",
        "main_category": "Mosque",
        "address": "2JCV+4F3 Jama Masjid Baddopur jaamaa msjid bddopuur, Gorari Rd, Shahganj, Baddopur, Uttar Pradesh 222139",
        "detailed_address": {
            "ward": null,
            "street": "2JCV+4F3, Gorari Rd",
            "city": "Shahganj, Baddopur",
            "postal_code": "222139",
            "state": "Uttar Pradesh",
            "country_code": "IN"
        },
        "images": [
            {
                "about": "All",
                "link": "https://lh5.googleusercontent.com/p/AF1QipMF2gajr7kWNPm3LVvI6WJPZj10yDiv4gjj2Pba=w224-h398-k-no"
            },
            {
                "about": "Videos",
                "link": "https://lh5.googleusercontent.com/p/AF1QipPRror7e8HDIVYIlpqi2MxPvBdhYLet7szuGPc=w529-h298-k-no"
            }
        ],
        "link": "https://www.google.com/maps/place/Jama+Masjid+Baddopur+%E0%A4%9C%E0%A4%BE%E0%A4%AE%E0%A4%BE+%E0%A4%AE%E0%A4%B8%E0%A4%9C%E0%A4%BF%E0%A4%A6+%E0%A4%AC%E0%A4%A6%E0%A4%A6%E0%A5%8B%E0%A4%AA%E0%A5%82%E0%A4%B0/data=!4m7!3m6!1s0x3990435e1ae428a7:0xa18e59b0e52fb1f!8m2!3d26.0202619!4d82.6436614!16s%2Fg%2F11hbsmsdz1!19sChIJpyjkGl5DkDkRH_tSDpvlGAo?authuser=0&hl=en&rclk=1",
        "coordinates": {
            "latitude": 26.020261899999998,
            "longitude": 82.6436614
        }
    },
    {
        "name": "Madina Masjid",
        "main_category": "Mosque",
        "address": "QW7X+RXX Madina Masjid, Akbalpore, Uttar Pradesh 276201",
        "detailed_address": {
            "ward": null,
            "street": "QW7X+RXX",
            "city": "Akbalpore",
            "postal_code": "276201",
            "state": "Uttar Pradesh",
            "country_code": "IN"
        },
        "images": [
            {
                "about": "All",
                "link": "https://streetviewpixels-pa.googleapis.com/v1/thumbnail?panoid=wL20RQ1nh9gKK9aiGaaVfQ&cb_client=maps_sv.tactile.gps&w=224&h=298&yaw=180.22334&pitch=0&thumbfov=100"
            },
            {
                "about": "Street View & 360deg",
                "link": "https://streetviewpixels-pa.googleapis.com/v1/thumbnail?panoid=wL20RQ1nh9gKK9aiGaaVfQ&cb_client=maps_sv.tactile.gps&w=224&h=298&yaw=180.22334&pitch=0&thumbfov=100"
            }
        ],
        "link": "https://www.google.com/maps/place/Madina+Masjid/data=!4m7!3m6!1s0x3991cc87fee20f0f:0x783809f48f32ce6e!8m2!3d25.7646005!4d82.9499859!16s%2Fg%2F11gcdqhtt1!19sChIJDw_i_ofMkTkRbs4yj_QJOHg?authuser=0&hl=en&rclk=1",
        "coordinates": {
            "latitude": 25.7646005,
            "longitude": 82.9499859
        }
    },
    {
        "name": "Noori masjid Sarurpur",
        "main_category": "Mosque",
        "address": "HVH6+53W Noori masjid Sarurpur, Saroorpur Kalan, Tendha, Uttar Pradesh",
        "detailed_address": {
            "ward": null,
            "street": "HVH6+53W, Saroorpur Kalan",
            "city": "Tendha, Bawan",
            "postal_code": null,
            "state": "Uttar Pradesh",
            "country_code": "IN"
        },
        "images": [
            {
                "about": "All",
                "link": "https://lh5.googleusercontent.com/p/AF1QipPaNFXgsn43C99GOoLbiTPf_sH81icU4QDIJ36w=w224-h298-k-no"
            },
            {
                "about": "Dome",
                "link": "https://lh5.googleusercontent.com/p/AF1QipPuQLIqm1CKbFO1_JEAUIwH6RCthOoZnvtllUVm=w397-h298-k-no"
            }
        ],
        "link": "https://www.google.com/maps/place/Noori+masjid+Sarurpur/data=!4m7!3m6!1s0x399a3fe49ac081b1:0x1a0fb61920e428cf!8m2!3d26.5779839!4d81.8601979!16s%2Fg%2F11f5d3nqqb!19sChIJsYHAmuQ_mjkRzyjkIBm2Dxo?authuser=0&hl=en&rclk=1",
        "coordinates": {
            "latitude": 26.5779839,
            "longitude": 81.8601979
        }
    },
    {
        "name": "Madina Masjid Dhanapur",
        "main_category": "Mosque",
        "address": "F83X+66F Madina Masjid Dhanapur, Dhanapur, Uttar Pradesh 232105",
        "detailed_address": {
            "ward": null,
            "street": "F83X+66F",
            "city": "Dhanapur",
            "postal_code": "232105",
            "state": "Uttar Pradesh",
            "country_code": "IN"
        },
        "images": [],
        "link": "https://www.google.com/maps/place/Madina+Masjid+Dhanapur/data=!4m7!3m6!1s0x398e1dfa7da2f381:0x51d7633c012dec35!8m2!3d25.4530749!4d83.3480604!16s%2Fg%2F11fhv3q2t_!19sChIJgfOiffodjjkRNewtATxj11E?authuser=0&hl=en&rclk=1",
        "coordinates": {
            "latitude": 25.453074899999997,
            "longitude": 83.3480604
        }
    },
    {
        "name": "Damodarpur Masjid",
        "main_category": "Mosque",
        "address": "F998+VF6 Damodarpur Masjid, Damodarpur,Rudaupur, Sugauti, Uttar Pradesh",
        "detailed_address": {
            "ward": null,
            "street": "F998+VF6, Damodarpur,Rudaupur",
            "city": "Sugauti, Gora",
            "postal_code": null,
            "state": "Uttar Pradesh",
            "country_code": "IN"
        },
        "images": [
            {
                "about": "All",
                "link": "https://lh5.googleusercontent.com/p/AF1QipPuMuODRz0aQj7Wq5Rpa7h3qUYQQRul1JSfHY59=w224-h298-k-no"
            },
            {
                "about": "Dome",
                "link": "https://lh5.googleusercontent.com/p/AF1QipNkq-DsSduEhlDW_MLqV27HETV36IY7tROSSnEg=w224-h298-k-no"
            }
        ],
        "link": "https://www.google.com/maps/place/Damodarpur+Masjid/data=!4m7!3m6!1s0x39909bc66f7b8ca3:0xe1820ccc25ab4aa3!8m2!3d26.4696618!4d82.3661495!16s%2Fg%2F11h3m9yxgh!19sChIJo4x7b8abkDkRo0qrJcwMguE?authuser=0&hl=en&rclk=1",
        "coordinates": {
            "latitude": 26.469661799999997,
            "longitude": 82.36614949999999
        }
    },
    {
        "name": "Jama Masjid Khudadadpur jm` msjd",
        "main_category": "Mosque",
        "address": "W86V+WM3 Jama Masjid Khudadadpur jm` msjd, Afajalpur, Uttar Pradesh 276402",
        "detailed_address": {
            "ward": null,
            "street": "W86V+WM3",
            "city": "Afajalpur",
            "postal_code": "276402",
            "state": "Uttar Pradesh",
            "country_code": "IN"
        },
        "images": [
            {
                "about": "All",
                "link": "https://lh5.googleusercontent.com/p/AF1QipMmOWDXvqzNsIJ_67nCByNIWd-Bs8AHKAYNdODO=w236-h298-k-no"
            },
            {
                "about": "Dome",
                "link": "https://lh5.googleusercontent.com/p/AF1QipMmOWDXvqzNsIJ_67nCByNIWd-Bs8AHKAYNdODO=w236-h298-k-no"
            }
        ],
        "link": "https://www.google.com/maps/place/Jama+Masjid+Khudadadpur+%D8%AC%D8%A7%D9%85%D8%B9+%D9%85%D8%B3%D8%AC%D8%AF%E2%80%AD/data=!4m7!3m6!1s0x3991935d7f9ae073:0x3acd1bf8190d9a5f!8m2!3d25.912275!4d83.3441798!16s%2Fg%2F11g87440t9!19sChIJc-Caf12TkTkRX5oNGfgbzTo?authuser=0&hl=en&rclk=1",
        "coordinates": {
            "latitude": 25.912274999999998,
            "longitude": 83.34417979999999
        }
    },
    {
        "name": "Madeena Masjid",
        "main_category": "Mosque",
        "address": "2QJM+V65 Madeena Masjid, Paraspur, Uttar Pradesh 271504",
        "detailed_address": {
            "ward": null,
            "street": "2QJM+V65",
            "city": "Paraspur",
            "postal_code": "271504",
            "state": "Uttar Pradesh",
            "country_code": "IN"
        },
        "images": [
            {
                "about": "All",
                "link": "https://lh5.googleusercontent.com/p/AF1QipMlo16lO1EepDMp0KNiBe5Akx46m_iZCBiw4lh4=w224-h298-k-no"
            },
            {
                "about": "Dome",
                "link": "https://lh5.googleusercontent.com/p/AF1QipNc_08GMVZ8qfU-aj1K_lNsKlIpbDhqxrV-PYs-=w298-h298-k-no"
            },
            {
                "about": "Street View & 360deg",
                "link": "https://streetviewpixels-pa.googleapis.com/v1/thumbnail?panoid=a3dLXxZFN2PQjqw7SKtLJA&cb_client=maps_sv.tactile.gps&w=224&h=298&yaw=164.2204&pitch=0&thumbfov=100"
            }
        ],
        "link": "https://www.google.com/maps/place/Madeena+Masjid/data=!4m7!3m6!1s0x39998c0146cd99e5:0x4d2f73ad0cdaa145!8m2!3d27.0321422!4d81.7831089!16s%2Fg%2F11b_2phh5_!19sChIJ5ZnNRgGMmTkRRaHaDK1zL00?authuser=0&hl=en&rclk=1",
        "coordinates": {
            "latitude": 27.0321422,
            "longitude": 81.7831089
        }
    },
    {
        "name": "Masjid-e-Aqsa Gangapur",
        "main_category": "Mosque",
        "address": "Masjid-e-Aqsa Gangapur, Gangapur, Kunda - Pratapgarh Rd, Tajpur, Kunda, Uttar Pradesh 230204",
        "detailed_address": {
            "ward": "Tajpur",
            "street": "Gangapur, Kunda - Pratapgarh Rd",
            "city": "Kunda",
            "postal_code": "230204",
            "state": "Uttar Pradesh",
            "country_code": "IN"
        },
        "images": [
            {
                "about": "All",
                "link": "https://lh5.googleusercontent.com/p/AF1QipOeCqA3ymiapLyRCQY3dBTzlWOtB6PO6r6F73qf=w298-h298-k-no"
            },
            {
                "about": "Latest",
                "link": "https://lh5.googleusercontent.com/p/AF1QipO8LqkViQTdVUHF42PCeE-3DTSxjzScCbLCTeIM=w224-h398-k-no"
            },
            {
                "about": "Videos",
                "link": "https://lh5.googleusercontent.com/p/AF1QipNQYxsTlg-OJaxjV6hYnm2vhu-RISpLDDjXS8xL=w224-h398-k-no"
            },
            {
                "about": "Dome",
                "link": "https://lh5.googleusercontent.com/p/AF1QipN0LpFFmoP65fh5XdNr3Vakn7c0HDXR_RJ8zdyf=w224-h298-k-no"
            }
        ],
        "link": "https://www.google.com/maps/place/Masjid-e-Aqsa+Gangapur/data=!4m7!3m6!1s0x399adfd7abde8307:0xccf11e3e2623e3ee!8m2!3d25.7272123!4d81.5493019!16s%2Fg%2F11rn1ktmsv!19sChIJB4Peq9ffmjkR7uMjJj4e8cw?authuser=0&hl=en&rclk=1",
        "coordinates": {
            "latitude": 25.727212299999998,
            "longitude": 81.5493019
        }
    },
    {
        "name": "Madina masjid maidipur",
        "main_category": "Mosque",
        "address": "VJWP+C8G Madina masjid maidipur, Maidipur, Fattapur Kalan, Udaimau, Uttar Pradesh 225401",
        "detailed_address": {
            "ward": "Maidipur",
            "street": "VJWP+C8G",
            "city": "Fattapur Kalan, Udaimau",
            "postal_code": "225401",
            "state": "Uttar Pradesh",
            "country_code": "IN"
        },
        "images": [],
        "link": "https://www.google.com/maps/place/Madina+masjid+maidipur/data=!4m7!3m6!1s0x399a297edd9876b3:0x18dd04eade333d4e!8m2!3d26.8960545!4d81.635825!16s%2Fg%2F11lsjn14gz!19sChIJs3aY3X4pmjkRTj0z3uoE3Rg?authuser=0&hl=en&rclk=1",
        "coordinates": {
            "latitude": 26.896054499999998,
            "longitude": 81.635825
        }
    },
    {
        "name": "Rahmani Masjid Gaddopur",
        "main_category": "Mosque",
        "address": "2RW4+3Q5 Rahmani Masjid Gaddopur, Gaddopur, Khadara, Uttar Pradesh 223222",
        "detailed_address": {
            "ward": null,
            "street": "2RW4+3Q5",
            "city": "Gaddopur, Khadara",
            "postal_code": "223222",
            "state": "Uttar Pradesh",
            "country_code": "IN"
        },
        "images": [
            {
                "about": "All",
                "link": "https://lh5.googleusercontent.com/p/AF1QipPrHPVRm1YH0-AdbwVgW1rWxJ5yIDCifwRR0KnS=w397-h298-k-no"
            }
        ],
        "link": "https://www.google.com/maps/place/Rahmani+Masjid+Gaddopur/data=!4m7!3m6!1s0x39904e1b85d1057b:0x1d492636bb5e5b51!8m2!3d26.0451332!4d82.8069689!16s%2Fg%2F11gfd7h8xf!19sChIJewXRhRtOkDkRUVteuzYmSR0?authuser=0&hl=en&rclk=1",
        "coordinates": {
            "latitude": 26.0451332,
            "longitude": 82.8069689
        }
    },
    {
        "name": "Mosque, Mahajitpur",
        "main_category": "Mosque",
        "address": "72C9+F2X Mosque, Mahajitpur, Sultanpur, Uttar Pradesh 227808",
        "detailed_address": {
            "ward": null,
            "street": "72C9+F2X",
            "city": "Sultanpur",
            "postal_code": "227808",
            "state": "Uttar Pradesh",
            "country_code": "IN"
        },
        "images": [
            {
                "about": "All",
                "link": "https://lh5.googleusercontent.com/p/AF1QipNH2-VU-kdI6XC7Iis_-Iu1dY4p75gxFDe3Dr-n=w224-h298-k-no"
            },
            {
                "about": "Videos",
                "link": "https://lh5.googleusercontent.com/p/AF1QipNZ64B1Yi0WA9RO21eV9wn1sn90JK61i8vW8dz7=w224-h398-k-no"
            }
        ],
        "link": "https://www.google.com/maps/place/Mosque,+Mahajitpur/data=!4m7!3m6!1s0x399a639fe0239d7d:0x7751834cb2314a16!8m2!3d26.2712306!4d82.0176138!16s%2Fg%2F11ffmdr3qt!19sChIJfZ0j4J9jmjkRFkoxskyDUXc?authuser=0&hl=en&rclk=1",
        "coordinates": {
            "latitude": 26.2712306,
            "longitude": 82.01761379999999
        }
    },
    {
        "name": "Noorani masjid darjipura",
        "main_category": "Mosque",
        "address": "W69F+C4W Noorani masjid darjipura, Unnamed Road, Madhwapur, Doulatpur, Uttar Pradesh 271319",
        "detailed_address": {
            "ward": null,
            "street": "W69F+C4W, Unnamed Road",
            "city": "Madhwapur, Doulatpur",
            "postal_code": "271319",
            "state": "Uttar Pradesh",
            "country_code": "IN"
        },
        "images": [
            {
                "about": "All",
                "link": "https://lh5.googleusercontent.com/p/AF1QipO0rpJKKBft-p3Un-1jASbIOAYvMoyEQb2TwxZd=w224-h497-k-no"
            }
        ],
        "link": "https://www.google.com/maps/place/Noorani+masjid+darjipura/data=!4m7!3m6!1s0x3990ab323f0add61:0x83172d4702f3f3f6!8m2!3d26.9186212!4d82.2228281!16s%2Fg%2F11rs2nytv1!19sChIJYd0KPzKrkDkR9vPzAkctF4M?authuser=0&hl=en&rclk=1",
        "coordinates": {
            "latitude": 26.9186212,
            "longitude": 82.2228281
        }
    },
    {
        "name": "Daulatpur IDGAH",
        "main_category": "Mosque",
        "address": "FM7X+7H3 Daulatpur IDGAH, Daulatpur, Uttar Pradesh 227816",
        "detailed_address": {
            "ward": null,
            "street": "FM7X+7H3",
            "city": "Daulatpur",
            "postal_code": "227816",
            "state": "Uttar Pradesh",
            "country_code": "IN"
        },
        "images": [
            {
                "about": "All",
                "link": "https://lh5.googleusercontent.com/p/AF1QipPFJzk3_SuENNRbhELNwgtM7pbuennc1taiUstq=w596-h298-k-no"
            },
            {
                "about": "Videos",
                "link": "https://lh5.googleusercontent.com/p/AF1QipNu8LNz0erj_aORvy4Rn2PpqEiAaAN4qRVr7fl5=w224-h395-k-no"
            }
        ],
        "link": "https://www.google.com/maps/place/Daulatpur+IDGAH/data=!4m7!3m6!1s0x399a46070f594fbd:0x1e9e2ca194120e64!8m2!3d26.4631289!4d81.6989143!16s%2Fg%2F11hbgnkc98!19sChIJvU9ZDwdGmjkRZA4SlKEsnh4?authuser=0&hl=en&rclk=1",
        "coordinates": {
            "latitude": 26.463128899999997,
            "longitude": 81.6989143
        }
    },
    {
        "name": "Masjide Umar Mohiddinpur",
        "main_category": "Mosque",
        "address": "X2PJ+75X Masjide Umar Mohiddinpur, Uttar Pradesh 276205",
        "detailed_address": {
            "ward": null,
            "street": "X2PJ+75X",
            "city": null,
            "postal_code": "276205",
            "state": "Uttar Pradesh",
            "country_code": "IN"
        },
        "images": [
            {
                "about": "All",
                "link": "https://lh5.googleusercontent.com/p/AF1QipN-hxmEd1Zu6NB_lhtxMeDqk9Vgv6iWin-OkdNq=w397-h298-k-no"
            },
            {
                "about": "Videos",
                "link": "https://lh5.googleusercontent.com/p/AF1QipNI67nmXon6eWp3WuDa2QrWBX4nAQHdfB0nDLJa=w224-h398-k-no"
            }
        ],
        "link": "https://www.google.com/maps/place/Masjide+Umar+Mohiddinpur/data=!4m7!3m6!1s0x3991b12400d8bd89:0x5a806a182ba45bd0!8m2!3d25.9857424!4d83.0304891!16s%2Fg%2F11dylwxf5s!19sChIJib3YACSxkTkR0FukKxhqgFo?authuser=0&hl=en&rclk=1",
        "coordinates": {
            "latitude": 25.9857424,
            "longitude": 83.0304891
        }
    },
    {
        "name": "MASJID",
        "main_category": "Mosque",
        "address": "W86V+PRF MASJID, Afajalpur, Uttar Pradesh 276402",
        "detailed_address": {
            "ward": null,
            "street": "W86V+PRF",
            "city": "Afajalpur",
            "postal_code": "276402",
            "state": "Uttar Pradesh",
            "country_code": "IN"
        },
        "images": [
            {
                "about": "All",
                "link": "https://lh5.googleusercontent.com/p/AF1QipPkosvn1n4TRk2JHpZ1mzIXcsBQRLHm-ELqT5NQ=w224-h373-k-no"
            },
            {
                "about": "Dome",
                "link": "https://lh5.googleusercontent.com/p/AF1QipPxgHEXA1C-gA-5pK2rac9kTzdqUwKyvg-glqW8=w298-h298-k-no"
            }
        ],
        "link": "https://www.google.com/maps/place/MASJID/data=!4m7!3m6!1s0x3991935d9d39dc23:0x9786b3398f217374!8m2!3d25.9118032!4d83.3445522!16s%2Fg%2F11g9fmrgsf!19sChIJI9w5nV2TkTkRdHMhjzmzhpc?authuser=0&hl=en&rclk=1",
        "coordinates": {
            "latitude": 25.911803199999998,
            "longitude": 83.3445522
        }
    },
    {
        "name": "Masjid",
        "main_category": "Mosque",
        "address": "GFJR+2QQ Masjid, Barnapur, Tajawapur, Uttar Pradesh 271825",
        "detailed_address": {
            "ward": null,
            "street": "GFJR+2QQ",
            "city": "Barnapur, Tajawapur",
            "postal_code": "271825",
            "state": "Uttar Pradesh",
            "country_code": "IN"
        },
        "images": [
            {
                "about": "All",
                "link": "https://streetviewpixels-pa.googleapis.com/v1/thumbnail?panoid=cVUspCHbcxwwaToA68EfDg&cb_client=maps_sv.tactile.gps&w=224&h=298&yaw=18.742508&pitch=0&thumbfov=100"
            },
            {
                "about": "Street View & 360deg",
                "link": "https://streetviewpixels-pa.googleapis.com/v1/thumbnail?panoid=cVUspCHbcxwwaToA68EfDg&cb_client=maps_sv.tactile.gps&w=224&h=298&yaw=18.742508&pitch=0&thumbfov=100"
            }
        ],
        "link": "https://www.google.com/maps/place/Masjid/data=!4m7!3m6!1s0x3999070c9a6cf48b:0x7174ac96f76f0dd0!8m2!3d27.5300856!4d81.4919884!16s%2Fg%2F11gcm0x2ht!19sChIJi_RsmgwHmTkR0A1v95asdHE?authuser=0&hl=en&rclk=1",
        "coordinates": {
            "latitude": 27.5300856,
            "longitude": 81.4919884
        }
    },
    {
        "name": "Masjid Dumkaapur",
        "main_category": "Mosque",
        "address": "PPM2+FQM Masjid Dumkaapur, Gularia, Uttar Pradesh 242223",
        "detailed_address": {
            "ward": null,
            "street": "PPM2+FQM",
            "city": "Gularia",
            "postal_code": null,
            "state": "Uttar Pradesh",
            "country_code": "IN"
        },
        "images": [
            {
                "about": "All",
                "link": "https://lh5.googleusercontent.com/p/AF1QipM3XPcRL57nZ5x6duilOQScuzmpamvymak3Amc3=w224-h298-k-no"
            },
            {
                "about": "Street View & 360deg",
                "link": "https://streetviewpixels-pa.googleapis.com/v1/thumbnail?panoid=Kbh6wr2tZlPq5TXLcbHq0A&cb_client=maps_sv.tactile.gps&w=224&h=298&yaw=126.92949&pitch=0&thumbfov=100"
            },
            {
                "about": "Videos",
                "link": "https://lh5.googleusercontent.com/p/AF1QipPQ4Ky2VydTTgfq8lEbi3beDS27lde9olehJlmO=w224-h398-k-no"
            }
        ],
        "link": "https://www.google.com/maps/place/Masjid+Dumkaapur/data=!4m7!3m6!1s0x399fc75998218553:0x2039ba62080faaf7!8m2!3d27.7337016!4d79.7019244!16s%2Fg%2F11gn21sq43!19sChIJU4UhmFnHnzkR96oPCGK6OSA?authuser=0&hl=en&rclk=1",
        "coordinates": {
            "latitude": 27.7337016,
            "longitude": 79.7019244
        }
    },
    {
        "name": "Madina masjid tiwaripur mdiinaa msjid tivaariipur",
        "main_category": "Mosque",
        "address": "QW6X+HW4 Madina masjid tiwaripur mdiinaa msjid tivaariipur, Taukalpur, Tiwaripur, Gobardhanpur, Uttar Pradesh 230404",
        "detailed_address": {
            "ward": "Taukalpur",
            "street": "QW6X+HW4",
            "city": "Tiwaripur, Gobardhanpur",
            "postal_code": "230404",
            "state": "Uttar Pradesh",
            "country_code": "IN"
        },
        "images": [],
        "link": "https://www.google.com/maps/place/Madina+masjid+tiwaripur+%E0%A4%AE%E0%A4%A6%E0%A5%80%E0%A4%A8%E0%A4%BE+%E0%A4%AE%E0%A4%B8%E0%A5%8D%E0%A4%9C%E0%A4%BF%E0%A4%A6+%E0%A4%A4%E0%A4%BF%E0%A4%B5%E0%A4%BE%E0%A4%B0%E0%A5%80%E0%A4%AA%E0%A5%81%E0%A4%B0/data=!4m7!3m6!1s0x399abfd30a6d229f:0xb1c0177a790d10bd!8m2!3d25.7613881!4d81.9498143!16s%2Fg%2F11sv_0h5x0!19sChIJnyJtCtO_mjkRvRANeXoXwLE?authuser=0&hl=en&rclk=1",
        "coordinates": {
            "latitude": 25.761388099999998,
            "longitude": 81.9498143
        }
    },
    {
        "name": "Masjid msjd",
        "main_category": "Mosque",
        "address": "8255+CR6 Masjid msjd, Dullapur, Uttar Pradesh 227808",
        "detailed_address": {
            "ward": null,
            "street": "8255+CR6",
            "city": "Dullapur",
            "postal_code": "227808",
            "state": "Uttar Pradesh",
            "country_code": "IN"
        },
        "images": [
            {
                "about": "All",
                "link": "https://lh5.googleusercontent.com/p/AF1QipO221-wVkQfQSXW8sACKbJcat2bnm8PdQzG1DVM=w224-h422-k-no"
            }
        ],
        "link": "https://www.google.com/maps/place/Masjid+%D9%85%D8%B3%D8%AC%D8%AF%E2%80%AD/data=!4m7!3m6!1s0x399a64918b05211f:0xfc276c80aeb83439!8m2!3d26.30853!4d82.0095089!16s%2Fg%2F1hm4wtqgl!19sChIJHyEFi5FkmjkROTS4roBsJ_w?authuser=0&hl=en&rclk=1",
        "coordinates": {
            "latitude": 26.308529999999998,
            "longitude": 82.0095089
        }
    },
    {
        "name": "Khurda masjid",
        "main_category": "Mosque",
        "address": "9C73+8X2 Khurda masjid, Unnamed Road, Utraula, Uttar Pradesh 271604",
        "detailed_address": {
            "ward": null,
            "street": "9C73+8X2, Unnamed Road",
            "city": "Utraula",
            "postal_code": "271604",
            "state": "Uttar Pradesh",
            "country_code": "IN"
        },
        "images": [
            {
                "about": "All",
                "link": "https://lh5.googleusercontent.com/p/AF1QipPO8pLNQmY56YhLy4EkpAqRrbDoFPnBA4es6XXS=w224-h298-k-no"
            },
            {
                "about": "Dome",
                "link": "https://lh5.googleusercontent.com/p/AF1QipM6G5veYOkuwi_bMPZNo0Ydb3SVDNhMFMjp5Smx=w224-h298-k-no"
            },
            {
                "about": "Videos",
                "link": "https://lh5.googleusercontent.com/p/AF1QipOZRZfTa3ObZUeFmX0vyZN6vJddlNMRX9bKE3qz=w224-h398-k-no"
            }
        ],
        "link": "https://www.google.com/maps/place/Khurda+masjid/data=!4m7!3m6!1s0x3997697b0d639883:0x7f8554da484f246d!8m2!3d27.3632667!4d82.4048761!16s%2Fg%2F11p9vhz7q2!19sChIJg5hjDXtplzkRbSRPSNpUhX8?authuser=0&hl=en&rclk=1",
        "coordinates": {
            "latitude": 27.3632667,
            "longitude": 82.4048761
        }
    },
    {
        "name": "Jangipur khurd Masjid",
        "main_category": "Mosque",
        "address": "RPW4+VH4 Jangipur khurd Masjid, Jangipur Khurd, Uttar Pradesh 222003",
        "detailed_address": {
            "ward": null,
            "street": "RPW4+VH4",
            "city": "Jangipur Khurd",
            "postal_code": "222003",
            "state": "Uttar Pradesh",
            "country_code": "IN"
        },
        "images": [
            {
                "about": "All",
                "link": "https://lh5.googleusercontent.com/p/AF1QipOjl_IbWK7T3npCjAFTkRk7089HvARmtIP-eDW5=w660-h298-k-no"
            },
            {
                "about": "Videos",
                "link": "https://lh5.googleusercontent.com/p/AF1QipMchF6ZPxolaGuEYiLrX8BTe3DmLFaOQwblRh1Q=w224-h398-k-no"
            }
        ],
        "link": "https://www.google.com/maps/place/Jangipur+khurd+Masjid/data=!4m7!3m6!1s0x399039e82f74515f:0xd3409122f33bbadc!8m2!3d25.8471275!4d82.7064508!16s%2Fg%2F11qnkfhvkd!19sChIJX1F0L-g5kDkR3Lo78yKRQNM?authuser=0&hl=en&rclk=1",
        "coordinates": {
            "latitude": 25.8471275,
            "longitude": 82.7064508
        }
    },
    {
        "name": "Jama Masjid Dhanapur",
        "main_category": "Mosque",
        "address": "F942+V39 Jama Masjid Dhanapur, Dhanapur, Uttar Pradesh 232105",
        "detailed_address": {
            "ward": null,
            "street": "F942+V39",
            "city": "Dhanapur",
            "postal_code": "232105",
            "state": "Uttar Pradesh",
            "country_code": "IN"
        },
        "images": [
            {
                "about": "All",
                "link": "https://lh5.googleusercontent.com/p/AF1QipOq9g3H0H2yKaI4VcxO3nuappN6IcdERl1gaWev=w224-h497-k-no"
            }
        ],
        "link": "https://www.google.com/maps/place/Jama+Masjid+Dhanapur/data=!4m7!3m6!1s0x398e1d1cc509b993:0x1b23b951278a0a0c!8m2!3d25.457266!4d83.350211!16s%2Fg%2F11q3vp3z3b!19sChIJk7kJxRwdjjkRDAqKJ1G5Ixs?authuser=0&hl=en&rclk=1",
        "coordinates": {
            "latitude": 25.457266,
            "longitude": 83.350211
        }
    },
    {
        "name": "MOHAMMADI MASJID JHAPATPUR",
        "main_category": "Mosque",
        "address": "7JQC+QMC MOHAMMADI MASJID JHAPATPUR, Jhapatpur, Bhidyari, Uttar Pradesh 271903",
        "detailed_address": {
            "ward": null,
            "street": "7JQC+QMC",
            "city": "Jhapatpur, Bhidyari",
            "postal_code": "271903",
            "state": "Uttar Pradesh",
            "country_code": "IN"
        },
        "images": [],
        "link": "https://www.google.com/maps/place/MOHAMMADI+MASJID+JHAPATPUR/data=!4m7!3m6!1s0x399999f929e75f4f:0x9df52a9087ebbce3!8m2!3d27.2894258!4d81.6216404!16s%2Fg%2F11k_1w2x_5!19sChIJT1_nKfmZmTkR47zrh5Aq9Z0?authuser=0&hl=en&rclk=1",
        "coordinates": {
            "latitude": 27.2894258,
            "longitude": 81.62164039999999
        }
    },
    {
        "name": "Sayiapur Noori Jama Masjid",
        "main_category": "Mosque",
        "address": "6CJG+3JQ Sayiapur Noori Jama Masjid, Sayiapur, Banjeria, Uttar Pradesh 271604",
        "detailed_address": {
            "ward": null,
            "street": "6CJG+3JQ",
            "city": "Sayiapur, Banjeria",
            "postal_code": "271604",
            "state": "Uttar Pradesh",
            "country_code": "IN"
        },
        "images": [
            {
                "about": "All",
                "link": "https://lh5.googleusercontent.com/p/AF1QipN-ogtY-Z8YthUx2RGvFRnA7xbE628SngG3lDoQ=w224-h298-k-no"
            }
        ],
        "link": "https://www.google.com/maps/place/Sayiapur+Noori+Jama+Masjid/data=!4m7!3m6!1s0x399745d220a71e6b:0x5775c6bd04d990a!8m2!3d27.2302111!4d82.4266141!16s%2Fg%2F11f712dh7w!19sChIJax6nINJFlzkRCplN0GtcdwU?authuser=0&hl=en&rclk=1",
        "coordinates": {
            "latitude": 27.2302111,
            "longitude": 82.4266141
        }
    },
    {
        "name": "Aqsa Masjid Mangolpur",
        "main_category": "Mosque",
        "address": "PW24+V92 Aqsa Masjid Mangolpur, Laharpur, Uttar Pradesh 261135",
        "detailed_address": {
            "ward": null,
            "street": "PW24+V92",
            "city": "Laharpur",
            "postal_code": "261135",
            "state": "Uttar Pradesh",
            "country_code": "IN"
        },
        "images": [
            {
                "about": "All",
                "link": "https://lh5.googleusercontent.com/p/AF1QipOkdpFl4clVnQpzMDtNVoEduVl3HyESkkpE1HlE=w224-h398-k-no"
            },
            {
                "about": "Videos",
                "link": "https://lh5.googleusercontent.com/p/AF1QipP4S4-HlELJpKA5sNCsu9SrdKWrx3YbEZBF6Klb=w224-h398-k-no"
            }
        ],
        "link": "https://www.google.com/maps/place/Aqsa+Masjid+Mangolpur/data=!4m7!3m6!1s0x3998d740d286644b:0xd70ee35e2c591be9!8m2!3d27.7021267!4d80.9058834!16s%2Fg%2F11rgftp78p!19sChIJS2SG0kDXmDkR6RtZLF7jDtc?authuser=0&hl=en&rclk=1",
        "coordinates": {
            "latitude": 27.702126699999997,
            "longitude": 80.9058834
        }
    },
    {
        "name": "Eidgah Masjid samodhpur",
        "main_category": "Mosque",
        "address": "3F8G+3R5 Eidgah Masjid samodhpur, Samodhpur, road, Jamauli, Uttar Pradesh 223102",
        "detailed_address": {
            "ward": null,
            "street": "3F8G+3R5, Samodhpur, road",
            "city": "Jamauli, Mewpur Barchauli",
            "postal_code": "223102",
            "state": "Uttar Pradesh",
            "country_code": "IN"
        },
        "images": [
            {
                "about": "All",
                "link": "https://lh5.googleusercontent.com/p/AF1QipNBORvA-zGjWTaCllmvAtNFCUC6CVEkLe9TH53M=w224-h298-k-no"
            },
            {
                "about": "Latest",
                "link": "https://lh5.googleusercontent.com/p/AF1QipP56OiEYv6_ZBpjaJGvGBL-meDGzlzxznh6dnqU=w529-h298-k-no"
            },
            {
                "about": "Videos",
                "link": "https://lh5.googleusercontent.com/p/AF1QipMCwekdj0L8JWr6KZrSc9_Sae_Ib3DLRqKPSo5h=w529-h298-k-no"
            }
        ],
        "link": "https://www.google.com/maps/place/Eidgah+Masjid+samodhpur/data=!4m7!3m6!1s0x39906791270ffa27:0xae6d50d3f210ee8!8m2!3d26.0651384!4d82.4771142!16s%2Fg%2F11qzkjjdz_!19sChIJJ_oPJ5FnkDkR6A4hPw3V5go?authuser=0&hl=en&rclk=1",
        "coordinates": {
            "latitude": 26.0651384,
            "longitude": 82.4771142
        }
    },
    {
        "name": "Masjid e bilal",
        "main_category": "Mosque",
        "address": "Masjid e bilal, Jafarpur, Dullahapur, Gangapur, Uttar Pradesh 275202",
        "detailed_address": {
            "ward": "Jafarpur",
            "street": null,
            "city": "Dullahapur, Gangapur",
            "postal_code": "275202",
            "state": "Uttar Pradesh",
            "country_code": "IN"
        },
        "images": [
            {
                "about": "All",
                "link": "https://lh5.googleusercontent.com/p/AF1QipPrAz0g8XMqt9kqYGmxg6TTl5MLMQg4RBFvyVql=w397-h298-k-no"
            },
            {
                "about": "Dome",
                "link": "https://lh5.googleusercontent.com/p/AF1QipP-f6OjyqdzxAmEubqUurXl9bTyZXdwTobTWA8t=w224-h398-k-no"
            },
            {
                "about": "By owner",
                "link": "https://lh5.googleusercontent.com/p/AF1QipPS4yMt6GBJbpr3s-rYSBBJTUuuvkxGoxFrQf54=w529-h298-k-no"
            }
        ],
        "link": "https://www.google.com/maps/place/Masjid+e+bilal/data=!4m7!3m6!1s0x3991f1a802c98159:0x236d65b2e9106f2a!8m2!3d25.7902419!4d83.4409385!16s%2Fg%2F11j4y1706d!19sChIJWYHJAqjxkTkRKm8Q6bJlbSM?authuser=0&hl=en&rclk=1",
        "coordinates": {
            "latitude": 25.790241899999998,
            "longitude": 83.4409385
        }
    },
    {
        "name": "Juma masjid",
        "main_category": "Mosque",
        "address": "CQVM+48H Juma masjid, Dodo, Uttar Pradesh 224129",
        "detailed_address": {
            "ward": null,
            "street": "CQVM+48H",
            "city": "Dodo",
            "postal_code": "224129",
            "state": "Uttar Pradesh",
            "country_code": "IN"
        },
        "images": [
            {
                "about": "All",
                "link": "https://lh5.googleusercontent.com/p/AF1QipOgCeconBuFyvkLR5maSN9n7m3_uKzQTYV8hoBj=w228-h298-k-no"
            }
        ],
        "link": "https://www.google.com/maps/place/Juma+masjid/data=!4m7!3m6!1s0x3990e51ecab5c6a5:0xba7c984bd29721d0!8m2!3d26.4428068!4d82.7833582!16s%2Fg%2F11n05lvb28!19sChIJpca1yh7lkDkR0CGX0kuYfLo?authuser=0&hl=en&rclk=1",
        "coordinates": {
            "latitude": 26.4428068,
            "longitude": 82.7833582
        }
    },
    {
        "name": "Chishtiya Usmaniya Sunni Masjid, Dattapur, Dhamangaon(cishtiyaa usmaaniyaa sunnii msjid",
        "main_category": "Mosque",
        "address": "Q4HQ+3JQ Chishtiya Usmaniya Sunni Masjid, Dattapur, Dhamangaon(cishtiyaa usmaaniyaa sunnii msjid, Dattapur Dhamangaon, Dattapur, Maharashtra 444709",
        "detailed_address": {
            "ward": null,
            "street": "Q4HQ+3JQ",
            "city": "Dattapur Dhamangaon, Dattapur",
            "postal_code": "444709",
            "state": "Maharashtra",
            "country_code": "IN"
        },
        "images": [
            {
                "about": "All",
                "link": "https://lh5.googleusercontent.com/p/AF1QipNaloZtoX93oxzskxeGFwmSKQxbDVGbmyGFBKPd=w397-h298-k-no"
            }
        ],
        "link": "https://www.google.com/maps/place/Chishtiya+Usmaniya+Sunni+Masjid,+Dattapur,+Dhamangaon%28%E0%A4%9A%E0%A4%BF%E0%A4%B6%E0%A5%8D%E0%A4%A4%E0%A4%BF%E0%A4%AF%E0%A4%BE+%E0%A4%89%E0%A4%B8%E0%A5%8D%E0%A4%AE%E0%A4%BE%E0%A4%A8%E0%A4%BF%E0%A4%AF%E0%A4%BE+%E0%A4%B8%E0%A5%81%E0%A4%A8%E0%A5%8D%E0%A4%A8%E0%A5%80+%E0%A4%AE%E0%A4%B8%E0%A5%8D%E0%A4%9C%E0%A4%BF%E0%A4%A6/data=!4m7!3m6!1s0x3bd40f7ff089ae7f:0xdafc17a45f4497ca!8m2!3d20.7777079!4d78.1385968!16s%2Fg%2F11sv747zxb!19sChIJf66J8H8P1DsRypdEX6QX_No?authuser=0&hl=en&rclk=1",
        "coordinates": {
            "latitude": 20.7777079,
            "longitude": 78.1385968
        }
    },
    {
        "name": "Hussainya masjid damodarpur",
        "main_category": "Mosque",
        "address": "7PH6+32W Hussainya masjid damodarpur, Narayanpur Kalan, Uttar Pradesh 271503",
        "detailed_address": {
            "ward": null,
            "street": "7PH6+32W",
            "city": "Narayanpur Kalan",
            "postal_code": "271503",
            "state": "Uttar Pradesh",
            "country_code": "IN"
        },
        "images": [],
        "link": "https://www.google.com/maps/place/Hussainya+masjid+damodarpur/data=!4m7!3m6!1s0x399997587ac33a43:0x79c77e8af0267d1c!8m2!3d27.2777481!4d81.7100725!16s%2Fg%2F11syxdgmnm!19sChIJQzrDeliXmTkRHH0m8Ip-x3k?authuser=0&hl=en&rclk=1",
        "coordinates": {
            "latitude": 27.2777481,
            "longitude": 81.7100725
        }
    },
    {
        "name": "Historical Mosque",
        "main_category": "Mosque",
        "address": "7P2C+64V Historical Mosque, Jalalpur - Surhurpur Rd, Mittupur, Dattapur, Uttar Pradesh 276143",
        "detailed_address": {
            "ward": null,
            "street": "7P2C+64V, Jalalpur - Surhurpur Rd",
            "city": "Mittupur, Dattapur",
            "postal_code": "276143",
            "state": "Uttar Pradesh",
            "country_code": "IN"
        },
        "images": [
            {
                "about": "All",
                "link": "https://lh5.googleusercontent.com/p/AF1QipNfE6jiVc9dEcxEwYUzl6yxFzxrpYnHXb8Y2-0Z=w224-h298-k-no"
            },
            {
                "about": "Dome",
                "link": "https://lh5.googleusercontent.com/p/AF1QipNfE6jiVc9dEcxEwYUzl6yxFzxrpYnHXb8Y2-0Z=w224-h298-k-no"
            }
        ],
        "link": "https://www.google.com/maps/place/Historical+Mosque/data=!4m7!3m6!1s0x3990f7c7d3a02849:0xf19f034b0f013a00!8m2!3d26.2506046!4d82.7202819!16s%2Fg%2F11pxkvhc3t!19sChIJSSig08f3kDkRADoBD0sDn_E?authuser=0&hl=en&rclk=1",
        "coordinates": {
            "latitude": 26.2506046,
            "longitude": 82.7202819
        }
    },
    {
        "name": "Jama Masjid Daulatpur",
        "main_category": "Mosque",
        "address": "M2XP+2RP Jama Masjid Daulatpur, Daulat Pur, Uttar Pradesh 224127",
        "detailed_address": {
            "ward": null,
            "street": "M2XP+2RP",
            "city": "Daulat Pur",
            "postal_code": "224127",
            "state": "Uttar Pradesh",
            "country_code": "IN"
        },
        "images": [],
        "link": "https://www.google.com/maps/place/Jama+Masjid+Daulatpur/data=!4m7!3m6!1s0x399a11380b071e5f:0xf6e421f4ffecec63!8m2!3d26.6975938!4d82.0370894!16s%2Fg%2F11shfp4ky1!19sChIJXx4HCzgRmjkRY-zs__Qh5PY?authuser=0&hl=en&rclk=1",
        "coordinates": {
            "latitude": 26.6975938,
            "longitude": 82.0370894
        }
    },
    {
        "name": "Fatima Masjid Aminpur Donakka",
        "main_category": "Mosque",
        "address": "HJCH+QGR Fatima Masjid Aminpur Donakka, Aminpur Nagraur, Dularpur, Uttar Pradesh 271801",
        "detailed_address": {
            "ward": null,
            "street": "HJCH+QGR",
            "city": "Aminpur Nagraur, Dularpur",
            "postal_code": "271801",
            "state": "Uttar Pradesh",
            "country_code": "IN"
        },
        "images": [
            {
                "about": "All",
                "link": "https://streetviewpixels-pa.googleapis.com/v1/thumbnail?panoid=72mfOFiFz-NjHv1RluCckg&cb_client=maps_sv.tactile.gps&w=224&h=298&yaw=32.038845&pitch=0&thumbfov=100"
            },
            {
                "about": "Street View & 360deg",
                "link": "https://streetviewpixels-pa.googleapis.com/v1/thumbnail?panoid=72mfOFiFz-NjHv1RluCckg&cb_client=maps_sv.tactile.gps&w=224&h=298&yaw=32.038845&pitch=0&thumbfov=100"
            }
        ],
        "link": "https://www.google.com/maps/place/Fatima+Masjid+Aminpur+Donakka/data=!4m7!3m6!1s0x3999af826aac7de7:0x5171cdac0cc738c3!8m2!3d27.5719918!4d81.6287509!16s%2Fg%2F11jk8b7wv1!19sChIJ532saoKvmTkRwzjHDKzNcVE?authuser=0&hl=en&rclk=1",
        "coordinates": {
            "latitude": 27.5719918,
            "longitude": 81.6287509
        }
    },
    {
        "name": "Durjanpur Masjid",
        "main_category": "Mosque",
        "address": "W6JF+897 Durjanpur Masjid, pachumi, Durjanpur, Uttar Pradesh",
        "detailed_address": {
            "ward": null,
            "street": "W6JF+897, pachumi",
            "city": "Durjanpur, Hanuman Nagar",
            "postal_code": null,
            "state": "Uttar Pradesh",
            "country_code": "IN"
        },
        "images": [],
        "link": "https://www.google.com/maps/place/Durjanpur+Masjid/data=!4m7!3m6!1s0x3990aa99973547b1:0x2c3ec5fcae889522!8m2!3d26.9307762!4d82.2234298!16s%2Fg%2F11b8_rg57m!19sChIJsUc1l5mqkDkRIpWIrvzFPiw?authuser=0&hl=en&rclk=1",
        "coordinates": {
            "latitude": 26.9307762,
            "longitude": 82.22342979999999
        }
    },
    {
        "name": "Usman Masjid Ashrafpur",
        "main_category": "Mosque",
        "address": "46RX+VGF Usman Masjid Ashrafpur, Ashrafpur Block 1, Ashrafpur, Uttar Pradesh 276125",
        "detailed_address": {
            "ward": "Ashrafpur Block 1",
            "street": "46RX+VGF",
            "city": "Ashrafpur",
            "postal_code": "276125",
            "state": "Uttar Pradesh",
            "country_code": "IN"
        },
        "images": [
            {
                "about": "All",
                "link": "https://lh5.googleusercontent.com/p/AF1QipOtVT1sMcus9ES2kV0NXtjPM9eTBGI-QDOer6zb=w224-h398-k-no"
            }
        ],
        "link": "https://www.google.com/maps/place/Usman+Masjid+Ashrafpur/data=!4m7!3m6!1s0x3991a3b1a24ccd23:0x90f1c968fac3880b!8m2!3d26.1420524!4d83.2484907!16s%2Fg%2F11ptymk6y9!19sChIJI81MorGjkTkRC4jD-mjJ8ZA?authuser=0&hl=en&rclk=1",
        "coordinates": {
            "latitude": 26.142052399999997,
            "longitude": 83.24849069999999
        }
    },
    {
        "name": "Madni Masjid mdny msjd (Baradari)",
        "main_category": "Mosque",
        "address": "PW34+C6C Madni Masjid mdny msjd (Baradari), Laharpur, Uttar Pradesh 261135",
        "detailed_address": {
            "ward": null,
            "street": "PW34+C6C",
            "city": "Laharpur",
            "postal_code": "261135",
            "state": "Uttar Pradesh",
            "country_code": "IN"
        },
        "images": [
            {
                "about": "All",
                "link": "https://lh5.googleusercontent.com/p/AF1QipO20HKAgMi3TZqpPAQ3cxOaEy283USuWpE8ebD4=w224-h298-k-no"
            },
            {
                "about": "Latest",
                "link": "https://lh5.googleusercontent.com/p/AF1QipP4f5MTjxlK2BpKJLdCYKQxKuOXQv9ev_jhTFez=w224-h398-k-no"
            },
            {
                "about": "Videos",
                "link": "https://lh5.googleusercontent.com/p/AF1QipP4f5MTjxlK2BpKJLdCYKQxKuOXQv9ev_jhTFez=w224-h398-k-no"
            },
            {
                "about": "Dome",
                "link": "https://lh5.googleusercontent.com/p/AF1QipO20HKAgMi3TZqpPAQ3cxOaEy283USuWpE8ebD4=w224-h298-k-no"
            }
        ],
        "link": "https://www.google.com/maps/place/Madni+Masjid+%D9%85%D8%AF%D9%86%DB%8C+%D9%85%D8%B3%D8%AC%D8%AF+%28Baradari%29%E2%80%AD/data=!4m7!3m6!1s0x3998d733dfeb0037:0xe125358936309948!8m2!3d27.7035506!4d80.9055008!16s%2Fg%2F11smgprkg0!19sChIJNwDr3zPXmDkRSJkwNok1JeE?authuser=0&hl=en&rclk=1",
        "coordinates": {
            "latitude": 27.7035506,
            "longitude": 80.9055008
        }
    },
    {
        "name": "Masjid Basatnpur",
        "main_category": "Mosque",
        "address": "P52J+QJQ Masjid Basatnpur, Sikandar Bojhi, Uttar Pradesh 271207",
        "detailed_address": {
            "ward": null,
            "street": "P52J+QJQ",
            "city": "Sikandar Bojhi",
            "postal_code": "271207",
            "state": "Uttar Pradesh",
            "country_code": "IN"
        },
        "images": [],
        "link": "https://www.google.com/maps/place/Masjid+Basatnpur/data=!4m7!3m6!1s0x3999d59de492c157:0x2392daa5337e47ea!8m2!3d27.7019732!4d82.1816123!16s%2Fg%2F11k8j4vdbh!19sChIJV8GS5J3VmTkR6kd-M6XakiM?authuser=0&hl=en&rclk=1",
        "coordinates": {
            "latitude": 27.701973199999998,
            "longitude": 82.1816123
        }
    },
    {
        "name": "Gaddipur Masjid",
        "main_category": "Mosque",
        "address": "P9CP+8C6 Gaddipur Masjid, Chandpur, Uttar Pradesh 222143",
        "detailed_address": {
            "ward": null,
            "street": "P9CP+8C6",
            "city": "Chandpur",
            "postal_code": "222143",
            "state": "Uttar Pradesh",
            "country_code": "IN"
        },
        "images": [
            {
                "about": "All",
                "link": "https://lh5.googleusercontent.com/p/AF1QipN6k4rv7JL-kHfnJWk8fSRNojYRSG871vHe4Ssu=w224-h387-k-no"
            }
        ],
        "link": "https://www.google.com/maps/place/Gaddipur+Masjid/data=!4m7!3m6!1s0x39900f79dbb3a29f:0xd35dfed90b0c62b9!8m2!3d25.7207844!4d82.3860113!16s%2Fg%2F11hz2dk97d!19sChIJn6Kz23kPkDkRuWIMC9n-XdM?authuser=0&hl=en&rclk=1",
        "coordinates": {
            "latitude": 25.7207844,
            "longitude": 82.38601129999999
        }
    },
    {
        "name": "Masjid",
        "main_category": "Mosque",
        "address": "F7G2+QGV Masjid, Dariya pur, Uttar Pradesh 232107",
        "detailed_address": {
            "ward": null,
            "street": "F7G2+QGV",
            "city": "Dariya pur",
            "postal_code": "232107",
            "state": "Uttar Pradesh",
            "country_code": "IN"
        },
        "images": [],
        "link": "https://www.google.com/maps/place/Masjid/data=!4m7!3m6!1s0x398e1fa19147a0b3:0x923d278f54a85315!8m2!3d25.476995!4d83.2512895!16s%2Fg%2F11rr5gkyqj!19sChIJs6BHkaEfjjkRFVOoVI8nPZI?authuser=0&hl=en&rclk=1",
        "coordinates": {
            "latitude": 25.476995,
            "longitude": 83.2512895
        }
    },
    {
        "name": "MADINA MASJID TIKULAHANPURWA",
        "main_category": "Mosque",
        "address": "3RFH+F77 MADINA MASJID TIKULAHANPURWA, Paraspur, Semari, Uttar Pradesh 271504",
        "detailed_address": {
            "ward": null,
            "street": "3RFH+F77",
            "city": "Paraspur, Semari",
            "postal_code": "271504",
            "state": "Uttar Pradesh",
            "country_code": "IN"
        },
        "images": [
            {
                "about": "All",
                "link": "https://lh5.googleusercontent.com/p/AF1QipOQvKtHaPePzIVN5O57KvyB8Xjrm8UsI_iQ1Ynt=w232-h298-k-no"
            }
        ],
        "link": "https://www.google.com/maps/place/MADINA+MASJID+TIKULAHANPURWA/data=!4m7!3m6!1s0x39998dbd2e654169:0xc868a6a9c87b79da!8m2!3d27.073665!4d81.8281841!16s%2Fg%2F11v0td75s0!19sChIJaUFlLr2NmTkR2nl7yKmmaMg?authuser=0&hl=en&rclk=1",
        "coordinates": {
            "latitude": 27.073665,
            "longitude": 81.8281841
        }
    },
    {
        "name": "Madni Masjid Taavakkalpur",
        "main_category": "Mosque",
        "address": "VJGV+FRQ Madni Masjid Taavakkalpur, Fattapur Kalan, Uttar Pradesh 225401",
        "detailed_address": {
            "ward": null,
            "street": "VJGV+FRQ",
            "city": "Fattapur Kalan",
            "postal_code": null,
            "state": "Uttar Pradesh",
            "country_code": "IN"
        },
        "images": [],
        "link": "https://www.google.com/maps/place/Madni+Masjid+Taavakkalpur/data=!4m7!3m6!1s0x399a29568943f15d:0x38d6e31d3db12113!8m2!3d26.8762191!4d81.6446049!16s%2Fg%2F11h9k0gn15!19sChIJXfFDiVYpmjkREyGxPR3j1jg?authuser=0&hl=en&rclk=1",
        "coordinates": {
            "latitude": 26.8762191,
            "longitude": 81.64460489999999
        }
    },
    {
        "name": "Masjid Peerpur",
        "main_category": "Mosque",
        "address": "9HQ2+M3R Masjid Peerpur, Peerpur, Uttar Pradesh 224235",
        "detailed_address": {
            "ward": null,
            "street": "9HQ2+M3R",
            "city": "Peerpur",
            "postal_code": "224235",
            "state": "Uttar Pradesh",
            "country_code": "IN"
        },
        "images": [],
        "link": "https://www.google.com/maps/place/Masjid+Peerpur/data=!4m7!3m6!1s0x39908d381619c5c9:0xe10e888c9490f6a5!8m2!3d26.3892349!4d82.5501257!16s%2Fg%2F11gchvqhtx!19sChIJycUZFjiNkDkRpfaQlIyIDuE?authuser=0&hl=en&rclk=1",
        "coordinates": {
            "latitude": 26.389234899999998,
            "longitude": 82.5501257
        }
    },
    {
        "name": "Jama Masjid Jaitapur",
        "main_category": "Mosque",
        "address": "CCCQ+RVM Jama Masjid Jaitapur, Jaitapur, Kodahi, Uttar Pradesh 271902",
        "detailed_address": {
            "ward": null,
            "street": "CCCQ+RVM",
            "city": "Jaitapur, Kodahi",
            "postal_code": "271902",
            "state": "Uttar Pradesh",
            "country_code": "IN"
        },
        "images": [
            {
                "about": "All",
                "link": "https://lh5.googleusercontent.com/p/AF1QipO_lfXnuy5yqxAQYeXY4cKd6_KGXcd9_3hUYLLR=w224-h298-k-no"
            }
        ],
        "link": "https://www.google.com/maps/place/Jama+Masjid+Jaitapur/data=!4m7!3m6!1s0x3999099c46f5b05f:0xccd89d494c7c0369!8m2!3d27.4220864!4d81.4396586!16s%2Fg%2F11t5k84d8x!19sChIJX7D1RpwJmTkRaQN8TEmd2Mw?authuser=0&hl=en&rclk=1",
        "coordinates": {
            "latitude": 27.422086399999998,
            "longitude": 81.4396586
        }
    },
    {
        "name": "Masjid-e-Usmani",
        "main_category": "Mosque",
        "address": "HHHF+88W Masjid-e-Usmani, Hunsepur, Daulatpuriksara, Uttar Pradesh 224190",
        "detailed_address": {
            "ward": null,
            "street": "HHHF+88W",
            "city": "Hunsepur, Daulatpuriksara",
            "postal_code": "224190",
            "state": "Uttar Pradesh",
            "country_code": "IN"
        },
        "images": [],
        "link": "https://www.google.com/maps/place/Masjid-e-Usmani/data=!4m7!3m6!1s0x3990eb774632fe21:0x472dea167b2b1495!8m2!3d26.5783562!4d82.5733337!16s%2Fg%2F11rgh1zbzr!19sChIJIf4yRnfrkDkRlRQrexbqLUc?authuser=0&hl=en&rclk=1",
        "coordinates": {
            "latitude": 26.578356199999998,
            "longitude": 82.57333369999999
        }
    },
    {
        "name": "Masjid jamunapur msjid jmunaapur",
        "main_category": "Mosque",
        "address": "CFG7+7J9 Masjid jamunapur msjid jmunaapur, Unnamed Road, Amilia, Uttar Pradesh 261401",
        "detailed_address": {
            "ward": null,
            "street": "CFG7+7J9, Unnamed Road",
            "city": "Amilia",
            "postal_code": "261401",
            "state": "Uttar Pradesh",
            "country_code": "IN"
        },
        "images": [
            {
                "about": "All",
                "link": "https://lh5.googleusercontent.com/p/AF1QipN8mBWi5MCveC-0xag9cmr0zpzA-P7ZDADhLmgR=w224-h486-k-no"
            }
        ],
        "link": "https://www.google.com/maps/place/Masjid+jamunapur+%E0%A4%AE%E0%A4%B8%E0%A5%8D%E0%A4%9C%E0%A4%BF%E0%A4%A6+%E0%A4%9C%E0%A4%AE%E0%A5%81%E0%A4%A8%E0%A4%BE%E0%A4%AA%E0%A5%81%E0%A4%B0/data=!4m7!3m6!1s0x399eddc674b6ccf3:0x7773b3e90f6525e2!8m2!3d27.4256569!4d80.4641116!16s%2Fg%2F11n31ggxd3!19sChIJ88y2dMbdnjkR4iVlD-mzc3c?authuser=0&hl=en&rclk=1",
        "coordinates": {
            "latitude": 27.4256569,
            "longitude": 80.4641116
        }
    },
    {
        "name": "MASJID E MOHAMMADI",
        "main_category": "Mosque",
        "address": "27V3+5P3 MASJID E MOHAMMADI, Sadruddinpur Rd, Tera Daulatpur, Uttar Pradesh 225301",
        "detailed_address": {
            "ward": null,
            "street": "27V3+5P3, Sadruddinpur Rd",
            "city": "Tera Daulatpur",
            "postal_code": null,
            "state": "Uttar Pradesh",
            "country_code": "IN"
        },
        "images": [],
        "link": "https://www.google.com/maps/place/MASJID+E+MOHAMMADI/data=!4m7!3m6!1s0x399965beb98fa801:0x484fa55e7c54cc1b!8m2!3d27.0428961!4d81.2542996!16s%2Fg%2F11ryq_zx7z!19sChIJAaiPub5lmTkRG8xUfF6lT0g?authuser=0&hl=en&rclk=1",
        "coordinates": {
            "latitude": 27.0428961,
            "longitude": 81.2542996
        }
    },
    {
        "name": "Masjide Ahle sunnat",
        "main_category": "Mosque",
        "address": "2QVW+WW9 Masjide Ahle sunnat, Singariya, Uttar Pradesh 271504",
        "detailed_address": {
            "ward": null,
            "street": "2QVW+WW9",
            "city": "Singariya",
            "postal_code": "271504",
            "state": "Uttar Pradesh",
            "country_code": "IN"
        },
        "images": [
            {
                "about": "All",
                "link": "https://lh5.googleusercontent.com/p/AF1QipMAL0z6NZ5VhiLZ7dqA85cDAvC6_Uo0wiVY3GRz=w271-h298-k-no"
            },
            {
                "about": "Street View & 360deg",
                "link": "https://streetviewpixels-pa.googleapis.com/v1/thumbnail?panoid=eC3gc48TQqBxYiwhpjpLoA&cb_client=maps_sv.tactile.gps&w=224&h=298&yaw=347.7389&pitch=0&thumbfov=100"
            },
            {
                "about": "Videos",
                "link": "https://lh5.googleusercontent.com/p/AF1QipN_uYVh1fiJQsc0t3DMsufXDCJyYQnbxuEtQp6p=w541-h298-k-no"
            }
        ],
        "link": "https://www.google.com/maps/place/%F0%9D%91%B4%F0%9D%92%82%F0%9D%92%94%F0%9D%92%8B%F0%9D%92%8A%F0%9D%92%85%F0%9D%92%86+%F0%9D%91%A8%F0%9D%92%89%F0%9D%92%8D%F0%9D%92%86+%F0%9D%92%94%F0%9D%92%96%F0%9D%92%8F%F0%9D%92%8F%F0%9D%92%82%F0%9D%92%95/data=!4m7!3m6!1s0x39998d159aff6eeb:0x5e861fd9f9eff90d!8m2!3d27.0447899!4d81.7973609!16s%2Fg%2F11qn4_gjfh!19sChIJ627_mhWNmTkRDfnv-dkfhl4?authuser=0&hl=en&rclk=1",
        "coordinates": {
            "latitude": 27.044789899999998,
            "longitude": 81.7973609
        }
    },
    {
        "name": "Mosque msjid",
        "main_category": "Mosque",
        "address": "6V63+3MH Mosque msjid, Almapur, Uttar Pradesh 261303",
        "detailed_address": {
            "ward": null,
            "street": "6V63+3MH",
            "city": "Almapur",
            "postal_code": "261303",
            "state": "Uttar Pradesh",
            "country_code": "IN"
        },
        "images": [],
        "link": "https://www.google.com/maps/place/Mosque+%E0%A4%AE%E0%A4%B8%E0%A5%8D%E0%A4%9C%E0%A4%BF%E0%A4%A6/data=!4m7!3m6!1s0x39994bcc9c9d5817:0x78fbb0d9b0a76359!8m2!3d27.2101999!4d80.8542379!16s%2Fg%2F11h9grf1r6!19sChIJF1idnMxLmTkRWWOnsNmw-3g?authuser=0&hl=en&rclk=1",
        "coordinates": {
            "latitude": 27.2101999,
            "longitude": 80.8542379
        }
    },
    {
        "name": "Masjid=Aqsa DAULATPUR",
        "main_category": "Mosque",
        "address": "WHXV+QCH Masjid=Aqsa DAULATPUR, Daulatpur, Uttar Pradesh 226103",
        "detailed_address": {
            "ward": null,
            "street": "WHXV+QCH",
            "city": "Daulatpur",
            "postal_code": null,
            "state": "Uttar Pradesh",
            "country_code": "IN"
        },
        "images": [
            {
                "about": "All",
                "link": "https://lh5.googleusercontent.com/p/AF1QipNVS70AJYDoS-H2QgYPWqs43MmRXTjYC8x9cLAt=w291-h298-k-no"
            },
            {
                "about": "Dome",
                "link": "https://lh5.googleusercontent.com/p/AF1QipP3C7Rt2z55KdU925DLKQx-z4cYudPKjZwsjIzG=w224-h499-k-no"
            },
            {
                "about": "Street View & 360deg",
                "link": "https://streetviewpixels-pa.googleapis.com/v1/thumbnail?panoid=EV0gf_CGLuVu61mRONzJoA&cb_client=maps_sv.tactile.gps&w=224&h=298&yaw=350.31476&pitch=0&thumbfov=100"
            }
        ],
        "link": "https://www.google.com/maps/place/Masjid%3DAqsa+DAULATPUR/data=!4m7!3m6!1s0x399ea782213c9fbd:0x1cb9190d97cd40f0!8m2!3d26.949431!4d80.593609!16s%2Fg%2F11j4y4rgwk!19sChIJvZ88IYKnnjkR8EDNlw0ZuRw?authuser=0&hl=en&rclk=1",
        "coordinates": {
            "latitude": 26.949430999999997,
            "longitude": 80.593609
        }
    },
    {
        "name": "Madina masjid",
        "main_category": "Mosque",
        "address": "9585+G3 Madina masjid, Piyarepur, Uttar Pradesh 229303",
        "detailed_address": {
            "ward": null,
            "street": "9585+G3",
            "city": "Piyarepur",
            "postal_code": null,
            "state": "Uttar Pradesh",
            "country_code": "IN"
        },
        "images": [
            {
                "about": "All",
                "link": "https://lh5.googleusercontent.com/p/AF1QipOg1IzU4V5Ef17N4kcBzeEvEayddoN6m6JWZpQR=w528-h298-k-no"
            }
        ],
        "link": "https://www.google.com/maps/place/Madina+masjid/data=!4m7!3m6!1s0x399b97d2ae97e2c5:0x5f5cf1b06bf87e5f!8m2!3d26.3663986!4d81.1577485!16s%2Fg%2F11r_qpq8sq!19sChIJxeKXrtKXmzkRX374a7DxXF8?authuser=0&hl=en&rclk=1",
        "coordinates": {
            "latitude": 26.3663986,
            "longitude": 81.1577485
        }
    },
    {
        "name": "Badi Jama Masjid Molnapur",
        "main_category": "Mosque",
        "address": "5R6V+386 Badi Jama Masjid Molnapur, Atamauwa, Uttar Pradesh 223225",
        "detailed_address": {
            "ward": null,
            "street": "5R6V+386",
            "city": "Atamauwa",
            "postal_code": "223225",
            "state": "Uttar Pradesh",
            "country_code": "IN"
        },
        "images": [
            {
                "about": "All",
                "link": "https://lh5.googleusercontent.com/p/AF1QipOY_1ZT3y6M9AKMt-cmn62hWUQbLnxPZoM3EdQB=w629-h298-k-no"
            },
            {
                "about": "Videos",
                "link": "https://lh5.googleusercontent.com/p/AF1QipMNQ6bTBBQcNVVQBoKhhmaXcZJv_CcIqldcsZ_d=w224-h407-k-no"
            }
        ],
        "link": "https://www.google.com/maps/place/Badi+Jama+Masjid+Molnapur/data=!4m7!3m6!1s0x39905585d97f9e31:0xb961815433dc184f!8m2!3d26.1610959!4d82.8434255!16s%2Fg%2F11t7t1v8y7!19sChIJMZ5_2YVVkDkRTxjcM1SBYbk?authuser=0&hl=en&rclk=1",
        "coordinates": {
            "latitude": 26.1610959,
            "longitude": 82.8434255
        }
    },
    {
        "name": "Noori Masjid, nwry msjd",
        "main_category": "Mosque",
        "address": "XHR5+FRC Noori Masjid, nwry msjd, Chandpur, Gendpur, Uttar Pradesh 271881",
        "detailed_address": {
            "ward": null,
            "street": "XHR5+FRC",
            "city": "Chandpur, Gendpur",
            "postal_code": null,
            "state": "Uttar Pradesh",
            "country_code": "IN"
        },
        "images": [
            {
                "about": "All",
                "link": "https://lh5.googleusercontent.com/p/AF1QipPK0Gnsq2TgnMYOS-mH9hkDsIjg_fAjYwKRjQ2Q=w529-h298-k-no"
            }
        ],
        "link": "https://www.google.com/maps/place/Noori+Masjid,+%D9%86%D9%88%D8%B1%DB%8C+%D9%85%D8%B3%D8%AC%D8%AF%E2%80%AD/data=!4m7!3m6!1s0x39985f2b263a9339:0xb5735233d8bdfa98!8m2!3d27.9911822!4d81.5595254!16s%2Fg%2F11pwwsjbvr!19sChIJOZM6JitfmDkRmPq92DNSc7U?authuser=0&hl=en&rclk=1",
        "coordinates": {
            "latitude": 27.991182199999997,
            "longitude": 81.5595254
        }
    },
    {
        "name": "Masjid-e- Hafiz-e-Millat(jama masjid)",
        "main_category": "Mosque",
        "address": "Masjid-e- Hafiz-e-Millat(jama masjid), Line-3, Kasba Deo Gaon, Uttar Pradesh 276201",
        "detailed_address": {
            "ward": null,
            "street": "Line-3",
            "city": "Kasba Deo Gaon, Deogaon",
            "postal_code": "276201",
            "state": "Uttar Pradesh",
            "country_code": "IN"
        },
        "images": [
            {
                "about": "All",
                "link": "https://streetviewpixels-pa.googleapis.com/v1/thumbnail?panoid=hl5k8SgI9t86tG98VyaYFw&cb_client=maps_sv.tactile.gps&w=224&h=298&yaw=295.67804&pitch=0&thumbfov=100"
            },
            {
                "about": "Street View & 360deg",
                "link": "https://streetviewpixels-pa.googleapis.com/v1/thumbnail?panoid=hl5k8SgI9t86tG98VyaYFw&cb_client=maps_sv.tactile.gps&w=224&h=298&yaw=295.67804&pitch=0&thumbfov=100"
            }
        ],
        "link": "https://www.google.com/maps/place/Masjid-e-+Hafiz-e-Millat%28jama+masjid%29/data=!4m7!3m6!1s0x3991cdea29539b23:0xd6921421ec3ff663!8m2!3d25.7498754!4d82.9885659!16s%2Fg%2F11mnbzrbwn!19sChIJI5tTKerNkTkRY_Y_7CEUktY?authuser=0&hl=en&rclk=1",
        "coordinates": {
            "latitude": 25.7498754,
            "longitude": 82.9885659
        }
    },
    {
        "name": "Makhdoompur masjid",
        "main_category": "Mosque",
        "address": "84C4+2CF Makhdoompur masjid, Laxmipur, Uttar Pradesh 271202",
        "detailed_address": {
            "ward": null,
            "street": "84C4+2CF",
            "city": "Laxmipur",
            "postal_code": "271202",
            "state": "Uttar Pradesh",
            "country_code": "IN"
        },
        "images": [],
        "link": "https://www.google.com/maps/place/Makhdoompur+masjid/data=!4m7!3m6!1s0x3999e7d512071a29:0xeaaf1c1dda68147!8m2!3d27.3200581!4d82.1060501!16s%2Fg%2F11rtq_3x7x!19sChIJKRoHEtXnmTkRR4Gm3cHxqg4?authuser=0&hl=en&rclk=1",
        "coordinates": {
            "latitude": 27.320058099999997,
            "longitude": 82.10605009999999
        }
    },
    {
        "name": "Madina masjid",
        "main_category": "Mosque",
        "address": "2PV2+J4Q Madina masjid, Sakatpur, Uttar Pradesh 271504",
        "detailed_address": {
            "ward": null,
            "street": "2PV2+J4Q",
            "city": "Sakatpur",
            "postal_code": "271504",
            "state": "Uttar Pradesh",
            "country_code": "IN"
        },
        "images": [],
        "link": "https://www.google.com/maps/place/Madina+masjid/data=!4m7!3m6!1s0x39998feb39522795:0xb7f68f713c42dd62!8m2!3d27.0433106!4d81.6991569!16s%2Fg%2F11v150nj3c!19sChIJlSdSOeuPmTkRYt1CPHGP9rc?authuser=0&hl=en&rclk=1",
        "coordinates": {
            "latitude": 27.043310599999998,
            "longitude": 81.69915689999999
        }
    },
    {
        "name": "Nyamatpur masjid",
        "main_category": "Mosque",
        "address": "75RV+X4V Nyamatpur masjid, Lodhaurawajid Ali, Uttar Pradesh 261203",
        "detailed_address": {
            "ward": null,
            "street": "75RV+X4V",
            "city": "Lodhaurawajid Ali",
            "postal_code": null,
            "state": "Uttar Pradesh",
            "country_code": "IN"
        },
        "images": [],
        "link": "https://www.google.com/maps/place/Nyamatpur+masjid/data=!4m7!3m6!1s0x3999158733f87b67:0x23da7a3c8adaed26!8m2!3d27.2924751!4d81.1927994!16s%2Fg%2F11ry5cc2rw!19sChIJZ3v4M4cVmTkRJu3aijx62iM?authuser=0&hl=en&rclk=1",
        "coordinates": {
            "latitude": 27.292475099999997,
            "longitude": 81.1927994
        }
    },
    {
        "name": "DOMANPUR MASJID",
        "main_category": "Mosque",
        "address": "2M7C+MH3 DOMANPUR MASJID, Domanpur, Uttar Pradesh 222139",
        "detailed_address": {
            "ward": null,
            "street": "2M7C+MH3",
            "city": "Domanpur",
            "postal_code": "222139",
            "state": "Uttar Pradesh",
            "country_code": "IN"
        },
        "images": [
            {
                "about": "All",
                "link": "https://streetviewpixels-pa.googleapis.com/v1/thumbnail?panoid=C1ewI5srGrXyGay6hniJwg&cb_client=maps_sv.tactile.gps&w=224&h=298&yaw=258.0456&pitch=0&thumbfov=100"
            },
            {
                "about": "Street View & 360deg",
                "link": "https://streetviewpixels-pa.googleapis.com/v1/thumbnail?panoid=C1ewI5srGrXyGay6hniJwg&cb_client=maps_sv.tactile.gps&w=224&h=298&yaw=258.0456&pitch=0&thumbfov=100"
            }
        ],
        "link": "https://www.google.com/maps/place/DOMANPUR+MASJID/data=!4m7!3m6!1s0x39904573e3603219:0x3729d0b150087f13!8m2!3d26.0141403!4d82.6714289!16s%2Fg%2F11txs_wp6y!19sChIJGTJg43NFkDkRE38IULHQKTc?authuser=0&hl=en&rclk=1",
        "coordinates": {
            "latitude": 26.014140299999998,
            "longitude": 82.6714289
        }
    },
    {
        "name": "Masjid",
        "main_category": "Mosque",
        "address": "F545+2RV Masjid, Kawe - Lamichaur - Husepur Rd, Lachhmipur, Dikshitauli, Bihar 841426",
        "detailed_address": {
            "ward": null,
            "street": "F545+2RV, Kawe - Lamichaur - Husepur Rd",
            "city": "Lachhmipur, Dikshitauli",
            "postal_code": "841426",
            "state": "Bihar",
            "country_code": "IN"
        },
        "images": [
            {
                "about": "All",
                "link": "https://streetviewpixels-pa.googleapis.com/v1/thumbnail?panoid=vqDsj3RuMaLow1fV2JIgMw&cb_client=maps_sv.tactile.gps&w=224&h=298&yaw=257.44522&pitch=0&thumbfov=100"
            },
            {
                "about": "Street View & 360deg",
                "link": "https://streetviewpixels-pa.googleapis.com/v1/thumbnail?panoid=vqDsj3RuMaLow1fV2JIgMw&cb_client=maps_sv.tactile.gps&w=224&h=298&yaw=257.44522&pitch=0&thumbfov=100"
            }
        ],
        "link": "https://www.google.com/maps/place/Masjid/data=!4m7!3m6!1s0x3993afed77569abb:0xeec2ee2d8ac83908!8m2!3d26.4551187!4d84.1595556!16s%2Fg%2F11v04tbvg7!19sChIJu5pWd-2vkzkRCDnIii3uwu4?authuser=0&hl=en&rclk=1",
        "coordinates": {
            "latitude": 26.4551187,
            "longitude": 84.15955559999999
        }
    },
    {
        "name": "Eidgah",
        "main_category": "Mosque",
        "address": "48HC+G62 Eidgah, Dharsara, Uttar Pradesh 276124",
        "detailed_address": {
            "ward": null,
            "street": "48HC+G62",
            "city": "Dharsara",
            "postal_code": "276124",
            "state": "Uttar Pradesh",
            "country_code": "IN"
        },
        "images": [],
        "link": "https://www.google.com/maps/place/Eidgah/data=!4m7!3m6!1s0x399199de8cf5a349:0xf5f9e2ad3e98bcb!8m2!3d26.1287514!4d83.3205159!16s%2Fg%2F11sfpcjv63!19sChIJSaP1jN6ZkTkRy4vp0yqeXw8?authuser=0&hl=en&rclk=1",
        "coordinates": {
            "latitude": 26.1287514,
            "longitude": 83.32051589999999
        }
    },
    {
        "name": "jummaa msjid",
        "main_category": "Mosque",
        "address": "5946+9HF jummaa msjid, Azmatgarh, Uttar Pradesh 276124",
        "detailed_address": {
            "ward": null,
            "street": "5946+9HF",
            "city": "Azmatgarh",
            "postal_code": "276124",
            "state": "Uttar Pradesh",
            "country_code": "IN"
        },
        "images": [],
        "link": "https://www.google.com/maps/place/%E0%A4%9C%E0%A5%81%E0%A4%AE%E0%A5%8D%E0%A4%AE%E0%A4%BE+%E0%A4%AE%E0%A4%B8%E0%A5%8D%E0%A4%9C%E0%A4%BF%E0%A4%A6/data=!4m7!3m6!1s0x39919bf0aa9b800d:0x8b3ec0055e1cd151!8m2!3d26.1563986!4d83.3612014!16s%2Fg%2F11v9_j51p5!19sChIJDYCbqvCbkTkRUdEcXgXAPos?authuser=0&hl=en&rclk=1",
        "coordinates": {
            "latitude": 26.1563986,
            "longitude": 83.3612014
        }
    },
    {
        "name": "madarsa darul oloom jameerpur masjid",
        "main_category": "Mosque",
        "address": "madarsa darul oloom jameerpur masjid, Jameerpur urf puranpur 276126 Jameerpur, Rasepur, Uttar Pradesh 276126",
        "detailed_address": {
            "ward": null,
            "street": "Jameerpur urf puranpur 276126 Jameerpur",
            "city": "Rasepur, Kasba Pahalwanpur",
            "postal_code": "276126",
            "state": "Uttar Pradesh",
            "country_code": "IN"
        },
        "images": [],
        "link": "https://www.google.com/maps/place/madarsa+darul+oloom+jameerpur+masjid/data=!4m7!3m6!1s0x3991eb870df215df:0xdc461ced17db277a!8m2!3d25.823343!4d83.3039168!16s%2Fg%2F11nf_6c9wq!19sChIJ3xXyDYfrkTkReifbF-0cRtw?authuser=0&hl=en&rclk=1",
        "coordinates": {
            "latitude": 25.823342999999998,
            "longitude": 83.3039168
        }
    },
    {
        "name": "Juma Masjid FATTUPUR",
        "main_category": "Mosque",
        "address": "P6G4+P83 Juma Masjid FATTUPUR, Fattupur Kalan, Uttar Pradesh 222202",
        "detailed_address": {
            "ward": null,
            "street": "P6G4+P83",
            "city": "Fattupur Kalan",
            "postal_code": "222202",
            "state": "Uttar Pradesh",
            "country_code": "IN"
        },
        "images": [],
        "link": "https://www.google.com/maps/place/Juma+Masjid+FATTUPUR/data=!4m7!3m6!1s0x399aa73f00a6960f:0xfc7f16e4ccbd861c!8m2!3d25.7267745!4d82.2058013!16s%2Fg%2F11j1134jvd!19sChIJD5amAD-nmjkRHIa9zOQWf_w?authuser=0&hl=en&rclk=1",
        "coordinates": {
            "latitude": 25.726774499999998,
            "longitude": 82.20580129999999
        }
    },
    {
        "name": "Jama Masjid( badi masjid jethapura)",
        "main_category": "Mosque",
        "address": "Jama Masjid( badi masjid jethapura), Gaddipur, Uttar Pradesh 222138",
        "detailed_address": {
            "ward": null,
            "street": null,
            "city": "Gaddipur",
            "postal_code": "222138",
            "state": "Uttar Pradesh",
            "country_code": "IN"
        },
        "images": [
            {
                "about": "All",
                "link": "https://lh5.googleusercontent.com/p/AF1QipMV54iqsNSM5_XwNwKTdMYvy7Zj_loQ4__Igr6_=w529-h298-k-no"
            },
            {
                "about": "Videos",
                "link": "https://lh5.googleusercontent.com/p/AF1QipOtit8ui_EnABF529duyEprN5RM7oF7FyZmzYTy=w529-h298-k-no"
            }
        ],
        "link": "https://www.google.com/maps/place/Jama+Masjid%28+badi+masjid+jethapura%29/data=!4m7!3m6!1s0x39903b6511569735:0x81b62920d917d469!8m2!3d25.6771817!4d82.7045038!16s%2Fg%2F11rsptm2yq!19sChIJNZdWEWU7kDkRadQX2SAptoE?authuser=0&hl=en&rclk=1",
        "coordinates": {
            "latitude": 25.6771817,
            "longitude": 82.7045038
        }
    },
    {
        "name": "BADHDHOPUR MOSQUE",
        "main_category": "Mosque",
        "address": "QF5G+8Q2 BADHDHOPUR MOSQUE, Malethi, Uttar Pradesh 233300",
        "detailed_address": {
            "ward": null,
            "street": "QF5G+8Q2",
            "city": "Malethi",
            "postal_code": "233300",
            "state": "Uttar Pradesh",
            "country_code": "IN"
        },
        "images": [],
        "link": "https://www.google.com/maps/place/BADHDHOPUR+MOSQUE/data=!4m7!3m6!1s0x3991f116f2c9b86b:0x28c9706cd310f7b2!8m2!3d25.7582543!4d83.4768944!16s%2Fg%2F11p74hpgzg!19sChIJa7jJ8hbxkTkRsvcQ02xwySg?authuser=0&hl=en&rclk=1",
        "coordinates": {
            "latitude": 25.758254299999997,
            "longitude": 83.47689439999999
        }
    },
    {
        "name": "Madina Masjid",
        "main_category": "Mosque",
        "address": "C5G7+39F Madina Masjid, Damgarha, ta, utraon",
        "detailed_address": {
            "ward": null,
            "street": "C5G7+39F, Damgarha, ta",
            "city": "utraon, Banpurwa",
            "postal_code": null,
            "state": "Uttar Pradesh",
            "country_code": "IN"
        },
        "images": [
            {
                "about": "All",
                "link": "https://streetviewpixels-pa.googleapis.com/v1/thumbnail?panoid=FqMXhJ89Tkh_jJbYRripSw&cb_client=maps_sv.tactile.gps&w=224&h=298&yaw=275.5769&pitch=0&thumbfov=100"
            },
            {
                "about": "Street View & 360deg",
                "link": "https://streetviewpixels-pa.googleapis.com/v1/thumbnail?panoid=FqMXhJ89Tkh_jJbYRripSw&cb_client=maps_sv.tactile.gps&w=224&h=298&yaw=275.5769&pitch=0&thumbfov=100"
            }
        ],
        "link": "https://www.google.com/maps/place/Madina+Masjid/data=!4m7!3m6!1s0x398555aab7a74a7b:0x6928bb0e98645367!8m2!3d25.4251762!4d82.1634268!16s%2Fg%2F11s18d36dy!19sChIJe0qnt6pVhTkRZ1NkmA67KGk?authuser=0&hl=en&rclk=1",
        "coordinates": {
            "latitude": 25.4251762,
            "longitude": 82.1634268
        }
    }
]