[
    {
        "name": "Savanuru Nawab Masjid",
        "main_category": "Mosque",
        "address": "FX5W+RRW Savanuru Nawab Masjid, Narayanpura, Dharwad, Karnataka 580008",
        "detailed_address": {
            "ward": "Narayanpura",
            "street": "FX5W+RRW",
            "city": "Dharwad",
            "postal_code": "580008",
            "state": "Karnataka",
            "country_code": "IN"
        },
        "images": [
            {
                "about": "All",
                "link": "https://lh5.googleusercontent.com/p/AF1QipMiIuiaf_b_W3YSQxdVeNJSfdb72wxPBkAL400p=w529-h298-k-no"
            },
            {
                "about": "Dome",
                "link": "https://lh5.googleusercontent.com/p/AF1QipNTL813CjhBKTAkP-FMPFBOfrRnMLqo6GMWGULv=w224-h485-k-no"
            },
            {
                "about": "Videos",
                "link": "https://lh5.googleusercontent.com/p/AF1QipMvH-KFRBiiZl5-iaIzpV-ZtR8n36h8fpqOceoZ=w224-h398-k-no"
            }
        ],
        "link": "https://www.google.com/maps/place/Savanuru+Nawab+Masjid/data=!4m7!3m6!1s0x3bb8cd6426c3852b:0x78f24cc182a0bcc3!8m2!3d15.4596078!4d74.9970918!16s%2Fg%2F11h0f4l_m!19sChIJK4XDJmTNuDsRw7yggsFM8ng?authuser=0&hl=en&rclk=1",
        "coordinates": {
            "latitude": 15.459607799999999,
            "longitude": 74.99709179999999
        }
    },
    {
        "name": "Aasaar Masjid",
        "main_category": "Mosque",
        "address": "X8HR+3Q4 Aasaar Masjid, Savanur, Karnataka 581118",
        "detailed_address": {
            "ward": null,
            "street": "X8HR+3Q4",
            "city": "Savanur",
            "postal_code": "581118",
            "state": "Karnataka",
            "country_code": "IN"
        },
        "images": [
            {
                "about": "All",
                "link": "https://lh5.googleusercontent.com/p/AF1QipPwqivGu9RTS36JdFDCdTLFtK6KVo2tL4kWOWmd=w298-h298-k-no"
            },
            {
                "about": "Dome",
                "link": "https://lh5.googleusercontent.com/p/AF1QipNuC4NrM9nHT76w6lCDUYeMJpsZvFYU626_hiJv=w397-h298-k-no"
            }
        ],
        "link": "https://www.google.com/maps/place/Aasaar+Masjid/data=!4m7!3m6!1s0x3bb915809766d21d:0x91d8eef399779035!8m2!3d14.9776392!4d75.3419521!16s%2Fg%2F11c5xfn1w3!19sChIJHdJml4AVuTsRNZB3mfPu2JE?authuser=0&hl=en&rclk=1",
        "coordinates": {
            "latitude": 14.977639199999999,
            "longitude": 75.3419521
        }
    },
    {
        "name": "Lalshakatta Jamiya masjid, SAVANUR",
        "main_category": "Mosque",
        "address": "X8GQ+7VP Lalshakatta Jamiya masjid, SAVANUR, Savanur, Karnataka 581118",
        "detailed_address": {
            "ward": null,
            "street": "X8GQ+7VP",
            "city": "Savanur",
            "postal_code": "581118",
            "state": "Karnataka",
            "country_code": "IN"
        },
        "images": [
            {
                "about": "All",
                "link": "https://lh5.googleusercontent.com/p/AF1QipPTiPBpsZhTeR-RkeDmKX0JUZtnIvztw60e0sKn=w518-h298-k-no"
            },
            {
                "about": "Street View & 360deg",
                "link": "https://lh5.googleusercontent.com/p/AF1QipNV26lMAe6hwrlfO70d11MjfyioXghd2BN1kKmN=w224-h298-k-no-pi-10-ya48-ro-0-fo100"
            },
            {
                "about": "Videos",
                "link": "https://lh5.googleusercontent.com/p/AF1QipO6_JwhFGf7_biefCYxHDnSN922J4xj2aPJdN5y=w224-h407-k-no"
            }
        ],
        "link": "https://www.google.com/maps/place/Lalshakatta+Jamiya+masjid,+SAVANUR/data=!4m7!3m6!1s0x3bb93e2af2b6ca35:0xb15f1cfd550eb084!8m2!3d14.9757064!4d75.3396898!16s%2Fg%2F11d_x9s9lv!19sChIJNcq28io-uTsRhLAOVf0cX7E?authuser=0&hl=en&rclk=1",
        "coordinates": {
            "latitude": 14.9757064,
            "longitude": 75.3396898
        }
    },
    {
        "name": "jaama masjid",
        "main_category": "Mosque",
        "address": "X8CP+G9M jaama masjid, Jumma bazar street, Savanur, Karnataka 581118",
        "detailed_address": {
            "ward": null,
            "street": "X8CP+G9M, Jumma bazar street",
            "city": "Savanur",
            "postal_code": "581118",
            "state": "Karnataka",
            "country_code": "IN"
        },
        "images": [
            {
                "about": "All",
                "link": "https://lh5.googleusercontent.com/p/AF1QipNAsQsrVCrLj54DFZN5wiSpwdr6vO1pLFsDpkIE=w529-h298-k-no"
            },
            {
                "about": "Street View & 360deg",
                "link": "https://streetviewpixels-pa.googleapis.com/v1/thumbnail?panoid=InrGXpJLNhqVizegIpp4Lw&cb_client=maps_sv.tactile.gps&w=224&h=298&yaw=352.32544&pitch=0&thumbfov=100"
            },
            {
                "about": "Videos",
                "link": "https://lh5.googleusercontent.com/p/AF1QipMtwoTn61kh44sIZ7thD1SFkEK8OHdaNa72v6dV=w224-h398-k-no"
            }
        ],
        "link": "https://www.google.com/maps/place/jaama+masjid/data=!4m7!3m6!1s0x3bb93fd49a51a4d9:0x610120a0987c6eaa!8m2!3d14.9713409!4d75.3359113!16s%2Fg%2F11gbk2nhwr!19sChIJ2aRRmtQ_uTsRqm58mKAgAWE?authuser=0&hl=en&rclk=1",
        "coordinates": {
            "latitude": 14.9713409,
            "longitude": 75.33591129999999
        }
    },
    {
        "name": "Soor Masjid",
        "main_category": "Mosque",
        "address": "X89M+CR3 Soor Masjid, Jummabazar street, Savanur, Karnataka 581118",
        "detailed_address": {
            "ward": null,
            "street": "X89M+CR3, Jummabazar street",
            "city": "Savanur",
            "postal_code": "581118",
            "state": "Karnataka",
            "country_code": "IN"
        },
        "images": [
            {
                "about": "All",
                "link": "https://lh5.googleusercontent.com/p/AF1QipPx89paP2e-wd_H440FVlzBaEAg5_RTak-7zf_3=w224-h298-k-no"
            },
            {
                "about": "Dome",
                "link": "https://lh5.googleusercontent.com/p/AF1QipM7XAPaC46XDJTi0x3-HIw6YhKXvmvNFRFHdVTX=w396-h298-k-no"
            },
            {
                "about": "Street View & 360deg",
                "link": "https://streetviewpixels-pa.googleapis.com/v1/thumbnail?panoid=8zQ3AFBnRusAmjz6t44YLg&cb_client=maps_sv.tactile.gps&w=224&h=298&yaw=293.8287&pitch=0&thumbfov=100"
            }
        ],
        "link": "https://www.google.com/maps/place/Soor+Masjid/data=!4m7!3m6!1s0x3bb93fd3ee155c41:0xbf908f5733b1766c!8m2!3d14.9685186!4d75.3345592!16s%2Fg%2F11fyzdlp1c!19sChIJQVwV7tM_uTsRbHaxM1ePkL8?authuser=0&hl=en&rclk=1",
        "coordinates": {
            "latitude": 14.9685186,
            "longitude": 75.3345592
        }
    },
    {
        "name": "Ek Minar Masjid",
        "main_category": "Mosque",
        "address": "X8CR+23C Ek Minar Masjid, Savanur, Karnataka 581118",
        "detailed_address": {
            "ward": null,
            "street": "X8CR+23C",
            "city": "Savanur",
            "postal_code": "581118",
            "state": "Karnataka",
            "country_code": "IN"
        },
        "images": [],
        "link": "https://www.google.com/maps/place/Ek+Minar+Masjid/data=!4m7!3m6!1s0x3bb93fd59a2238fb:0x21c67088aeba3952!8m2!3d14.9700685!4d75.3401526!16s%2Fg%2F11g8_1czt6!19sChIJ-zgimtU_uTsRUjm6rohwxiE?authuser=0&hl=en&rclk=1",
        "coordinates": {
            "latitude": 14.9700685,
            "longitude": 75.3401526
        }
    },
    {
        "name": "jamiya Masjid",
        "main_category": "Mosque",
        "address": "X8FQ+5R5 jamiya Masjid, kamalbangdi Street, Savanur, Karnataka 581118",
        "detailed_address": {
            "ward": null,
            "street": "X8FQ+5R5, kamalbangdi Street",
            "city": "Savanur",
            "postal_code": "581118",
            "state": "Karnataka",
            "country_code": "IN"
        },
        "images": [
            {
                "about": "All",
                "link": "https://lh5.googleusercontent.com/p/AF1QipMz5B0-3YLPWuDhEpYpSdgdPcsC7nEQdvZ625vT=w529-h298-k-no"
            },
            {
                "about": "Videos",
                "link": "https://lh5.googleusercontent.com/p/AF1QipNmKRGAu3E4Bd2yEwxA_BMEv9Rj_wkb87gSTWjz=w529-h298-k-no"
            }
        ],
        "link": "https://www.google.com/maps/place/jamiya+Masjid/data=!4m7!3m6!1s0x3bb93fd537a148db:0xf7e336228647db2e!8m2!3d14.9728916!4d75.3395964!16s%2Fg%2F11gbk2ytxp!19sChIJ20ihN9U_uTsRLttHhiI24_c?authuser=0&hl=en&rclk=1",
        "coordinates": {
            "latitude": 14.972891599999999,
            "longitude": 75.33959639999999
        }
    },
    {
        "name": "Julekhaanimasjid",
        "main_category": "Mosque",
        "address": "X8FP+GH5 Julekhaanimasjid, Savanur, Karnataka 581118",
        "detailed_address": {
            "ward": null,
            "street": "X8FP+GH5",
            "city": "Savanur",
            "postal_code": "581118",
            "state": "Karnataka",
            "country_code": "IN"
        },
        "images": [
            {
                "about": "All",
                "link": "https://lh5.googleusercontent.com/p/AF1QipOAdzle1CUL9n4M884hbKyPkFPlc4MiJfUBdQyM=w224-h298-k-no"
            },
            {
                "about": "Street View & 360deg",
                "link": "https://streetviewpixels-pa.googleapis.com/v1/thumbnail?panoid=dEj-b97esujFJO8LoFHTvw&cb_client=maps_sv.tactile.gps&w=224&h=298&yaw=188.07132&pitch=0&thumbfov=100"
            }
        ],
        "link": "https://www.google.com/maps/place/Julekhaanimasjid/data=!4m7!3m6!1s0x3bb93e2b4ececf8d:0x7daae79858f45e7f!8m2!3d14.9737569!4d75.3364728!16s%2Fg%2F11csswk689!19sChIJjc_OTis-uTsRf170WJjnqn0?authuser=0&hl=en&rclk=1",
        "coordinates": {
            "latitude": 14.9737569,
            "longitude": 75.3364728
        }
    },
    {
        "name": "Masjid-e-Bilal",
        "main_category": "Mosque",
        "address": "X8GJ+5GF Masjid-e-Bilal, Mangalwarpet, Savanur, Karnataka 581118",
        "detailed_address": {
            "ward": "Mangalwarpet",
            "street": "X8GJ+5GF",
            "city": "Savanur",
            "postal_code": null,
            "state": "Karnataka",
            "country_code": "IN"
        },
        "images": [],
        "link": "https://www.google.com/maps/place/Masjid-e-Bilal/data=!4m7!3m6!1s0x3bb93e2d0bf3bbc3:0x7cf2126160d1b7ab!8m2!3d14.9754439!4d75.3313023!16s%2Fg%2F11c1q7s_zb!19sChIJw7vzCy0-uTsRq7fRYGES8nw?authuser=0&hl=en&rclk=1",
        "coordinates": {
            "latitude": 14.9754439,
            "longitude": 75.33130229999999
        }
    },
    {
        "name": "Bara Makan",
        "main_category": "Mosque",
        "address": "X8GR+8CC Bara Makan, lalsha katta baramakan, Savanur, Karnataka 581118",
        "detailed_address": {
            "ward": null,
            "street": "X8GR+8CC, lalsha katta baramakan",
            "city": "Savanur",
            "postal_code": "581118",
            "state": "Karnataka",
            "country_code": "IN"
        },
        "images": [
            {
                "about": "All",
                "link": "https://lh5.googleusercontent.com/p/AF1QipNDo15VT1wvDej6tB9kRx4H_Hu6f39HzkJ-nNgm=w529-h298-k-no"
            },
            {
                "about": "Street View & 360deg",
                "link": "https://streetviewpixels-pa.googleapis.com/v1/thumbnail?panoid=fq5T6ELWxH0FpJNBu4_L3w&cb_client=maps_sv.tactile.gps&w=224&h=298&yaw=178.92442&pitch=0&thumbfov=100"
            }
        ],
        "link": "https://www.google.com/maps/place/Bara+Makan/data=!4m7!3m6!1s0x3bb93f50676110c3:0x90d71c0d511b6ae5!8m2!3d14.975818!4d75.3410265!16s%2Fg%2F11g1vb_vz9!19sChIJwxBhZ1A_uTsR5WobUQ0c15A?authuser=0&hl=en&rclk=1",
        "coordinates": {
            "latitude": 14.975817999999999,
            "longitude": 75.3410265
        }
    },
    {
        "name": "Banglow Masjid",
        "main_category": "Mosque",
        "address": "X88Q+8FC Banglow Masjid, Dilerkhan miya biradar banglow, Savanur, Karnataka 581118",
        "detailed_address": {
            "ward": null,
            "street": "X88Q+8FC, Dilerkhan miya biradar banglow",
            "city": "Savanur",
            "postal_code": "581118",
            "state": "Karnataka",
            "country_code": "IN"
        },
        "images": [
            {
                "about": "All",
                "link": "https://streetviewpixels-pa.googleapis.com/v1/thumbnail?panoid=5Novw4nOEJXZjMXuoc_9qA&cb_client=maps_sv.tactile.gps&w=224&h=298&yaw=159.18411&pitch=0&thumbfov=100"
            },
            {
                "about": "Street View & 360deg",
                "link": "https://streetviewpixels-pa.googleapis.com/v1/thumbnail?panoid=5Novw4nOEJXZjMXuoc_9qA&cb_client=maps_sv.tactile.gps&w=224&h=298&yaw=159.18411&pitch=0&thumbfov=100"
            }
        ],
        "link": "https://www.google.com/maps/place/Banglow+Masjid/data=!4m7!3m6!1s0x3bb93fd6597b5095:0x230f9f76235fcd1e!8m2!3d14.9658231!4d75.3386425!16s%2Fg%2F11gbksrprl!19sChIJlVB7WdY_uTsRHs1fI3afDyM?authuser=0&hl=en&rclk=1",
        "coordinates": {
            "latitude": 14.9658231,
            "longitude": 75.33864249999999
        }
    },
    {
        "name": "Nawab Masjid And Palace",
        "main_category": "Mosque",
        "address": "X9P4+53H Nawab Masjid And Palace, near Nawab Palace, Savanur Rural, Karnataka 581118",
        "detailed_address": {
            "ward": null,
            "street": "X9P4+53H, near Nawab Palace",
            "city": "Savanur Rural",
            "postal_code": "581118",
            "state": "Karnataka",
            "country_code": "IN"
        },
        "images": [
            {
                "about": "All",
                "link": "https://lh5.googleusercontent.com/p/AF1QipMgZeGcCcxyMG3vWG_XJXXaUADnns1ca5f-UaTQ=w488-h298-k-no"
            }
        ],
        "link": "https://www.google.com/maps/place/Nawab+Masjid+And+Palace/data=!4m7!3m6!1s0x3bb9159a8459746f:0xfebdbdde9fd2b0c4!8m2!3d14.9854289!4d75.3552367!16s%2Fg%2F11f102ylcm!19sChIJb3RZhJoVuTsRxLDSn969vf4?authuser=0&hl=en&rclk=1",
        "coordinates": {
            "latitude": 14.985428899999999,
            "longitude": 75.35523669999999
        }
    },
    {
        "name": "Mitthi Masjid",
        "main_category": "Mosque",
        "address": "X89Q+6H8 Mitthi Masjid, horkeri Street, Savanur, Karnataka 581118",
        "detailed_address": {
            "ward": null,
            "street": "X89Q+6H8, horkeri Street",
            "city": "Savanur",
            "postal_code": "581118",
            "state": "Karnataka",
            "country_code": "IN"
        },
        "images": [
            {
                "about": "All",
                "link": "https://streetviewpixels-pa.googleapis.com/v1/thumbnail?panoid=3Ufdn4WWk-siROJOnA7JXg&cb_client=maps_sv.tactile.gps&w=224&h=298&yaw=1.2605094&pitch=0&thumbfov=100"
            },
            {
                "about": "Street View & 360deg",
                "link": "https://streetviewpixels-pa.googleapis.com/v1/thumbnail?panoid=3Ufdn4WWk-siROJOnA7JXg&cb_client=maps_sv.tactile.gps&w=224&h=298&yaw=1.2605094&pitch=0&thumbfov=100"
            }
        ],
        "link": "https://www.google.com/maps/place/Mitthi+Masjid/data=!4m7!3m6!1s0x3bb93fd5d76a13f1:0xdc935a8bc3dc51a9!8m2!3d14.9680358!4d75.3389531!16s%2Fg%2F11f0_fhc7b!19sChIJ8RNq19U_uTsRqVHcw4tak9w?authuser=0&hl=en&rclk=1",
        "coordinates": {
            "latitude": 14.9680358,
            "longitude": 75.3389531
        }
    },
    {
        "name": "Noorani Masjid",
        "main_category": "Mosque",
        "address": "X8FM+WPP Noorani Masjid, Savanur Rd, Lakshar Bazar, Savanur, Karnataka 581118",
        "detailed_address": {
            "ward": "Lakshar Bazar",
            "street": "X8FM+WPP, Savanur Rd",
            "city": "Savanur",
            "postal_code": "581118",
            "state": "Karnataka",
            "country_code": "IN"
        },
        "images": [],
        "link": "https://www.google.com/maps/place/Noorani+Masjid/data=!4m7!3m6!1s0x3bb93e2c96a2a92d:0x8cc5ddf83c72156f!8m2!3d14.9748427!4d75.3343379!16s%2Fg%2F11gbl36vff!19sChIJLamiliw-uTsRbxVyPPjdxYw?authuser=0&hl=en&rclk=1",
        "coordinates": {
            "latitude": 14.9748427,
            "longitude": 75.3343379
        }
    },
    {
        "name": "AVM SAFA MASJID KHANZADE MOHALLA SAVANUR",
        "main_category": "Mosque",
        "address": "AVM SAFA MASJID KHANZADE MOHALLA SAVANUR, Khanzade St, Savanur, Karnataka 581118",
        "detailed_address": {
            "ward": null,
            "street": "Khanzade St",
            "city": "Savanur",
            "postal_code": "581118",
            "state": "Karnataka",
            "country_code": "IN"
        },
        "images": [
            {
                "about": "All",
                "link": "https://lh5.googleusercontent.com/p/AF1QipNIjsrzsmSB2vvjML5u9GQc34xPdTp2sjW_Pf5K=w224-h448-k-no"
            },
            {
                "about": "Dome",
                "link": "https://lh5.googleusercontent.com/p/AF1QipM5Kx95U0CMIgm8OxBLs8mu6VYnEOT72q9zAfC7=w529-h298-k-no"
            },
            {
                "about": "Videos",
                "link": "https://lh5.googleusercontent.com/p/AF1QipMmxG_POVhMWBhqrzOtCDTgMQ2OYsXpu02KI3YK=w224-h398-k-no"
            },
            {
                "about": "By owner",
                "link": "https://lh5.googleusercontent.com/p/AF1QipNIjsrzsmSB2vvjML5u9GQc34xPdTp2sjW_Pf5K=w224-h448-k-no"
            },
            {
                "about": "Street View & 360deg",
                "link": "https://streetviewpixels-pa.googleapis.com/v1/thumbnail?panoid=KMrNYwcvfKgYQxBEWf7OMg&cb_client=maps_sv.tactile.gps&w=224&h=298&yaw=141.0656&pitch=0&thumbfov=100"
            }
        ],
        "link": "https://www.google.com/maps/place/AVM+SAFA+MASJID+KHANZADE+MOHALLA+SAVANUR/data=!4m7!3m6!1s0x3bb93fea3dc58a95:0x3c221e809816999e!8m2!3d14.9772323!4d75.3391518!16s%2Fg%2F11jpwk_2kg!19sChIJlYrFPeo_uTsRnpkWmIAeIjw?authuser=0&hl=en&rclk=1",
        "coordinates": {
            "latitude": 14.977232299999999,
            "longitude": 75.3391518
        }
    },
    {
        "name": "maiyani masjid",
        "main_category": "Mosque",
        "address": "X8FM+MWQ maiyani masjid, maiyani street, Savanur, Karnataka 581118",
        "detailed_address": {
            "ward": null,
            "street": "X8FM+MWQ, maiyani street",
            "city": "Savanur",
            "postal_code": "581118",
            "state": "Karnataka",
            "country_code": "IN"
        },
        "images": [
            {
                "about": "All",
                "link": "https://lh5.googleusercontent.com/p/AF1QipPCC4QS6zSyieYgcS_6klCC6URneltDiHcZE9V-=w224-h298-k-no"
            },
            {
                "about": "Dome",
                "link": "https://lh5.googleusercontent.com/p/AF1QipMhBsUzZV6gunyPWxkHdAyZaCl2p7grWgDYeB1A=w224-h497-k-no"
            },
            {
                "about": "Street View & 360deg",
                "link": "https://streetviewpixels-pa.googleapis.com/v1/thumbnail?panoid=oDUxfSNQ0s46d89vr9Wv0g&cb_client=maps_sv.tactile.gps&w=224&h=298&yaw=278.21533&pitch=0&thumbfov=100"
            }
        ],
        "link": "https://www.google.com/maps/place/maiyani+masjid/data=!4m7!3m6!1s0x3bb93e2ca11455db:0x3b67ac28dbfb5b2f!8m2!3d14.9742106!4d75.3348476!16s%2Fg%2F11gbkvf_0d!19sChIJ21UUoSw-uTsRL1v72yisZzs?authuser=0&hl=en&rclk=1",
        "coordinates": {
            "latitude": 14.9742106,
            "longitude": 75.3348476
        }
    },
    {
        "name": "Gadi masjid",
        "main_category": "Mosque",
        "address": "X8CP+HXH Gadi masjid, gadi mohalla, Savanur, Karnataka 581118",
        "detailed_address": {
            "ward": null,
            "street": "X8CP+HXH, gadi mohalla",
            "city": "Savanur",
            "postal_code": "581118",
            "state": "Karnataka",
            "country_code": "IN"
        },
        "images": [
            {
                "about": "All",
                "link": "https://lh5.googleusercontent.com/p/AF1QipNGN3AKS3pEe-FZp-zma3wH4bTvuyza8svhHys9=w224-h398-k-no"
            },
            {
                "about": "Street View & 360deg",
                "link": "https://streetviewpixels-pa.googleapis.com/v1/thumbnail?panoid=xspxt2loTsbXMJfMXf7cnA&cb_client=maps_sv.tactile.gps&w=224&h=298&yaw=265.04947&pitch=0&thumbfov=100"
            }
        ],
        "link": "https://www.google.com/maps/place/Gadi+masjid/data=!4m7!3m6!1s0x3bb93fd4ef5868b5:0x13641ba1d3dbcadc!8m2!3d14.9714308!4d75.3374824!16s%2Fg%2F11fy_3yx_4!19sChIJtWhY79Q_uTsR3Mrb06EbZBM?authuser=0&hl=en&rclk=1",
        "coordinates": {
            "latitude": 14.971430799999998,
            "longitude": 75.3374824
        }
    },
    {
        "name": "Raza masjid",
        "main_category": "Mosque",
        "address": "X8PF+HQM Raza masjid, Savanur, Savanur Rural, Karnataka 581118",
        "detailed_address": {
            "ward": null,
            "street": "X8PF+HQM",
            "city": "Savanur, Savanur Rural",
            "postal_code": "581118",
            "state": "Karnataka",
            "country_code": "IN"
        },
        "images": [],
        "link": "https://www.google.com/maps/place/Raza+masjid/data=!4m7!3m6!1s0x3bb93f0c812f0d7b:0x1d9ebec3715a056f!8m2!3d14.986469!4d75.3244336!16s%2Fg%2F11tclysxwn!19sChIJew0vgQw_uTsRbwVaccO-nh0?authuser=0&hl=en&rclk=1",
        "coordinates": {
            "latitude": 14.986469,
            "longitude": 75.32443359999999
        }
    },
    {
        "name": "Ayesha Masjid",
        "main_category": "Mosque",
        "address": "X8JP+HW3 Ayesha Masjid, SH 6, Savanur, Karnataka 581118",
        "detailed_address": {
            "ward": null,
            "street": "X8JP+HW3, SH 6",
            "city": "Savanur",
            "postal_code": "581118",
            "state": "Karnataka",
            "country_code": "IN"
        },
        "images": [
            {
                "about": "All",
                "link": "https://lh5.googleusercontent.com/p/AF1QipO_CjIwwGGd4IeH9s4SBTLc195QzgDZib79sXIc=w397-h298-k-no"
            },
            {
                "about": "Street View & 360deg",
                "link": "https://streetviewpixels-pa.googleapis.com/v1/thumbnail?panoid=Z00-6-3ujhVWxsl_YNLqBQ&cb_client=maps_sv.tactile.gps&w=224&h=298&yaw=198.66841&pitch=0&thumbfov=100"
            }
        ],
        "link": "https://www.google.com/maps/place/Ayesha+Masjid/data=!4m7!3m6!1s0x3bb93fad964e0ce7:0xa1e64b857617a8cb!8m2!3d14.9813795!4d75.3372861!16s%2Fg%2F11j3bhmt52!19sChIJ5wxOlq0_uTsRy6gXdoVL5qE?authuser=0&hl=en&rclk=1",
        "coordinates": {
            "latitude": 14.9813795,
            "longitude": 75.3372861
        }
    },
    {
        "name": "Malangji masajid",
        "main_category": "Mosque",
        "address": "X89P+FJJ Malangji masajid, Savanur Rural, Savanur, Karnataka 581118",
        "detailed_address": {
            "ward": null,
            "street": "X89P+FJJ",
            "city": "Savanur Rural, Savanur",
            "postal_code": "581118",
            "state": "Karnataka",
            "country_code": "IN"
        },
        "images": [
            {
                "about": "All",
                "link": "https://lh5.googleusercontent.com/p/AF1QipPZqk04-m6bkLA0riT6b9d8duEFraY8NdGctf5w=w224-h398-k-no"
            }
        ],
        "link": "https://www.google.com/maps/place/Malangji+masajid/data=!4m7!3m6!1s0x3bb93f5849727ad3:0xf67dd63c480101e8!8m2!3d14.968711!4d75.3365061!16s%2Fg%2F11r8v8b4nr!19sChIJ03pySVg_uTsR6AEBSDzWffY?authuser=0&hl=en&rclk=1",
        "coordinates": {
            "latitude": 14.968710999999999,
            "longitude": 75.3365061
        }
    }
]