[
    {
        "name": "JAMA MASJID DEHGAM",
        "main_category": "Mosque",
        "address": "5R8F+JQ5 JAMA MASJID DEHGAM, Aminwada, Dahegam, Gujarat 382305",
        "detailed_address": {
            "ward": "Aminwada",
            "street": "5R8F+JQ5",
            "city": "Dahegam",
            "postal_code": "382305",
            "state": "Gujarat",
            "country_code": "IN"
        },
        "images": [
            {
                "about": "All",
                "link": "https://lh5.googleusercontent.com/p/AF1QipPeNM_usknesyyaWgXLxIjrQCdr_MBftqqO1dnb=w397-h298-k-no"
            },
            {
                "about": "Street View & 360deg",
                "link": "https://streetviewpixels-pa.googleapis.com/v1/thumbnail?panoid=85NNg-EOvqLJNGQHM6KZtQ&cb_client=maps_sv.tactile.gps&w=224&h=298&yaw=289.2349&pitch=0&thumbfov=100"
            },
            {
                "about": "Videos",
                "link": "https://lh5.googleusercontent.com/p/AF1QipNbppa00OVPtE2IZ_3v7mOsbpTNUYTkiXnG8933=w529-h298-k-no"
            }
        ],
        "link": "https://www.google.com/maps/place/JAMA+MASJID+DEHGAM/data=!4m7!3m6!1s0x395e78bc2e6b0ff9:0x239466c711dc7c3e!8m2!3d23.1665125!4d72.8244799!16s%2Fg%2F11f3_hkpzn!19sChIJ-Q9rLrx4XjkRPnzcEcdmlCM?authuser=0&hl=en&rclk=1",
        "coordinates": {
            "latitude": 23.1665125,
            "longitude": 72.8244799
        }
    },
    {
        "name": "Madina Masjid",
        "main_category": "Mosque",
        "address": "5R9G+J2P Madina Masjid, Dahegam-Lavad Rd, Aminwada, Dahegam, Gujarat 382305",
        "detailed_address": {
            "ward": "Aminwada",
            "street": "5R9G+J2P, Dahegam-Lavad Rd",
            "city": "Dahegam",
            "postal_code": "382305",
            "state": "Gujarat",
            "country_code": "IN"
        },
        "images": [
            {
                "about": "All",
                "link": "https://lh5.googleusercontent.com/p/AF1QipNwg6KufpvACR5n6Tqs_cysW9Y2sjRnPQVMiCwW=w224-h398-k-no"
            },
            {
                "about": "Street View & 360deg",
                "link": "https://streetviewpixels-pa.googleapis.com/v1/thumbnail?panoid=bPAde3EBGZ58UhmhPLgiBg&cb_client=maps_sv.tactile.gps&w=224&h=298&yaw=67.85426&pitch=0&thumbfov=100"
            }
        ],
        "link": "https://www.google.com/maps/place/Madina+Masjid/data=!4m7!3m6!1s0x395e7999b1887ba1:0x583fa24d6cc1c640!8m2!3d23.1690764!4d72.8250855!16s%2Fg%2F11qnjv4381!19sChIJoXuIsZl5XjkRQMbBbE2iP1g?authuser=0&hl=en&rclk=1",
        "coordinates": {
            "latitude": 23.169076399999998,
            "longitude": 72.8250855
        }
    },
    {
        "name": "Eid Gaah Masjid",
        "main_category": "Mosque",
        "address": "5R76+P33 Eid Gaah Masjid, Saat ganara, Chiloda Road, Dahegam, Gujarat 382305",
        "detailed_address": {
            "ward": "Darshan Society, GIDC",
            "street": "5R76+P33, Saat ganara, Chiloda Road",
            "city": "Dahegam",
            "postal_code": "382305",
            "state": "Gujarat",
            "country_code": "IN"
        },
        "images": [
            {
                "about": "All",
                "link": "https://streetviewpixels-pa.googleapis.com/v1/thumbnail?panoid=rSjzZlO-qonw3tgVWo8OTQ&cb_client=maps_sv.tactile.gps&w=224&h=298&yaw=40.54668&pitch=0&thumbfov=100"
            },
            {
                "about": "Street View & 360deg",
                "link": "https://streetviewpixels-pa.googleapis.com/v1/thumbnail?panoid=rSjzZlO-qonw3tgVWo8OTQ&cb_client=maps_sv.tactile.gps&w=224&h=298&yaw=40.54668&pitch=0&thumbfov=100"
            }
        ],
        "link": "https://www.google.com/maps/place/Eid+Gaah+Masjid/data=!4m7!3m6!1s0x395e79c2fe36f425:0xb60b82ade85f40af!8m2!3d23.1642549!4d72.8101676!16s%2Fg%2F11f777skcl!19sChIJJfQ2_sJ5XjkRr0Bf6K2CC7Y?authuser=0&hl=en&rclk=1",
        "coordinates": {
            "latitude": 23.1642549,
            "longitude": 72.8101676
        }
    },
    {
        "name": "Shaikh Masjid Sunni",
        "main_category": "Mosque",
        "address": "Shaikh Masjid Sunni, opp. St stand, GIDC, Dahegam, Gujarat 382305",
        "detailed_address": {
            "ward": "GIDC",
            "street": "opp. St stand",
            "city": "Dahegam",
            "postal_code": "382305",
            "state": "Gujarat",
            "country_code": "IN"
        },
        "images": [
            {
                "about": "All",
                "link": "https://streetviewpixels-pa.googleapis.com/v1/thumbnail?panoid=5DABiVcRTx0ng5OoOVYOVQ&cb_client=maps_sv.tactile.gps&w=224&h=298&yaw=69.251595&pitch=0&thumbfov=100"
            },
            {
                "about": "Street View & 360deg",
                "link": "https://streetviewpixels-pa.googleapis.com/v1/thumbnail?panoid=5DABiVcRTx0ng5OoOVYOVQ&cb_client=maps_sv.tactile.gps&w=224&h=298&yaw=69.251595&pitch=0&thumbfov=100"
            }
        ],
        "link": "https://www.google.com/maps/place/Shaikh+Masjid+Sunni/data=!4m7!3m6!1s0x395e79d4362348cf:0x83cafff05abf7b36!8m2!3d23.1710287!4d72.8207138!16s%2Fg%2F11g1ltfzpc!19sChIJz0gjNtR5XjkRNnu_WvD_yoM?authuser=0&hl=en&rclk=1",
        "coordinates": {
            "latitude": 23.171028699999997,
            "longitude": 72.8207138
        }
    },
    {
        "name": "Ahle sunnat Masjid",
        "main_category": "Mosque",
        "address": "5RFF+VC7 Ahle sunnat Masjid, Nadol Rd, GIDC, Dahegam, Gujarat 382305",
        "detailed_address": {
            "ward": "GIDC",
            "street": "5RFF+VC7, Nadol Rd",
            "city": "Dahegam",
            "postal_code": "382305",
            "state": "Gujarat",
            "country_code": "IN"
        },
        "images": [],
        "link": "https://www.google.com/maps/place/Ahle+sunnat+Masjid/data=!4m7!3m6!1s0x395e79f2674d70bb:0x7d57a5fb07f092da!8m2!3d23.1746679!4d72.8235397!16s%2Fg%2F11g1ltznpj!19sChIJu3BNZ_J5XjkR2pLwB_ulV30?authuser=0&hl=en&rclk=1",
        "coordinates": {
            "latitude": 23.1746679,
            "longitude": 72.8235397
        }
    },
    {
        "name": "Choti Masjid (Nani masjid)",
        "main_category": "Mosque",
        "address": "5R8F+PJC Choti Masjid (Nani masjid), Unnamed Road, Aminwada, Dahegam, Gujarat 382305",
        "detailed_address": {
            "ward": "Aminwada",
            "street": "5R8F+PJC, Unnamed Road",
            "city": "Dahegam",
            "postal_code": "382305",
            "state": "Gujarat",
            "country_code": "IN"
        },
        "images": [
            {
                "about": "All",
                "link": "https://lh5.googleusercontent.com/p/AF1QipNZLdmm57Qta65H-dNSR0Rh1M5mMWbr0K8_oHCz=w224-h482-k-no"
            },
            {
                "about": "Street View & 360deg",
                "link": "https://streetviewpixels-pa.googleapis.com/v1/thumbnail?panoid=48oOQ4ExA4gtg3LLfTRXfw&cb_client=maps_sv.tactile.gps&w=224&h=298&yaw=351.73254&pitch=0&thumbfov=100"
            }
        ],
        "link": "https://www.google.com/maps/place/Choti+Masjid+%28Nani+masjid%29/data=!4m7!3m6!1s0x395e794e7689817f:0xd2c3bccddde0218!8m2!3d23.1668203!4d72.8240103!16s%2Fg%2F11qskk8swd!19sChIJf4GJdk55XjkRGALe3cw7LA0?authuser=0&hl=en&rclk=1",
        "coordinates": {
            "latitude": 23.166820299999998,
            "longitude": 72.8240103
        }
    }
]