[
    {
        "name": "Masjid e Abubakar Siddique",
        "main_category": "Mosque",
        "address": "Masjid e Abubakar Siddique, Sangaiah Peta, Nandikotkur, Andhra Pradesh 518401",
        "detailed_address": {
            "ward": "Sangaiah Peta",
            "street": null,
            "city": "Nandikotkur",
            "postal_code": "518401",
            "state": "Andhra Pradesh",
            "country_code": "IN"
        },
        "images": [
            {
                "about": "All",
                "link": "https://lh5.googleusercontent.com/p/AF1QipNgwavQ466hQcUvgflMsX8wId2rgjvFSGCr7w0-=w530-h298-k-no"
            },
            {
                "about": "Dome",
                "link": "https://lh5.googleusercontent.com/p/AF1QipN2MYWtXOW5_ra9NC-yx0hJJz2b3WCBzED7MKdr=w529-h298-k-no"
            },
            {
                "about": "By owner",
                "link": "https://lh5.googleusercontent.com/p/AF1QipMztZqIV14RCdwokLmn0XkG4Z0j0HgJema2xVjl=w529-h298-k-no"
            }
        ],
        "link": "https://www.google.com/maps/place/Masjid+e+Abubakar+Siddique/data=!4m7!3m6!1s0x3bb5eabfd7b234a5:0x961b545fc6ebb341!8m2!3d15.8585648!4d78.2705298!16s%2Fg%2F1pp2twkxh!19sChIJpTSy17_qtTsRQbPrxl9UG5Y?authuser=0&hl=en&rclk=1",
        "coordinates": {
            "latitude": 15.8585648,
            "longitude": 78.27052979999999
        }
    },
    {
        "name": "Jamia Masjid",
        "main_category": "Mosque",
        "address": "Jamia Masjid, SH 60, BBR Nagar, Nandikotkur, Andhra Pradesh 518401",
        "detailed_address": {
            "ward": "BBR Nagar",
            "street": "SH 60",
            "city": "Nandikotkur",
            "postal_code": "518401",
            "state": "Andhra Pradesh",
            "country_code": "IN"
        },
        "images": [
            {
                "about": "All",
                "link": "https://lh5.googleusercontent.com/p/AF1QipNBPgNcuLhbjDLoO_Fos3gCZptkqKF76K9gqseS=w224-h298-k-no"
            },
            {
                "about": "By owner",
                "link": "https://lh5.googleusercontent.com/p/AF1QipM4z3UTl20MccdNq7vZbUoBDS5Yj_oJUG4gBIZI=w529-h298-k-no"
            }
        ],
        "link": "https://www.google.com/maps/place/Jamia+Masjid/data=!4m7!3m6!1s0x3bb5ea931a497d6f:0xb1e2e25dd28f5483!8m2!3d15.8585827!4d78.2623919!16s%2Fg%2F11b6x838z8!19sChIJb31JGpPqtTsRg1SP0l3i4rE?authuser=0&hl=en&rclk=1",
        "coordinates": {
            "latitude": 15.8585827,
            "longitude": 78.2623919
        }
    },
    {
        "name": "Masjid e Salsabeel",
        "main_category": "Mosque",
        "address": "Masjid e Salsabeel, Nandikotkur - Pagidyala Rd, Nandikotkur, Andhra Pradesh 518401",
        "detailed_address": {
            "ward": null,
            "street": "Nandikotkur - Pagidyala Rd",
            "city": "Nandikotkur",
            "postal_code": "518401",
            "state": "Andhra Pradesh",
            "country_code": "IN"
        },
        "images": [
            {
                "about": "All",
                "link": "https://lh5.googleusercontent.com/p/AF1QipNaIxgNB0YdZmFO93Bi0wt8NA9-fc3DEG-fpmQO=w529-h298-k-no"
            }
        ],
        "link": "https://www.google.com/maps/place/Masjid+e+Salsabeel/data=!4m7!3m6!1s0x3bb5eac079dc075d:0x255bbda28e1f9cc4!8m2!3d15.8613017!4d78.2725768!16s%2Fg%2F11gbwmv858!19sChIJXQfcecDqtTsRxJwfjqK9WyU?authuser=0&hl=en&rclk=1",
        "coordinates": {
            "latitude": 15.861301699999999,
            "longitude": 78.2725768
        }
    },
    {
        "name": "Husaini Masjid",
        "main_category": "Mosque",
        "address": "Husaini Masjid, SH 60, Nandikotkur, Andhra Pradesh 518401",
        "detailed_address": {
            "ward": null,
            "street": "SH 60",
            "city": "Nandikotkur",
            "postal_code": "518401",
            "state": "Andhra Pradesh",
            "country_code": "IN"
        },
        "images": [
            {
                "about": "All",
                "link": "https://lh5.googleusercontent.com/p/AF1QipNJx8u9r0khxAeYHuBjSxcq9J9qwvCZ-I0NDru_=w530-h298-k-no"
            },
            {
                "about": "By owner",
                "link": "https://lh5.googleusercontent.com/p/AF1QipNJx8u9r0khxAeYHuBjSxcq9J9qwvCZ-I0NDru_=w530-h298-k-no"
            },
            {
                "about": "Videos",
                "link": "https://lh5.googleusercontent.com/p/AF1QipO-3gpB6f7OTKAEqfpFd8BAKzaRAAIGzxZ_MxK7=w298-h298-k-no"
            }
        ],
        "link": "https://www.google.com/maps/place/Husaini+Masjid/data=!4m7!3m6!1s0x3bb5ea94128d9e37:0x76221a39d7156a0b!8m2!3d15.8561392!4d78.2654898!16s%2Fg%2F11b6xr1qtx!19sChIJN56NEpTqtTsRC2oV1zkaInY?authuser=0&hl=en&rclk=1",
        "coordinates": {
            "latitude": 15.8561392,
            "longitude": 78.2654898
        }
    },
    {
        "name": "Masjid E Muhammadia Ahle Hadees",
        "main_category": "Mosque",
        "address": "Masjid E Muhammadia Ahle Hadees, Pagidala road, near super bazar, raja veedhi, SH 50, Nandikotkur, Andhra Pradesh 518401",
        "detailed_address": {
            "ward": null,
            "street": "Pagidala road, near super bazar, raja veedhi, SH 50",
            "city": "Nandikotkur",
            "postal_code": "518401",
            "state": "Andhra Pradesh",
            "country_code": "IN"
        },
        "images": [
            {
                "about": "All",
                "link": "https://lh5.googleusercontent.com/p/AF1QipOrYWf-J_UMcLPuKKbwcP34P72R-n9IogH6HIiW=w529-h298-k-no"
            }
        ],
        "link": "https://www.google.com/maps/place/Masjid+E+Muhammadia+Ahle+Hadees/data=!4m7!3m6!1s0x3bb5ea945f85dfb3:0xd500297d4182ddb9!8m2!3d15.8577335!4d78.2662641!16s%2Fg%2F11b7ckk0mr!19sChIJs9-FX5TqtTsRud2CQX0pANU?authuser=0&hl=en&rclk=1",
        "coordinates": {
            "latitude": 15.8577335,
            "longitude": 78.2662641
        }
    },
    {
        "name": "Noorani Masjid",
        "main_category": "Mosque",
        "address": "Noorani Masjid, SH 60, Nandikotkur, Andhra Pradesh 518401",
        "detailed_address": {
            "ward": null,
            "street": "SH 60",
            "city": "Nandikotkur",
            "postal_code": "518401",
            "state": "Andhra Pradesh",
            "country_code": "IN"
        },
        "images": [
            {
                "about": "All",
                "link": "https://lh5.googleusercontent.com/p/AF1QipNBkAjYx-gP5AUfV9T3WdDZmSursu4EOwcJdpxF=w529-h298-k-no"
            },
            {
                "about": "Dome",
                "link": "https://lh5.googleusercontent.com/p/AF1QipM4Wng_gGTdK1sWmMzQ8sR97WQ6_ygaaeZb4kyk=w280-h298-k-no"
            },
            {
                "about": "By owner",
                "link": "https://lh5.googleusercontent.com/p/AF1QipMMDuFZ6sckEj-b3TG8_FRWGXPI35rANkbOjJBR=w529-h298-k-no"
            }
        ],
        "link": "https://www.google.com/maps/place/Noorani+Masjid/data=!4m7!3m6!1s0x3bb5ea926bfce809:0x6462621d54a5a7f8!8m2!3d15.8563316!4d78.2601199!16s%2Fg%2F11b6xd1g2p!19sChIJCej8a5LqtTsR-KelVB1iYmQ?authuser=0&hl=en&rclk=1",
        "coordinates": {
            "latitude": 15.856331599999999,
            "longitude": 78.26011989999999
        }
    },
    {
        "name": "Masjid-e-Salafia Jamiat-e-Ahle Hadees",
        "main_category": "Mosque",
        "address": "V728+HC4 Masjid-e-Salafia Jamiat-e-Ahle Hadees, Nandyal Road, College Rd, Nandikotkur, Andhra Pradesh 518401",
        "detailed_address": {
            "ward": null,
            "street": "V728+HC4, Nandyal Road, College Rd",
            "city": "Nandikotkur",
            "postal_code": "518401",
            "state": "Andhra Pradesh",
            "country_code": "IN"
        },
        "images": [
            {
                "about": "All",
                "link": "https://lh5.googleusercontent.com/p/AF1QipPf_HGJv0XuOtoO1aWrBqyQX_b0gs_okQCuqqCY=w529-h298-k-no"
            },
            {
                "about": "Videos",
                "link": "https://lh5.googleusercontent.com/p/AF1QipNfIbp85ZSvtQXv9GKlJcIa4V3GX2lO55R4STRU=w529-h298-k-no"
            }
        ],
        "link": "https://www.google.com/maps/place/Masjid-e-Salafia+Jamiat-e-Ahle+Hadees/data=!4m7!3m6!1s0x3bb5ea97228fc08d:0xebc155a8b7f2132f!8m2!3d15.8513969!4d78.2660732!16s%2Fg%2F11b8tg19jx!19sChIJjcCPIpfqtTsRLxPyt6hVwes?authuser=0&hl=en&rclk=1",
        "coordinates": {
            "latitude": 15.8513969,
            "longitude": 78.2660732
        }
    },
    {
        "name": "Bilal Masjid",
        "main_category": "Mosque",
        "address": "R7X7+H8X Bilal Masjid, hazinagar,, Nandikotkur, Andhra Pradesh",
        "detailed_address": {
            "ward": "Saibaba Pet",
            "street": "R7X7+H8X, hazinagar,",
            "city": "Nandikotkur",
            "postal_code": null,
            "state": "Andhra Pradesh",
            "country_code": "IN"
        },
        "images": [
            {
                "about": "All",
                "link": "https://lh5.googleusercontent.com/p/AF1QipMDPMIMdWvNm8SQXIzhRWJWlv1XzlezNw35G0x4=w527-h298-k-no"
            }
        ],
        "link": "https://www.google.com/maps/place/Bilal+Masjid/data=!4m7!3m6!1s0x3bb5ea90a078aaf3:0x55af4b18f43708fa!8m2!3d15.8489826!4d78.2633531!16s%2Fg%2F11bwp2zrj5!19sChIJ86p4oJDqtTsR-gg39BhLr1U?authuser=0&hl=en&rclk=1",
        "coordinates": {
            "latitude": 15.8489826,
            "longitude": 78.2633531
        }
    },
    {
        "name": "MADEENA MASJID",
        "main_category": "Mosque",
        "address": "V726+CWX MADEENA MASJID, Nandikotkur, Andhra Pradesh 518401",
        "detailed_address": {
            "ward": null,
            "street": "V726+CWX",
            "city": "Nandikotkur",
            "postal_code": "518401",
            "state": "Andhra Pradesh",
            "country_code": "IN"
        },
        "images": [
            {
                "about": "All",
                "link": "https://lh5.googleusercontent.com/p/AF1QipO8lBM9_mqaol6z-yVWiqnrZyN3md7D_LinOTsg=w397-h298-k-no"
            },
            {
                "about": "Videos",
                "link": "https://lh5.googleusercontent.com/p/AF1QipMTWM8jxFt7SgQ4RkO5yjJGaSrHdogz4q0khCOa=w541-h298-k-no"
            }
        ],
        "link": "https://www.google.com/maps/place/MADEENA+MASJID/data=!4m7!3m6!1s0x3bb5ea90fa666fbd:0xac147b4ffc4537ef!8m2!3d15.851124!4d78.2623503!16s%2Fg%2F11c6ldnkqj!19sChIJvW9m-pDqtTsR7zdF_E97FKw?authuser=0&hl=en&rclk=1",
        "coordinates": {
            "latitude": 15.851123999999999,
            "longitude": 78.2623503
        }
    },
    {
        "name": "Masjid E Usman Gani",
        "main_category": "Mosque",
        "address": "Masjid E Usman Gani, SSR Nagar, Nandikotkur, Andhra Pradesh 518401",
        "detailed_address": {
            "ward": "SSR Nagar",
            "street": null,
            "city": "Nandikotkur",
            "postal_code": "518401",
            "state": "Andhra Pradesh",
            "country_code": "IN"
        },
        "images": [
            {
                "about": "All",
                "link": "https://lh5.googleusercontent.com/p/AF1QipM51GpM8DWlz_nV_0uDZKSJefiP-MqyCOgwr3aF=w224-h496-k-no"
            }
        ],
        "link": "https://www.google.com/maps/place/Masjid+E+Usman+Gani/data=!4m7!3m6!1s0x3bb5eabedd4aa2d3:0xc9fdc6ee889b5b41!8m2!3d15.858011!4d78.2746937!16s%2Fg%2F11b7vwsn31!19sChIJ06JK3b7qtTsRQVubiO7G_ck?authuser=0&hl=en&rclk=1",
        "coordinates": {
            "latitude": 15.858011,
            "longitude": 78.2746937
        }
    },
    {
        "name": "Khamer Masjid",
        "main_category": "Mosque",
        "address": "R7W7+V6H Khamer Masjid, hazinagar, Nandikotkur, Andhra Pradesh",
        "detailed_address": {
            "ward": null,
            "street": "R7W7+V6H, hazinagar",
            "city": "Nandikotkur",
            "postal_code": null,
            "state": "Andhra Pradesh",
            "country_code": "IN"
        },
        "images": [],
        "link": "https://www.google.com/maps/place/Khamer+Masjid/data=!4m7!3m6!1s0x3bb5ea9a40de669b:0x177e07343f47a45d!8m2!3d15.8471998!4d78.263112!16s%2Fg%2F11bwp3s800!19sChIJm2beQJrqtTsRXaRHPzQHfhc?authuser=0&hl=en&rclk=1",
        "coordinates": {
            "latitude": 15.847199799999999,
            "longitude": 78.26311199999999
        }
    },
    {
        "name": "SHAHI Masjid",
        "main_category": "Mosque",
        "address": "V737+9G5 SHAHI Masjid, Nandikotkur, Andhra Pradesh 518401",
        "detailed_address": {
            "ward": null,
            "street": "V737+9G5",
            "city": "Nandikotkur",
            "postal_code": "518401",
            "state": "Andhra Pradesh",
            "country_code": "IN"
        },
        "images": [
            {
                "about": "All",
                "link": "https://lh5.googleusercontent.com/p/AF1QipNzvu5fgJQ9gy0KVxm-vKRlnjrlTVJKNFbQOVew=w529-h298-k-no"
            }
        ],
        "link": "https://www.google.com/maps/place/SHAHI+Masjid/data=!4m7!3m6!1s0x3bb5ea914797beab:0x7e6920d98a55e0ae!8m2!3d15.8533852!4d78.263862!16s%2Fg%2F11b7q85pgt!19sChIJq76XR5HqtTsRruBVitkgaX4?authuser=0&hl=en&rclk=1",
        "coordinates": {
            "latitude": 15.8533852,
            "longitude": 78.263862
        }
    },
    {
        "name": "Jamia Masjid",
        "main_category": "Mosque",
        "address": "V759+PQX Jamia Masjid, Nandikotkur, Andhra Pradesh 518401",
        "detailed_address": {
            "ward": null,
            "street": "V759+PQX",
            "city": "Nandikotkur",
            "postal_code": "518401",
            "state": "Andhra Pradesh",
            "country_code": "IN"
        },
        "images": [
            {
                "about": "All",
                "link": "https://lh5.googleusercontent.com/p/AF1QipP3iNhxB0mW9MPvVH9Lh-eu1qfI8JF_TyxE2fAf=w529-h298-k-no"
            },
            {
                "about": "Videos",
                "link": "https://lh5.googleusercontent.com/p/AF1QipO6UklIr0t1ugvWcWjxCcStRgOrq9fD_Smi2juL=w529-h298-k-no"
            }
        ],
        "link": "https://www.google.com/maps/place/Jamia+Masjid/data=!4m7!3m6!1s0x3bb5ea9569d369d7:0x56565361e8fcaf4d!8m2!3d15.8593608!4d78.2694997!16s%2Fg%2F11dz2ppt3g!19sChIJ12nTaZXqtTsRTa_86GFTVlY?authuser=0&hl=en&rclk=1",
        "coordinates": {
            "latitude": 15.8593608,
            "longitude": 78.2694997
        }
    },
    {
        "name": "Masid-E-Abu hurairah",
        "main_category": "Mosque",
        "address": "R7W7+CVR Masid-E-Abu hurairah, Nandikotkur, Andhra Pradesh 518401",
        "detailed_address": {
            "ward": null,
            "street": "R7W7+CVR",
            "city": "Nandikotkur",
            "postal_code": "518401",
            "state": "Andhra Pradesh",
            "country_code": "IN"
        },
        "images": [
            {
                "about": "All",
                "link": "https://lh5.googleusercontent.com/p/AF1QipM-m5HvT1l1qepRlm0GnqRtg6C6CepYz2gxEscY=w397-h298-k-no"
            },
            {
                "about": "Videos",
                "link": "https://lh5.googleusercontent.com/p/AF1QipMjNLtx--N4CzhBfWNJ83YcZoTagiVfuICU_nhn=w224-h398-k-no"
            }
        ],
        "link": "https://www.google.com/maps/place/Masid-E-Abu+hurairah/data=!4m7!3m6!1s0x3bb5ebea07d3b225:0xdd6225d4956a3a2d!8m2!3d15.845699!4d78.2639693!16s%2Fg%2F11tx1kyyk5!19sChIJJbLTB-rrtTsRLTpqldQlYt0?authuser=0&hl=en&rclk=1",
        "coordinates": {
            "latitude": 15.845699,
            "longitude": 78.2639693
        }
    },
    {
        "name": "Masjid e Khuba",
        "main_category": "Mosque",
        "address": "V74F+FCF Masjid e Khuba, SH 60, Nandikotkur, Andhra Pradesh 518401",
        "detailed_address": {
            "ward": null,
            "street": "V74F+FCF, SH 60",
            "city": "Nandikotkur",
            "postal_code": "518401",
            "state": "Andhra Pradesh",
            "country_code": "IN"
        },
        "images": [
            {
                "about": "All",
                "link": "https://lh5.googleusercontent.com/p/AF1QipPoPQiSjtOoZKhv2zvvPcvitxb_X7U-kfnC-FXT=w397-h298-k-no"
            }
        ],
        "link": "https://www.google.com/maps/place/Masjid+e+Khuba/data=!4m7!3m6!1s0x3bb5eb80311708c5:0xb007a285936df6fd!8m2!3d15.8561965!4d78.2735515!16s%2Fg%2F11rb4k6qdz!19sChIJxQgXMYDrtTsR_fZtk4WiB7A?authuser=0&hl=en&rclk=1",
        "coordinates": {
            "latitude": 15.8561965,
            "longitude": 78.2735515
        }
    },
    {
        "name": "MASJID E JAMEELA BEGUM",
        "main_category": "Mosque",
        "address": "V726+F4C MASJID E JAMEELA BEGUM, Nandikotkur, Andhra Pradesh 518401",
        "detailed_address": {
            "ward": null,
            "street": "V726+F4C",
            "city": "Nandikotkur",
            "postal_code": "518401",
            "state": "Andhra Pradesh",
            "country_code": "IN"
        },
        "images": [
            {
                "about": "All",
                "link": "https://lh5.googleusercontent.com/p/AF1QipMVILe0kvWu1RB9o4JWiwkL0pLw4TmZmCd2KmGJ=w397-h298-k-no"
            }
        ],
        "link": "https://www.google.com/maps/place/MASJID+E+JAMEELA+BEGUM/data=!4m7!3m6!1s0x3bb5eb0972ac9789:0xd73578c712f65207!8m2!3d15.8511994!4d78.2602546!16s%2Fg%2F11ssv0x8jb!19sChIJiZescgnrtTsRB1L2Esd4Ndc?authuser=0&hl=en&rclk=1",
        "coordinates": {
            "latitude": 15.851199399999999,
            "longitude": 78.2602546
        }
    },
    {
        "name": "Masjid-E-Abu Hanifa",
        "main_category": "Mosque",
        "address": "R7V6+3WV Masjid-E-Abu Hanifa, Nandikotkur, Andhra Pradesh 518401",
        "detailed_address": {
            "ward": null,
            "street": "R7V6+3WV",
            "city": "Nandikotkur",
            "postal_code": "518401",
            "state": "Andhra Pradesh",
            "country_code": "IN"
        },
        "images": [
            {
                "about": "All",
                "link": "https://lh5.googleusercontent.com/p/AF1QipOTbvcdEwEdl7QTfOW_LMHHBVkbWoiBy7NwK86W=w529-h298-k-no"
            }
        ],
        "link": "https://www.google.com/maps/place/Masjid-E-Abu+Hanifa/data=!4m7!3m6!1s0x3bb5ebec0cbc84af:0xb1c9eaaab72a8713!8m2!3d15.8427288!4d78.2622862!16s%2Fg%2F11h5229q97!19sChIJr4S8DOzrtTsRE4cqt6rqybE?authuser=0&hl=en&rclk=1",
        "coordinates": {
            "latitude": 15.8427288,
            "longitude": 78.26228619999999
        }
    },
    {
        "name": "Minar Masjid",
        "main_category": "Mosque",
        "address": "V765+5G7 Minar Masjid, Allur - Nandikotkur Rd, Nandikotkur, Andhra Pradesh 518401",
        "detailed_address": {
            "ward": null,
            "street": "V765+5G7, Allur - Nandikotkur Rd",
            "city": "Nandikotkur",
            "postal_code": "518401",
            "state": "Andhra Pradesh",
            "country_code": "IN"
        },
        "images": [
            {
                "about": "All",
                "link": "https://lh5.googleusercontent.com/p/AF1QipMDAmuXPVdcvXWAtw7OXcyUaKAT_aypy_tmdIo=w397-h298-k-no"
            }
        ],
        "link": "https://www.google.com/maps/place/Minar+Masjid/data=!4m7!3m6!1s0x3bb5ebc790ba2bbf:0xcc9ba450d39b3ee9!8m2!3d15.8604233!4d78.25879!16s%2Fg%2F11js31ptqt!19sChIJvyu6kMfrtTsR6T6b01Ckm8w?authuser=0&hl=en&rclk=1",
        "coordinates": {
            "latitude": 15.860423299999999,
            "longitude": 78.25878999999999
        }
    },
    {
        "name": "MASJID E SOUDHA",
        "main_category": "Mosque",
        "address": "V758+JHQ MASJID E SOUDHA, Pinjari Street, Nandikotkur, Andhra Pradesh 518401",
        "detailed_address": {
            "ward": null,
            "street": "V758+JHQ, Pinjari Street",
            "city": "Nandikotkur",
            "postal_code": "518401",
            "state": "Andhra Pradesh",
            "country_code": "IN"
        },
        "images": [
            {
                "about": "All",
                "link": "https://lh5.googleusercontent.com/p/AF1QipMSM1smW5Ij8CCjcQMkucWXQT6Q7BmO7NbcgDm-=w224-h298-k-no"
            },
            {
                "about": "Videos",
                "link": "https://lh5.googleusercontent.com/p/AF1QipONcZWn5lTgQAdZDPKBeNeqyU_JYFhO3MeBA44R=w224-h407-k-no"
            }
        ],
        "link": "https://www.google.com/maps/place/MASJID+E+SOUDHA/data=!4m7!3m6!1s0x3bb5ea94ea3a503f:0xb2af7f75e4c19cc8!8m2!3d15.8590907!4d78.2664787!16s%2Fg%2F11c5wxkgpf!19sChIJP1A66pTqtTsRyJzB5HV_r7I?authuser=0&hl=en&rclk=1",
        "coordinates": {
            "latitude": 15.8590907,
            "longitude": 78.2664787
        }
    },
    {
        "name": "Masjid e Amena",
        "main_category": "Mosque",
        "address": "Masjid e Amena, near Shanti theatre, Nandikotkur, Andhra Pradesh 518401",
        "detailed_address": {
            "ward": null,
            "street": "near Shanti theatre",
            "city": "Nandikotkur",
            "postal_code": "518401",
            "state": "Andhra Pradesh",
            "country_code": "IN"
        },
        "images": [],
        "link": "https://www.google.com/maps/place/Masjid+e+Amena/data=!4m7!3m6!1s0x3bb5ebab93cbb5d3:0xcd73e8e0d8ebf6c9!8m2!3d15.860954!4d78.269823!16s%2Fg%2F11nn3zpkk1!19sChIJ07XLk6vrtTsRyfbr2ODoc80?authuser=0&hl=en&rclk=1",
        "coordinates": {
            "latitude": 15.860954,
            "longitude": 78.269823
        }
    },
    {
        "name": "MOSQUE, BRR NAGAR, NANDIKOTKUR",
        "main_category": "Mosque",
        "address": "V742+JWC MOSQUE, BRR NAGAR, NANDIKOTKUR, Unnamed Road, Nandikotkur, Andhra Pradesh 518401",
        "detailed_address": {
            "ward": null,
            "street": "V742+JWC, Unnamed Road",
            "city": "Nandikotkur",
            "postal_code": "518401",
            "state": "Andhra Pradesh",
            "country_code": "IN"
        },
        "images": [],
        "link": "https://www.google.com/maps/place/MOSQUE,+BRR+NAGAR,+NANDIKOTKUR/data=!4m7!3m6!1s0x3bb5eb7d29963693:0x823008658de3870b!8m2!3d15.856572!4d78.2522571!16s%2Fg%2F11k037x7f5!19sChIJkzaWKX3rtTsRC4fjjWUIMII?authuser=0&hl=en&rclk=1",
        "coordinates": {
            "latitude": 15.856572,
            "longitude": 78.2522571
        }
    },
    {
        "name": "Masjid e Umar",
        "main_category": "Mosque",
        "address": "Masjid e Umar, Nandikotkur - Pagidyala Rd, Nandikotkur, Andhra Pradesh 518401",
        "detailed_address": {
            "ward": null,
            "street": "Nandikotkur - Pagidyala Rd",
            "city": "Nandikotkur",
            "postal_code": "518401",
            "state": "Andhra Pradesh",
            "country_code": "IN"
        },
        "images": [
            {
                "about": "All",
                "link": "https://lh5.googleusercontent.com/p/AF1QipMiLOBSeibFdt4Azm23dZlX-HYNI_L2gNV-o_JT=w529-h298-k-no"
            },
            {
                "about": "Videos",
                "link": "https://lh5.googleusercontent.com/p/AF1QipOVwR2wbbKcJsk9RJMlSiLomzj8J4WXKVOKGMeP=w529-h298-k-no"
            }
        ],
        "link": "https://www.google.com/maps/place/Masjid+e+Umar/data=!4m7!3m6!1s0x3bb5ebff24e0f15f:0x894241ddf55c000d!8m2!3d15.8627588!4d78.2743615!16s%2Fg%2F11fll8tjv5!19sChIJX_HgJP_rtTsRDQBc9d1BQok?authuser=0&hl=en&rclk=1",
        "coordinates": {
            "latitude": 15.8627588,
            "longitude": 78.2743615
        }
    },
    {
        "name": "Mohammediya masjid",
        "main_category": "Mosque",
        "address": "V76C+WR4 Mohammediya masjid, Nandikotkur, Andhra Pradesh 518401",
        "detailed_address": {
            "ward": null,
            "street": "V76C+WR4",
            "city": "Nandikotkur",
            "postal_code": "518401",
            "state": "Andhra Pradesh",
            "country_code": "IN"
        },
        "images": [],
        "link": "https://www.google.com/maps/place/Mohammediya+masjid/data=!4m7!3m6!1s0x3bb5eb652e19218d:0x867bfc57c8ee1903!8m2!3d15.8622667!4d78.272081!16s%2Fg%2F11vcxw3plv!19sChIJjSEZLmXrtTsRAxnuyFf8e4Y?authuser=0&hl=en&rclk=1",
        "coordinates": {
            "latitude": 15.8622667,
            "longitude": 78.272081
        }
    },
    {
        "name": "Masjid e Jameel",
        "main_category": "Mosque",
        "address": "V747+6RP Masjid e Jameel, Nandikotkur, Andhra Pradesh 518401",
        "detailed_address": {
            "ward": null,
            "street": "V747+6RP",
            "city": "Nandikotkur",
            "postal_code": "518401",
            "state": "Andhra Pradesh",
            "country_code": "IN"
        },
        "images": [],
        "link": "https://www.google.com/maps/place/Masjid+e+Jameel/data=!4m7!3m6!1s0x3bb5eb6c6adae4ad:0x43c6dbd82060c1e0!8m2!3d15.8555925!4d78.2645887!16s%2Fg%2F11kjgq2p5q!19sChIJreTaamzrtTsR4MFgINjbxkM?authuser=0&hl=en&rclk=1",
        "coordinates": {
            "latitude": 15.855592499999998,
            "longitude": 78.26458869999999
        }
    },
    {
        "name": "Masjid E Ayesha",
        "main_category": "Mosque",
        "address": "R7XC+X24 Masjid E Ayesha, Unnamed Road, Nandikotkur, Andhra Pradesh 518401",
        "detailed_address": {
            "ward": null,
            "street": "R7XC+X24, Unnamed Road",
            "city": "Nandikotkur",
            "postal_code": "518401",
            "state": "Andhra Pradesh",
            "country_code": "IN"
        },
        "images": [
            {
                "about": "All",
                "link": "https://lh5.googleusercontent.com/p/AF1QipP-r8D6ruqMCfWfrgzFuEnabuOPawTIhVPE_mY1=w397-h298-k-no"
            }
        ],
        "link": "https://www.google.com/maps/place/Masjid+E+Ayesha/data=!4m7!3m6!1s0x3bb5eb29607ded8f:0x2f60a7abc9d180ee!8m2!3d15.8498845!4d78.2700646!16s%2Fg%2F11kyvvlw39!19sChIJj-19YCnrtTsR7oDRyaunYC8?authuser=0&hl=en&rclk=1",
        "coordinates": {
            "latitude": 15.8498845,
            "longitude": 78.2700646
        }
    },
    {
        "name": "MASJID E QUBA AHLEHADEES KG ROAD",
        "main_category": "Non-governmental organization",
        "address": "V747+6RP MASJID E QUBA AHLEHADEES KG ROAD, SH 60, Nandikotkur, Andhra Pradesh 518401",
        "detailed_address": {
            "ward": null,
            "street": "V747+6RP, SH 60",
            "city": "Nandikotkur",
            "postal_code": "518401",
            "state": "Andhra Pradesh",
            "country_code": "IN"
        },
        "images": [],
        "link": "https://www.google.com/maps/place/MASJID+E+QUBA+AHLEHADEES+KG+ROAD/data=!4m7!3m6!1s0x3bb5ebb3187d0e45:0xe317a9f5c4cbc54d!8m2!3d15.8555925!4d78.2645887!16s%2Fg%2F11g4b562y3!19sChIJRQ59GLPrtTsRTcXLxPWpF-M?authuser=0&hl=en&rclk=1",
        "coordinates": {
            "latitude": 15.855592499999998,
            "longitude": 78.26458869999999
        }
    },
    {
        "name": "Eidgah",
        "main_category": "Mosque",
        "address": "V744+CWP Eidgah, SH 60, Nandikotkur, Andhra Pradesh 518401",
        "detailed_address": {
            "ward": null,
            "street": "V744+CWP Eidgah, SH 60",
            "city": "Nandikotkur",
            "postal_code": "518401",
            "state": "Andhra Pradesh",
            "country_code": "IN"
        },
        "images": [],
        "link": "https://www.google.com/maps/place/Eidgah/data=!4m7!3m6!1s0x3bb5eb1ae960040f:0x29fd16421849a596!8m2!3d15.8560876!4d78.2573345!16s%2Fg%2F11nfvj1vf9!19sChIJDwRg6RrrtTsRlqVJGEIW_Sk?authuser=0&hl=en&rclk=1",
        "coordinates": {
            "latitude": 15.856087599999999,
            "longitude": 78.2573345
        }
    }
]