[
    {
        "name": "Masjid Sabarahad",
        "main_category": "Mosque",
        "address": "5F36+PXC Masjid Sabarahad, Karanpur, Uttar Pradesh 275301",
        "detailed_address": {
            "ward": null,
            "street": "5F36+PXC",
            "city": "Karanpur",
            "postal_code": "275301",
            "state": "Uttar Pradesh",
            "country_code": "IN"
        },
        "images": [
            {
                "about": "All",
                "link": "https://lh5.googleusercontent.com/p/AF1QipOtj-aayIeOWVxWKAuI94bLl1nl-WT2bzL1Wd91=w530-h298-k-no"
            }
        ],
        "link": "https://www.google.com/maps/place/Masjid+Sabarahad/data=!4m7!3m6!1s0x399185dab0a683ab:0x4ba60f79c259e4e1!8m2!3d26.1543001!4d83.4624049!16s%2Fg%2F11h_c6t50_!19sChIJq4OmsNqFkTkR4eRZwnkPpks?authuser=0&hl=en&rclk=1",
        "coordinates": {
            "latitude": 26.1543001,
            "longitude": 83.4624049
        }
    },
    {
        "name": "Karanpur kalan Masjid madina",
        "main_category": "Mosque",
        "address": "Karanpur kalan Masjid madina, Karanpur Kalan, Uttar Pradesh 203390",
        "detailed_address": {
            "ward": null,
            "street": null,
            "city": "Karanpur Kalan",
            "postal_code": "203390",
            "state": "Uttar Pradesh",
            "country_code": "IN"
        },
        "images": [
            {
                "about": "All",
                "link": "https://lh5.googleusercontent.com/p/AF1QipOovymqLnmlQPPXBsfQRQ2u4PPDGpIM46H3mQgR=w397-h298-k-no"
            },
            {
                "about": "Videos",
                "link": "https://lh5.googleusercontent.com/p/AF1QipPlrdzeQWh9zA3aqEZ7AphwycsxsiXgm32WIGWE=w224-h398-k-no"
            }
        ],
        "link": "https://www.google.com/maps/place/Karanpur+kalan+Masjid+madina/data=!4m7!3m6!1s0x390b47bef3e0a75f:0x6704c06b1bbb5792!8m2!3d28.3591584!4d78.2445397!16s%2Fg%2F11h4f_txyc!19sChIJX6fg875HCzkRkle7G2vABGc?authuser=0&hl=en&rclk=1",
        "coordinates": {
            "latitude": 28.3591584,
            "longitude": 78.24453969999999
        }
    },
    {
        "name": "Masjid.Karanpur",
        "main_category": "Mosque",
        "address": "QJWW+MP7 Masjid.Karanpur, Kalpi Para, Uttar Pradesh 271882",
        "detailed_address": {
            "ward": null,
            "street": "QJWW+MP7",
            "city": "Kalpi Para",
            "postal_code": null,
            "state": "Uttar Pradesh",
            "country_code": "IN"
        },
        "images": [
            {
                "about": "All",
                "link": "https://lh5.googleusercontent.com/p/AF1QipOhVMURyu40gCitJYMfYneG9yx7juaJk4p4fWRo=w224-h298-k-no"
            }
        ],
        "link": "https://www.google.com/maps/place/Masjid.Karanpur/data=!4m7!3m6!1s0x399851e25ec11943:0x3b44a72eceddb24b!8m2!3d27.796661!4d81.6467978!16s%2Fg%2F11f9x395x3!19sChIJQxnBXuJRmDkRS7Ldzi6nRDs?authuser=0&hl=en&rclk=1",
        "coordinates": {
            "latitude": 27.796661,
            "longitude": 81.6467978
        }
    },
    {
        "name": "Jama masjid",
        "main_category": "Mosque",
        "address": "RFM3+F9J Jama masjid, Unnamed Road, Srikaranpur, Rajasthan 335073",
        "detailed_address": {
            "ward": null,
            "street": "RFM3+F9J, Unnamed Road",
            "city": "Srikaranpur",
            "postal_code": "335073",
            "state": "Rajasthan",
            "country_code": "IN"
        },
        "images": [
            {
                "about": "All",
                "link": "https://lh5.googleusercontent.com/p/AF1QipOWUdLhmavQzTeYM9W69WDoB28e2RALVm9Wqosj=w224-h398-k-no"
            }
        ],
        "link": "https://www.google.com/maps/place/Jama+masjid/data=!4m7!3m6!1s0x393d818406756f33:0x32fef499a4bb1a10!8m2!3d29.8337181!4d73.4533779!16s%2Fg%2F11j5g4zp4b!19sChIJM291BoSBPTkREBq7pJn0_jI?authuser=0&hl=en&rclk=1",
        "coordinates": {
            "latitude": 29.8337181,
            "longitude": 73.45337789999999
        }
    },
    {
        "name": "Jama Masjid Karanpur",
        "main_category": "Mosque",
        "address": "J85Q+9C8 Jama Masjid Karanpur, Karanpur Shauri, Uttar Pradesh 212217",
        "detailed_address": {
            "ward": null,
            "street": "J85Q+9C8",
            "city": "Karanpur Shauri",
            "postal_code": "212217",
            "state": "Uttar Pradesh",
            "country_code": "IN"
        },
        "images": [
            {
                "about": "All",
                "link": "https://lh5.googleusercontent.com/p/AF1QipNnww8n6JwO6MvhUJXIkHS9KnKdZqRN2WPy4xtK=w224-h398-k-no"
            }
        ],
        "link": "https://www.google.com/maps/place/Jama+Masjid+Karanpur/data=!4m7!3m6!1s0x399b3ab2eaaaaaab:0xa8d39d0e535ffb0c!8m2!3d25.6084206!4d81.3385663!16s%2Fg%2F11f2sh1qhw!19sChIJq6qq6rI6mzkRDPtfUw6d06g?authuser=0&hl=en&rclk=1",
        "coordinates": {
            "latitude": 25.6084206,
            "longitude": 81.3385663
        }
    },
    {
        "name": "KARANPUR JAMA MASJID,Md Firoz",
        "main_category": "Mosque",
        "address": "875M+XVH KARANPUR JAMA MASJID,Md Firoz, Karnpur Village Rd, Gandhrain, Bihar 847411",
        "detailed_address": {
            "ward": null,
            "street": "875M+XVH, Karnpur Village Rd",
            "city": "Gandhrain",
            "postal_code": "847411",
            "state": "Bihar",
            "country_code": "IN"
        },
        "images": [
            {
                "about": "All",
                "link": "https://lh5.googleusercontent.com/p/AF1QipOeqvkni8sXMdj2SzxPbqGJO88s_VMKMRtXC5v2=w224-h298-k-no"
            },
            {
                "about": "Dome",
                "link": "https://lh5.googleusercontent.com/p/AF1QipMMOk5VdLD67mE5tmW4I4Icy-SK4UZTD0REnsi7=w529-h298-k-no"
            },
            {
                "about": "Street View & 360deg",
                "link": "https://streetviewpixels-pa.googleapis.com/v1/thumbnail?panoid=vkV2Xup_TczJGlBo4XpRoA&cb_client=maps_sv.tactile.gps&w=224&h=298&yaw=92.474655&pitch=0&thumbfov=100"
            }
        ],
        "link": "https://www.google.com/maps/place/KARANPUR+JAMA+MASJID,Md+Firoz/data=!4m7!3m6!1s0x39ee7f888fb06bfd:0xdf5845719e41c62d!8m2!3d26.3099476!4d86.2847194!16s%2Fg%2F11p01kbq81!19sChIJ_Wuwj4h_7jkRLcZBnnFFWN8?authuser=0&hl=en&rclk=1",
        "coordinates": {
            "latitude": 26.309947599999997,
            "longitude": 86.2847194
        }
    },
    {
        "name": "Masjid",
        "main_category": "Mosque",
        "address": "58X3+49 Masjid, Karanpur, Uttar Pradesh 225305",
        "detailed_address": {
            "ward": null,
            "street": "58X3+49",
            "city": "Karanpur",
            "postal_code": null,
            "state": "Uttar Pradesh",
            "country_code": "IN"
        },
        "images": [
            {
                "about": "All",
                "link": "https://lh5.googleusercontent.com/p/AF1QipMwke2v9PMbqJwXKcMS0rm4uV2V-iF7hLzyZCpP=w528-h298-k-no"
            }
        ],
        "link": "https://www.google.com/maps/place/Masjid/data=!4m7!3m6!1s0x39996dfb96c4fa4b:0x61b6b0d7b091507f!8m2!3d27.197756!4d81.30339!16s%2Fg%2F11kqgkw1rq!19sChIJS_rElvttmTkRf1CRsNewtmE?authuser=0&hl=en&rclk=1",
        "coordinates": {
            "latitude": 27.197756,
            "longitude": 81.30339
        }
    },
    {
        "name": "Masjid (Mosque)",
        "main_category": "Mosque",
        "address": "JJVW+GX9 Masjid (Mosque), opposite water tank, Penumantra, Andhra Pradesh 534124",
        "detailed_address": {
            "ward": null,
            "street": "JJVW+GX9, opposite water tank",
            "city": "Penumantra",
            "postal_code": "534124",
            "state": "Andhra Pradesh",
            "country_code": "IN"
        },
        "images": [
            {
                "about": "All",
                "link": "https://lh5.googleusercontent.com/p/AF1QipM83_49V6JkejupPzXj9jrm5veMGsAQ1SPu6WcY=w529-h298-k-no"
            },
            {
                "about": "Latest",
                "link": "https://lh5.googleusercontent.com/p/AF1QipMvMENa39jzgZ-GPsZl-Vtmfbi_nbf4Eq_YKtmy=w224-h398-k-no"
            }
        ],
        "link": "https://www.google.com/maps/place/Masjid+%28Mosque%29/data=!4m7!3m6!1s0x3a37cf974bfe7c13:0x9aa2e73e20eb346e!8m2!3d16.643864!4d81.6477104!16s%2Fg%2F11v03jgzvm!19sChIJE3z-S5fPNzoRbjTrID7nopo?authuser=0&hl=en&rclk=1",
        "coordinates": {
            "latitude": 16.643864,
            "longitude": 81.6477104
        }
    },
    {
        "name": "Jama masjid karanpur",
        "main_category": "Mosque",
        "address": "RHFX+WXX Jama masjid karanpur, Kanpur, Uttar Pradesh 244221",
        "detailed_address": {
            "ward": null,
            "street": "RHFX+WXX",
            "city": "Kanpur",
            "postal_code": "244221",
            "state": "Uttar Pradesh",
            "country_code": "IN"
        },
        "images": [],
        "link": "https://www.google.com/maps/place/Jama+masjid+karanpur/data=!4m7!3m6!1s0x390b0339080d2e17:0x58241e2a31f394aa!8m2!3d28.82486!4d78.5999828!16s%2Fg%2F11ry33vy5p!19sChIJFy4NCDkDCzkRqpTzMSoeJFg?authuser=0&hl=en&rclk=1",
        "coordinates": {
            "latitude": 28.824859999999997,
            "longitude": 78.59998279999999
        }
    }
]