[
    {
        "name": "Eid gah",
        "main_category": "Mosque",
        "address": "5J86+P4 Eid gah, Behat, Uttar Pradesh 247121",
        "detailed_address": {
            "ward": null,
            "street": "5J86+P4",
            "city": "Behat",
            "postal_code": null,
            "state": "Uttar Pradesh",
            "country_code": "IN"
        },
        "images": [
            {
                "about": "All",
                "link": "https://lh5.googleusercontent.com/p/AF1QipO6iteyJTNtkHkFhRtzNeKb-FT50JtbDngo5TKK=w397-h298-k-no"
            }
        ],
        "link": "https://www.google.com/maps/place/Eid+gah/data=!4m7!3m6!1s0x390edd8608d33807:0x5f3ed2fefdd000b1!8m2!3d30.1668195!4d77.6102918!16s%2Fg%2F11t3gbn9_t!19sChIJBzjTCIbdDjkRsQDQ_f7SPl8?authuser=0&hl=en&rclk=1",
        "coordinates": {
            "latitude": 30.1668195,
            "longitude": 77.6102918
        }
    },
    {
        "name": "Mazar Sayed Maqbool Ali Rizvi Husain Malakpur Behat Saharanpur",
        "main_category": "Mosque",
        "address": "5JWQ+6WF Mazar Sayed Maqbool Ali Rizvi Husain Malakpur Behat Saharanpur, Unnamed Road, Behat, Uttar Pradesh 247121",
        "detailed_address": {
            "ward": null,
            "street": "5JWQ+6WF, Unnamed Road",
            "city": "Behat",
            "postal_code": "247121",
            "state": "Uttar Pradesh",
            "country_code": "IN"
        },
        "images": [],
        "link": "https://www.google.com/maps/place/Mazar+Sayed+Maqbool+Ali+Rizvi+Husain+Malakpur+Behat+Saharanpur/data=!4m7!3m6!1s0x390edd6f48c23035:0x21622153df727610!8m2!3d30.1955604!4d77.6397978!16s%2Fg%2F11fwdp6rqt!19sChIJNTDCSG_dDjkREHZy31MhYiE?authuser=0&hl=en&rclk=1",
        "coordinates": {
            "latitude": 30.195560399999998,
            "longitude": 77.6397978
        }
    },
    {
        "name": "Behat",
        "main_category": "Store",
        "address": "Behat, Shahi jama masjid, Behat, Uttar Pradesh 247121",
        "detailed_address": {
            "ward": null,
            "street": "Shahi jama masjid",
            "city": "Behat",
            "postal_code": null,
            "state": "Uttar Pradesh",
            "country_code": "IN"
        },
        "images": [],
        "link": "https://www.google.com/maps/place/Behat/data=!4m7!3m6!1s0x390eddb68d15ac7b:0x58e9f28b918b16f1!8m2!3d30.1713186!4d77.6130711!16s%2Fg%2F11t7j_1kck!19sChIJe6wVjbbdDjkR8RaLkYvy6Vg?authuser=0&hl=en&rclk=1",
        "coordinates": {
            "latitude": 30.1713186,
            "longitude": 77.6130711
        }
    },
    {
        "name": "1 minar masjid behat",
        "main_category": "Home Stay",
        "address": "5JG8+RHJ 1 minar masjid behat, Behat Dehat, Uttar Pradesh 247121",
        "detailed_address": {
            "ward": null,
            "street": "5JG8+RHJ",
            "city": "Behat Dehat",
            "postal_code": "247121",
            "state": "Uttar Pradesh",
            "country_code": "IN"
        },
        "images": [
            {
                "about": "All",
                "link": "https://streetviewpixels-pa.googleapis.com/v1/thumbnail?panoid=k8Oe-toisjNKGdPwtEYB7w&cb_client=maps_sv.tactile.gps&w=224&h=298&yaw=257.20178&pitch=0&thumbfov=100"
            },
            {
                "about": "Street View & 360deg",
                "link": "https://streetviewpixels-pa.googleapis.com/v1/thumbnail?panoid=k8Oe-toisjNKGdPwtEYB7w&cb_client=maps_sv.tactile.gps&w=224&h=298&yaw=257.20178&pitch=0&thumbfov=100"
            }
        ],
        "link": "https://www.google.com/maps/place/1+minar+masjid+behat/data=!4m7!3m6!1s0x390edd2a9bbc07d1:0x1c4b8ce97b6fbe4a!8m2!3d30.1770902!4d77.6163803!16s%2Fg%2F11s2h_50q9!19sChIJ0Qe8myrdDjkRSr5ve-mMSxw?authuser=0&hl=en&rclk=1",
        "coordinates": {
            "latitude": 30.1770902,
            "longitude": 77.6163803
        }
    }
]