[
    {
        "name": "Aizawl Mosque msjd",
        "main_category": "Mosque",
        "address": "PPJ8+GX4 Aizawl Mosque msjd, Bara Bazar, Dawrpui, Aizawl, Mizoram 796001",
        "detailed_address": {
            "ward": "Dawrpui",
            "street": "PPJ8+GX4, Bara Bazar",
            "city": "Aizawl",
            "postal_code": "796001",
            "state": "Mizoram",
            "country_code": "IN"
        },
        "images": [
            {
                "about": "All",
                "link": "https://lh5.googleusercontent.com/p/AF1QipO1Co7ON17eYHXh-un2bBzmV_y5PUWPzfhN7C7a=w224-h298-k-no"
            },
            {
                "about": "Dome",
                "link": "https://lh5.googleusercontent.com/p/AF1QipPY_z5QXS0ENB3IiUdyc2xdL0KzQ0ExAkE7Cdl5=w224-h298-k-no"
            }
        ],
        "link": "https://www.google.com/maps/place/Aizawl+Mosque+%D9%85%D8%B3%D8%AC%D8%AF%E2%80%AD/data=!4m7!3m6!1s0x374d94b63e2eafb1:0xf1a191dec34210b9!8m2!3d23.7312721!4d92.7174653!16s%2Fg%2F1264mlnl4!19sChIJsa8uPraUTTcRuRBCw96RofE?authuser=0&hl=en&rclk=1",
        "coordinates": {
            "latitude": 23.731272099999998,
            "longitude": 92.7174653
        }
    },
    {
        "name": "Pushpak Masjid msjd",
        "main_category": "Mosque",
        "address": "PPRR+HCJ Pushpak Masjid msjd, Aizawl, Mizoram 796017",
        "detailed_address": {
            "ward": null,
            "street": "PPRR+HCJ",
            "city": "Aizawl",
            "postal_code": "796017",
            "state": "Mizoram",
            "country_code": "IN"
        },
        "images": [
            {
                "about": "All",
                "link": "https://lh5.googleusercontent.com/p/AF1QipOLwWB9MWbPy5yPI9COKzoSS1zt_XqVo2McMzxi=w224-h298-k-no"
            }
        ],
        "link": "https://www.google.com/maps/place/Pushpak+Masjid+%D9%85%D8%B3%D8%AC%D8%AF%E2%80%AD/data=!4m7!3m6!1s0x374dead4fb482c21:0x86bb50de94e0dced!8m2!3d23.7414636!4d92.7410244!16s%2Fg%2F11c4bq3m10!19sChIJISxI-9TqTTcR7dzglN5Qu4Y?authuser=0&hl=en&rclk=1",
        "coordinates": {
            "latitude": 23.7414636,
            "longitude": 92.7410244
        }
    },
    {
        "name": "Bada Masjid",
        "main_category": "Shopping mall",
        "address": "PPXF+Q7G Bada Masjid, Chaltlang, Aizawl, Mizoram 796012",
        "detailed_address": {
            "ward": "Chaltlang",
            "street": "PPXF+Q7G",
            "city": "Aizawl",
            "postal_code": "796012",
            "state": "Mizoram",
            "country_code": "IN"
        },
        "images": [],
        "link": "https://www.google.com/maps/place/Bada+Masjid/data=!4m7!3m6!1s0x374debeedb61c5ab:0x92abaec02f86865e!8m2!3d23.7494255!4d92.7232149!16s%2Fg%2F11j0b48204!19sChIJq8Vh2-7rTTcRXoaGL8Cuq5I?authuser=0&hl=en&rclk=1",
        "coordinates": {
            "latitude": 23.749425499999997,
            "longitude": 92.7232149
        }
    }
]