[
    {
        "name": "Masjid-E-Hydari",
        "main_category": "Mosque",
        "address": "Masjid-E-Hydari, Masjid-E-Hydari center, Tadigadapa Donka Rd, Yanamalakuduru, Ramalingeswara Nagar, Vijayawada, Andhra Pradesh 520007",
        "detailed_address": {
            "ward": "Yanamalakuduru, Ramalingeswara Nagar",
            "street": "Masjid-E-Hydari center, Tadigadapa Donka Rd",
            "city": "Vijayawada",
            "postal_code": "520007",
            "state": "Andhra Pradesh",
            "country_code": "IN"
        },
        "images": [
            {
                "about": "All",
                "link": "https://lh5.googleusercontent.com/p/AF1QipOxj-Awv9Gs0XM5abTIO_whPKFUR_pgDy3DhIej=w397-h298-k-no"
            },
            {
                "about": "Street View & 360deg",
                "link": "https://streetviewpixels-pa.googleapis.com/v1/thumbnail?panoid=yZcE0t15-zdMpDRIsaXr0Q&cb_client=maps_sv.tactile.gps&w=224&h=298&yaw=59.956036&pitch=0&thumbfov=100"
            },
            {
                "about": "Videos",
                "link": "https://lh5.googleusercontent.com/p/AF1QipMvA61f-cucF6XMYaUmK7cdVHYD_E8gGCFIua8i=w529-h298-k-no"
            }
        ],
        "link": "https://www.google.com/maps/place/Masjid-E-Hydari/data=!4m7!3m6!1s0x3a35fafb2ca1f67d:0x7ca03110ff511f75!8m2!3d16.4795673!4d80.6730636!16s%2Fg%2F11dx9c16y0!19sChIJffahLPv6NToRdR9R_xAxoHw?authuser=0&hl=en&rclk=1",
        "coordinates": {
            "latitude": 16.4795673,
            "longitude": 80.67306359999999
        }
    },
    {
        "name": "Masjid",
        "main_category": "Mosque",
        "address": "Masjid, 42C, Central Auto Market, Block B, Sector 16, Noida, Uttar Pradesh 201301",
        "detailed_address": {
            "ward": "Central Auto Market, Block B, Sector 16",
            "street": "42C",
            "city": "Noida",
            "postal_code": "201301",
            "state": "Uttar Pradesh",
            "country_code": "IN"
        },
        "images": [
            {
                "about": "All",
                "link": "https://streetviewpixels-pa.googleapis.com/v1/thumbnail?panoid=3ejTnsVxRgkej8NHgi-E8A&cb_client=maps_sv.tactile.gps&w=224&h=298&yaw=343.3393&pitch=0&thumbfov=100"
            },
            {
                "about": "Street View & 360deg",
                "link": "https://streetviewpixels-pa.googleapis.com/v1/thumbnail?panoid=3ejTnsVxRgkej8NHgi-E8A&cb_client=maps_sv.tactile.gps&w=224&h=298&yaw=343.3393&pitch=0&thumbfov=100"
            }
        ],
        "link": "https://www.google.com/maps/place/Masjid/data=!4m7!3m6!1s0x390ce45b6e8b8d05:0x1c6debc04866e60!8m2!3d28.577362!4d77.31624!16s%2Fg%2F11c6rj0f0y!19sChIJBY2LblvkDDkRYG6GBLzexgE?authuser=0&hl=en&rclk=1",
        "coordinates": {
            "latitude": 28.577361999999997,
            "longitude": 77.31624
        }
    },
    {
        "name": "Munwara Masjid",
        "main_category": "Mosque",
        "address": "Munwara Masjid, E-130, Gali No.6, Third Pusta Main Rd, Jagjeet Nagar, Delhi, 110053",
        "detailed_address": {
            "ward": "Third Pushta, Nayagaon, Jagjeet Nagar, Shahdara",
            "street": "E-130, Gali No.6, Third Pusta Main Rd",
            "city": "Delhi",
            "postal_code": "110053",
            "state": "Delhi",
            "country_code": "IN"
        },
        "images": [],
        "link": "https://www.google.com/maps/place/Munwara+Masjid/data=!4m7!3m6!1s0x390cfc44ec3cee7b:0x6817d8194e44c0a7!8m2!3d28.6861966!4d77.2559837!16s%2Fg%2F12hq6qdwg!19sChIJe-487ET8DDkRp8BEThnYF2g?authuser=0&hl=en&rclk=1",
        "coordinates": {
            "latitude": 28.6861966,
            "longitude": 77.2559837
        }
    }
]