[
    {
        "name": "Masjid",
        "main_category": "Mosque",
        "address": "Masjid, WCL Eco Park, makardhokda, SH250, Saoner, Bajaj Colony, Maharashtra 441107",
        "detailed_address": {
            "ward": null,
            "street": "WCL Eco Park, makardhokda, SH250",
            "city": "Saoner, Bajaj Colony",
            "postal_code": "441107",
            "state": "Maharashtra",
            "country_code": "IN"
        },
        "images": [
            {
                "about": "All",
                "link": "https://lh5.googleusercontent.com/p/AF1QipMbkflgTIdXeq8CmZ5pvQsi1gQrGsopd7hJKmYS=w224-h298-k-no"
            }
        ],
        "link": "https://www.google.com/maps/place/Masjid/data=!4m7!3m6!1s0x3bd4e69ea8295925:0xe023ae58aea8886!8m2!3d21.3644255!4d78.9339202!16s%2Fg%2F11g6bvgh3r!19sChIJJVkpqJ7m1DsRhojqiuU6Ag4?authuser=0&hl=en&rclk=1",
        "coordinates": {
            "latitude": 21.3644255,
            "longitude": 78.9339202
        }
    },
    {
        "name": "Shahi Masjid",
        "main_category": "Mosque",
        "address": "9WP6+VRQ Shahi Masjid, Saoner, Maharashtra 441107",
        "detailed_address": {
            "ward": null,
            "street": "9WP6+VRQ",
            "city": "Saoner",
            "postal_code": "441107",
            "state": "Maharashtra",
            "country_code": "IN"
        },
        "images": [
            {
                "about": "All",
                "link": "https://lh5.googleusercontent.com/p/AF1QipNRC6PPT3mmZExRhFZ_So-hz7mUx6UO9wWlrBZf=w224-h398-k-no"
            },
            {
                "about": "Street View & 360deg",
                "link": "https://streetviewpixels-pa.googleapis.com/v1/thumbnail?panoid=L7Xh6BCLt0LrauusJrTgug&cb_client=maps_sv.tactile.gps&w=224&h=298&yaw=194.9993&pitch=0&thumbfov=100"
            },
            {
                "about": "Videos",
                "link": "https://lh5.googleusercontent.com/p/AF1QipNRC6PPT3mmZExRhFZ_So-hz7mUx6UO9wWlrBZf=w224-h398-k-no"
            }
        ],
        "link": "https://www.google.com/maps/place/Shahi+Masjid/data=!4m7!3m6!1s0x3bd4e40959c014d3:0x9535a996aee6adc2!8m2!3d21.3872052!4d78.9121104!16s%2Fg%2F11c748p_w6!19sChIJ0xTAWQnk1DsRwq3mrpapNZU?authuser=0&hl=en&rclk=1",
        "coordinates": {
            "latitude": 21.3872052,
            "longitude": 78.9121104
        }
    },
    {
        "name": "Jama Masjid (Sunni)",
        "main_category": "Mosque",
        "address": "9WM7+PJ3 Jama Masjid (Sunni), Saoner, Maharashtra 441107",
        "detailed_address": {
            "ward": null,
            "street": "9WM7+PJ3",
            "city": "Saoner",
            "postal_code": "441107",
            "state": "Maharashtra",
            "country_code": "IN"
        },
        "images": [
            {
                "about": "All",
                "link": "https://lh5.googleusercontent.com/p/AF1QipMDevR7DbyqvITFvQlgSBXIxAuEWdev8STojaIJ=w662-h298-k-no"
            },
            {
                "about": "Dome",
                "link": "https://lh5.googleusercontent.com/p/AF1QipMgdO6XjVNMGK2NUdnd-tDrc2rdI10FBJDuWpmz=w666-h298-k-no"
            },
            {
                "about": "Videos",
                "link": "https://lh5.googleusercontent.com/p/AF1QipOcgFYjnW786jFunnjHUYnnhUDlfqQVHAfdQNY2=w224-h398-k-no"
            }
        ],
        "link": "https://www.google.com/maps/place/Jama+Masjid+%28Sunni%29/data=!4m7!3m6!1s0x3bd4e40efab0d9ef:0xc40ec8af11aa3fb1!8m2!3d21.3842703!4d78.9140359!16s%2Fg%2F11c1txtq0c!19sChIJ79mw-g7k1DsRsT-qEa_IDsQ?authuser=0&hl=en&rclk=1",
        "coordinates": {
            "latitude": 21.3842703,
            "longitude": 78.9140359
        }
    },
    {
        "name": "Raza Masjid",
        "main_category": "Place of worship",
        "address": "9WQ4+59 Raza Masjid, Saoner, Maharashtra 441107",
        "detailed_address": {
            "ward": null,
            "street": "9WQ4+59",
            "city": "Saoner",
            "postal_code": null,
            "state": "Maharashtra",
            "country_code": "IN"
        },
        "images": [],
        "link": "https://www.google.com/maps/place/Raza+Masjid/data=!4m7!3m6!1s0x3bd4e5c10ca58ab3:0x8b5d475f7880c61b!8m2!3d21.3882861!4d78.9056849!16s%2Fg%2F11jzc0w86x!19sChIJs4qlDMHl1DsRG8aAeF9HXYs?authuser=0&hl=en&rclk=1",
        "coordinates": {
            "latitude": 21.3882861,
            "longitude": 78.9056849
        }
    }
]