[
    {
        "name": "LAL MASJID",
        "main_category": "Mosque",
        "address": "WVM7+6M8 LAL MASJID, Tijara, Rajasthan 301411",
        "detailed_address": {
            "ward": null,
            "street": "WVM7+6M8",
            "city": "Tijara",
            "postal_code": null,
            "state": "Rajasthan",
            "country_code": "IN"
        },
        "images": [
            {
                "about": "All",
                "link": "https://lh5.googleusercontent.com/p/AF1QipPgIKymBHkgpNzl0k4FRe41y1aXfMZ7WwqWaqqr=w447-h298-k-no"
            },
            {
                "about": "Latest",
                "link": "https://lh5.googleusercontent.com/p/AF1QipPu26gHZk9bYNt58aOfzi5MOaxjCCsZ2WSehKep=w224-h398-k-no"
            },
            {
                "about": "Videos",
                "link": "https://lh5.googleusercontent.com/p/AF1QipP_iv04Ox_VGNK_s5JK8_SVGgIG4n_cbFq0kjSW=w224-h398-k-no"
            },
            {
                "about": "Dome",
                "link": "https://lh5.googleusercontent.com/p/AF1QipNDRLsxLxKl3Mi_M3i-gpQqPfH-TTn_6bvUv_fE=w529-h298-k-no"
            }
        ],
        "link": "https://www.google.com/maps/place/LAL+MASJID/data=!4m7!3m6!1s0x3972c99b1766f525:0x4d85ae0c5121ad52!8m2!3d27.9330375!4d76.8642018!16s%2Fg%2F11ggq_0rkc!19sChIJJfVmF5vJcjkRUq0hUQyuhU0?authuser=0&hl=en&rclk=1",
        "coordinates": {
            "latitude": 27.933037499999998,
            "longitude": 76.8642018
        }
    },
    {
        "name": "Masjid,Anaj Mandi Tijara",
        "main_category": "Mosque",
        "address": "Masjid,Anaj Mandi Tijara, Firojpur Road, near Anaj Mandi, Shri Ram Colony, Tijara, Rajasthan 301411",
        "detailed_address": {
            "ward": "Shri Ram Colony",
            "street": "Firojpur Road, near Anaj Mandi",
            "city": "Tijara",
            "postal_code": "301411",
            "state": "Rajasthan",
            "country_code": "IN"
        },
        "images": [
            {
                "about": "All",
                "link": "https://lh5.googleusercontent.com/p/AF1QipPjjTAX_9Ivqykzzve1SRX5ffSIoc-2L864MZeT=w224-h298-k-no"
            },
            {
                "about": "Street View & 360deg",
                "link": "https://streetviewpixels-pa.googleapis.com/v1/thumbnail?panoid=NiRPARHXVj4GNge1jrAc3w&cb_client=maps_sv.tactile.gps&w=224&h=298&yaw=184.02603&pitch=0&thumbfov=100"
            },
            {
                "about": "Videos",
                "link": "https://lh5.googleusercontent.com/p/AF1QipPCtv4eLfJmm3CrbwMiKygJit73WXVxH2fELSFX=w224-h398-k-no"
            }
        ],
        "link": "https://www.google.com/maps/place/Masjid,Anaj+Mandi+Tijara/data=!4m7!3m6!1s0x3972c9cbd8d482e3:0xf9c0f1bcd3f8fd83!8m2!3d27.9279442!4d76.8593161!16s%2Fg%2F11grv3zk1w!19sChIJ44LU2MvJcjkRg_3407zxwPk?authuser=0&hl=en&rclk=1",
        "coordinates": {
            "latitude": 27.9279442,
            "longitude": 76.8593161
        }
    },
    {
        "name": "Market Wali Masjid",
        "main_category": "Mosque",
        "address": "WVM4+GQ2 Market Wali Masjid, Mahaver Wadi Mohalla, Shastri Nagar, Tijara, Rajasthan 301411",
        "detailed_address": {
            "ward": "Mahaver Wadi Mohalla, Shastri Nagar",
            "street": "WVM4+GQ2",
            "city": "Tijara",
            "postal_code": "301411",
            "state": "Rajasthan",
            "country_code": "IN"
        },
        "images": [
            {
                "about": "All",
                "link": "https://lh5.googleusercontent.com/p/AF1QipNAtqqW7fP5G6g6NmslAs4U4XD7Ia0IINrcEIir=w596-h298-k-no"
            }
        ],
        "link": "https://www.google.com/maps/place/Market+Wali+Masjid/data=!4m7!3m6!1s0x3972c992ddf01889:0xd9bec2c578019b38!8m2!3d27.9337658!4d76.8569009!16s%2Fg%2F11c534vs01!19sChIJiRjw3ZLJcjkROJsBeMXCvtk?authuser=0&hl=en&rclk=1",
        "coordinates": {
            "latitude": 27.9337658,
            "longitude": 76.8569009
        }
    },
    {
        "name": "Eid Gah, Tijara",
        "main_category": "Mosque",
        "address": "WRFW+X8P Eid Gah, Tijara, Shastri Nagar, Tijara, Rajasthan 301411",
        "detailed_address": {
            "ward": "Shastri Nagar",
            "street": "WRFW+X8P",
            "city": "Tijara",
            "postal_code": "301411",
            "state": "Rajasthan",
            "country_code": "IN"
        },
        "images": [
            {
                "about": "All",
                "link": "https://lh5.googleusercontent.com/p/AF1QipPwrdLUjQgyLt6N6gKDTFgLcvxlfeR6M1SeMCXs=w397-h298-k-no"
            },
            {
                "about": "Videos",
                "link": "https://lh5.googleusercontent.com/p/AF1QipOwHC3rUP-r6XYa4XiA-FZ5kYSbtgJClmzbECCE=w529-h298-k-no"
            }
        ],
        "link": "https://www.google.com/maps/place/Eid+Gah,+Tijara/data=!4m7!3m6!1s0x3972c9eba8c7ff27:0xe28435a103995a90!8m2!3d27.9249544!4d76.8458354!16s%2Fg%2F11c5bhcf_j!19sChIJJ__HqOvJcjkRkFqZA6E1hOI?authuser=0&hl=en&rclk=1",
        "coordinates": {
            "latitude": 27.924954399999997,
            "longitude": 76.8458354
        }
    },
    {
        "name": "sahi bag wali masjid tijara",
        "main_category": "Mosque",
        "address": "WRFX+JH sahi bag wali masjid tijara, Tijara, Rajasthan 301411",
        "detailed_address": {
            "ward": null,
            "street": "WRFX+JH",
            "city": "Tijara",
            "postal_code": null,
            "state": "Rajasthan",
            "country_code": "IN"
        },
        "images": [
            {
                "about": "All",
                "link": "https://lh5.googleusercontent.com/p/AF1QipNTlbuRBlTebdS5EVAZKqNLecbcYhKFyy9nyWAB=w397-h298-k-no"
            },
            {
                "about": "Dome",
                "link": "https://lh5.googleusercontent.com/p/AF1QipPfD5WtEIDnohvQtPCje8aIBFI1SE-N4C3ydX1w=w530-h298-k-no"
            }
        ],
        "link": "https://www.google.com/maps/place/sahi+bag+wali+masjid+tijara/data=!4m7!3m6!1s0x3972c94380f30599:0xe22d8d72256fbedf!8m2!3d27.9233762!4d76.8503534!16s%2Fg%2F11sdn1qlgs!19sChIJmQXzgEPJcjkR375vJXKNLeI?authuser=0&hl=en&rclk=1",
        "coordinates": {
            "latitude": 27.9233762,
            "longitude": 76.8503534
        }
    },
    {
        "name": "Masjid ,Behra Majra",
        "main_category": "Mosque",
        "address": "XR68+JHM Masjid ,Behra Majra, Majra Peepli, Tijara, Rajasthan 301411",
        "detailed_address": {
            "ward": null,
            "street": "XR68+JHM, Majra Peepli",
            "city": "Tijara",
            "postal_code": "301411",
            "state": "Rajasthan",
            "country_code": "IN"
        },
        "images": [
            {
                "about": "All",
                "link": "https://lh5.googleusercontent.com/p/AF1QipPGUjDWbiPAWxq07eVsNs0lo_i8VX2FXOi4wj7L=w224-h298-k-no"
            }
        ],
        "link": "https://www.google.com/maps/place/Masjid+,Behra+Majra/data=!4m7!3m6!1s0x3972b5bd2a0b3aeb:0x6ea530584b298f2d!8m2!3d27.9615805!4d76.8164136!16s%2Fg%2F11ff1xqymm!19sChIJ6zoLKr21cjkRLY8pS1gwpW4?authuser=0&hl=en&rclk=1",
        "coordinates": {
            "latitude": 27.9615805,
            "longitude": 76.81641359999999
        }
    },
    {
        "name": "Tehseel Wali Masjid",
        "main_category": "Mosque",
        "address": "WVJ3+X66 Tehseel Wali Masjid, Shri Ram Colony, Tijara, Rajasthan 301411",
        "detailed_address": {
            "ward": "Shri Ram Colony",
            "street": "WVJ3+X66",
            "city": "Tijara",
            "postal_code": "301411",
            "state": "Rajasthan",
            "country_code": "IN"
        },
        "images": [
            {
                "about": "All",
                "link": "https://lh5.googleusercontent.com/p/AF1QipMs0IzRcrUG6_6D1pBrrHe7P7qcy4gq7m4f54Wh=w224-h298-k-no"
            }
        ],
        "link": "https://www.google.com/maps/place/Tehseel+Wali+Masjid/data=!4m7!3m6!1s0x3972c90b7471efa7:0x85beb68a4b711005!8m2!3d27.9324181!4d76.8530114!16s%2Fg%2F11gv19rsfz!19sChIJp-9xdAvJcjkRBRBxS4q2voU?authuser=0&hl=en&rclk=1",
        "coordinates": {
            "latitude": 27.9324181,
            "longitude": 76.8530114
        }
    },
    {
        "name": "Masjid Hidayat-us-Salafiya",
        "main_category": "Mosque",
        "address": "Masjid Hidayat-us-Salafiya, Nagar Palika ward number 19 Gora wali, Palika, Ward Number 19, Tijara, Rajasthan 301411",
        "detailed_address": {
            "ward": "Ward Number 19, Ghivarvaid Mohalla",
            "street": "Nagar Palika ward number 19 Gora wali, Palika",
            "city": "Tijara",
            "postal_code": "301411",
            "state": "Rajasthan",
            "country_code": "IN"
        },
        "images": [],
        "link": "https://www.google.com/maps/place/Masjid+Hidayat-us-Salafiya/data=!4m7!3m6!1s0x3972c993b7bf78bb:0x7709459490cd1362!8m2!3d27.9318879!4d76.859393!16s%2Fg%2F11l6scpn8m!19sChIJu3i_t5PJcjkRYhPNkJRFCXc?authuser=0&hl=en&rclk=1",
        "coordinates": {
            "latitude": 27.9318879,
            "longitude": 76.859393
        }
    },
    {
        "name": "Jama masjid",
        "main_category": "Mosque",
        "address": "XRVR+FHR Jama masjid, Alwar - Bhiwadi Rd, Tijara, Shekhpur Aheer, Rajasthan 301411",
        "detailed_address": {
            "ward": null,
            "street": "XRVR+FHR, Alwar - Bhiwadi Rd",
            "city": "Tijara, Shekhpur Aheer",
            "postal_code": "301411",
            "state": "Rajasthan",
            "country_code": "IN"
        },
        "images": [
            {
                "about": "All",
                "link": "https://lh5.googleusercontent.com/p/AF1QipPM8hOkCIrpd0G2oHN14X7G5K5qcbO6ZfDMr-Tt=w224-h398-k-no"
            },
            {
                "about": "Dome",
                "link": "https://lh5.googleusercontent.com/p/AF1QipPKR0fFxtIu7Fr2XDt82tkTjOiLVJVYfJ6rYxxz=w224-h398-k-no"
            }
        ],
        "link": "https://www.google.com/maps/place/Jama+masjid/data=!4m7!3m6!1s0x3972cb6bc8e879ef:0xbfbfe1634874c0e6!8m2!3d27.9937442!4d76.8413954!16s%2Fg%2F11sth9yhfr!19sChIJ73noyGvLcjkR5sB0SGPhv78?authuser=0&hl=en&rclk=1",
        "coordinates": {
            "latitude": 27.9937442,
            "longitude": 76.8413954
        }
    },
    {
        "name": "Bag Wali Masjid Tijara",
        "main_category": "Mosque",
        "address": "WVM3+F69 Bag Wali Masjid Tijara, Shri Ram Colony, Tijara, Rajasthan 301411",
        "detailed_address": {
            "ward": "Shri Ram Colony",
            "street": "WVM3+F69",
            "city": "Tijara",
            "postal_code": null,
            "state": "Rajasthan",
            "country_code": "IN"
        },
        "images": [],
        "link": "https://www.google.com/maps/place/Bag+Wali+Masjid+Tijara/data=!4m7!3m6!1s0x3972c9b6886e8ec1:0x1d6aa2422863aac!8m2!3d27.9336601!4d76.8531169!16s%2Fg%2F11sdnk67cq!19sChIJwY5uiLbJcjkRrDqGIiSq1gE?authuser=0&hl=en&rclk=1",
        "coordinates": {
            "latitude": 27.933660099999997,
            "longitude": 76.8531169
        }
    },
    {
        "name": "Masjid, Kachcharka ,Tijara",
        "main_category": "Mosque",
        "address": "WVM4+GC7 Masjid, Kachcharka ,Tijara, Mahaver Wadi Mohalla, Khuntala Mohalla, Tijara, Rajasthan 301411",
        "detailed_address": {
            "ward": "Mahaver Wadi Mohalla, Khuntala Mohalla",
            "street": "WVM4+GC7",
            "city": "Tijara",
            "postal_code": "301411",
            "state": "Rajasthan",
            "country_code": "IN"
        },
        "images": [
            {
                "about": "All",
                "link": "https://lh5.googleusercontent.com/p/AF1QipNnV5zgTRH6nBHoW7G4jjWEvW73mwxF46ztoug7=w397-h298-k-no"
            }
        ],
        "link": "https://www.google.com/maps/place/Masjid,+Kachcharka+,Tijara/data=!4m7!3m6!1s0x3972c9877faa0963:0xd6bf6db518a8724d!8m2!3d27.9337958!4d76.8560332!16s%2Fg%2F11gw2r4rgq!19sChIJYwmqf4fJcjkRTXKoGLVtv9Y?authuser=0&hl=en&rclk=1",
        "coordinates": {
            "latitude": 27.9337958,
            "longitude": 76.8560332
        }
    },
    {
        "name": "Masjid, Luhar Wali",
        "main_category": "Mosque",
        "address": "WVM3+QWF Masjid, Luhar Wali, Near sabji Mandi, Khuntala Mohalla, Tijara, Rajasthan 301411",
        "detailed_address": {
            "ward": "Khuntala Mohalla",
            "street": "WVM3+QWF, Near sabji Mandi",
            "city": "Tijara",
            "postal_code": "301411",
            "state": "Rajasthan",
            "country_code": "IN"
        },
        "images": [
            {
                "about": "All",
                "link": "https://lh5.googleusercontent.com/p/AF1QipMNkZ8MyEX8hJrV7y7UP-r66oGbMxtGIW907R2M=w397-h298-k-no"
            },
            {
                "about": "Dome",
                "link": "https://lh5.googleusercontent.com/p/AF1QipP3Z7GDAybh17ijUZcZO1WeOOYMVhYxIxNEvtuz=w397-h298-k-no"
            }
        ],
        "link": "https://www.google.com/maps/place/Masjid,+Luhar+Wali/data=!4m7!3m6!1s0x3972c952be87f97b:0xea893fb6c8b76928!8m2!3d27.9344403!4d76.8547921!16s%2Fg%2F11gw2r2rcf!19sChIJe_mHvlLJcjkRKGm3yLY_ieo?authuser=0&hl=en&rclk=1",
        "coordinates": {
            "latitude": 27.9344403,
            "longitude": 76.8547921
        }
    },
    {
        "name": "Noorani Masjid Hamiraka",
        "main_category": "Mosque",
        "address": "WVM3+F69 Noorani Masjid Hamiraka, Hameeraka, Tijara, Rajasthan 301411",
        "detailed_address": {
            "ward": "Hameeraka",
            "street": "WVM3+F69",
            "city": "Tijara",
            "postal_code": null,
            "state": "Rajasthan",
            "country_code": "IN"
        },
        "images": [
            {
                "about": "All",
                "link": "https://lh5.googleusercontent.com/p/AF1QipOTVMdrzqhDad_pvvGWPHzMrtd5g-iG15Q5tu7q=w224-h473-k-no"
            }
        ],
        "link": "https://www.google.com/maps/place/Noorani+Masjid+Hamiraka/data=!4m7!3m6!1s0x3972c991fe9e2263:0xc340478a279767a8!8m2!3d27.9336601!4d76.8531169!16s%2Fg%2F11h42kvgrj!19sChIJYyKe_pHJcjkRqGeXJ4pHQMM?authuser=0&hl=en&rclk=1",
        "coordinates": {
            "latitude": 27.933660099999997,
            "longitude": 76.8531169
        }
    },
    {
        "name": "Dr.Vazid Khan (Nura wali Masjid)",
        "main_category": "Mosque",
        "address": "Dr.Vazid Khan (Nura wali Masjid), Alapur mev, Tijara, Alapur Meo, Rajasthan 301411",
        "detailed_address": {
            "ward": null,
            "street": "Alapur mev",
            "city": "Tijara, Alapur Meo",
            "postal_code": null,
            "state": "Rajasthan",
            "country_code": "IN"
        },
        "images": [],
        "link": "https://www.google.com/maps/place/Dr.Vazid+Khan+%28Nura+wali+Masjid%29/data=!4m7!3m6!1s0x3972cbcf364df055:0xbab78691b9acf8df!8m2!3d27.9558553!4d76.8841637!16s%2Fg%2F11s47n5cw9!19sChIJVfBNNs_LcjkR3_isuZGGt7o?authuser=0&hl=en&rclk=1",
        "coordinates": {
            "latitude": 27.9558553,
            "longitude": 76.8841637
        }
    },
    {
        "name": "Mufeed Khan",
        "main_category": "Mosque",
        "address": "Mufeed Khan, Masjid, Ghivarvaid Mohalla, Jojaka, Tijara, Rajasthan 301411",
        "detailed_address": {
            "ward": "Ghivarvaid Mohalla",
            "street": "Masjid",
            "city": "Jojaka, Tijara",
            "postal_code": null,
            "state": "Rajasthan",
            "country_code": "IN"
        },
        "images": [
            {
                "about": "All",
                "link": "https://streetviewpixels-pa.googleapis.com/v1/thumbnail?panoid=R7kfQ9lkvb34igz7z74YWQ&cb_client=maps_sv.tactile.gps&w=224&h=298&yaw=234.12495&pitch=0&thumbfov=100"
            },
            {
                "about": "Street View & 360deg",
                "link": "https://streetviewpixels-pa.googleapis.com/v1/thumbnail?panoid=R7kfQ9lkvb34igz7z74YWQ&cb_client=maps_sv.tactile.gps&w=224&h=298&yaw=234.12495&pitch=0&thumbfov=100"
            }
        ],
        "link": "https://www.google.com/maps/place/Mufeed+Khan/data=!4m7!3m6!1s0x3972c90041e2446b:0x479942ce36fea7fe!8m2!3d27.9346406!4d76.8601283!16s%2Fg%2F11pf88mry9!19sChIJa0TiQQDJcjkR_qf-Ns5CmUc?authuser=0&hl=en&rclk=1",
        "coordinates": {
            "latitude": 27.934640599999998,
            "longitude": 76.8601283
        }
    }
]