[
    {
        "name": "Sultaniya zama masjid (chhoti masjid)",
        "main_category": "Mosque",
        "address": "Sultaniya zama masjid (chhoti masjid), Chhoti masjid, Brahmapur, Masoom Ganj, Chapra, Revelganj, Bihar 841301",
        "detailed_address": {
            "ward": "Masoom Ganj",
            "street": "Chhoti masjid, Brahmapur",
            "city": "Chapra, Revelganj",
            "postal_code": "841301",
            "state": "Bihar",
            "country_code": "IN"
        },
        "images": [
            {
                "about": "All",
                "link": "https://lh5.googleusercontent.com/p/AF1QipMjfdHfy5pevGWCjz5n86SiR7fFJrg8kvgRbCSi=w224-h298-k-no"
            }
        ],
        "link": "https://www.google.com/maps/place/Sultaniya+zama+masjid+%28chhoti+masjid%29/data=!4m7!3m6!1s0x3992bb6621f93299:0xd60e8587d25dcedd!8m2!3d25.7839695!4d84.6998623!16s%2Fg%2F11c58tcwgb!19sChIJmTL5IWa7kjkR3c5d0oeFDtY?authuser=0&hl=en&rclk=1",
        "coordinates": {
            "latitude": 25.783969499999998,
            "longitude": 84.69986229999999
        }
    },
    {
        "name": "Godna eid gah",
        "main_category": "Mosque",
        "address": "QJMX+589 Godna eid gah, Revelganj, Bihar 841305",
        "detailed_address": {
            "ward": null,
            "street": "QJMX+589",
            "city": "Revelganj",
            "postal_code": "841305",
            "state": "Bihar",
            "country_code": "IN"
        },
        "images": [
            {
                "about": "All",
                "link": "https://lh5.googleusercontent.com/p/AF1QipPGtLeKGGcJ6rbyIH56ZhQJmWrDDKiLNU1LCVZk=w397-h298-k-no"
            },
            {
                "about": "Street View & 360deg",
                "link": "https://streetviewpixels-pa.googleapis.com/v1/thumbnail?panoid=3ZZeU7lFvIeAMIpe1xs2Aw&cb_client=maps_sv.tactile.gps&w=224&h=298&yaw=240.05606&pitch=0&thumbfov=100"
            },
            {
                "about": "Videos",
                "link": "https://lh5.googleusercontent.com/p/AF1QipO_WV5_xGq2DlF90onml4zLoMCcltUtRzRKrnVc=w224-h398-k-no"
            }
        ],
        "link": "https://www.google.com/maps/place/Godna+eid+gah/data=!4m7!3m6!1s0x3992bce1fb3ada45:0x9ec8a0b40245599d!8m2!3d25.7829022!4d84.6483464!16s%2Fg%2F11f_928wtj!19sChIJRdo6--G8kjkRnVlFArSgyJ4?authuser=0&hl=en&rclk=1",
        "coordinates": {
            "latitude": 25.7829022,
            "longitude": 84.6483464
        }
    },
    {
        "name": "Gulsane madina masjid(chapra)",
        "main_category": "Mosque",
        "address": "QPJ7+4CP Gulsane madina masjid(chapra), Takkad morde, Chapra, Bihar 841301",
        "detailed_address": {
            "ward": "Takkad morde",
            "street": "QPJ7+4CP",
            "city": "Chapra",
            "postal_code": "841301",
            "state": "Bihar",
            "country_code": "IN"
        },
        "images": [
            {
                "about": "All",
                "link": "https://lh5.googleusercontent.com/p/AF1QipO3UEuIzQsOKrf500QxTq01KOj02FqsHS-J0AVd=w224-h298-k-no"
            },
            {
                "about": "Videos",
                "link": "https://lh5.googleusercontent.com/p/AF1QipPJIMK1vcHfQ5-lt3gV-1XrTr12Kba6mK5lbS3Q=w224-h398-k-no"
            }
        ],
        "link": "https://www.google.com/maps/place/Gulsane+madina+masjid%28chapra%29/data=!4m7!3m6!1s0x3992bb1586be72c7:0x6079cc1475c141fe!8m2!3d25.7803317!4d84.7135746!16s%2Fg%2F11g9qfwj5y!19sChIJx3K-hhW7kjkR_kHBdRTMeWA?authuser=0&hl=en&rclk=1",
        "coordinates": {
            "latitude": 25.780331699999998,
            "longitude": 84.7135746
        }
    },
    {
        "name": "Sheikhtoli Bari Masjid",
        "main_category": "Mosque",
        "address": "QPM6+QQ9 Sheikhtoli Bari Masjid, Salapat Ganj, Takkad morde, Chapra, Bihar 841301",
        "detailed_address": {
            "ward": "Salapat Ganj, Takkad morde",
            "street": "QPM6+QQ9",
            "city": "Chapra",
            "postal_code": "841301",
            "state": "Bihar",
            "country_code": "IN"
        },
        "images": [
            {
                "about": "All",
                "link": "https://lh5.googleusercontent.com/p/AF1QipOXVPo0hK8PSMIajTq6v9yq6kqvxy1GBgzXQ8u-=w397-h298-k-no"
            },
            {
                "about": "Videos",
                "link": "https://lh5.googleusercontent.com/p/AF1QipNK3G922Pt3qWXwr-lo-qKcceP_qbakd0h3Q_Gd=w224-h398-k-no"
            }
        ],
        "link": "https://www.google.com/maps/place/Sheikhtoli+Bari+Masjid/data=!4m7!3m6!1s0x3992bb14eaabd5d7:0xfbece0e3716b9163!8m2!3d25.7844068!4d84.7119746!16s%2Fg%2F11f_4s5p0h!19sChIJ19Wr6hS7kjkRY5FrcePg7Ps?authuser=0&hl=en&rclk=1",
        "coordinates": {
            "latitude": 25.7844068,
            "longitude": 84.71197459999999
        }
    },
    {
        "name": "Masjid Ahlesunnat",
        "main_category": "Mosque",
        "address": "QMRX+R7F Masjid Ahlesunnat, Chhapra - Gopalganj Rd, Chapra, Jalalpur, Bihar 841305",
        "detailed_address": {
            "ward": null,
            "street": "QMRX+R7F, Chhapra - Gopalganj Rd",
            "city": "Chapra, Jalalpur",
            "postal_code": "841305",
            "state": "Bihar",
            "country_code": "IN"
        },
        "images": [
            {
                "about": "All",
                "link": "https://lh5.googleusercontent.com/p/AF1QipNjDEEn49YTnF6eSdOeddWEpNUEvoEa217mZX9T=w397-h298-k-no"
            },
            {
                "about": "Street View & 360deg",
                "link": "https://streetviewpixels-pa.googleapis.com/v1/thumbnail?panoid=vJm-UJE6ZGy3qt_0X63FcA&cb_client=maps_sv.tactile.gps&w=224&h=298&yaw=58.13074&pitch=0&thumbfov=100"
            }
        ],
        "link": "https://www.google.com/maps/place/Masjid+Ahlesunnat/data=!4m7!3m6!1s0x3992bb602a2cf447:0xa7a324e332c7ada0!8m2!3d25.7920554!4d84.6981797!16s%2Fg%2F11grpqlm83!19sChIJR_QsKmC7kjkRoK3HMuMko6c?authuser=0&hl=en&rclk=1",
        "coordinates": {
            "latitude": 25.7920554,
            "longitude": 84.6981797
        }
    },
    {
        "name": "Madarsa Ashrafia & Jama Masjid",
        "main_category": "Mosque",
        "address": "RJ79+H72 Madarsa Ashrafia & Jama Masjid, Sirsia, Bihar 841305",
        "detailed_address": {
            "ward": null,
            "street": "RJ79+H72",
            "city": "Sirsia",
            "postal_code": "841305",
            "state": "Bihar",
            "country_code": "IN"
        },
        "images": [
            {
                "about": "All",
                "link": "https://lh5.googleusercontent.com/p/AF1QipPcHlJjgNBV4yC5Yql1WB7EUTZRTXMLwcxarV32=w528-h298-k-no"
            },
            {
                "about": "Videos",
                "link": "https://lh5.googleusercontent.com/p/AF1QipPUNomraELpcXC7JX5GMtAb6lWuoNzo9aUhh9oX=w224-h398-k-no"
            }
        ],
        "link": "https://www.google.com/maps/place/Madarsa+Ashrafia+%26+Jama+Masjid/data=!4m7!3m6!1s0x3992bd9044205b73:0xd85c14bdd6b39d7d!8m2!3d25.8138761!4d84.6181341!16s%2Fg%2F11g9h1fwy1!19sChIJc1sgRJC9kjkRfZ2z1r0UXNg?authuser=0&hl=en&rclk=1",
        "coordinates": {
            "latitude": 25.813876099999998,
            "longitude": 84.61813409999999
        }
    },
    {
        "name": "Maqbul Sahab ki Masjid",
        "main_category": "Mosque",
        "address": "QPGP+633 Maqbul Sahab ki Masjid, Dahiyawan, Inai-Bara Telpa Rd, Saran, Chapra, Bihar 841301",
        "detailed_address": {
            "ward": "Saran",
            "street": "QPGP+633, Dahiyawan, Inai-Bara Telpa Rd",
            "city": "Chapra, Mukrera",
            "postal_code": "841301",
            "state": "Bihar",
            "country_code": "IN"
        },
        "images": [
            {
                "about": "All",
                "link": "https://streetviewpixels-pa.googleapis.com/v1/thumbnail?panoid=RKwVBF2HStF2bAaO4pf32Q&cb_client=maps_sv.tactile.gps&w=224&h=298&yaw=10.708401&pitch=0&thumbfov=100"
            },
            {
                "about": "Street View & 360deg",
                "link": "https://streetviewpixels-pa.googleapis.com/v1/thumbnail?panoid=RKwVBF2HStF2bAaO4pf32Q&cb_client=maps_sv.tactile.gps&w=224&h=298&yaw=10.708401&pitch=0&thumbfov=100"
            },
            {
                "about": "Videos",
                "link": "https://lh5.googleusercontent.com/p/AF1QipMqQR16XePqF2gMHZL6TpqAu3_glHtP0JP0WbAt=w541-h298-k-no"
            }
        ],
        "link": "https://www.google.com/maps/place/Maqbul+Sahab+ki+Masjid/data=!4m7!3m6!1s0x3992badeb617e43f:0x23b0a2ed2071ffdb!8m2!3d25.7755159!4d84.7351764!16s%2Fg%2F1ptw401w_!19sChIJP-QXtt66kjkR2_9xIO2isCM?authuser=0&hl=en&rclk=1",
        "coordinates": {
            "latitude": 25.7755159,
            "longitude": 84.7351764
        }
    },
    {
        "name": "mubaarkpur msjid",
        "main_category": "Mosque",
        "address": "QMPG+4RR mubaarkpur msjid, Mobarakpur, Bihar 841305",
        "detailed_address": {
            "ward": null,
            "street": "QMPG+4RR",
            "city": "Mobarakpur",
            "postal_code": "841305",
            "state": "Bihar",
            "country_code": "IN"
        },
        "images": [
            {
                "about": "All",
                "link": "https://lh5.googleusercontent.com/p/AF1QipNzCuDu1BT8X2Nam4BQZENBDWKe5AxvI3okTUuP=w400-h298-k-no"
            },
            {
                "about": "Street View & 360deg",
                "link": "https://streetviewpixels-pa.googleapis.com/v1/thumbnail?panoid=KsuWcWSz2gayGdJq2Q9roA&cb_client=maps_sv.tactile.gps&w=224&h=298&yaw=313.72382&pitch=0&thumbfov=100"
            },
            {
                "about": "Videos",
                "link": "https://lh5.googleusercontent.com/p/AF1QipNa5DJ5lXmbSnwjy5bJnVlERGsjPQeo5R7jxkox=w224-h398-k-no"
            }
        ],
        "link": "https://www.google.com/maps/place/%E0%A4%AE%E0%A5%81%E0%A4%AC%E0%A4%BE%E0%A4%B0%E0%A4%95%E0%A4%AA%E0%A5%81%E0%A4%B0+%E0%A4%AE%E0%A4%B8%E0%A5%8D%E0%A4%9C%E0%A4%BF%E0%A4%A6/data=!4m7!3m6!1s0x3992bc90d098b21b:0x1ee4cad62604b762!8m2!3d25.7853505!4d84.6770226!16s%2Fg%2F11g9qdbf3q!19sChIJG7KY0JC8kjkRYrcEJtbK5B4?authuser=0&hl=en&rclk=1",
        "coordinates": {
            "latitude": 25.7853505,
            "longitude": 84.6770226
        }
    },
    {
        "name": "Bhar Masjid",
        "main_category": "Mosque",
        "address": "QPHG+V5J Bhar Masjid, katra Baradari, Chapra, Zail Shahar, Bihar 841301",
        "detailed_address": {
            "ward": "katra Baradari",
            "street": "QPHG+V5J",
            "city": "Chapra, Zail Shahar",
            "postal_code": "841301",
            "state": "Bihar",
            "country_code": "IN"
        },
        "images": [
            {
                "about": "All",
                "link": "https://lh5.googleusercontent.com/p/AF1QipNxvEPecH8tgrb4_OL2IxPP-LoUnGdFm-6pUwSX=w529-h298-k-no"
            },
            {
                "about": "Videos",
                "link": "https://lh5.googleusercontent.com/p/AF1QipNxvEPecH8tgrb4_OL2IxPP-LoUnGdFm-6pUwSX=w529-h298-k-no"
            }
        ],
        "link": "https://www.google.com/maps/place/Bhar+Masjid/data=!4m7!3m6!1s0x3992bb177231f9d7:0x9d6e005167a98b87!8m2!3d25.779716!4d84.7253926!16s%2Fg%2F11h6ptjj_m!19sChIJ1_kxche7kjkRh4upZ1EAbp0?authuser=0&hl=en&rclk=1",
        "coordinates": {
            "latitude": 25.779716,
            "longitude": 84.72539259999999
        }
    },
    {
        "name": "Ajayab Ganj Badi masjid",
        "main_category": "Mosque",
        "address": "QMJW+JRV Ajayab Ganj Badi masjid, Revelganj, Bihar 841301",
        "detailed_address": {
            "ward": null,
            "street": "QMJW+JRV",
            "city": "Revelganj",
            "postal_code": null,
            "state": "Bihar",
            "country_code": "IN"
        },
        "images": [
            {
                "about": "All",
                "link": "https://lh5.googleusercontent.com/p/AF1QipNBJF3ho2dmxfXyptxH1qlhXqP967iDLBWS5AOD=w224-h496-k-no"
            }
        ],
        "link": "https://www.google.com/maps/place/Ajayab+Ganj+Badi+masjid/data=!4m7!3m6!1s0x3992bb9bd130a963:0xf5ec37d2dc32224c!8m2!3d25.7816034!4d84.6970411!16s%2Fg%2F11h4cz11mb!19sChIJY6kw0Zu7kjkRTCIy3NI37PU?authuser=0&hl=en&rclk=1",
        "coordinates": {
            "latitude": 25.781603399999998,
            "longitude": 84.69704109999999
        }
    },
    {
        "name": "Shah Suppan Saheb Ki Masjid",
        "main_category": "Mosque",
        "address": "QPHH+4M9 Shah Suppan Saheb Ki Masjid, Nayi Bazar, Pratap Nagar, Chapra, Mukrera, Bihar 841301",
        "detailed_address": {
            "ward": "Pratap Nagar",
            "street": "QPHH+4M9, Nayi Bazar",
            "city": "Chapra, Mukrera",
            "postal_code": "841301",
            "state": "Bihar",
            "country_code": "IN"
        },
        "images": [
            {
                "about": "All",
                "link": "https://lh5.googleusercontent.com/p/AF1QipNvl1RjgGvl-4i-82PDpBKu3fOJJiarUUR5ZoTd=w258-h298-k-no"
            }
        ],
        "link": "https://www.google.com/maps/place/Shah+Suppan+Saheb+Ki+Masjid/data=!4m7!3m6!1s0x3992bbb337448bf7:0x467c62f4013aaaa9!8m2!3d25.7777954!4d84.7292484!16s%2Fg%2F11g0t6yr6s!19sChIJ94tEN7O7kjkRqao6AfRifEY?authuser=0&hl=en&rclk=1",
        "coordinates": {
            "latitude": 25.7777954,
            "longitude": 84.7292484
        }
    },
    {
        "name": "Bari Masjid",
        "main_category": "Mosque",
        "address": "QPGJ+X5M Bari Masjid, Saran, Chapra, Mukrera, Bihar 841301",
        "detailed_address": {
            "ward": "Saran",
            "street": "QPGJ+X5M",
            "city": "Chapra, Mukrera",
            "postal_code": "841301",
            "state": "Bihar",
            "country_code": "IN"
        },
        "images": [],
        "link": "https://www.google.com/maps/place/Bari+Masjid/data=!4m7!3m6!1s0x3992bb3088aa3a1f:0xfbc4a885bd19bae1!8m2!3d25.777463!4d84.7304295!16s%2Fg%2F11h8537w24!19sChIJHzqqiDC7kjkR4boZvYWoxPs?authuser=0&hl=en&rclk=1",
        "coordinates": {
            "latitude": 25.777462999999997,
            "longitude": 84.7304295
        }
    },
    {
        "name": "JAMA masjid",
        "main_category": "Mosque",
        "address": "RJ47+842 JAMA masjid, Bhadpa, Bihar 841305",
        "detailed_address": {
            "ward": null,
            "street": "RJ47+842",
            "city": "Bhadpa",
            "postal_code": "841305",
            "state": "Bihar",
            "country_code": "IN"
        },
        "images": [
            {
                "about": "All",
                "link": "https://lh5.googleusercontent.com/p/AF1QipN9_S3orCLAZK4S2xzT7KxQSem3Ny1o8gFY8AQl=w529-h298-k-no"
            },
            {
                "about": "Videos",
                "link": "https://lh5.googleusercontent.com/p/AF1QipOhl-B7vSr05YSDA3z1JuQgaKWCs9XsIYolnJCE=w224-h448-k-no"
            }
        ],
        "link": "https://www.google.com/maps/place/JAMA+masjid/data=!4m7!3m6!1s0x3992bd9c84039ba1:0x66b4e1bf7e768d7a!8m2!3d25.8057526!4d84.6127628!16s%2Fg%2F11rg_r4229!19sChIJoZsDhJy9kjkReo12fr_htGY?authuser=0&hl=en&rclk=1",
        "coordinates": {
            "latitude": 25.805752599999998,
            "longitude": 84.6127628
        }
    },
    {
        "name": "Jumni Masjid",
        "main_category": "Mosque",
        "address": "QPMG+RH8 Jumni Masjid, Ghazipur - Hajipur Rd, Railway Colony, Chapra, Bihar 841301",
        "detailed_address": {
            "ward": "Railway Colony",
            "street": "QPMG+RH8, Ghazipur - Hajipur Rd",
            "city": "Chapra",
            "postal_code": "841301",
            "state": "Bihar",
            "country_code": "IN"
        },
        "images": [
            {
                "about": "All",
                "link": "https://lh5.googleusercontent.com/p/AF1QipPmS4WqhSahTcADAJ_Fx79f5mWu9bPzV2EzQwc=w224-h398-k-no"
            },
            {
                "about": "Street View & 360deg",
                "link": "https://streetviewpixels-pa.googleapis.com/v1/thumbnail?panoid=N0BO4aQPMImSwz-1PXYe5A&cb_client=maps_sv.tactile.gps&w=224&h=298&yaw=52.084507&pitch=0&thumbfov=100"
            }
        ],
        "link": "https://www.google.com/maps/place/Jumni+Masjid/data=!4m7!3m6!1s0x3992bb7182aa8489:0x7bf50da680e06720!8m2!3d25.7845253!4d84.726457!16s%2Fg%2F11fq78vhyr!19sChIJiYSqgnG7kjkRIGfggKYN9Xs?authuser=0&hl=en&rclk=1",
        "coordinates": {
            "latitude": 25.7845253,
            "longitude": 84.726457
        }
    },
    {
        "name": "Godhna jama masjid",
        "main_category": "Mosque",
        "address": "QMJ2+X7Q Godhna jama masjid, Ghazipur - Hajipur Rd, Revelganj, Bihar 841305",
        "detailed_address": {
            "ward": null,
            "street": "QMJ2+X7Q, Ghazipur - Hajipur Rd",
            "city": "Revelganj",
            "postal_code": "841305",
            "state": "Bihar",
            "country_code": "IN"
        },
        "images": [
            {
                "about": "All",
                "link": "https://lh5.googleusercontent.com/p/AF1QipN-Lz_tvy9C8tJDKLo0kSLJl4Gb0OgRONG5lY95=w377-h298-k-no"
            },
            {
                "about": "Street View & 360deg",
                "link": "https://streetviewpixels-pa.googleapis.com/v1/thumbnail?panoid=ofnHHzhLtwrtchkqLwOD9Q&cb_client=maps_sv.tactile.gps&w=224&h=298&yaw=232.12273&pitch=0&thumbfov=100"
            },
            {
                "about": "Videos",
                "link": "https://lh5.googleusercontent.com/p/AF1QipPic42qi-miTwVeT1g82tstMF8bc7UqYRwMGVbS=w526-h298-k-no"
            }
        ],
        "link": "https://www.google.com/maps/place/Godhna+jama+masjid/data=!4m7!3m6!1s0x3992bdc33c36dd19:0x22c28641ec34a288!8m2!3d25.7824224!4d84.6507533!16s%2Fg%2F11t2b28nvt!19sChIJGd02PMO9kjkRiKI07EGGwiI?authuser=0&hl=en&rclk=1",
        "coordinates": {
            "latitude": 25.782422399999998,
            "longitude": 84.65075329999999
        }
    },
    {
        "name": "Khan Toli choti Masjid",
        "main_category": "Mosque",
        "address": "QJMX+7VH Khan Toli choti Masjid, Revelganj, Bihar 841305",
        "detailed_address": {
            "ward": null,
            "street": "QJMX+7VH",
            "city": "Revelganj",
            "postal_code": null,
            "state": "Bihar",
            "country_code": "IN"
        },
        "images": [
            {
                "about": "All",
                "link": "https://streetviewpixels-pa.googleapis.com/v1/thumbnail?panoid=v4kZuVFTKfYMsdyD-Rf04Q&cb_client=maps_sv.tactile.gps&w=224&h=298&yaw=346.95776&pitch=0&thumbfov=100"
            },
            {
                "about": "Street View & 360deg",
                "link": "https://streetviewpixels-pa.googleapis.com/v1/thumbnail?panoid=v4kZuVFTKfYMsdyD-Rf04Q&cb_client=maps_sv.tactile.gps&w=224&h=298&yaw=346.95776&pitch=0&thumbfov=100"
            }
        ],
        "link": "https://www.google.com/maps/place/Khan+Toli+choti+Masjid/data=!4m7!3m6!1s0x3992bdf46fb85b03:0x28edc79c3dbd9efc!8m2!3d25.7831938!4d84.649745!16s%2Fg%2F11ll4z6g1y!19sChIJA1u4b_S9kjkR_J69PZzH7Sg?authuser=0&hl=en&rclk=1",
        "coordinates": {
            "latitude": 25.7831938,
            "longitude": 84.649745
        }
    },
    {
        "name": "Beltale Jama Masjid",
        "main_category": "Mosque",
        "address": "Beltale Jama Masjid, Beltale Jama masjid, Jai Prakash Nagar, Pratap Nagar, Zail Shahar, Bihar 841301",
        "detailed_address": {
            "ward": "Jai Prakash Nagar, Pratap Nagar",
            "street": "Beltale Jama masjid",
            "city": "Zail Shahar",
            "postal_code": "841301",
            "state": "Bihar",
            "country_code": "IN"
        },
        "images": [
            {
                "about": "All",
                "link": "https://lh5.googleusercontent.com/p/AF1QipN_r2u6xgP8wrtOc-XIbrVusfite8m55v8qB2TY=w529-h298-k-no"
            }
        ],
        "link": "https://www.google.com/maps/place/Beltale+Jama+Masjid/data=!4m7!3m6!1s0x3992bb820e81d75b:0x9c3823e340e784f2!8m2!3d25.7797412!4d84.7268971!16s%2Fg%2F11t4d74_xj!19sChIJW9eBDoK7kjkR8oTnQOMjOJw?authuser=0&hl=en&rclk=1",
        "coordinates": {
            "latitude": 25.7797412,
            "longitude": 84.7268971
        }
    },
    {
        "name": "Daulatgang chiktoli masjid",
        "main_category": "Mosque",
        "address": "Daulatgang chiktoli masjid, Daulatgang chiktoli, Takkad morde, Chapra, Bihar 841301",
        "detailed_address": {
            "ward": "Takkad morde",
            "street": "Daulatgang chiktoli",
            "city": "Chapra",
            "postal_code": "841301",
            "state": "Bihar",
            "country_code": "IN"
        },
        "images": [
            {
                "about": "All",
                "link": "https://lh5.googleusercontent.com/p/AF1QipPmUNo2i_qOLE0enBvHEmvcZA6ILzZESV-fYllT=w224-h398-k-no"
            },
            {
                "about": "Videos",
                "link": "https://lh5.googleusercontent.com/p/AF1QipOu46XFWOpG5pDIqlMc1KuZqnamvPb-bYLJp1A5=w224-h398-k-no"
            }
        ],
        "link": "https://www.google.com/maps/place/Daulatgang+chiktoli+masjid/data=!4m7!3m6!1s0x3992bb2ac311740f:0x41b388e72117cdb2!8m2!3d25.7803218!4d84.713536!16s%2Fg%2F11ptz9bjwx!19sChIJD3QRwyq7kjkRss0XIeeIs0E?authuser=0&hl=en&rclk=1",
        "coordinates": {
            "latitude": 25.7803218,
            "longitude": 84.71353599999999
        }
    },
    {
        "name": "MADINA MASJID REVILGANJ KHANTOLI",
        "main_category": "Mosque",
        "address": "QJJV+VW9 MADINA MASJID REVILGANJ KHANTOLI, Revelganj, Bihar 841305",
        "detailed_address": {
            "ward": null,
            "street": "QJJV+VW9",
            "city": "Revelganj",
            "postal_code": null,
            "state": "Bihar",
            "country_code": "IN"
        },
        "images": [
            {
                "about": "All",
                "link": "https://lh5.googleusercontent.com/p/AF1QipM4m8q8qfmUpAPLFk_snO_mt4n1r6Kmp70EoWoe=w224-h298-k-no"
            }
        ],
        "link": "https://www.google.com/maps/place/MADINA+MASJID+REVILGANJ+KHANTOLI/data=!4m7!3m6!1s0x3992bddd5d85628f:0xe8e033208375f21!8m2!3d25.7821635!4d84.644865!16s%2Fg%2F11smmdy6tz!19sChIJj2KFXd29kjkRIV83CDIDjg4?authuser=0&hl=en&rclk=1",
        "coordinates": {
            "latitude": 25.7821635,
            "longitude": 84.644865
        }
    },
    {
        "name": "Mosque",
        "main_category": "Mosque",
        "address": "Mosque, Revelganjghat, Revelganj, Bihar 841305",
        "detailed_address": {
            "ward": null,
            "street": null,
            "city": "Revelganjghat, Revelganj",
            "postal_code": "841305",
            "state": "Bihar",
            "country_code": "IN"
        },
        "images": [
            {
                "about": "All",
                "link": "https://lh5.googleusercontent.com/p/AF1QipPmpgDCKzaBuxZIUfiDmxEuW_qU6O4NgOpkByPi=w529-h298-k-no"
            },
            {
                "about": "Videos",
                "link": "https://lh5.googleusercontent.com/p/AF1QipPWEt-nFe72dRy2CWhmryULzKSMVN9euSt55GrY=w529-h298-k-no"
            }
        ],
        "link": "https://www.google.com/maps/place/Mosque/data=!4m7!3m6!1s0x3992bda53f56cc0b:0x8d32800daabd3b6a!8m2!3d25.7931128!4d84.6268464!16s%2Fg%2F11q56h6tvj!19sChIJC8xWP6W9kjkRaju9qg2AMo0?authuser=0&hl=en&rclk=1",
        "coordinates": {
            "latitude": 25.7931128,
            "longitude": 84.62684639999999
        }
    },
    {
        "name": "Peer Baba Godna",
        "main_category": "Mosque",
        "address": "QMQ2+8JM Peer Baba Godna, Revelganj, Bihar 841305",
        "detailed_address": {
            "ward": null,
            "street": "QMQ2+8JM",
            "city": "Revelganj",
            "postal_code": "841305",
            "state": "Bihar",
            "country_code": "IN"
        },
        "images": [],
        "link": "https://www.google.com/maps/place/Peer+Baba+Godna/data=!4m7!3m6!1s0x3992bd7c7260f58b:0xef924ef5043da6dd!8m2!3d25.7883301!4d84.6515435!16s%2Fg%2F11lgh7ptw3!19sChIJi_Vgcny9kjkR3aY9BPVOku8?authuser=0&hl=en&rclk=1",
        "coordinates": {
            "latitude": 25.7883301,
            "longitude": 84.6515435
        }
    },
    {
        "name": "Sadar Amin sahb ki masjid",
        "main_category": "Mosque",
        "address": "Sadar Amin sahb ki masjid, 1, Nayi Bazar Hospital Road, Bettia Raj Chawno, Pratap Nagar, Chapra, Bihar 841301",
        "detailed_address": {
            "ward": "Pratap Nagar",
            "street": "1, Nayi Bazar Hospital Road, Bettia Raj Chawno",
            "city": "Chapra, Zail Shahar",
            "postal_code": "841301",
            "state": "Bihar",
            "country_code": "IN"
        },
        "images": [
            {
                "about": "All",
                "link": "https://lh5.googleusercontent.com/p/AF1QipO9EnrZyU2zxh78q8F_EluwMTH-FmV0qqPqqy17=w529-h298-k-no"
            },
            {
                "about": "Street View & 360deg",
                "link": "https://streetviewpixels-pa.googleapis.com/v1/thumbnail?panoid=mzAGvIWjcpGIr63NfdED8w&cb_client=maps_sv.tactile.gps&w=224&h=298&yaw=203.39957&pitch=0&thumbfov=100"
            }
        ],
        "link": "https://www.google.com/maps/place/Sadar+Amin+sahb+ki+masjid/data=!4m7!3m6!1s0x3992bb593e983601:0xb05acc393cec7919!8m2!3d25.7804113!4d84.7302613!16s%2Fg%2F11khrdb9q2!19sChIJATaYPlm7kjkRGXnsPDnMWrA?authuser=0&hl=en&rclk=1",
        "coordinates": {
            "latitude": 25.780411299999997,
            "longitude": 84.7302613
        }
    },
    {
        "name": "Gandhi masjid",
        "main_category": "Mosque",
        "address": "Gandhi masjid, Nai bazar Gandhi masjid, Inai-Bara Telpa Rd, Saran, Chapra, Mukrera, Bihar 841301",
        "detailed_address": {
            "ward": "Saran",
            "street": "Nai bazar Gandhi masjid, Inai-Bara Telpa Rd",
            "city": "Chapra, Mukrera",
            "postal_code": "841301",
            "state": "Bihar",
            "country_code": "IN"
        },
        "images": [
            {
                "about": "All",
                "link": "https://lh5.googleusercontent.com/p/AF1QipPA3NXB4N3ds_Rjf9tprulUkBAJIHQuhwTNprNg=w340-h298-k-no"
            },
            {
                "about": "Dome",
                "link": "https://lh5.googleusercontent.com/p/AF1QipOna544gD6UVOH4COVk4o08TMGgqrJVgm83L5_f=w619-h298-k-no"
            },
            {
                "about": "Street View & 360deg",
                "link": "https://streetviewpixels-pa.googleapis.com/v1/thumbnail?panoid=FzdygSqRs0fje9Q-xyiriw&cb_client=maps_sv.tactile.gps&w=224&h=298&yaw=239.9689&pitch=0&thumbfov=100"
            }
        ],
        "link": "https://www.google.com/maps/place/Gandhi+masjid/data=!4m7!3m6!1s0x3992bbc9110430eb:0xf526c6579ac5820e!8m2!3d25.7762475!4d84.7314669!16s%2Fg%2F11tn48glx3!19sChIJ6zAEEcm7kjkRDoLFmlfGJvU?authuser=0&hl=en&rclk=1",
        "coordinates": {
            "latitude": 25.7762475,
            "longitude": 84.7314669
        }
    },
    {
        "name": "msjid",
        "main_category": "Mosque",
        "address": "QM6F+9JG msjid, Revelganj, Bihar 841305",
        "detailed_address": {
            "ward": null,
            "street": "QM6F+9JG",
            "city": "Revelganj",
            "postal_code": null,
            "state": "Bihar",
            "country_code": "IN"
        },
        "images": [],
        "link": "https://www.google.com/maps/place/%E0%A4%AE%E0%A4%B8%E0%A5%8D%E0%A4%9C%E0%A4%BF%E0%A4%A6/data=!4m7!3m6!1s0x3992bd68ed60fcaf:0xe07c6d34fa05a486!8m2!3d25.7609295!4d84.6740642!16s%2Fg%2F11rw7dy0cy!19sChIJr_xg7Wi9kjkRhqQF-jRtfOA?authuser=0&hl=en&rclk=1",
        "coordinates": {
            "latitude": 25.7609295,
            "longitude": 84.67406419999999
        }
    },
    {
        "name": "Nabiganj Badi Masjid",
        "main_category": "Mosque",
        "address": "QPJ4+G76 Nabiganj Badi Masjid, Navi Ganj, Revelganj, Chapra, Bihar 841301",
        "detailed_address": {
            "ward": "Navi Ganj",
            "street": "QPJ4+G76",
            "city": "Revelganj, Chapra",
            "postal_code": "841301",
            "state": "Bihar",
            "country_code": "IN"
        },
        "images": [],
        "link": "https://www.google.com/maps/place/Nabiganj+Badi+Masjid/data=!4m7!3m6!1s0x3992bb77be805107:0x5ec783501b2bc4d7!8m2!3d25.7812754!4d84.7056263!16s%2Fg%2F11l75pxyfg!19sChIJB1GAvne7kjkR18QrG1CDx14?authuser=0&hl=en&rclk=1",
        "coordinates": {
            "latitude": 25.7812754,
            "longitude": 84.70562629999999
        }
    }
]