[
    {
        "name": "Nalhati Jama Masjid",
        "main_category": "Mosque",
        "address": "7RVR+R86 Nalhati Jama Masjid, MNK Road, Birbhum, Nalhati, West Bengal 731220",
        "detailed_address": {
            "ward": null,
            "street": "7RVR+R86, MNK Road, Birbhum",
            "city": "Nalhati",
            "postal_code": "731220",
            "state": "West Bengal",
            "country_code": "IN"
        },
        "images": [
            {
                "about": "All",
                "link": "https://lh5.googleusercontent.com/p/AF1QipOfEnyHXQO78xpaS850-BEnfVY2zn6rA6ANrjH7=w398-h298-k-no"
            },
            {
                "about": "Dome",
                "link": "https://lh5.googleusercontent.com/p/AF1QipPVatm_dd5iwMbbY1Asy2hII4_ZqsXzvWgiIiJx=w238-h298-k-no"
            }
        ],
        "link": "https://www.google.com/maps/place/Nalhati+Jama+Masjid/data=!4m7!3m6!1s0x39fa186caf3b9f25:0x4bb27211a69d256b!8m2!3d24.2945278!4d87.840756!16s%2Fg%2F11b6_q_94w!19sChIJJZ87r2wY-jkRayWdphFysks?authuser=0&hl=en&rclk=1",
        "coordinates": {
            "latitude": 24.294527799999997,
            "longitude": 87.840756
        }
    },
    {
        "name": "Nazrulpally Jumma Masjid (njrulpllii )",
        "main_category": "Mosque",
        "address": "7RVM+PQH Nazrulpally Jumma Masjid (njrulpllii ), Nazrul Polly, Nazrul Pally, Nalhati, West Bengal 731220",
        "detailed_address": {
            "ward": "Nazrul Polly, Nazrul Pally",
            "street": "7RVM+PQH",
            "city": "Nalhati",
            "postal_code": null,
            "state": "West Bengal",
            "country_code": "IN"
        },
        "images": [
            {
                "about": "All",
                "link": "https://lh5.googleusercontent.com/p/AF1QipOwIXWMNykd-uIU6FnphGw9yc_u_iQ8WMvhAyZ7=w224-h298-k-no"
            },
            {
                "about": "Dome",
                "link": "https://lh5.googleusercontent.com/p/AF1QipMgBzAm4qf1c1WQqje-d-rfOKROUphM6urnYeUa=w327-h298-k-no"
            },
            {
                "about": "Videos",
                "link": "https://lh5.googleusercontent.com/p/AF1QipNlD47q5GbAn1iPvN2EvggnxPTfJa9IRb1NFjSS=w224-h389-k-no"
            }
        ],
        "link": "https://www.google.com/maps/place/Nazrulpally+Jumma+Masjid+%28%E0%A6%A8%E0%A6%9C%E0%A6%B0%E0%A7%81%E0%A6%B2%E0%A6%AA%E0%A6%B2%E0%A7%8D%E0%A6%B2%E0%A7%80+%29/data=!4m7!3m6!1s0x39fa191379429d69:0x7ab1e4bde7e411ac!8m2!3d24.2943027!4d87.8344971!16s%2Fg%2F11g3gz66c2!19sChIJaZ1CeRMZ-jkRrBHk573ksXo?authuser=0&hl=en&rclk=1",
        "coordinates": {
            "latitude": 24.2943027,
            "longitude": 87.8344971
        }
    },
    {
        "name": "Nalhati Munshi Para Jumma Masjid",
        "main_category": "Mosque",
        "address": "7RVH+5H9 Nalhati Munshi Para Jumma Masjid, Nalhati, West Bengal 731243",
        "detailed_address": {
            "ward": null,
            "street": "7RVH+5H9",
            "city": "Nalhati",
            "postal_code": "731243",
            "state": "West Bengal",
            "country_code": "IN"
        },
        "images": [
            {
                "about": "All",
                "link": "https://lh5.googleusercontent.com/p/AF1QipPBWEJn2sIxkvgpqlrlY4EFVVqiUTUKej6hpq2Y=w529-h298-k-no"
            },
            {
                "about": "Videos",
                "link": "https://lh5.googleusercontent.com/p/AF1QipPhDhdUuhjCVv-Uj-nTiXeTUcTihcxSlM5fRrAv=w529-h298-k-no"
            }
        ],
        "link": "https://www.google.com/maps/place/Nalhati+Munshi+Para+Jumma+Masjid/data=!4m7!3m6!1s0x39fa184716e47ec7:0xd7bb3d58bde3e8a8!8m2!3d24.2929223!4d87.8289945!16s%2Fg%2F11dxm8w10h!19sChIJx37kFkcY-jkRqOjjvVg9u9c?authuser=0&hl=en&rclk=1",
        "coordinates": {
            "latitude": 24.292922299999997,
            "longitude": 87.8289945
        }
    },
    {
        "name": "MONDALPARA MOSQUE",
        "main_category": "Mosque",
        "address": "7RVJ+G29 MONDALPARA MOSQUE, Nalhati, West Bengal 731243",
        "detailed_address": {
            "ward": null,
            "street": "7RVJ+G29",
            "city": "Nalhati",
            "postal_code": "731243",
            "state": "West Bengal",
            "country_code": "IN"
        },
        "images": [
            {
                "about": "All",
                "link": "https://lh5.googleusercontent.com/p/AF1QipOwexFXH5c2R6J3-aC-_t1es61aEmQ7JXdNTBtZ=w224-h398-k-no"
            }
        ],
        "link": "https://www.google.com/maps/place/MONDALPARA+MOSQUE/data=!4m7!3m6!1s0x39fa1847493638c9:0xe1a4874ad221171c!8m2!3d24.2937758!4d87.8301076!16s%2Fg%2F11csb0r3qm!19sChIJyTg2SUcY-jkRHBch0kqHpOE?authuser=0&hl=en&rclk=1",
        "coordinates": {
            "latitude": 24.2937758,
            "longitude": 87.83010759999999
        }
    },
    {
        "name": "Bidupara Masjid",
        "main_category": "Mosque",
        "address": "7RWR+Q9C Bidupara Masjid, Nalhati, West Bengal 731220",
        "detailed_address": {
            "ward": null,
            "street": "7RWR+Q9C",
            "city": "Nalhati",
            "postal_code": null,
            "state": "West Bengal",
            "country_code": "IN"
        },
        "images": [
            {
                "about": "All",
                "link": "https://lh5.googleusercontent.com/p/AF1QipNWyAwZwwsW3SSqLZSWAqzb6krmpSZ-urmeyyMC=w529-h298-k-no"
            },
            {
                "about": "Latest",
                "link": "https://lh5.googleusercontent.com/p/AF1QipMmfMxudIEnStgaUCEBT7dFPXYbEhMs93a9XLOY=w224-h398-k-no"
            },
            {
                "about": "Videos",
                "link": "https://lh5.googleusercontent.com/p/AF1QipMmfMxudIEnStgaUCEBT7dFPXYbEhMs93a9XLOY=w224-h398-k-no"
            }
        ],
        "link": "https://www.google.com/maps/place/Bidupara+Masjid/data=!4m7!3m6!1s0x39fa1813660d0dd7:0x447f7a3ffd816eb4!8m2!3d24.2969263!4d87.8408862!16s%2Fg%2F11gdm63q1k!19sChIJ1w0NZhMY-jkRtG6B_T96f0Q?authuser=0&hl=en&rclk=1",
        "coordinates": {
            "latitude": 24.2969263,
            "longitude": 87.8408862
        }
    },
    {
        "name": "Nalhati Paschim Bazar Jumma Masjid",
        "main_category": "Mosque",
        "address": "7RXH+59G Nalhati Paschim Bazar Jumma Masjid, Parbati Tola Rd, Nalhati, West Bengal 731243",
        "detailed_address": {
            "ward": null,
            "street": "7RXH+59G, Parbati Tola Rd",
            "city": "Nalhati",
            "postal_code": "731243",
            "state": "West Bengal",
            "country_code": "IN"
        },
        "images": [
            {
                "about": "All",
                "link": "https://lh5.googleusercontent.com/p/AF1QipNMliK7yQAFSwHbLpdgEvXpqCkhPuXgodFQVULa=w397-h298-k-no"
            }
        ],
        "link": "https://www.google.com/maps/place/Nalhati+Paschim+Bazar+Jumma+Masjid/data=!4m7!3m6!1s0x39fa1838fd45c421:0xfc8126f05a6dfa89!8m2!3d24.2979295!4d87.8284571!16s%2Fg%2F11c4bcq0ld!19sChIJIcRF_TgY-jkRifptWvAmgfw?authuser=0&hl=en&rclk=1",
        "coordinates": {
            "latitude": 24.2979295,
            "longitude": 87.8284571
        }
    },
    {
        "name": "Ahal-e-hadis Masjid Nalhati",
        "main_category": "Mosque",
        "address": "7RWG+WVV Ahal-e-hadis Masjid Nalhati, Nalhati, West Bengal 731243",
        "detailed_address": {
            "ward": null,
            "street": "7RWG+WVV",
            "city": "Nalhati",
            "postal_code": "731243",
            "state": "West Bengal",
            "country_code": "IN"
        },
        "images": [
            {
                "about": "All",
                "link": "https://lh5.googleusercontent.com/p/AF1QipMNj3Yjuj312wPu4DYTbQNDRFYsD_tXU-fayntX=w224-h398-k-no"
            },
            {
                "about": "Videos",
                "link": "https://lh5.googleusercontent.com/p/AF1QipO2j_F51KiIYw3JW9_p3ldUXqjJ3dL83zDHeEdk=w224-h398-k-no"
            }
        ],
        "link": "https://www.google.com/maps/place/Ahal-e-hadis+Masjid+Nalhati/data=!4m7!3m6!1s0x39fa1838510c0981:0x719ac423e94de934!8m2!3d24.297371!4d87.8271753!16s%2Fg%2F11gb401fkc!19sChIJgQkMUTgY-jkRNOlN6SPEmnE?authuser=0&hl=en&rclk=1",
        "coordinates": {
            "latitude": 24.297371,
            "longitude": 87.8271753
        }
    },
    {
        "name": "Nalhati Eid-Gah Maidan",
        "main_category": "Mosque",
        "address": "7RWG+P73 Nalhati Eid-Gah Maidan, Nalhati, West Bengal 731243",
        "detailed_address": {
            "ward": null,
            "street": "7RWG+P73",
            "city": "Nalhati",
            "postal_code": "731243",
            "state": "West Bengal",
            "country_code": "IN"
        },
        "images": [
            {
                "about": "All",
                "link": "https://lh5.googleusercontent.com/p/AF1QipPiBFo7E2bG6zk17qQl47eSfew6E0WO7iWf1kv2=w224-h299-k-no"
            },
            {
                "about": "Dome",
                "link": "https://lh5.googleusercontent.com/p/AF1QipOSxk0UhBNTxIBRvfDLrjqLSqa9XmI0zl-AN2eA=w224-h497-k-no"
            }
        ],
        "link": "https://www.google.com/maps/place/Nalhati+Eid-Gah+Maidan/data=!4m7!3m6!1s0x39fa183826b3291d:0x56a725d59628cdc2!8m2!3d24.2967599!4d87.8256767!16s%2Fg%2F11c6cx_yz2!19sChIJHSmzJjgY-jkRws0oltUlp1Y?authuser=0&hl=en&rclk=1",
        "coordinates": {
            "latitude": 24.296759899999998,
            "longitude": 87.8256767
        }
    },
    {
        "name": "Chhaya Pally Jumma Masjid",
        "main_category": "Mosque",
        "address": "7RPQ+Q74 Chhaya Pally Jumma Masjid, Karimpur, Nalhati, West Bengal 731220",
        "detailed_address": {
            "ward": null,
            "street": "7RPQ+Q74",
            "city": "Karimpur, Nalhati",
            "postal_code": "731220",
            "state": "West Bengal",
            "country_code": "IN"
        },
        "images": [],
        "link": "https://www.google.com/maps/place/Chhaya+Pally+Jumma+Masjid/data=!4m7!3m6!1s0x39fa192682276ffb:0xaff81d5d418be5b5!8m2!3d24.2868974!4d87.8382005!16s%2Fg%2F11h4mpz46b!19sChIJ-28ngiYZ-jkRteWLQV0d-K8?authuser=0&hl=en&rclk=1",
        "coordinates": {
            "latitude": 24.286897399999997,
            "longitude": 87.8382005
        }
    },
    {
        "name": "Nabin Pally Jumma Masjid",
        "main_category": "Mosque",
        "address": "7RRQ+R4M Nabin Pally Jumma Masjid, Parbati Tala Road, Nalhati, West Bengal 731243",
        "detailed_address": {
            "ward": null,
            "street": "7RRQ+R4M, Parbati Tala Road",
            "city": "Nalhati",
            "postal_code": "731243",
            "state": "West Bengal",
            "country_code": "IN"
        },
        "images": [
            {
                "about": "All",
                "link": "https://lh5.googleusercontent.com/p/AF1QipNxPUiR5Qp219Ht9L1i49Pux-oAuI4teK6NHqU5=w529-h298-k-no"
            }
        ],
        "link": "https://www.google.com/maps/place/Nabin+Pally+Jumma+Masjid/data=!4m7!3m6!1s0x39fa186a55555555:0xa2bd63080dfb2a01!8m2!3d24.292095!4d87.8377842!16s%2Fg%2F11f15bpl9x!19sChIJVVVVVWoY-jkRASr7DQhjvaI?authuser=0&hl=en&rclk=1",
        "coordinates": {
            "latitude": 24.292095,
            "longitude": 87.8377842
        }
    },
    {
        "name": "Masjid e Mushafir , pbitr msjid e musaaphir",
        "main_category": "Mosque",
        "address": "7RWQ+467 Masjid e Mushafir , pbitr msjid e musaaphir, Nalhati, West Bengal 731220",
        "detailed_address": {
            "ward": null,
            "street": "7RWQ+467",
            "city": "Nalhati",
            "postal_code": "731220",
            "state": "West Bengal",
            "country_code": "IN"
        },
        "images": [
            {
                "about": "All",
                "link": "https://lh5.googleusercontent.com/p/AF1QipNhV239PQKwedVqE_2AfLZRs4qD2iFLiawt9Jrb=w398-h298-k-no"
            }
        ],
        "link": "https://www.google.com/maps/place/Masjid+e+Mushafir+,+%E0%A6%AA%E0%A6%AC%E0%A6%BF%E0%A6%A4%E0%A7%8D%E0%A6%B0+%E0%A6%AE%E0%A6%B8%E0%A6%9C%E0%A6%BF%E0%A6%A6+%E0%A6%8F+%E0%A6%AE%E0%A7%81%E0%A6%B8%E0%A6%BE%E0%A6%AB%E0%A6%BF%E0%A6%B0/data=!4m7!3m6!1s0x39fa19be0a38dde1:0xaee2cd0f9d87e845!8m2!3d24.2952805!4d87.8380467!16s%2Fg%2F11pcltymbj!19sChIJ4d04Cr4Z-jkRReiHnQ_N4q4?authuser=0&hl=en&rclk=1",
        "coordinates": {
            "latitude": 24.2952805,
            "longitude": 87.83804669999999
        }
    },
    {
        "name": "Patharkal Para Jama Masjid paathr kl paadd'aa jaame msjid",
        "main_category": "Mosque",
        "address": "7RXP+3R7 Patharkal Para Jama Masjid paathr kl paadd'aa jaame msjid, Nalhati, West Bengal 731220",
        "detailed_address": {
            "ward": null,
            "street": "7RXP+3R7",
            "city": "Nalhati",
            "postal_code": "731220",
            "state": "West Bengal",
            "country_code": "IN"
        },
        "images": [],
        "link": "https://www.google.com/maps/place/Patharkal+Para+Jama+Masjid+%E0%A6%AA%E0%A6%BE%E0%A6%A5%E0%A6%B0+%E0%A6%95%E0%A6%B2+%E0%A6%AA%E0%A6%BE%E0%A6%A1%E0%A6%BC%E0%A6%BE+%E0%A6%9C%E0%A6%BE%E0%A6%AE%E0%A7%87+%E0%A6%AE%E0%A6%B8%E0%A6%9C%E0%A6%BF%E0%A6%A6/data=!4m7!3m6!1s0x39fa195990336f6b:0x145bb894e06dd3cf!8m2!3d24.2976566!4d87.8370122!16s%2Fg%2F11t5jkf4sx!19sChIJa28zkFkZ-jkRz9Nt4JS4WxQ?authuser=0&hl=en&rclk=1",
        "coordinates": {
            "latitude": 24.2976566,
            "longitude": 87.83701219999999
        }
    },
    {
        "name": "Masjid Gopalpur farm para waktia masjid",
        "main_category": "Mosque",
        "address": "7RWX+4Q5 Masjid Gopalpur farm para waktia masjid, Paschim Gopalpur, West Bengal 731220",
        "detailed_address": {
            "ward": null,
            "street": "7RWX+4Q5",
            "city": "Paschim Gopalpur",
            "postal_code": "731220",
            "state": "West Bengal",
            "country_code": "IN"
        },
        "images": [],
        "link": "https://www.google.com/maps/place/Masjid+Gopalpur+farm+para+waktia+masjid/data=!4m7!3m6!1s0x39fa19cfc3e3fa1f:0x3035651765df1afd!8m2!3d24.2950691!4d87.8494121!16s%2Fg%2F11txp9b_hk!19sChIJH_rjw88Z-jkR_RrfZRdlNTA?authuser=0&hl=en&rclk=1",
        "coordinates": {
            "latitude": 24.2950691,
            "longitude": 87.8494121
        }
    },
    {
        "name": "Gangadda Choto Masjid",
        "main_category": "Mosque",
        "address": "7RPR+4GP Gangadda Choto Masjid, Na-Ani Gangadda, Nalhati, West Bengal 731238",
        "detailed_address": {
            "ward": null,
            "street": "7RPR+4GP",
            "city": "Na-Ani Gangadda, Nalhati",
            "postal_code": "731238",
            "state": "West Bengal",
            "country_code": "IN"
        },
        "images": [
            {
                "about": "All",
                "link": "https://streetviewpixels-pa.googleapis.com/v1/thumbnail?panoid=I0Fc0BFwysjJrTrOZH_1cg&cb_client=maps_sv.tactile.gps&w=224&h=298&yaw=81.928&pitch=0&thumbfov=100"
            },
            {
                "about": "Street View & 360deg",
                "link": "https://streetviewpixels-pa.googleapis.com/v1/thumbnail?panoid=I0Fc0BFwysjJrTrOZH_1cg&cb_client=maps_sv.tactile.gps&w=224&h=298&yaw=81.928&pitch=0&thumbfov=100"
            }
        ],
        "link": "https://www.google.com/maps/place/Gangadda+Choto+Masjid/data=!4m7!3m6!1s0x39fa19ed172167e7:0x5e344f96ef8ab395!8m2!3d24.2853385!4d87.841314!16s%2Fg%2F11gy9g3r9t!19sChIJ52chF-0Z-jkRlbOK75ZPNF4?authuser=0&hl=en&rclk=1",
        "coordinates": {
            "latitude": 24.285338499999998,
            "longitude": 87.841314
        }
    },
    {
        "name": "Nalhati Koba Masjid",
        "main_category": "Mosque",
        "address": "8R2H+GXC Nalhati Koba Masjid, Nalhati, West Bengal 731243",
        "detailed_address": {
            "ward": null,
            "street": "8R2H+GXC",
            "city": "Nalhati",
            "postal_code": null,
            "state": "West Bengal",
            "country_code": "IN"
        },
        "images": [
            {
                "about": "All",
                "link": "https://lh5.googleusercontent.com/p/AF1QipPoobonyoIpUpZjKp3l0ChdkNrWb6jN2pF7dJSx=w645-h298-k-no"
            }
        ],
        "link": "https://www.google.com/maps/place/Nalhati+Koba+Masjid/data=!4m7!3m6!1s0x39fa192635e3d453:0x2161d486e630067e!8m2!3d24.301311!4d87.8298871!16s%2Fg%2F11tg26w6dy!19sChIJU9TjNSYZ-jkRfgYw5obUYSE?authuser=0&hl=en&rclk=1",
        "coordinates": {
            "latitude": 24.301311,
            "longitude": 87.8298871
        }
    },
    {
        "name": "GOPALPUR JUMMA MASJID",
        "main_category": "Mosque",
        "address": "GOPALPUR JUMMA MASJID, goplapur hat tala, Nalhati, West Bengal 731220",
        "detailed_address": {
            "ward": null,
            "street": "goplapur hat tala",
            "city": "Nalhati",
            "postal_code": "731220",
            "state": "West Bengal",
            "country_code": "IN"
        },
        "images": [
            {
                "about": "All",
                "link": "https://lh5.googleusercontent.com/p/AF1QipOKh_uwcLDF10p9HSfNoWtcQTz3PJLLc8UfhHvx=w563-h298-k-no"
            },
            {
                "about": "Dome",
                "link": "https://lh5.googleusercontent.com/p/AF1QipOKh_uwcLDF10p9HSfNoWtcQTz3PJLLc8UfhHvx=w563-h298-k-no"
            },
            {
                "about": "By owner",
                "link": "https://lh5.googleusercontent.com/p/AF1QipOKh_uwcLDF10p9HSfNoWtcQTz3PJLLc8UfhHvx=w563-h298-k-no"
            }
        ],
        "link": "https://www.google.com/maps/place/GOPALPUR+JUMMA+MASJID/data=!4m7!3m6!1s0x39fa199f839c7559:0xcb1d1e4c224a5cc7!8m2!3d24.2920951!4d87.8377842!16s%2Fg%2F11s7lnkdqf!19sChIJWXWcg58Z-jkRx1xKIkweHcs?authuser=0&hl=en&rclk=1",
        "coordinates": {
            "latitude": 24.292095099999997,
            "longitude": 87.8377842
        }
    }
]