[
    {
        "name": "Shahi Masjid,Karbala",
        "main_category": "Mosque",
        "address": "Ward No, 16, Shahi Masjid,Karbala, Fakir Tola, Gayatri Mandir Rd, Pratap Nagar, Sant Nagar, Saharsa, Bihar 852201",
        "detailed_address": {
            "ward": "Pratap Nagar, Sant Nagar",
            "street": "Ward No, 16, Fakir Tola, Gayatri Mandir Rd",
            "city": "Saharsa",
            "postal_code": "852201",
            "state": "Bihar",
            "country_code": "IN"
        },
        "images": [
            {
                "about": "All",
                "link": "https://lh5.googleusercontent.com/p/AF1QipOoqNNARhDvwPUc2EtEhX_JuuAYe7cW53u3yPNK=w529-h298-k-no"
            },
            {
                "about": "Dome",
                "link": "https://lh5.googleusercontent.com/p/AF1QipM0gcZ__hIf60wRXRLI-U9txvNF9t3i_UL026RZ=w461-h298-k-no"
            },
            {
                "about": "By owner",
                "link": "https://lh5.googleusercontent.com/p/AF1QipNwGV8mxPziYi2QCJXOCyohOH-5enu10ReYyJYm=w529-h298-k-no"
            },
            {
                "about": "Street View & 360deg",
                "link": "https://streetviewpixels-pa.googleapis.com/v1/thumbnail?panoid=xwPd25uCo_auJUhfVQ3ujw&cb_client=maps_sv.tactile.gps&w=224&h=298&yaw=323.54953&pitch=0&thumbfov=100"
            }
        ],
        "link": "https://www.google.com/maps/place/Shahi+Masjid,Karbala/data=!4m7!3m6!1s0x39ee3d67b6afe74b:0xdf83157ff2d9c087!8m2!3d25.8822071!4d86.6035161!16s%2Fg%2F11mnjcd63v!19sChIJS-evtmc97jkRh8DZ8n8Vg98?authuser=0&hl=en&rclk=1",
        "coordinates": {
            "latitude": 25.8822071,
            "longitude": 86.6035161
        }
    },
    {
        "name": "Jama Masjid",
        "main_category": "Mosque",
        "address": "VHGP+6J6 Jama Masjid, Meer Tola Rd, Naya Bazar, Saharsa, Bihar 852201",
        "detailed_address": {
            "ward": "Naya Bazar",
            "street": "VHGP+6J6, Meer Tola Rd",
            "city": "Saharsa",
            "postal_code": "852201",
            "state": "Bihar",
            "country_code": "IN"
        },
        "images": [
            {
                "about": "All",
                "link": "https://lh5.googleusercontent.com/p/AF1QipOVfkRHdFhAZFZY7cCgNB2kUswO_QhFRXROpnsc=w529-h298-k-no"
            },
            {
                "about": "Videos",
                "link": "https://lh5.googleusercontent.com/p/AF1QipNgq0i-oU1BQg11r88m7XvDNvKVOs3r1DbtN9Wl=w224-h398-k-no"
            }
        ],
        "link": "https://www.google.com/maps/place/Jama+Masjid/data=!4m7!3m6!1s0x39ee3d8ee46df9c1:0xd49c2201ac42540!8m2!3d25.8755303!4d86.5865005!16s%2Fg%2F11r8hqmxh!19sChIJwflt5I497jkRQCXEGiDCSQ0?authuser=0&hl=en&rclk=1",
        "coordinates": {
            "latitude": 25.875530299999998,
            "longitude": 86.5865005
        }
    },
    {
        "name": "Badi Eid Ghah Saharsa Basti",
        "main_category": "Mosque",
        "address": "Badi Eid Ghah Saharsa Basti, Saharsa Basti Ward Number 31, Hatiya Gachhi, Saharsa, Bihar 852201",
        "detailed_address": {
            "ward": "Hatiya Gachhi",
            "street": "Saharsa Basti Ward Number 31",
            "city": "Saharsa",
            "postal_code": "852201",
            "state": "Bihar",
            "country_code": "IN"
        },
        "images": [
            {
                "about": "All",
                "link": "https://lh5.googleusercontent.com/p/AF1QipNowZfbNfDe0HABSo38gdYdja0cQJu-WH4-r_ju=w224-h361-k-no"
            },
            {
                "about": "Videos",
                "link": "https://lh5.googleusercontent.com/p/AF1QipOwepjsTyQ912437XXT9yTDjFGYUoCYq57ow0PT=w224-h398-k-no"
            }
        ],
        "link": "https://www.google.com/maps/place/Badi+Eid+Ghah+Saharsa+Basti/data=!4m7!3m6!1s0x39ee3dae5a60186b:0x4cb09e9366ed66a5!8m2!3d25.8695894!4d86.6139361!16s%2Fg%2F11c1ql6p8d!19sChIJaxhgWq497jkRpWbtZpOesEw?authuser=0&hl=en&rclk=1",
        "coordinates": {
            "latitude": 25.8695894,
            "longitude": 86.61393609999999
        }
    },
    {
        "name": "MASJID SHAAN-E-KHUDA,MUSTAFA NAGAR,WARD NO-06,SAHARSA,BIHAR,INDIA",
        "main_category": "Mosque",
        "address": "VHCM+F8X MASJID SHAAN-E-KHUDA,MUSTAFA NAGAR,WARD NO-06,SAHARSA,BIHAR,INDIA, Batraha Mustafa Nagar Rd, Shardha Nagar, Saharsa, Bihar 852202",
        "detailed_address": {
            "ward": "Shardha Nagar",
            "street": "VHCM+F8X, Batraha Mustafa Nagar Rd",
            "city": "Saharsa",
            "postal_code": "852202",
            "state": "Bihar",
            "country_code": "IN"
        },
        "images": [
            {
                "about": "All",
                "link": "https://lh5.googleusercontent.com/p/AF1QipOM5l-s6JDfsPgwZ9ScadQOyxLazU_JA7BT3l-E=w397-h298-k-no"
            }
        ],
        "link": "https://www.google.com/maps/place/MASJID+SHAAN-E-KHUDA,MUSTAFA+NAGAR,WARD+NO-06,SAHARSA,BIHAR,INDIA/data=!4m7!3m6!1s0x39ee3d8629e8a701:0xc4572df059daa59e!8m2!3d25.8712311!4d86.5833475!16s%2Fg%2F11cnb2qmfw!19sChIJAafoKYY97jkRnqXaWfAtV8Q?authuser=0&hl=en&rclk=1",
        "coordinates": {
            "latitude": 25.8712311,
            "longitude": 86.5833475
        }
    },
    {
        "name": "Masjid ,Solindabad",
        "main_category": "Mosque",
        "address": "RHWQ+HX9 Masjid ,Solindabad, Sulindabad, Saharsa, Bihar 852202",
        "detailed_address": {
            "ward": null,
            "street": "RHWQ+HX9",
            "city": "Sulindabad, Saharsa",
            "postal_code": null,
            "state": "Bihar",
            "country_code": "IN"
        },
        "images": [
            {
                "about": "All",
                "link": "https://lh5.googleusercontent.com/p/AF1QipO7q6U9rtFkt032h10zSBYzZmR4IVdMHwSBN95L=w224-h298-k-no"
            },
            {
                "about": "Street View & 360deg",
                "link": "https://streetviewpixels-pa.googleapis.com/v1/thumbnail?panoid=QUKq4PGrGCvMkl8m7ZPBUQ&cb_client=maps_sv.tactile.gps&w=224&h=298&yaw=291.71448&pitch=0&thumbfov=100"
            },
            {
                "about": "Videos",
                "link": "https://lh5.googleusercontent.com/p/AF1QipM1IUB-SVYd3U9WKCNa_FQKbXLovjlzZLq8PhDM=w529-h298-k-no"
            }
        ],
        "link": "https://www.google.com/maps/place/Masjid+,Solindabad/data=!4m7!3m6!1s0x39ee3d76aaaaaaab:0xde420262100a5ef2!8m2!3d25.8464185!4d86.5899995!16s%2Fg%2F11h9rf4jzr!19sChIJq6qqqnY97jkR8l4KEGICQt4?authuser=0&hl=en&rclk=1",
        "coordinates": {
            "latitude": 25.8464185,
            "longitude": 86.58999949999999
        }
    },
    {
        "name": "Jama Masjid,Mustafa Nagar",
        "main_category": "Mosque",
        "address": "VHCM+W9Q Jama Masjid,Mustafa Nagar, Shardha Nagar, Saharsa, Bihar 852202",
        "detailed_address": {
            "ward": "Shardha Nagar",
            "street": "VHCM+W9Q",
            "city": "Saharsa",
            "postal_code": "852202",
            "state": "Bihar",
            "country_code": "IN"
        },
        "images": [],
        "link": "https://www.google.com/maps/place/Jama+Masjid,Mustafa+Nagar/data=!4m7!3m6!1s0x39ee3d888dfce267:0xc785310a73ee72ce!8m2!3d25.8723488!4d86.5834903!16s%2Fg%2F11c5p8w_4q!19sChIJZ-L8jYg97jkRznLucwoxhcc?authuser=0&hl=en&rclk=1",
        "coordinates": {
            "latitude": 25.872348799999997,
            "longitude": 86.5834903
        }
    },
    {
        "name": "Jama Masjid,Dighiya Saharsa",
        "main_category": "Mosque",
        "address": "VH27+X37 Jama Masjid,Dighiya Saharsa, Dighia, Bihar 852212",
        "detailed_address": {
            "ward": null,
            "street": "VH27+X37",
            "city": "Dighia",
            "postal_code": "852212",
            "state": "Bihar",
            "country_code": "IN"
        },
        "images": [
            {
                "about": "All",
                "link": "https://lh5.googleusercontent.com/p/AF1QipO8uaFNO1t8UJQNiwM_CpR18s40TvywT6XK42Xm=w297-h298-k-no"
            },
            {
                "about": "Videos",
                "link": "https://lh5.googleusercontent.com/p/AF1QipP4ZfXXko6lLquxWyOMOZ1THkJWmN1eeXeCy6zJ=w224-h398-k-no"
            }
        ],
        "link": "https://www.google.com/maps/place/Jama+Masjid,Dighiya+Saharsa/data=!4m7!3m6!1s0x39ee17c982c5d8f7:0x524c5c1c094c81f8!8m2!3d25.8524!4d86.5626832!16s%2Fg%2F11c2nh6r83!19sChIJ99jFgskX7jkR-IFMCRxcTFI?authuser=0&hl=en&rclk=1",
        "coordinates": {
            "latitude": 25.8524,
            "longitude": 86.5626832
        }
    },
    {
        "name": "Hatiya Gachhi Masjid",
        "main_category": "Mosque",
        "address": "VJG4+XX4 Hatiya Gachhi Masjid, Maheshkhunt - Madhepura - Purnia Rd, Hatiya Gachhi, Saharsa, Bihar 852201",
        "detailed_address": {
            "ward": "Hatiya Gachhi",
            "street": "VJG4+XX4, Maheshkhunt - Madhepura - Purnia Rd",
            "city": "Saharsa",
            "postal_code": "852201",
            "state": "Bihar",
            "country_code": "IN"
        },
        "images": [
            {
                "about": "All",
                "link": "https://lh5.googleusercontent.com/p/AF1QipPOf6a0eIIPLTCtkSmeneXBITHanG5NVM--akjo=w441-h298-k-no"
            },
            {
                "about": "Street View & 360deg",
                "link": "https://streetviewpixels-pa.googleapis.com/v1/thumbnail?panoid=I85SYalqltVCkE5t7CHG4Q&cb_client=maps_sv.tactile.gps&w=224&h=298&yaw=353.65942&pitch=0&thumbfov=100"
            }
        ],
        "link": "https://www.google.com/maps/place/Hatiya+Gachhi+Masjid/data=!4m7!3m6!1s0x39ee3dbbdda85ac1:0x12fdf7c021067474!8m2!3d25.877382!4d86.6074418!16s%2Fg%2F11c5_z3j8j!19sChIJwVqo3bs97jkRdHQGIcD3_RI?authuser=0&hl=en&rclk=1",
        "coordinates": {
            "latitude": 25.877381999999997,
            "longitude": 86.60744179999999
        }
    },
    {
        "name": "noori masjid,saharsa basti",
        "main_category": "Mosque",
        "address": "VJG7+F24 noori masjid,saharsa basti, Hatiya Gachhi, Saharsa, Bihar 852201",
        "detailed_address": {
            "ward": "Hatiya Gachhi",
            "street": "VJG7+F24",
            "city": "Saharsa",
            "postal_code": "852201",
            "state": "Bihar",
            "country_code": "IN"
        },
        "images": [
            {
                "about": "All",
                "link": "https://lh5.googleusercontent.com/p/AF1QipPmy2-DHFZSNB6pLxspJZxx7Eaub55ignVslQoT=w678-h298-k-no"
            }
        ],
        "link": "https://www.google.com/maps/place/noori+masjid,saharsa+basti/data=!4m7!3m6!1s0x39ee3db0e899d6df:0xa3c0b1450f710199!8m2!3d25.876127!4d86.612563!16s%2Fg%2F1tdh28np!19sChIJ39aZ6LA97jkRmQFxD0WxwKM?authuser=0&hl=en&rclk=1",
        "coordinates": {
            "latitude": 25.876127,
            "longitude": 86.612563
        }
    },
    {
        "name": "Masjid",
        "main_category": "Mosque",
        "address": "VH8R+969 Masjid, Masjid Road, Kunjar Toli, Bhartiya Nagar, Krishna Nagar, Saharsa, Bihar 852202",
        "detailed_address": {
            "ward": "Bhartiya Nagar, Krishna Nagar",
            "street": "VH8R+969, Masjid Road, Kunjar Toli",
            "city": "Saharsa",
            "postal_code": "852202",
            "state": "Bihar",
            "country_code": "IN"
        },
        "images": [
            {
                "about": "All",
                "link": "https://lh5.googleusercontent.com/p/AF1QipN1rgkgu-nX006jd7NG3z-UFY5bPjGHifzaBfdi=w224-h398-k-no"
            },
            {
                "about": "Videos",
                "link": "https://lh5.googleusercontent.com/p/AF1QipM267DixAxyHmazqeGh9eseqO7OuEtp3NIwTJm0=w397-h298-k-no"
            }
        ],
        "link": "https://www.google.com/maps/place/Masjid/data=!4m7!3m6!1s0x39ee3d9b54a0b20b:0xb4389c316cc3f8ab!8m2!3d25.8659067!4d86.5905972!16s%2Fg%2F11b6tfb99x!19sChIJC7KgVJs97jkRq_jDbDGcOLQ?authuser=0&hl=en&rclk=1",
        "coordinates": {
            "latitude": 25.8659067,
            "longitude": 86.59059719999999
        }
    },
    {
        "name": "Jama Masjid Saharsa",
        "main_category": "Mosque",
        "address": "VHFV+Q24 Jama Masjid Saharsa, Dharmashala Rd, Naya Bazar, Saharsa, Bihar 852202",
        "detailed_address": {
            "ward": "Naya Bazar",
            "street": "VHFV+Q24, Dharmashala Rd",
            "city": "Saharsa",
            "postal_code": "852202",
            "state": "Bihar",
            "country_code": "IN"
        },
        "images": [
            {
                "about": "All",
                "link": "https://streetviewpixels-pa.googleapis.com/v1/thumbnail?panoid=RmJzvbx3iq10zwFzkXjDmg&cb_client=maps_sv.tactile.gps&w=224&h=298&yaw=156.34804&pitch=0&thumbfov=100"
            },
            {
                "about": "Dome",
                "link": "https://lh5.googleusercontent.com/p/AF1QipNSmQ9hN8Eklx-eqyK2HYFVPKLbIdG2p09hpka1=w232-h298-k-no"
            },
            {
                "about": "Street View & 360deg",
                "link": "https://streetviewpixels-pa.googleapis.com/v1/thumbnail?panoid=RmJzvbx3iq10zwFzkXjDmg&cb_client=maps_sv.tactile.gps&w=224&h=298&yaw=156.34804&pitch=0&thumbfov=100"
            }
        ],
        "link": "https://www.google.com/maps/place/Jama+Masjid+Saharsa/data=!4m7!3m6!1s0x39ee3d91cfac2949:0x1bd808993e60e05d!8m2!3d25.8743787!4d86.5925661!16s%2Fg%2F11b6lmt_v9!19sChIJSSmsz5E97jkRXeBgPpkI2Bs?authuser=0&hl=en&rclk=1",
        "coordinates": {
            "latitude": 25.874378699999998,
            "longitude": 86.5925661
        }
    },
    {
        "name": "Moti Masjid",
        "main_category": "Mosque",
        "address": "Moti Masjid, 38, Saharsa Basti Ward Number 31, Saharsa, Bihar 852201",
        "detailed_address": {
            "ward": "Hatiya Gachhi",
            "street": "38, Saharsa Basti Ward Number 31",
            "city": "Saharsa",
            "postal_code": "852201",
            "state": "Bihar",
            "country_code": "IN"
        },
        "images": [
            {
                "about": "All",
                "link": "https://lh5.googleusercontent.com/p/AF1QipNFBT8QCQKjvuqXZoeESy_YMMnVv7DvGdpd5xM=w529-h298-k-no"
            },
            {
                "about": "Videos",
                "link": "https://lh5.googleusercontent.com/p/AF1QipM7CegI6mbM9-jqgUR4uFpCb8bvgPRcLnHWccds=w224-h298-k-no"
            }
        ],
        "link": "https://www.google.com/maps/place/Moti+Masjid/data=!4m7!3m6!1s0x39ee3db39cf7cc3d:0x50a9eadc2b50e2b3!8m2!3d25.8770758!4d86.6180678!16s%2Fg%2F11f3r4tkwk!19sChIJPcz3nLM97jkRs-JQK9zqqVA?authuser=0&hl=en&rclk=1",
        "coordinates": {
            "latitude": 25.8770758,
            "longitude": 86.61806779999999
        }
    },
    {
        "name": "Markaz",
        "main_category": "Mosque",
        "address": "Markaz, 38, Saharsa Basti Ward Number 31, Hatiya Gachhi, Saharsa, Bihar 852201",
        "detailed_address": {
            "ward": "Hatiya Gachhi",
            "street": "38, Saharsa Basti Ward Number 31",
            "city": "Saharsa",
            "postal_code": "852201",
            "state": "Bihar",
            "country_code": "IN"
        },
        "images": [
            {
                "about": "All",
                "link": "https://lh5.googleusercontent.com/p/AF1QipNnZIHiV5zHaiQYp-nUfsVL7W200mWEaJJEJvn_=w645-h298-k-no"
            },
            {
                "about": "Videos",
                "link": "https://lh5.googleusercontent.com/p/AF1QipNO2aLEEWY23xjZD8c0bGOzacGiR-MvyhoY3Grw=w224-h398-k-no"
            }
        ],
        "link": "https://www.google.com/maps/place/Markaz/data=!4m7!3m6!1s0x39ee3db1687dcb2b:0xe21ef08bf2a002db!8m2!3d25.8762761!4d86.6150985!16s%2Fg%2F11g6rkrkf_!19sChIJK8t9aLE97jkR2wKg8ovwHuI?authuser=0&hl=en&rclk=1",
        "coordinates": {
            "latitude": 25.8762761,
            "longitude": 86.6150985
        }
    },
    {
        "name": "Makki Masjid",
        "main_category": "Mosque",
        "address": "Makki Masjid, 38,, Saharsa Basti Ward Number 31, Hatiya Gachhi, Saharsa, Bihar 852201",
        "detailed_address": {
            "ward": "Hatiya Gachhi",
            "street": "38,, Saharsa Basti Ward Number 31",
            "city": "Saharsa",
            "postal_code": "852201",
            "state": "Bihar",
            "country_code": "IN"
        },
        "images": [
            {
                "about": "All",
                "link": "https://lh5.googleusercontent.com/p/AF1QipMxd580iZzKz793e85rI3zII6Z7wXag_WRCGMx4=w397-h298-k-no"
            },
            {
                "about": "Videos",
                "link": "https://lh5.googleusercontent.com/p/AF1QipOSWMq4YVPWyKr8y1Es7dhpTvGTl0_BOkjQd3gN=w224-h398-k-no"
            }
        ],
        "link": "https://www.google.com/maps/place/Makki+Masjid/data=!4m7!3m6!1s0x39ee3db25d864a79:0xfb29ab1137ca6564!8m2!3d25.8735714!4d86.6178354!16s%2Fg%2F11c1qkkr20!19sChIJeUqGXbI97jkRZGXKNxGrKfs?authuser=0&hl=en&rclk=1",
        "coordinates": {
            "latitude": 25.8735714,
            "longitude": 86.61783539999999
        }
    },
    {
        "name": "Naie masjid saharsa basti",
        "main_category": "Mosque",
        "address": "Naie masjid saharsa basti, 38, Saharsa Basti Ward Number 31, Hatiya Gachhi, Saharsa, Bihar 852201",
        "detailed_address": {
            "ward": "Hatiya Gachhi",
            "street": "38, Saharsa Basti Ward Number 31",
            "city": "Saharsa",
            "postal_code": "852201",
            "state": "Bihar",
            "country_code": "IN"
        },
        "images": [
            {
                "about": "All",
                "link": "https://lh5.googleusercontent.com/p/AF1QipP2QO3TqIEdMhnF-hMYzbs8aylqSknKs22N9NJW=w397-h298-k-no"
            },
            {
                "about": "Videos",
                "link": "https://lh5.googleusercontent.com/p/AF1QipPVGSOL8wfbALvB0lyhyt8O94QpFAuAiagxLP5i=w224-h398-k-no"
            }
        ],
        "link": "https://www.google.com/maps/place/Naie+masjid+saharsa+basti/data=!4m7!3m6!1s0x39ee3db1eed32c5d:0x466a3821e8fb6d15!8m2!3d25.8730218!4d86.6148467!16s%2Fg%2F11c61v2xl6!19sChIJXSzT7rE97jkRFW376CE4akY?authuser=0&hl=en&rclk=1",
        "coordinates": {
            "latitude": 25.8730218,
            "longitude": 86.6148467
        }
    },
    {
        "name": "Bilal Masjid Kamalpur",
        "main_category": "Mosque",
        "address": "VG5M+RWH Bilal Masjid Kamalpur, Kamalpur, Bariyahi Bazar, Saharsa, Bihar 852212",
        "detailed_address": {
            "ward": "Bariyahi Bazar",
            "street": "VG5M+RWH, Kamalpur",
            "city": "Saharsa, Bariyahi",
            "postal_code": "852212",
            "state": "Bihar",
            "country_code": "IN"
        },
        "images": [
            {
                "about": "All",
                "link": "https://lh5.googleusercontent.com/p/AF1QipPT5e8YUPxxeW35h05r2KD4DmR2tQUOAcShVMJQ=w397-h298-k-no"
            },
            {
                "about": "Videos",
                "link": "https://lh5.googleusercontent.com/p/AF1QipMlvS1jyE9tJswrFF1dEn72y5kV-Dxk2-11dqY=w224-h398-k-no"
            }
        ],
        "link": "https://www.google.com/maps/place/Bilal+Masjid+Kamalpur/data=!4m7!3m6!1s0x39ee16fde1088f39:0x203c4d7f2212cb85!8m2!3d25.8595615!4d86.5348485!16s%2Fg%2F11g8cz0dkw!19sChIJOY8I4f0W7jkRhcsSIn9NPCA?authuser=0&hl=en&rclk=1",
        "coordinates": {
            "latitude": 25.859561499999998,
            "longitude": 86.5348485
        }
    },
    {
        "name": "Masjid-E-Ali",
        "main_category": "Mosque",
        "address": "VJG5+89Q Masjid-E-Ali, Maheshkhunt - Madhepura - Purnia Rd, Hatiya Gachhi, Saharsa, Bihar 852201",
        "detailed_address": {
            "ward": "Hatiya Gachhi",
            "street": "VJG5+89Q, Maheshkhunt - Madhepura - Purnia Rd",
            "city": "Saharsa",
            "postal_code": "852201",
            "state": "Bihar",
            "country_code": "IN"
        },
        "images": [
            {
                "about": "All",
                "link": "https://streetviewpixels-pa.googleapis.com/v1/thumbnail?panoid=OWufzqEf_eYXHZ1zwGEaFg&cb_client=maps_sv.tactile.gps&w=224&h=298&yaw=295.19144&pitch=0&thumbfov=100"
            },
            {
                "about": "Street View & 360deg",
                "link": "https://streetviewpixels-pa.googleapis.com/v1/thumbnail?panoid=OWufzqEf_eYXHZ1zwGEaFg&cb_client=maps_sv.tactile.gps&w=224&h=298&yaw=295.19144&pitch=0&thumbfov=100"
            }
        ],
        "link": "https://www.google.com/maps/place/Masjid-E-Ali/data=!4m7!3m6!1s0x39ee3dba4c22606f:0x3235bbc5b0c063b9!8m2!3d25.8758282!4d86.6084754!16s%2Fg%2F11c603sd5g!19sChIJb2AiTLo97jkRuWPAsMW7NTI?authuser=0&hl=en&rclk=1",
        "coordinates": {
            "latitude": 25.875828199999997,
            "longitude": 86.60847539999999
        }
    },
    {
        "name": "Noori Masjid Dighiya Saharsa",
        "main_category": "Mosque",
        "address": "RHX5+3FX Noori Masjid Dighiya Saharsa, Dighia, Bihar 852212",
        "detailed_address": {
            "ward": null,
            "street": "RHX5+3FX",
            "city": "Dighia",
            "postal_code": null,
            "state": "Bihar",
            "country_code": "IN"
        },
        "images": [
            {
                "about": "All",
                "link": "https://lh5.googleusercontent.com/p/AF1QipOPx8QnJyQphSsf4XzJA3iR0MZimAKU8s5SN1vS=w224-h473-k-no"
            },
            {
                "about": "Street View & 360deg",
                "link": "https://streetviewpixels-pa.googleapis.com/v1/thumbnail?panoid=LQ9f8m0b8O7DVyovD5gFgg&cb_client=maps_sv.tactile.gps&w=224&h=298&yaw=308.82687&pitch=0&thumbfov=100"
            },
            {
                "about": "Videos",
                "link": "https://lh5.googleusercontent.com/p/AF1QipOeHSEF1av9STEL0WKdflbYhbdgYBtO7Ma9RCcC=w224-h398-k-no"
            }
        ],
        "link": "https://www.google.com/maps/place/Noori+Masjid+Dighiya+Saharsa/data=!4m7!3m6!1s0x39ee178f2a65e787:0xc4518c2a34705e2!8m2!3d25.8477484!4d86.5587354!16s%2Fg%2F11g0l9qny2!19sChIJh-dlKo8X7jkR4gVHo8IYRQw?authuser=0&hl=en&rclk=1",
        "coordinates": {
            "latitude": 25.8477484,
            "longitude": 86.55873539999999
        }
    },
    {
        "name": "Mohammadi Maszid",
        "main_category": "Mosque",
        "address": "Mohammadi Maszid, 38, Saharsa Basti Ward Number 31, Hatiya Gachhi, Saharsa, Bihar 852201",
        "detailed_address": {
            "ward": "Hatiya Gachhi",
            "street": "38, Saharsa Basti Ward Number 31",
            "city": "Saharsa",
            "postal_code": "852201",
            "state": "Bihar",
            "country_code": "IN"
        },
        "images": [
            {
                "about": "All",
                "link": "https://streetviewpixels-pa.googleapis.com/v1/thumbnail?panoid=5UlZkeBjMuYN21uh2Su8TQ&cb_client=maps_sv.tactile.gps&w=224&h=298&yaw=328.60718&pitch=0&thumbfov=100"
            },
            {
                "about": "Street View & 360deg",
                "link": "https://streetviewpixels-pa.googleapis.com/v1/thumbnail?panoid=5UlZkeBjMuYN21uh2Su8TQ&cb_client=maps_sv.tactile.gps&w=224&h=298&yaw=328.60718&pitch=0&thumbfov=100"
            }
        ],
        "link": "https://www.google.com/maps/place/Mohammadi+Maszid/data=!4m7!3m6!1s0x39ee3dae2e7f45e1:0x9e16fcbc57e54dd6!8m2!3d25.8714145!4d86.6135074!16s%2Fg%2F11c6f1ntk6!19sChIJ4UV_Lq497jkR1k3lV7z8Fp4?authuser=0&hl=en&rclk=1",
        "coordinates": {
            "latitude": 25.8714145,
            "longitude": 86.6135074
        }
    },
    {
        "name": "Madni Masjid Ward No-33",
        "main_category": "Mosque",
        "address": "Madni Masjid Ward No-33, Rahmani Lane Road, Madni Masjid Muhallah Ward Number 33, Basti-(Bulluaha, near Aman chowk, Saharsa, Bihar 852201",
        "detailed_address": {
            "ward": "Hatiya Gachhi",
            "street": "Rahmani Lane Road, Madni Masjid Muhallah Ward Number 33, Basti-(Bulluaha, near Aman chowk",
            "city": "Saharsa",
            "postal_code": "852201",
            "state": "Bihar",
            "country_code": "IN"
        },
        "images": [
            {
                "about": "All",
                "link": "https://lh5.googleusercontent.com/p/AF1QipPzcUGJhruvmGfoaIhx1AmF4cZknafV3xdMLlJB=w528-h298-k-no"
            },
            {
                "about": "Street View & 360deg",
                "link": "https://streetviewpixels-pa.googleapis.com/v1/thumbnail?panoid=AbxX8mlY3o9M40bcWULLuQ&cb_client=maps_sv.tactile.gps&w=224&h=298&yaw=77.238434&pitch=0&thumbfov=100"
            }
        ],
        "link": "https://www.google.com/maps/place/Madni+Masjid+Ward+No-33/data=!4m7!3m6!1s0x39ee3db3f8d39f57:0x50d3f3e519fb2bc6!8m2!3d25.8777463!4d86.6161611!16s%2Fg%2F11gf1303gn!19sChIJV5_T-LM97jkRxiv7GeXz01A?authuser=0&hl=en&rclk=1",
        "coordinates": {
            "latitude": 25.8777463,
            "longitude": 86.6161611
        }
    },
    {
        "name": "mdnii msjid Madni Masjid",
        "main_category": "Mosque",
        "address": "VJH8+3FV mdnii msjid Madni Masjid, Unnamed Road, Hatiya Gachhi, Saharsa, Bihar 852201",
        "detailed_address": {
            "ward": "Hatiya Gachhi",
            "street": "VJH8+3FV, Unnamed Road",
            "city": "Saharsa",
            "postal_code": "852201",
            "state": "Bihar",
            "country_code": "IN"
        },
        "images": [
            {
                "about": "All",
                "link": "https://lh5.googleusercontent.com/p/AF1QipM-Wom5rkVH6IJJ6u4_FhxXqcbkNC0w2UDgAw1I=w529-h298-k-no"
            },
            {
                "about": "Dome",
                "link": "https://lh5.googleusercontent.com/p/AF1QipOYTbEVvqAJV8aajCuxSepZXCDGAZbtyGcUjk1H=w628-h298-k-no"
            },
            {
                "about": "Street View & 360deg",
                "link": "https://streetviewpixels-pa.googleapis.com/v1/thumbnail?panoid=AbxX8mlY3o9M40bcWULLuQ&cb_client=maps_sv.tactile.gps&w=224&h=298&yaw=77.238434&pitch=0&thumbfov=100"
            }
        ],
        "link": "https://www.google.com/maps/place/%E0%A4%AE%E0%A4%A6%E0%A4%A8%E0%A5%80+%E0%A4%AE%E0%A4%B8%E0%A5%8D%E0%A4%9C%E0%A4%BF%E0%A4%A6+Madni+Masjid/data=!4m7!3m6!1s0x39ee3db3ff2a01ab:0x883779419e4f4e54!8m2!3d25.8777463!4d86.6161611!16s%2Fg%2F11f3cq_s9g!19sChIJqwEq_7M97jkRVE5PnkF5N4g?authuser=0&hl=en&rclk=1",
        "coordinates": {
            "latitude": 25.8777463,
            "longitude": 86.6161611
        }
    },
    {
        "name": "Masjid",
        "main_category": "Mosque",
        "address": "VHQC+GQH Masjid, Saharsa, Bihar 852202",
        "detailed_address": {
            "ward": null,
            "street": "VHQC+GQH",
            "city": "Saharsa",
            "postal_code": null,
            "state": "Bihar",
            "country_code": "IN"
        },
        "images": [
            {
                "about": "All",
                "link": "https://streetviewpixels-pa.googleapis.com/v1/thumbnail?panoid=q3bHg72L_KL_S3Ab3uY7ew&cb_client=maps_sv.tactile.gps&w=224&h=298&yaw=313.16687&pitch=0&thumbfov=100"
            },
            {
                "about": "Street View & 360deg",
                "link": "https://streetviewpixels-pa.googleapis.com/v1/thumbnail?panoid=q3bHg72L_KL_S3Ab3uY7ew&cb_client=maps_sv.tactile.gps&w=224&h=298&yaw=313.16687&pitch=0&thumbfov=100"
            }
        ],
        "link": "https://www.google.com/maps/place/Masjid/data=!4m7!3m6!1s0x39ee161a27473caf:0x7e25e42b0c7b25c!8m2!3d25.8888158!4d86.5719877!16s%2Fg%2F11gdy2b5n3!19sChIJrzxHJxoW7jkRXLLHsEJe4gc?authuser=0&hl=en&rclk=1",
        "coordinates": {
            "latitude": 25.8888158,
            "longitude": 86.5719877
        }
    },
    {
        "name": "JAMA masjid Gamharia, station road, saharsa",
        "main_category": "Mosque",
        "address": "VMW3+X5C JAMA masjid Gamharia, station road, saharsa, Gamaharia - Baijnathpur Rd, Gamhariya, Saharsa, Bihar 852219",
        "detailed_address": {
            "ward": null,
            "street": "VMW3+X5C, Gamaharia - Baijnathpur Rd",
            "city": "Gamhariya, Saharsa",
            "postal_code": "852219",
            "state": "Bihar",
            "country_code": "IN"
        },
        "images": [
            {
                "about": "All",
                "link": "https://lh5.googleusercontent.com/p/AF1QipMTS0aBUWte_w6ucmp5F5sUEukE4uxilIFCxT9C=w224-h510-k-no"
            },
            {
                "about": "Street View & 360deg",
                "link": "https://streetviewpixels-pa.googleapis.com/v1/thumbnail?panoid=HQGpw0vRCe6HLXT0gwQniw&cb_client=maps_sv.tactile.gps&w=224&h=298&yaw=101.58489&pitch=0&thumbfov=100"
            }
        ],
        "link": "https://www.google.com/maps/place/JAMA+masjid+Gamharia,+station+road,+saharsa/data=!4m7!3m6!1s0x39ee3d9c8ed76c03:0x8797596797c9fced!8m2!3d25.8974267!4d86.6529056!16s%2Fg%2F11fvwcxs1h!19sChIJA2zXjpw97jkR7fzJl2dZl4c?authuser=0&hl=en&rclk=1",
        "coordinates": {
            "latitude": 25.8974267,
            "longitude": 86.6529056
        }
    },
    {
        "name": "JAMA MSJID,GANGJALA",
        "main_category": "Mosque",
        "address": "VJQ3+PFP JAMA MSJID,GANGJALA, Ward Number 15, Rajwanshi Nagar, Saharsa, Bihar 852201",
        "detailed_address": {
            "ward": "Ward Number 15, Rajwanshi Nagar",
            "street": "VJQ3+PFP",
            "city": "Saharsa",
            "postal_code": "852201",
            "state": "Bihar",
            "country_code": "IN"
        },
        "images": [
            {
                "about": "All",
                "link": "https://lh5.googleusercontent.com/p/AF1QipM1twS3fmDw0y-xyanpDtKVI2dXRCBe3mMUtVYj=w529-h298-k-no"
            },
            {
                "about": "Street View & 360deg",
                "link": "https://streetviewpixels-pa.googleapis.com/v1/thumbnail?panoid=OKzn7D5BD9xIWrq2kclhAg&cb_client=maps_sv.tactile.gps&w=224&h=298&yaw=315.48282&pitch=0&thumbfov=100"
            }
        ],
        "link": "https://www.google.com/maps/place/JAMA+MSJID,GANGJALA/data=!4m7!3m6!1s0x39ee3da304e74697:0xd7456561ee1aaeae!8m2!3d25.8893375!4d86.6037054!16s%2Fg%2F11j_zrq_kz!19sChIJl0bnBKM97jkRrq4a7mFlRdc?authuser=0&hl=en&rclk=1",
        "coordinates": {
            "latitude": 25.8893375,
            "longitude": 86.6037054
        }
    },
    {
        "name": "Masjid Rahmaniya",
        "main_category": "Mosque",
        "address": "Masjid Rahmaniya, Ward No. 28, Minnat Nagar, Kayasth Tola, W Railway Colony Rd, Jay Prabha Nagar, Saharsa, Bihar 852201",
        "detailed_address": {
            "ward": "Ward Number 30, Jay Prabha Nagar",
            "street": "Ward No. 28, Minnat Nagar, Kayasth Tola, W Railway Colony Rd",
            "city": "Saharsa",
            "postal_code": "852201",
            "state": "Bihar",
            "country_code": "IN"
        },
        "images": [
            {
                "about": "All",
                "link": "https://lh5.googleusercontent.com/p/AF1QipMZu2EpOzpnz8F0fp7eEKFWQiT6VyjNpNCoqigJ=w224-h298-k-no"
            },
            {
                "about": "By owner",
                "link": "https://lh5.googleusercontent.com/p/AF1QipMF3IYkqOAlix-gHSaBcRiz7qihhmplTk3kOEos=w654-h298-k-no"
            },
            {
                "about": "Videos",
                "link": "https://lh5.googleusercontent.com/p/AF1QipMWtqyMc8CncedEGtBJpiLjqrMBNQpRRsO9bboQ=w224-h420-k-no"
            }
        ],
        "link": "https://www.google.com/maps/place/Masjid+Rahmaniya/data=!4m7!3m6!1s0x39ee3d1c75d891a1:0x972472ee9c5f98e2!8m2!3d25.8745225!4d86.5974704!16s%2Fg%2F11qq9rt3bp!19sChIJoZHYdRw97jkR4phfnO5yJJc?authuser=0&hl=en&rclk=1",
        "coordinates": {
            "latitude": 25.874522499999998,
            "longitude": 86.59747039999999
        }
    },
    {
        "name": "Sapha CHHOTI Masjid",
        "main_category": "Mosque",
        "address": "WM62+X29 Sapha CHHOTI Masjid, Saharsa Rd, Khajuri, Gamhariya, Bihar 852219",
        "detailed_address": {
            "ward": null,
            "street": "WM62+X29, Saharsa Rd",
            "city": "Khajuri, Gamhariya",
            "postal_code": null,
            "state": "Bihar",
            "country_code": "IN"
        },
        "images": [
            {
                "about": "All",
                "link": "https://streetviewpixels-pa.googleapis.com/v1/thumbnail?panoid=CIBLRl_SAZn1dBwBBGooVg&cb_client=maps_sv.tactile.gps&w=224&h=298&yaw=244.21725&pitch=0&thumbfov=100"
            },
            {
                "about": "Street View & 360deg",
                "link": "https://streetviewpixels-pa.googleapis.com/v1/thumbnail?panoid=CIBLRl_SAZn1dBwBBGooVg&cb_client=maps_sv.tactile.gps&w=224&h=298&yaw=244.21725&pitch=0&thumbfov=100"
            }
        ],
        "link": "https://www.google.com/maps/place/Sapha+CHHOTI+Masjid/data=!4m7!3m6!1s0x39ee3f3907098109:0xfa469ea56cb5acff!8m2!3d25.9124004!4d86.6501201!16s%2Fg%2F11t6_0xxrw!19sChIJCYEJBzk_7jkR_6y1bKWeRvo?authuser=0&hl=en&rclk=1",
        "coordinates": {
            "latitude": 25.9124004,
            "longitude": 86.6501201
        }
    },
    {
        "name": "Khara mosque",
        "main_category": "Mosque",
        "address": "Khara mosque, Shri laxmi niwas Ward no 24, Shardha Nagar, Saharsa, Bihar 852201",
        "detailed_address": {
            "ward": "Laxmi Nath Nagar, Shardha Nagar",
            "street": "Shri laxmi niwas Ward no 24",
            "city": "Saharsa",
            "postal_code": "852201",
            "state": "Bihar",
            "country_code": "IN"
        },
        "images": [
            {
                "about": "All",
                "link": "https://streetviewpixels-pa.googleapis.com/v1/thumbnail?panoid=4fPqLlfN576i4dw0zbfxew&cb_client=maps_sv.tactile.gps&w=224&h=298&yaw=24.917727&pitch=0&thumbfov=100"
            },
            {
                "about": "Street View & 360deg",
                "link": "https://streetviewpixels-pa.googleapis.com/v1/thumbnail?panoid=4fPqLlfN576i4dw0zbfxew&cb_client=maps_sv.tactile.gps&w=224&h=298&yaw=24.917727&pitch=0&thumbfov=100"
            }
        ],
        "link": "https://www.google.com/maps/place/Khara+mosque/data=!4m7!3m6!1s0x39ee3d2f0f1fbfcd:0xe5a3143fb1a0deae!8m2!3d25.8644575!4d86.5817412!16s%2Fg%2F11h_4_0q7p!19sChIJzb8fDy897jkRrt6gsT8Uo-U?authuser=0&hl=en&rclk=1",
        "coordinates": {
            "latitude": 25.8644575,
            "longitude": 86.5817412
        }
    },
    {
        "name": "Shahi masjid",
        "main_category": "Mosque",
        "address": "Ward no 16, Shahi masjid, Gangjala Chowk Dhala, Sant Nagar, Saharsa, Bihar 852201",
        "detailed_address": {
            "ward": "Sant Nagar",
            "street": "Ward no 16, Gangjala Chowk Dhala",
            "city": "Saharsa",
            "postal_code": null,
            "state": "Bihar",
            "country_code": "IN"
        },
        "images": [
            {
                "about": "All",
                "link": "https://streetviewpixels-pa.googleapis.com/v1/thumbnail?panoid=RD3yqBarSkZbgmfFOEKDOA&cb_client=maps_sv.tactile.gps&w=224&h=298&yaw=167.46404&pitch=0&thumbfov=100"
            },
            {
                "about": "Street View & 360deg",
                "link": "https://streetviewpixels-pa.googleapis.com/v1/thumbnail?panoid=RD3yqBarSkZbgmfFOEKDOA&cb_client=maps_sv.tactile.gps&w=224&h=298&yaw=167.46404&pitch=0&thumbfov=100"
            }
        ],
        "link": "https://www.google.com/maps/place/Shahi+masjid/data=!4m7!3m6!1s0x39ee3da09a8ccf6f:0x2edfda894a35a0c7!8m2!3d25.8832695!4d86.6025453!16s%2Fg%2F11hkd418ws!19sChIJb8-MmqA97jkRx6A1Sona3y4?authuser=0&hl=en&rclk=1",
        "coordinates": {
            "latitude": 25.883269499999997,
            "longitude": 86.6025453
        }
    },
    {
        "name": "sunnii bilaal msjid",
        "main_category": "Mosque",
        "address": "VJGH+29G sunnii bilaal msjid, Patuaha, Saharsa, Bihar 852221",
        "detailed_address": {
            "ward": null,
            "street": "VJGH+29G",
            "city": "Patuaha, Saharsa",
            "postal_code": null,
            "state": "Bihar",
            "country_code": "IN"
        },
        "images": [
            {
                "about": "All",
                "link": "https://lh5.googleusercontent.com/p/AF1QipO9jamYT6aqlXYFujn0PQP0iNT1PYDDLlkzPkOd=w529-h298-k-no"
            },
            {
                "about": "Videos",
                "link": "https://lh5.googleusercontent.com/p/AF1QipO9jamYT6aqlXYFujn0PQP0iNT1PYDDLlkzPkOd=w529-h298-k-no"
            }
        ],
        "link": "https://www.google.com/maps/place/%E0%A4%B8%E0%A5%81%E0%A4%A8%E0%A5%8D%E0%A4%A8%E0%A5%80+%E0%A4%AC%E0%A4%BF%E0%A4%B2%E0%A4%BE%E0%A4%B2+%E0%A4%AE%E0%A4%B8%E0%A5%8D%E0%A4%9C%E0%A4%BF%E0%A4%A6/data=!4m7!3m6!1s0x39ee3d2a30ecf5b9:0x62824e0678ef103!8m2!3d25.8750611!4d86.6284586!16s%2Fg%2F11vc0hndss!19sChIJufXsMCo97jkRA_GOZ-AkKAY?authuser=0&hl=en&rclk=1",
        "coordinates": {
            "latitude": 25.8750611,
            "longitude": 86.6284586
        }
    },
    {
        "name": "Sakhua mosque",
        "main_category": "Mosque",
        "address": "RMV8+RPG Sakhua mosque, Saharsa, Bihar 852219",
        "detailed_address": {
            "ward": null,
            "street": "RMV8+RPG",
            "city": "Saharsa",
            "postal_code": "852219",
            "state": "Bihar",
            "country_code": "IN"
        },
        "images": [
            {
                "about": "All",
                "link": "https://lh5.googleusercontent.com/p/AF1QipMzO_RDS53xoHNUzQ2hJfsWEncxMa2T-Aa1d5I-=w250-h298-k-no"
            }
        ],
        "link": "https://www.google.com/maps/place/Sakhua+mosque/data=!4m7!3m6!1s0x39ee3b148291d1eb:0xf1db60383aba48e0!8m2!3d25.8445532!4d86.6668135!16s%2Fg%2F11p0_wx752!19sChIJ69GRghQ77jkR4Ei6Ojhg2_E?authuser=0&hl=en&rclk=1",
        "coordinates": {
            "latitude": 25.8445532,
            "longitude": 86.66681349999999
        }
    },
    {
        "name": "Sunni masjid saharsa",
        "main_category": "Mosque",
        "address": "VJGJ+96G Sunni masjid saharsa, Bherdhari, Patuaha, Saharsa, Bihar 852221",
        "detailed_address": {
            "ward": null,
            "street": "VJGJ+96G, Bherdhari",
            "city": "Patuaha, Saharsa",
            "postal_code": null,
            "state": "Bihar",
            "country_code": "IN"
        },
        "images": [
            {
                "about": "All",
                "link": "https://streetviewpixels-pa.googleapis.com/v1/thumbnail?panoid=G6kFFZivyj9bMIlo5-PZ8w&cb_client=maps_sv.tactile.gps&w=224&h=298&yaw=132.79123&pitch=0&thumbfov=100"
            },
            {
                "about": "Street View & 360deg",
                "link": "https://streetviewpixels-pa.googleapis.com/v1/thumbnail?panoid=G6kFFZivyj9bMIlo5-PZ8w&cb_client=maps_sv.tactile.gps&w=224&h=298&yaw=132.79123&pitch=0&thumbfov=100"
            }
        ],
        "link": "https://www.google.com/maps/place/Sunni+masjid+saharsa/data=!4m7!3m6!1s0x39ee3dd8b4b1a063:0xbd0e0420a7ad0c6!8m2!3d25.8759305!4d86.6305856!16s%2Fg%2F11pv68v1q4!19sChIJY6CxtNg97jkRxtB6CkLg0As?authuser=0&hl=en&rclk=1",
        "coordinates": {
            "latitude": 25.8759305,
            "longitude": 86.63058559999999
        }
    },
    {
        "name": "Sahai Mosque Sah Tola",
        "main_category": "Mosque",
        "address": "VJH3+XFJ Sahai Mosque Sah Tola, Unnamed Road, Sant Nagar, Saharsa, Bihar 852201",
        "detailed_address": {
            "ward": "Sant Nagar",
            "street": "VJH3+XFJ, Unnamed Road",
            "city": "Saharsa",
            "postal_code": "852201",
            "state": "Bihar",
            "country_code": "IN"
        },
        "images": [
            {
                "about": "All",
                "link": "https://streetviewpixels-pa.googleapis.com/v1/thumbnail?panoid=pU9fGmbdDdBW6vpqmAwleg&cb_client=maps_sv.tactile.gps&w=224&h=298&yaw=98.523895&pitch=0&thumbfov=100"
            },
            {
                "about": "Street View & 360deg",
                "link": "https://streetviewpixels-pa.googleapis.com/v1/thumbnail?panoid=pU9fGmbdDdBW6vpqmAwleg&cb_client=maps_sv.tactile.gps&w=224&h=298&yaw=98.523895&pitch=0&thumbfov=100"
            }
        ],
        "link": "https://www.google.com/maps/place/Sahai+Mosque+Sah+Tola/data=!4m7!3m6!1s0x39ee3d54990c0947:0x714ac433fb3d69c1!8m2!3d25.8799694!4d86.6036285!16s%2Fg%2F11hybzr39p!19sChIJRwkMmVQ97jkRwWk9-zPESnE?authuser=0&hl=en&rclk=1",
        "coordinates": {
            "latitude": 25.8799694,
            "longitude": 86.6036285
        }
    },
    {
        "name": "Masjid Ali Nagar",
        "main_category": "Mosque",
        "address": "VHFP+FP2 Masjid Ali Nagar, Ali Nagar,Ward 22, Bangaon Rd, Ward Number 22, Krishna Nagar, Saharsa, Bihar 852202",
        "detailed_address": {
            "ward": "Ward Number 22, Krishna Nagar",
            "street": "VHFP+FP2, Ali Nagar,Ward 22, Bangaon Rd",
            "city": "Saharsa",
            "postal_code": "852202",
            "state": "Bihar",
            "country_code": "IN"
        },
        "images": [],
        "link": "https://www.google.com/maps/place/Masjid+Ali+Nagar/data=!4m7!3m6!1s0x39ee3dbb2dd8cbad:0x48c13c8914c1ae18!8m2!3d25.87249!4d86.586195!16s%2Fg%2F11pqxvr9r2!19sChIJrcvYLbs97jkRGK7BFIk8wUg?authuser=0&hl=en&rclk=1",
        "coordinates": {
            "latitude": 25.87249,
            "longitude": 86.58619499999999
        }
    },
    {
        "name": "Chhoti masjid",
        "main_category": "Mosque",
        "address": "VH9V+69Q Chhoti masjid, Bhartiya Nagar, Krishna Nagar, Saharsa, Bihar 852202",
        "detailed_address": {
            "ward": "Bhartiya Nagar, Krishna Nagar",
            "street": "VH9V+69Q",
            "city": "Saharsa",
            "postal_code": "852202",
            "state": "Bihar",
            "country_code": "IN"
        },
        "images": [],
        "link": "https://www.google.com/maps/place/Chhoti+masjid/data=!4m7!3m6!1s0x39ee3de09d23b4cd:0xd2b9587cd311c767!8m2!3d25.8675046!4d86.5934868!16s%2Fg%2F11st9vwq5c!19sChIJzbQjneA97jkRZ8cR03xYudI?authuser=0&hl=en&rclk=1",
        "coordinates": {
            "latitude": 25.8675046,
            "longitude": 86.5934868
        }
    },
    {
        "name": "Sukhasan Masjid",
        "main_category": "Mosque",
        "address": "WJ53+8XW Sukhasan Masjid, Chaugara-Laukaha-Saharsa Rd, Baghi urf Bhaluasukhasan, Saharsa, Bihar 852124",
        "detailed_address": {
            "ward": null,
            "street": "WJ53+8XW, Chaugara-Laukaha-Saharsa Rd",
            "city": "Baghi urf Bhaluasukhasan, Saharsa",
            "postal_code": "852124",
            "state": "Bihar",
            "country_code": "IN"
        },
        "images": [
            {
                "about": "All",
                "link": "https://streetviewpixels-pa.googleapis.com/v1/thumbnail?panoid=iEbb8V7BLeciSbgg0JIJjw&cb_client=maps_sv.tactile.gps&w=224&h=298&yaw=295.75104&pitch=0&thumbfov=100"
            },
            {
                "about": "Street View & 360deg",
                "link": "https://streetviewpixels-pa.googleapis.com/v1/thumbnail?panoid=iEbb8V7BLeciSbgg0JIJjw&cb_client=maps_sv.tactile.gps&w=224&h=298&yaw=295.75104&pitch=0&thumbfov=100"
            }
        ],
        "link": "https://www.google.com/maps/place/Sukhasan+Masjid/data=!4m7!3m6!1s0x39ee3f97739c9b51:0x638c215d36dcae26!8m2!3d25.9083564!4d86.604951!16s%2Fg%2F11rws9jwv_!19sChIJUZucc5c_7jkRJq7cNl0hjGM?authuser=0&hl=en&rclk=1",
        "coordinates": {
            "latitude": 25.9083564,
            "longitude": 86.604951
        }
    },
    {
        "name": "Jama masjid baidhnathpur",
        "main_category": "Mosque",
        "address": "VJQW+R9G Jama masjid baidhnathpur, Baijnathpur, Saharsa, Bihar 852219",
        "detailed_address": {
            "ward": null,
            "street": "VJQW+R9G",
            "city": "Baijnathpur, Saharsa",
            "postal_code": null,
            "state": "Bihar",
            "country_code": "IN"
        },
        "images": [
            {
                "about": "All",
                "link": "https://streetviewpixels-pa.googleapis.com/v1/thumbnail?panoid=equ2yJscesl_ElfKCA10Sg&cb_client=maps_sv.tactile.gps&w=224&h=298&yaw=269.92532&pitch=0&thumbfov=100"
            },
            {
                "about": "Street View & 360deg",
                "link": "https://streetviewpixels-pa.googleapis.com/v1/thumbnail?panoid=equ2yJscesl_ElfKCA10Sg&cb_client=maps_sv.tactile.gps&w=224&h=298&yaw=269.92532&pitch=0&thumbfov=100"
            }
        ],
        "link": "https://www.google.com/maps/place/Jama+masjid+baidhnathpur/data=!4m7!3m6!1s0x39ee3dbd68db6ee5:0x4838d4e74f055050!8m2!3d25.8895687!4d86.6459379!16s%2Fg%2F11sf9_hzk1!19sChIJ5W7baL097jkRUFAFT-fUOEg?authuser=0&hl=en&rclk=1",
        "coordinates": {
            "latitude": 25.889568699999998,
            "longitude": 86.64593789999999
        }
    },
    {
        "name": "JAMA MASJID",
        "main_category": "Museum",
        "address": "VHFM+QX7 JAMA MASJID, Bangaon Rd, Krishna Nagar, Saharsa, Bihar 852202",
        "detailed_address": {
            "ward": "Krishna Nagar",
            "street": "VHFM+QX7, Bangaon Rd",
            "city": "Saharsa",
            "postal_code": "852202",
            "state": "Bihar",
            "country_code": "IN"
        },
        "images": [
            {
                "about": "All",
                "link": "https://streetviewpixels-pa.googleapis.com/v1/thumbnail?panoid=FV_U-qBRagUwbHC9XmmzJw&cb_client=maps_sv.tactile.gps&w=224&h=298&yaw=337.90802&pitch=0&thumbfov=100"
            },
            {
                "about": "Street View & 360deg",
                "link": "https://streetviewpixels-pa.googleapis.com/v1/thumbnail?panoid=FV_U-qBRagUwbHC9XmmzJw&cb_client=maps_sv.tactile.gps&w=224&h=298&yaw=337.90802&pitch=0&thumbfov=100"
            }
        ],
        "link": "https://www.google.com/maps/place/JAMA+MASJID/data=!4m7!3m6!1s0x39ee3d55cc809e29:0x7dce223e75e763f8!8m2!3d25.8744036!4d86.5849302!16s%2Fg%2F11gy7tt5m7!19sChIJKZ6AzFU97jkR-GPndT4izn0?authuser=0&hl=en&rclk=1",
        "coordinates": {
            "latitude": 25.874403599999997,
            "longitude": 86.5849302
        }
    }
]