[
    {
        "name": "Nayapara Masjid msjd, Goalpara Nayapara",
        "main_category": "Mosque",
        "address": "5JHF+6V7 Nayapara Masjid msjd, Goalpara Nayapara, Agia Rd, Goalpara, Assam 783101",
        "detailed_address": {
            "ward": null,
            "street": "5JHF+6V7, Agia Rd",
            "city": "Goalpara",
            "postal_code": "783101",
            "state": "Assam",
            "country_code": "IN"
        },
        "images": [
            {
                "about": "All",
                "link": "https://lh5.googleusercontent.com/p/AF1QipOuMpJuzxhLjK4wkDJf3GgxhhcP1F_IGVD5GDfn=w348-h298-k-no"
            },
            {
                "about": "Street View & 360deg",
                "link": "https://streetviewpixels-pa.googleapis.com/v1/thumbnail?panoid=ar1eoQeI0X-c3frO8edpaw&cb_client=maps_sv.tactile.gps&w=224&h=298&yaw=273.59213&pitch=0&thumbfov=100"
            },
            {
                "about": "Videos",
                "link": "https://lh5.googleusercontent.com/p/AF1QipOwB8usUjqbaHpCxnaFyfObigZM7b7V_NxYT6xz=w529-h298-k-no"
            }
        ],
        "link": "https://www.google.com/maps/place/Nayapara+Masjid+%D9%85%D8%B3%D8%AC%D8%AF,+Goalpara+Nayapara%E2%80%AD/data=!4m7!3m6!1s0x3759b31e9af54555:0x85acf8c7bcd42c5e!8m2!3d26.178028!4d90.6246729!16s%2Fg%2F1hc3kg8cs!19sChIJVUX1mh6zWTcRXizUvMf4rIU?authuser=0&hl=en&rclk=1",
        "coordinates": {
            "latitude": 26.178027999999998,
            "longitude": 90.6246729
        }
    },
    {
        "name": "Durgamandir Masjid, Durgamandir Goalpara",
        "main_category": "Mosque",
        "address": "5J49+VM5 Durgamandir Masjid, Durgamandir Goalpara, Goalpara, Assam 783121",
        "detailed_address": {
            "ward": null,
            "street": "5J49+VM5",
            "city": "Goalpara",
            "postal_code": "783121",
            "state": "Assam",
            "country_code": "IN"
        },
        "images": [
            {
                "about": "All",
                "link": "https://lh5.googleusercontent.com/p/AF1QipMyahyXVtQwG6C2CpqGG00g3yIpif6SWyAV-Ds=w397-h298-k-no"
            },
            {
                "about": "Street View & 360deg",
                "link": "https://streetviewpixels-pa.googleapis.com/v1/thumbnail?panoid=T0E6Ofguf1Q0fWaH_KdHFQ&cb_client=maps_sv.tactile.gps&w=224&h=298&yaw=62.721867&pitch=0&thumbfov=100"
            }
        ],
        "link": "https://www.google.com/maps/place/Durgamandir+Masjid,+Durgamandir+Goalpara/data=!4m7!3m6!1s0x3759b34014bcdbf7:0x18e27d4ba4643c5e!8m2!3d26.1571495!4d90.6192313!16s%2Fg%2F11c6c9z0c0!19sChIJ99u8FECzWTcRXjxkpEt94hg?authuser=0&hl=en&rclk=1",
        "coordinates": {
            "latitude": 26.1571495,
            "longitude": 90.6192313
        }
    },
    {
        "name": "Moila-pathar Bazar Masjid",
        "main_category": "Mosque",
        "address": "4JWJ+6QH Moila-pathar Bazar Masjid, Goalpara, Assam 783121",
        "detailed_address": {
            "ward": null,
            "street": "4JWJ+6QH",
            "city": "Goalpara",
            "postal_code": "783121",
            "state": "Assam",
            "country_code": "IN"
        },
        "images": [
            {
                "about": "All",
                "link": "https://lh5.googleusercontent.com/p/AF1QipPNr6_JtfOidZ2K76DMwzBmabVPvokacwcEZKxU=w397-h298-k-no"
            }
        ],
        "link": "https://www.google.com/maps/place/Moila-pathar+Bazar+Masjid/data=!4m7!3m6!1s0x3759b37a8814f711:0xd59b79e4c786f9f1!8m2!3d26.1455651!4d90.6319742!16s%2Fg%2F11g9q7fsvv!19sChIJEfcUiHqzWTcR8fmGx-R5m9U?authuser=0&hl=en&rclk=1",
        "coordinates": {
            "latitude": 26.1455651,
            "longitude": 90.6319742
        }
    },
    {
        "name": "East Hasilapara Masjid",
        "main_category": "Mosque",
        "address": "5JG7+WC3 East Hasilapara Masjid, Lakhipur - Goalpara Rd, Goalpara, Assam 783101",
        "detailed_address": {
            "ward": null,
            "street": "5JG7+WC3, Lakhipur - Goalpara Rd",
            "city": "Goalpara",
            "postal_code": "783101",
            "state": "Assam",
            "country_code": "IN"
        },
        "images": [
            {
                "about": "All",
                "link": "https://lh5.googleusercontent.com/p/AF1QipN3ug1i5BYPOT8iQQuHMP9Ie-KMjBOpDrk88i3L=w224-h298-k-no"
            },
            {
                "about": "Street View & 360deg",
                "link": "https://streetviewpixels-pa.googleapis.com/v1/thumbnail?panoid=RGICjzjuy00d3F5fsNJDuw&cb_client=maps_sv.tactile.gps&w=224&h=298&yaw=160.89159&pitch=0&thumbfov=100"
            },
            {
                "about": "Videos",
                "link": "https://lh5.googleusercontent.com/p/AF1QipNI5VqonUTRLK8d9yPompGVw2juRc3IA5h0_R8p=w529-h298-k-no"
            }
        ],
        "link": "https://www.google.com/maps/place/East+Hasilapara+Masjid/data=!4m7!3m6!1s0x3759b3268b6fb0e1:0x8a8b116b70beb349!8m2!3d26.1772745!4d90.6135617!16s%2Fg%2F11f2hx3b0n!19sChIJ4bBviyazWTcRSbO-cGsRi4o?authuser=0&hl=en&rclk=1",
        "coordinates": {
            "latitude": 26.1772745,
            "longitude": 90.61356169999999
        }
    },
    {
        "name": "Hedayetpur Masjid",
        "main_category": "Mosque",
        "address": "5J4C+QC2 Hedayetpur Masjid, Geetanagar, Goalpara, Assam 783121",
        "detailed_address": {
            "ward": "Geetanagar",
            "street": "5J4C+QC2",
            "city": "Goalpara",
            "postal_code": "783121",
            "state": "Assam",
            "country_code": "IN"
        },
        "images": [
            {
                "about": "All",
                "link": "https://lh5.googleusercontent.com/p/AF1QipPtJXu_K36vGkqZVYunlFBEVAdVXB2rnfwabl9J=w224-h298-k-no"
            }
        ],
        "link": "https://www.google.com/maps/place/Hedayetpur+Masjid/data=!4m7!3m6!1s0x3759b36abd32fc57:0xafbab051eee03d17!8m2!3d26.1568951!4d90.6210162!16s%2Fg%2F11dxmfkm4g!19sChIJV_wyvWqzWTcRFz3g7lGwuq8?authuser=0&hl=en&rclk=1",
        "coordinates": {
            "latitude": 26.1568951,
            "longitude": 90.6210162
        }
    },
    {
        "name": "Shastrinagar Masjid",
        "main_category": "Mosque",
        "address": "4JVH+WF8 Shastrinagar Masjid, Shastrinagar, Assam 783121",
        "detailed_address": {
            "ward": null,
            "street": "4JVH+WF8, Shastrinagar",
            "city": "Goalpara",
            "postal_code": "783121",
            "state": "Assam",
            "country_code": "IN"
        },
        "images": [
            {
                "about": "All",
                "link": "https://lh5.googleusercontent.com/p/AF1QipNGTzD-ey6wgutfZO9mY-f7Ua_f77PuaqKIiXRe=w397-h298-k-no"
            }
        ],
        "link": "https://www.google.com/maps/place/Shastrinagar+Masjid/data=!4m7!3m6!1s0x3759b3cfcb337663:0x5aa5fecded586ae!8m2!3d26.1447886!4d90.6287044!16s%2Fg%2F11ff54dvb2!19sChIJY3Yzy8-zWTcRrobV3uxfqgU?authuser=0&hl=en&rclk=1",
        "coordinates": {
            "latitude": 26.1447886,
            "longitude": 90.62870439999999
        }
    },
    {
        "name": "Udaynagar Masjid",
        "main_category": "Mosque",
        "address": "5J6C+8MH Udaynagar Masjid, SH 12A, Geetanagar, Goalpara, Assam 783121",
        "detailed_address": {
            "ward": "Geetanagar",
            "street": "5J6C+8MH, SH 12A",
            "city": "Goalpara",
            "postal_code": "783121",
            "state": "Assam",
            "country_code": "IN"
        },
        "images": [
            {
                "about": "All",
                "link": "https://streetviewpixels-pa.googleapis.com/v1/thumbnail?panoid=SKKVg0G9_GmpE0VwU1B4Yw&cb_client=maps_sv.tactile.gps&w=224&h=298&yaw=103.89231&pitch=0&thumbfov=100"
            },
            {
                "about": "Street View & 360deg",
                "link": "https://streetviewpixels-pa.googleapis.com/v1/thumbnail?panoid=SKKVg0G9_GmpE0VwU1B4Yw&cb_client=maps_sv.tactile.gps&w=224&h=298&yaw=103.89231&pitch=0&thumbfov=100"
            }
        ],
        "link": "https://www.google.com/maps/place/Udaynagar+Masjid/data=!4m7!3m6!1s0x3759b3150b777f45:0x2890d88de4ef557d!8m2!3d26.1608208!4d90.6217478!16s%2Fg%2F11f15l_ks_!19sChIJRX93CxWzWTcRfVXv5I3YkCg?authuser=0&hl=en&rclk=1",
        "coordinates": {
            "latitude": 26.1608208,
            "longitude": 90.6217478
        }
    },
    {
        "name": "Nabinagar Masjid",
        "main_category": "Mosque",
        "address": "5J4M+CFM Nabinagar Masjid, Unnamed Road, Goalpara, Assam 783121",
        "detailed_address": {
            "ward": null,
            "street": "5J4M+CFM, Unnamed Road",
            "city": "Goalpara",
            "postal_code": "783121",
            "state": "Assam",
            "country_code": "IN"
        },
        "images": [
            {
                "about": "All",
                "link": "https://streetviewpixels-pa.googleapis.com/v1/thumbnail?panoid=h--nkvbHIll-OIYNZ4A78g&cb_client=maps_sv.tactile.gps&w=224&h=298&yaw=215.49547&pitch=0&thumbfov=100"
            },
            {
                "about": "Street View & 360deg",
                "link": "https://streetviewpixels-pa.googleapis.com/v1/thumbnail?panoid=h--nkvbHIll-OIYNZ4A78g&cb_client=maps_sv.tactile.gps&w=224&h=298&yaw=215.49547&pitch=0&thumbfov=100"
            }
        ],
        "link": "https://www.google.com/maps/place/Nabinagar+Masjid/data=!4m7!3m6!1s0x3759b3736dc5eef5:0xa7ce13cb2bb9921b!8m2!3d26.1560834!4d90.6336762!16s%2Fg%2F11dxsbnf9k!19sChIJ9e7FbXOzWTcRG5K5K8sTzqc?authuser=0&hl=en&rclk=1",
        "coordinates": {
            "latitude": 26.1560834,
            "longitude": 90.6336762
        }
    },
    {
        "name": "Islampur Masjid, Goalpara City",
        "main_category": "Mosque",
        "address": "Islampur Masjid, Goalpara City, New Market. Annu Market. 1st Floor, Assam 783101",
        "detailed_address": {
            "ward": null,
            "street": "New Market. Annu Market. 1st Floor",
            "city": "Goalpara",
            "postal_code": "783101",
            "state": "Assam",
            "country_code": "IN"
        },
        "images": [
            {
                "about": "All",
                "link": "https://lh5.googleusercontent.com/p/AF1QipMl4e25ZexA9INF3OB6Xil4zaN8ObjtyxnIyfBp=w397-h298-k-no"
            },
            {
                "about": "Street View & 360deg",
                "link": "https://streetviewpixels-pa.googleapis.com/v1/thumbnail?panoid=od5AOrmVwB4vG-wdGNx2NA&cb_client=maps_sv.tactile.gps&w=224&h=298&yaw=82.57702&pitch=0&thumbfov=100"
            }
        ],
        "link": "https://www.google.com/maps/place/Islampur+Masjid,+Goalpara+City/data=!4m7!3m6!1s0x3759b3b18d18ef3b:0x63f13914d1c2b4a1!8m2!3d26.1676703!4d90.6251651!16s%2Fg%2F11gs9nh328!19sChIJO-8YjbGzWTcRobTC0RQ58WM?authuser=0&hl=en&rclk=1",
        "coordinates": {
            "latitude": 26.167670299999997,
            "longitude": 90.62516509999999
        }
    },
    {
        "name": "MORIOM NAGAR Masjid",
        "main_category": "Mosque",
        "address": "4JVJ+GQQ MORIOM NAGAR Masjid, Goalpara-Helapakhri Rd, Moila-Pathar, Goalpara, Assam 783121",
        "detailed_address": {
            "ward": "Moila-Pathar",
            "street": "4JVJ+GQQ, Goalpara-Helapakhri Rd",
            "city": "Goalpara",
            "postal_code": "783121",
            "state": "Assam",
            "country_code": "IN"
        },
        "images": [
            {
                "about": "All",
                "link": "https://lh5.googleusercontent.com/p/AF1QipMOEDYZMrbdzoqEBg28tLiInQvaKSzaa7xuWlsy=w397-h298-k-no"
            }
        ],
        "link": "https://www.google.com/maps/place/MORIOM+NAGAR+Masjid/data=!4m7!3m6!1s0x3759b34b2773dde3:0xce635276e0f8f59!8m2!3d26.1438271!4d90.6319838!16s%2Fg%2F11fb0jnzgt!19sChIJ491zJ0uzWTcRWY8Pbic15gw?authuser=0&hl=en&rclk=1",
        "coordinates": {
            "latitude": 26.1438271,
            "longitude": 90.6319838
        }
    },
    {
        "name": "Bausiapara Masjid msjd bwsybr",
        "main_category": "Mosque",
        "address": "5JJG+C4V Bausiapara Masjid msjd bwsybr, Bausiapara Rd, Goalpara, Assam 783101",
        "detailed_address": {
            "ward": null,
            "street": "5JJG+C4V, Bausiapara Rd",
            "city": "Goalpara",
            "postal_code": "783101",
            "state": "Assam",
            "country_code": "IN"
        },
        "images": [
            {
                "about": "All",
                "link": "https://lh5.googleusercontent.com/p/AF1QipNlUS4527kX6NuS_DGf7F9azh8zu5zWHzrA4yx3=w460-h298-k-no"
            },
            {
                "about": "Dome",
                "link": "https://lh5.googleusercontent.com/p/AF1QipN8a7s0Uw8UTeMuVADLhmdJmZazQNRQ_6BIJshH=w224-h298-k-no"
            }
        ],
        "link": "https://www.google.com/maps/place/Bausiapara+Masjid+%D9%85%D8%B3%D8%AC%D8%AF+%D8%A8%D9%88%D8%B3%D9%8A%D8%A7%D8%A8%D8%A7%D8%B1%D8%A7%E2%80%AD/data=!4m7!3m6!1s0x3759b31de32a8675:0xf86810e814bc1eab!8m2!3d26.1811072!4d90.6253041!16s%2Fg%2F11f32_fdqv!19sChIJdYYq4x2zWTcRqx68FOgQaPg?authuser=0&hl=en&rclk=1",
        "coordinates": {
            "latitude": 26.1811072,
            "longitude": 90.6253041
        }
    },
    {
        "name": "Madhya Mariam Nagar Masjid",
        "main_category": "Mosque",
        "address": "4JVJ+34V Madhya Mariam Nagar Masjid, Unnamed Road, Moila-Pathar, Goalpara, Assam 783121",
        "detailed_address": {
            "ward": "Moila-Pathar",
            "street": "4JVJ+34V, Unnamed Road",
            "city": "Goalpara",
            "postal_code": "783121",
            "state": "Assam",
            "country_code": "IN"
        },
        "images": [],
        "link": "https://www.google.com/maps/place/Madhya+Mariam+Nagar+Masjid/data=!4m7!3m6!1s0x3759b3290af1163d:0xb75eed5e3bb4e8cb!8m2!3d26.1427423!4d90.6302871!16s%2Fg%2F11fl088ws1!19sChIJPRbxCimzWTcRy-i0O17tXrc?authuser=0&hl=en&rclk=1",
        "coordinates": {
            "latitude": 26.1427423,
            "longitude": 90.63028709999999
        }
    },
    {
        "name": "Masjid-E-Naasiran",
        "main_category": "Mosque",
        "address": "4JW8+P89 Masjid-E-Naasiran, SH 12A, Bapuji Nagar, Goalpara, Assam 783121",
        "detailed_address": {
            "ward": "Bapuji Nagar",
            "street": "4JW8+P89, SH 12A",
            "city": "Goalpara",
            "postal_code": "783121",
            "state": "Assam",
            "country_code": "IN"
        },
        "images": [],
        "link": "https://www.google.com/maps/place/Masjid-E-Naasiran/data=!4m7!3m6!1s0x3759b3ac35017e0d:0xa46fe387c4d1aa39!8m2!3d26.1467912!4d90.615853!16s%2Fg%2F11j9ckbssm!19sChIJDX4BNayzWTcROarRxIfjb6Q?authuser=0&hl=en&rclk=1",
        "coordinates": {
            "latitude": 26.1467912,
            "longitude": 90.615853
        }
    },
    {
        "name": "Dhakiya Masjid",
        "main_category": "Mosque",
        "address": "5JMG+62Q Dhakiya Masjid, Bara Bazar, Goalpara, Assam 783101",
        "detailed_address": {
            "ward": "Bara Bazar",
            "street": "5JMG+62Q",
            "city": "Goalpara",
            "postal_code": "783101",
            "state": "Assam",
            "country_code": "IN"
        },
        "images": [
            {
                "about": "All",
                "link": "https://lh5.googleusercontent.com/p/AF1QipPAYpqgsDhkNFlYQ8mYgJhMWr36mMSR2IwF3TSf=w224-h298-k-no"
            }
        ],
        "link": "https://www.google.com/maps/place/Dhakiya+Masjid/data=!4m7!3m6!1s0x3759b3683526d6f5:0xf24ab2cb459fa601!8m2!3d26.1830791!4d90.625103!16s%2Fg%2F11t32238n0!19sChIJ9dYmNWizWTcRAaafRcuySvI?authuser=0&hl=en&rclk=1",
        "coordinates": {
            "latitude": 26.1830791,
            "longitude": 90.625103
        }
    },
    {
        "name": "Goalpara Markaz Jame Masjid",
        "main_category": "Mosque",
        "address": "5JH9+5RV Goalpara Markaz Jame Masjid, Pancharatna Goalpara Rd, Assam 783101",
        "detailed_address": {
            "ward": null,
            "street": "5JH9+5RV, Pancharatna Goalpara Rd",
            "city": null,
            "postal_code": "783101",
            "state": "Assam",
            "country_code": "IN"
        },
        "images": [
            {
                "about": "All",
                "link": "https://lh5.googleusercontent.com/p/AF1QipMQUjImke--_0StAIqb9KllDS33I3Wb5x4JYeDb=w224-h298-k-no"
            },
            {
                "about": "Street View & 360deg",
                "link": "https://streetviewpixels-pa.googleapis.com/v1/thumbnail?panoid=t4YJJxWvYYpnRgMObQQWcg&cb_client=maps_sv.tactile.gps&w=224&h=298&yaw=13.02261&pitch=0&thumbfov=100"
            }
        ],
        "link": "https://www.google.com/maps/place/Goalpara+Markaz+Jame+Masjid/data=!4m7!3m6!1s0x3759b3bade4f3c7b:0x198407a64940ce71!8m2!3d26.1779858!4d90.6195355!16s%2Fg%2F11j11s0l5r!19sChIJezxP3rqzWTcRcc5ASaYHhBk?authuser=0&hl=en&rclk=1",
        "coordinates": {
            "latitude": 26.1779858,
            "longitude": 90.6195355
        }
    },
    {
        "name": "Natun basti Masjid",
        "main_category": "Mosque",
        "address": "5JMF+HFF Natun basti Masjid, Bara Bazar, Goalpara, Assam 783101",
        "detailed_address": {
            "ward": "Bara Bazar",
            "street": "5JMF+HFF",
            "city": "Goalpara",
            "postal_code": "783101",
            "state": "Assam",
            "country_code": "IN"
        },
        "images": [],
        "link": "https://www.google.com/maps/place/Natun+basti+Masjid/data=!4m7!3m6!1s0x3759b3f4022d2b91:0xb70197024b3603ea!8m2!3d26.1839252!4d90.6236699!16s%2Fg%2F11h79wrs7g!19sChIJkSstAvSzWTcR6gM2SwKXAbc?authuser=0&hl=en&rclk=1",
        "coordinates": {
            "latitude": 26.183925199999997,
            "longitude": 90.6236699
        }
    },
    {
        "name": "Azad nagar Masjid.",
        "main_category": "Mosque",
        "address": "4JRR+FMV Azad nagar Masjid., Goalpara-Helapakhri Rd, Moila-Pathar, Goalpara, Assam 783121",
        "detailed_address": {
            "ward": "Moila-Pathar",
            "street": "4JRR+FMV, Goalpara-Helapakhri Rd",
            "city": "Goalpara",
            "postal_code": "783121",
            "state": "Assam",
            "country_code": "IN"
        },
        "images": [],
        "link": "https://www.google.com/maps/place/Azad+nagar+Masjid./data=!4m7!3m6!1s0x3759b3a00c5e8d91:0x64e958e3a6ab51c8!8m2!3d26.1412434!4d90.6416809!16s%2Fg%2F11s5br637d!19sChIJkY1eDKCzWTcRyFGrpuNY6WQ?authuser=0&hl=en&rclk=1",
        "coordinates": {
            "latitude": 26.1412434,
            "longitude": 90.6416809
        }
    },
    {
        "name": "Masjid ae Ansar",
        "main_category": "Mosque",
        "address": "5J68+79V Masjid ae Ansar, Priyo Nagar Rd, Goalpara, Assam 783101",
        "detailed_address": {
            "ward": null,
            "street": "5J68+79V, Priyo Nagar Rd",
            "city": "Goalpara",
            "postal_code": "783101",
            "state": "Assam",
            "country_code": "IN"
        },
        "images": [],
        "link": "https://www.google.com/maps/place/Masjid+ae+Ansar/data=!4m7!3m6!1s0x3759b39b4229bb4b:0x6e4cf73a982ccfd1!8m2!3d26.1607342!4d90.6159197!16s%2Fg%2F11rgzqvhmn!19sChIJS7spQpuzWTcR0c8smDr3TG4?authuser=0&hl=en&rclk=1",
        "coordinates": {
            "latitude": 26.1607342,
            "longitude": 90.61591969999999
        }
    },
    {
        "name": "Priya Nagar Dangor Masjid",
        "main_category": "Mosque",
        "address": "5J57+W4M Priya Nagar Dangor Masjid, Priyo Nagar Rd, Goalpara, Assam 783101",
        "detailed_address": {
            "ward": null,
            "street": "5J57+W4M, Priyo Nagar Rd",
            "city": "Goalpara",
            "postal_code": "783101",
            "state": "Assam",
            "country_code": "IN"
        },
        "images": [
            {
                "about": "All",
                "link": "https://lh5.googleusercontent.com/p/AF1QipP9Nz51-rIy--iPEdB6bC5G_Yw5uu9rfa10sbiI=w397-h298-k-no"
            }
        ],
        "link": "https://www.google.com/maps/place/Priya+Nagar+Dangor+Masjid/data=!4m7!3m6!1s0x3759b32fe6bb14e5:0x159272bbb45e46d9!8m2!3d26.1598296!4d90.6127989!16s%2Fg%2F11pcxjm970!19sChIJ5RS75i-zWTcR2UZetLtykhU?authuser=0&hl=en&rclk=1",
        "coordinates": {
            "latitude": 26.1598296,
            "longitude": 90.6127989
        }
    },
    {
        "name": "Ambari Masjid mbry msjd",
        "main_category": "Mosque",
        "address": "5JJG+CP3 Ambari Masjid mbry msjd, Ambari Road, Goalpara, Assam 783101",
        "detailed_address": {
            "ward": null,
            "street": "5JJG+CP3, Ambari Road",
            "city": "Goalpara",
            "postal_code": "783101",
            "state": "Assam",
            "country_code": "IN"
        },
        "images": [],
        "link": "https://www.google.com/maps/place/Ambari+Masjid+%D8%A7%D9%85%D8%A8%D8%A7%D8%B1%DB%8C+%D9%85%D8%B3%D8%AC%D8%AF%E2%80%AD/data=!4m7!3m6!1s0x3759b3c033f2d7c5:0x88212a7cee26d49e!8m2!3d26.1810227!4d90.6267896!16s%2Fg%2F11rc93n8xj!19sChIJxdfyM8CzWTcRntQm7nwqIYg?authuser=0&hl=en&rclk=1",
        "coordinates": {
            "latitude": 26.1810227,
            "longitude": 90.6267896
        }
    }
]