[
    {
        "name": "Masjid Ghareeb Nawaz",
        "main_category": "Mosque",
        "address": "Q2MF+4F2 Masjid Ghareeb Nawaz, Ashok Nagar, Chogurjee Nagar, Etawah, Uttar Pradesh 206001",
        "detailed_address": {
            "ward": "Ashok Nagar, Chogurjee Nagar",
            "street": "Q2MF+4F2",
            "city": "Etawah",
            "postal_code": "206001",
            "state": "Uttar Pradesh",
            "country_code": "IN"
        },
        "images": [
            {
                "about": "All",
                "link": "https://lh5.googleusercontent.com/p/AF1QipOlE1joZ_nWugOkqZ0qMDyGROaITnVhgTGnliQh=w224-h473-k-no"
            },
            {
                "about": "Dome",
                "link": "https://lh5.googleusercontent.com/p/AF1QipOGONNxPRj1sqqc-HrPpki33JeyCu6y_IqfnW7D=w397-h298-k-no"
            },
            {
                "about": "Videos",
                "link": "https://lh5.googleusercontent.com/p/AF1QipOUOB-Fee50mtjugMJmu9vOYvG6aXttWf-HmWhV=w224-h398-k-no"
            }
        ],
        "link": "https://www.google.com/maps/place/Masjid+Ghareeb+Nawaz/data=!4m7!3m6!1s0x3975e07995d8a49b:0xb952e75bfb20391!8m2!3d26.7827732!4d79.023653!16s%2Fg%2F11fx7vb2vv!19sChIJm6TYlXngdTkRkQOyv3UulQs?authuser=0&hl=en&rclk=1",
        "coordinates": {
            "latitude": 26.782773199999998,
            "longitude": 79.023653
        }
    },
    {
        "name": "JAMA MASJID ETAWAH",
        "main_category": "Mosque",
        "address": "Q297+CHH JAMA MASJID ETAWAH, Chhipaiti, Etawah, Uttar Pradesh 206001",
        "detailed_address": {
            "ward": "Chhipaiti",
            "street": "Q297+CHH",
            "city": "Etawah",
            "postal_code": "206001",
            "state": "Uttar Pradesh",
            "country_code": "IN"
        },
        "images": [
            {
                "about": "All",
                "link": "https://lh5.googleusercontent.com/p/AF1QipMN91yjSgxQj1_JsE0VeD07On_QVoLe2Tc1YRm0=w397-h298-k-no"
            },
            {
                "about": "Dome",
                "link": "https://lh5.googleusercontent.com/p/AF1QipPHD6RscizMhLAnRHAi61qIR2gmvBSMd2Mz78DG=w397-h298-k-no"
            },
            {
                "about": "Videos",
                "link": "https://lh5.googleusercontent.com/p/AF1QipPOrXJ8mU3AfsDMMgqu3NzSkzdvBrAXeTp32kFt=w529-h298-k-no"
            }
        ],
        "link": "https://www.google.com/maps/place/JAMA+MASJID+ETAWAH/data=!4m7!3m6!1s0x3975dfe0a9e4c891:0xafc0452b24775f70!8m2!3d26.7685511!4d79.0139874!16s%2Fg%2F1hm69fcd8!19sChIJkcjkqeDfdTkRcF93JCtFwK8?authuser=0&hl=en&rclk=1",
        "coordinates": {
            "latitude": 26.7685511,
            "longitude": 79.01398739999999
        }
    },
    {
        "name": "Masjid Pachraha",
        "main_category": "Mosque",
        "address": "Q2C9+825 Masjid Pachraha, Chowk, Pachraha, Lalpura, Etawah, Uttar Pradesh 206001",
        "detailed_address": {
            "ward": "Pachraha, Lalpura",
            "street": "Q2C9+825, Chowk",
            "city": "Etawah",
            "postal_code": "206001",
            "state": "Uttar Pradesh",
            "country_code": "IN"
        },
        "images": [
            {
                "about": "All",
                "link": "https://lh5.googleusercontent.com/p/AF1QipOY108yT-4WkaHP_tbqP8NsJHLd6Qz3FyYGz1cI=w224-h298-k-no"
            },
            {
                "about": "Street View & 360deg",
                "link": "https://streetviewpixels-pa.googleapis.com/v1/thumbnail?panoid=HF222OwD7ptKq-rD7za4yQ&cb_client=maps_sv.tactile.gps&w=224&h=298&yaw=318.7938&pitch=0&thumbfov=100"
            }
        ],
        "link": "https://www.google.com/maps/place/Masjid+Pachraha/data=!4m7!3m6!1s0x3975dfdfbc3ffa9f:0xca16ca8fb90ff117!8m2!3d26.7707645!4d79.0176201!16s%2Fg%2F11bxfwntb9!19sChIJn_o_vN_fdTkRF_EPuY_KFso?authuser=0&hl=en&rclk=1",
        "coordinates": {
            "latitude": 26.7707645,
            "longitude": 79.0176201
        }
    },
    {
        "name": "Masjid Posti Khana",
        "main_category": "Mosque",
        "address": "Q2F8+7WJ Masjid Posti Khana, Posti Khana Road, Purbia Tola, Etawah, Uttar Pradesh 206001",
        "detailed_address": {
            "ward": "Purbia Tola",
            "street": "Q2F8+7WJ, Posti Khana Road",
            "city": "Etawah",
            "postal_code": "206001",
            "state": "Uttar Pradesh",
            "country_code": "IN"
        },
        "images": [],
        "link": "https://www.google.com/maps/place/Masjid+Posti+Khana/data=!4m7!3m6!1s0x3975dfdf3d801e8d:0xbe810e0b4ac7534e!8m2!3d26.7732225!4d79.0172794!16s%2Fg%2F11cmssny2c!19sChIJjR6APd_fdTkRTlPHSgsOgb4?authuser=0&hl=en&rclk=1",
        "coordinates": {
            "latitude": 26.7732225,
            "longitude": 79.01727939999999
        }
    },
    {
        "name": "msjd gaadddhiipuraa",
        "main_category": "Mosque",
        "address": "Q2CF+92M msjd gaadddhiipuraa, ghari pura, Etawah, Uttar Pradesh 206001",
        "detailed_address": {
            "ward": "ghari pura",
            "street": "Q2CF+92M",
            "city": "Etawah",
            "postal_code": "206001",
            "state": "Uttar Pradesh",
            "country_code": "IN"
        },
        "images": [
            {
                "about": "All",
                "link": "https://lh5.googleusercontent.com/p/AF1QipPGtSKl8pn8OhQSMNGM7-j7k8bVSPqoxp9lf_9W=w224-h398-k-no"
            },
            {
                "about": "Street View & 360deg",
                "link": "https://streetviewpixels-pa.googleapis.com/v1/thumbnail?panoid=ugiLy-8K66sC2-ZKOkiaTg&cb_client=maps_sv.tactile.gps&w=224&h=298&yaw=239.93364&pitch=0&thumbfov=100"
            },
            {
                "about": "Videos",
                "link": "https://lh5.googleusercontent.com/p/AF1QipPDR6ntFA688mNDeaKAP0ZMj_H4nIB_SQ6V4Ecx=w224-h398-k-no"
            }
        ],
        "link": "https://www.google.com/maps/place/%D9%85%D8%B3%D8%AC%D8%AF+%E0%A4%97%E0%A4%BE%E0%A5%9C%E0%A5%80%E0%A4%AA%E0%A5%81%E0%A4%B0%E0%A4%BE%E2%80%AD/data=!4m7!3m6!1s0x3975e074e6b9e72d:0x251b6f8b690cc438!8m2!3d26.7709605!4d79.0225333!16s%2Fg%2F11d__jybh_!19sChIJLee55nTgdTkROMQMaYtvGyU?authuser=0&hl=en&rclk=1",
        "coordinates": {
            "latitude": 26.770960499999997,
            "longitude": 79.02253329999999
        }
    },
    {
        "name": "Dr. Banne miyan Wali Masjid",
        "main_category": "Mosque",
        "address": "Q2GC+CJ7 Dr. Banne miyan Wali Masjid, Anand Nagar, Kabirganj, Etawah, Uttar Pradesh 206001",
        "detailed_address": {
            "ward": "Anand Nagar, Kabirganj",
            "street": "Q2GC+CJ7",
            "city": "Etawah",
            "postal_code": "206001",
            "state": "Uttar Pradesh",
            "country_code": "IN"
        },
        "images": [
            {
                "about": "All",
                "link": "https://lh5.googleusercontent.com/p/AF1QipN0BIOvT0f-A5m9p_WBQZJPzP2z_nrFixqOERgE=w224-h298-k-no"
            },
            {
                "about": "Street View & 360deg",
                "link": "https://streetviewpixels-pa.googleapis.com/v1/thumbnail?panoid=1j67bjPDrOh31eG60jAtBw&cb_client=maps_sv.tactile.gps&w=224&h=298&yaw=73.77009&pitch=0&thumbfov=100"
            },
            {
                "about": "Videos",
                "link": "https://lh5.googleusercontent.com/p/AF1QipNAj81EkHMPqxtSft0rsEjtrBLfdQwqlJVFoRXn=w224-h398-k-no"
            }
        ],
        "link": "https://www.google.com/maps/place/Dr.+Banne+miyan+Wali+Masjid/data=!4m7!3m6!1s0x3975e1b3d46d2d67:0x2c0007ab97d61d22!8m2!3d26.7760367!4d79.0215381!16s%2Fg%2F11gjs9n_76!19sChIJZy1t1LPhdTkRIh3Wl6sHACw?authuser=0&hl=en&rclk=1",
        "coordinates": {
            "latitude": 26.7760367,
            "longitude": 79.0215381
        }
    },
    {
        "name": "Masjid-e-Tauheed",
        "main_category": "Mosque",
        "address": "Q2F6+3FF Masjid-e-Tauheed, Shahgran, Nai Basti, Chhipaiti, Etawah, Uttar Pradesh 206001",
        "detailed_address": {
            "ward": "Shahgran, Nai Basti, Chhipaiti",
            "street": "Q2F6+3FF",
            "city": "Etawah",
            "postal_code": "206001",
            "state": "Uttar Pradesh",
            "country_code": "IN"
        },
        "images": [
            {
                "about": "All",
                "link": "https://lh5.googleusercontent.com/p/AF1QipMFs2iVOlqLgjkPkHyL1NiKaUA3Zs8e1aXo49hC=w529-h298-k-no"
            }
        ],
        "link": "https://www.google.com/maps/place/Masjid-e-Tauheed/data=!4m7!3m6!1s0x3975dfdc5dfdb3cb:0xd0615addeaf4a357!8m2!3d26.772683!4d79.0111845!16s%2Fg%2F11gdqtpldb!19sChIJy7P9XdzfdTkRV6P06t1aYdA?authuser=0&hl=en&rclk=1",
        "coordinates": {
            "latitude": 26.772682999999997,
            "longitude": 79.0111845
        }
    },
    {
        "name": "Mosque",
        "main_category": "Mosque",
        "address": "Mosque, 208, Katra Shamsher Khan, Karm Ganj, Etawah, Uttar Pradesh 206001",
        "detailed_address": {
            "ward": "Karm Ganj",
            "street": "208, Katra Shamsher Khan",
            "city": "Etawah",
            "postal_code": "206001",
            "state": "Uttar Pradesh",
            "country_code": "IN"
        },
        "images": [
            {
                "about": "All",
                "link": "https://lh5.googleusercontent.com/p/AF1QipNz8Z0bvqr350fv0Gp6owb9UThGRYtcX35eCAn0=w397-h298-k-no"
            },
            {
                "about": "Dome",
                "link": "https://lh5.googleusercontent.com/p/AF1QipOP27GnsDeQmABKBOAgLgnUzXlv_PS1ki7UWLjm=w224-h298-k-no"
            },
            {
                "about": "Street View & 360deg",
                "link": "https://streetviewpixels-pa.googleapis.com/v1/thumbnail?panoid=5wwKxvigvP8WoNX9xoy22g&cb_client=maps_sv.tactile.gps&w=224&h=298&yaw=211.08545&pitch=0&thumbfov=100"
            }
        ],
        "link": "https://www.google.com/maps/place/Mosque/data=!4m7!3m6!1s0x3975e071f02bd023:0xa8dba8ff3ee8a855!8m2!3d26.7761704!4d79.0287744!16s%2Fg%2F1hm627wrv!19sChIJI9Ar8HHgdTkRVajoPv-o26g?authuser=0&hl=en&rclk=1",
        "coordinates": {
            "latitude": 26.776170399999998,
            "longitude": 79.0287744
        }
    },
    {
        "name": "Bholan Sayyad Dargah and Mosque",
        "main_category": "Mosque",
        "address": "Q26F+82X Bholan Sayyad Dargah and Mosque, Unnamed Rd, Lalpura, Etawah, Uttar Pradesh 206001",
        "detailed_address": {
            "ward": "Lalpura",
            "street": "Q26F+82X, Unnamed Rd",
            "city": "Etawah",
            "postal_code": "206001",
            "state": "Uttar Pradesh",
            "country_code": "IN"
        },
        "images": [
            {
                "about": "All",
                "link": "https://lh5.googleusercontent.com/p/AF1QipNYJC7pTnTlN9RGOBax5axLrWDtdpYD0lDliw6N=w397-h298-k-no"
            },
            {
                "about": "Videos",
                "link": "https://lh5.googleusercontent.com/p/AF1QipNAIQBamLWRqi0auPSAeOeJawHpPdF2n3_fuAmB=w529-h298-k-no"
            }
        ],
        "link": "https://www.google.com/maps/place/Bholan+Sayyad+Dargah+and+Mosque/data=!4m7!3m6!1s0x3975e00903878fe7:0xb19d0c2d90aedf31!8m2!3d26.7608556!4d79.0226144!16s%2Fg%2F11clyt4cn4!19sChIJ54-HAwngdTkRMd-ukC0MnbE?authuser=0&hl=en&rclk=1",
        "coordinates": {
            "latitude": 26.7608556,
            "longitude": 79.0226144
        }
    },
    {
        "name": "Bais Khwaja Mosque",
        "main_category": "Mosque",
        "address": "Q2G5+F4J Bais Khwaja Mosque, Purbia Tola, Etawah, Uttar Pradesh 206001",
        "detailed_address": {
            "ward": "Purbia Tola",
            "street": "Q2G5+F4J",
            "city": "Etawah",
            "postal_code": "206001",
            "state": "Uttar Pradesh",
            "country_code": "IN"
        },
        "images": [
            {
                "about": "All",
                "link": "https://lh5.googleusercontent.com/p/AF1QipOrocPVHA24DQQsEeV1X0J4oP7mWt_ozyUp9RGP=w224-h398-k-no"
            },
            {
                "about": "Videos",
                "link": "https://lh5.googleusercontent.com/p/AF1QipNw5dZeR9YnKlx1iTN8vai-dHyZmwUpE0L2yJXF=w224-h497-k-no"
            }
        ],
        "link": "https://www.google.com/maps/place/Bais+Khwaja+Mosque/data=!4m7!3m6!1s0x3975dfc4d230fc6d:0x3bafb9ff73bc5b2c!8m2!3d26.7762001!4d79.0077742!16s%2Fg%2F11cm0bcn5f!19sChIJbfww0sTfdTkRLFu8c_-5rzs?authuser=0&hl=en&rclk=1",
        "coordinates": {
            "latitude": 26.7762001,
            "longitude": 79.0077742
        }
    },
    {
        "name": "Makkah Masjid",
        "main_category": "Mosque",
        "address": "Q297+2MH Makkah Masjid, Lalpura, Etawah, Uttar Pradesh 206001",
        "detailed_address": {
            "ward": "Lalpura",
            "street": "Q297+2MH",
            "city": "Etawah",
            "postal_code": "206001",
            "state": "Uttar Pradesh",
            "country_code": "IN"
        },
        "images": [
            {
                "about": "All",
                "link": "https://streetviewpixels-pa.googleapis.com/v1/thumbnail?panoid=ABdeY_TUqyBznZLGKwDEKQ&cb_client=maps_sv.tactile.gps&w=224&h=298&yaw=98.86492&pitch=0&thumbfov=100"
            },
            {
                "about": "Street View & 360deg",
                "link": "https://streetviewpixels-pa.googleapis.com/v1/thumbnail?panoid=ABdeY_TUqyBznZLGKwDEKQ&cb_client=maps_sv.tactile.gps&w=224&h=298&yaw=98.86492&pitch=0&thumbfov=100"
            }
        ],
        "link": "https://www.google.com/maps/place/Makkah+Masjid/data=!4m7!3m6!1s0x3975dfe0b74c9f81:0xefaff8707fabef4d!8m2!3d26.7675573!4d79.0142216!16s%2Fg%2F11f1jyxqxs!19sChIJgZ9Mt-DfdTkRTe-rf3D4r-8?authuser=0&hl=en&rclk=1",
        "coordinates": {
            "latitude": 26.7675573,
            "longitude": 79.0142216
        }
    },
    {
        "name": "Masjid Khanzadgan (hanfi)",
        "main_category": "Mosque",
        "address": "Masjid Khanzadgan (hanfi), Faiyaz Street, Old Bus Stand Rd, Etawah, Uttar Pradesh 206001",
        "detailed_address": {
            "ward": "Mewati Tola, Chogurjee Nagar",
            "street": "Faiyaz Street, Old Bus Stand Rd",
            "city": "Etawah",
            "postal_code": "206001",
            "state": "Uttar Pradesh",
            "country_code": "IN"
        },
        "images": [
            {
                "about": "All",
                "link": "https://lh5.googleusercontent.com/p/AF1QipPk8j_PM4ix8zduCIwyuINCmPknfbzSccE8TeLc=w529-h298-k-no"
            },
            {
                "about": "Street View & 360deg",
                "link": "https://streetviewpixels-pa.googleapis.com/v1/thumbnail?panoid=IHeddF-D7wfRVM9VtNRhbw&cb_client=maps_sv.tactile.gps&w=224&h=298&yaw=261.27847&pitch=0&thumbfov=100"
            }
        ],
        "link": "https://www.google.com/maps/place/Masjid+Khanzadgan+%28hanfi%29/data=!4m7!3m6!1s0x3975e07733b35f5f:0xde1c8a9d718cb123!8m2!3d26.7790774!4d79.0247675!16s%2Fg%2F11ggt575nm!19sChIJX1-zM3fgdTkRI7GMcZ2KHN4?authuser=0&hl=en&rclk=1",
        "coordinates": {
            "latitude": 26.7790774,
            "longitude": 79.0247675
        }
    },
    {
        "name": "Masjid Ahle Hadees",
        "main_category": "Mosque",
        "address": "Q2C9+Q39 Masjid Ahle Hadees, Mohalla Bhura, Etawah, Uttar Pradesh 206001",
        "detailed_address": {
            "ward": "Mohalla Bhura",
            "street": "Q2C9+Q39",
            "city": "Etawah",
            "postal_code": "206001",
            "state": "Uttar Pradesh",
            "country_code": "IN"
        },
        "images": [
            {
                "about": "All",
                "link": "https://lh5.googleusercontent.com/p/AF1QipNA3EBgKDwhRqAchdpXvz7oPNbdwXDcMoo6cHVX=w397-h298-k-no"
            },
            {
                "about": "Street View & 360deg",
                "link": "https://streetviewpixels-pa.googleapis.com/v1/thumbnail?panoid=wpBgX6U6qwmF_yMsoj77uQ&cb_client=maps_sv.tactile.gps&w=224&h=298&yaw=228.74693&pitch=0&thumbfov=100"
            }
        ],
        "link": "https://www.google.com/maps/place/Masjid+Ahle+Hadees/data=!4m7!3m6!1s0x3975dfdf0adbb0bf:0x24f6c0e16c8e5cc!8m2!3d26.7719232!4d79.0177436!16s%2Fg%2F11h9wj08qx!19sChIJv7DbCt_fdTkRzOXIFg5sTwI?authuser=0&hl=en&rclk=1",
        "coordinates": {
            "latitude": 26.7719232,
            "longitude": 79.0177436
        }
    },
    {
        "name": "Aqsa Masque",
        "main_category": "Mosque",
        "address": "Q2FF+V5M Aqsa Masque, Anand Nagar, Ramganj, Etawah, Uttar Pradesh 206001",
        "detailed_address": {
            "ward": "Anand Nagar, Ramganj",
            "street": "Q2FF+V5M",
            "city": "Etawah",
            "postal_code": "206001",
            "state": "Uttar Pradesh",
            "country_code": "IN"
        },
        "images": [],
        "link": "https://www.google.com/maps/place/Aqsa+Masque/data=!4m7!3m6!1s0x3975e07425e1b623:0xda58bb09d7a63181!8m2!3d26.7747134!4d79.0229077!16s%2Fg%2F11f554_4yw!19sChIJI7bhJXTgdTkRgTGm1wm7WNo?authuser=0&hl=en&rclk=1",
        "coordinates": {
            "latitude": 26.7747134,
            "longitude": 79.02290769999999
        }
    },
    {
        "name": "msjd shykhh jll",
        "main_category": "Mosque",
        "address": "Q2F9+7P6 msjd shykhh jll, Purbia Tola, Etawah, Uttar Pradesh 206001",
        "detailed_address": {
            "ward": "Purbia Tola",
            "street": "Q2F9+7P6",
            "city": "Etawah",
            "postal_code": "206001",
            "state": "Uttar Pradesh",
            "country_code": "IN"
        },
        "images": [
            {
                "about": "All",
                "link": "https://lh5.googleusercontent.com/p/AF1QipM89S-s-7Ib5AYBsQdb1dVtH6Pa12u18MQAprql=w224-h298-k-no"
            },
            {
                "about": "Street View & 360deg",
                "link": "https://streetviewpixels-pa.googleapis.com/v1/thumbnail?panoid=-DkVfiY4JFeyyWp4a0j8Ig&cb_client=maps_sv.tactile.gps&w=224&h=298&yaw=111.15709&pitch=0&thumbfov=100"
            }
        ],
        "link": "https://www.google.com/maps/place/%D9%85%D8%B3%D8%AC%D8%AF+%D8%B4%DB%8C%DA%A9%DA%BE+%D8%AC%D9%84%D8%A7%D9%84%E2%80%AD/data=!4m7!3m6!1s0x3975dfdf61ba3ec7:0xa2e5777e5158b7ec!8m2!3d26.7731528!4d79.0192504!16s%2Fg%2F11g9lcc44r!19sChIJxz66Yd_fdTkR7LdYUX535aI?authuser=0&hl=en&rclk=1",
        "coordinates": {
            "latitude": 26.7731528,
            "longitude": 79.01925039999999
        }
    },
    {
        "name": "22 Khawaja Masjid",
        "main_category": "Mosque",
        "address": "Q2G5+F2X 22 Khawaja Masjid, Purbia Tola, Etawah, Uttar Pradesh 206001",
        "detailed_address": {
            "ward": "Purbia Tola",
            "street": "Q2G5+F2X",
            "city": "Etawah",
            "postal_code": "206001",
            "state": "Uttar Pradesh",
            "country_code": "IN"
        },
        "images": [
            {
                "about": "All",
                "link": "https://lh5.googleusercontent.com/p/AF1QipOmQFOpImGZO8rZf6ZOwSHMvfoxmHnfkrYz4Y6r=w529-h298-k-no"
            }
        ],
        "link": "https://www.google.com/maps/place/22+Khawaja+Masjid/data=!4m7!3m6!1s0x3975dfc4d19cb65f:0x59107d668bc6249d!8m2!3d26.7762328!4d79.0075957!16s%2Fg%2F11cmt3dn26!19sChIJX7ac0cTfdTkRnSTGi2Z9EFk?authuser=0&hl=en&rclk=1",
        "coordinates": {
            "latitude": 26.7762328,
            "longitude": 79.0075957
        }
    },
    {
        "name": "Masjid-e-Aqsa",
        "main_category": "Mosque",
        "address": "Q2C6+RXV Masjid-e-Aqsa, Shahgran, Nai Basti, Chhipaiti, Etawah, Uttar Pradesh 206001",
        "detailed_address": {
            "ward": "Shahgran, Nai Basti, Chhipaiti",
            "street": "Q2C6+RXV",
            "city": "Etawah",
            "postal_code": "206001",
            "state": "Uttar Pradesh",
            "country_code": "IN"
        },
        "images": [
            {
                "about": "All",
                "link": "https://lh5.googleusercontent.com/p/AF1QipM_7MkUDUvfw3LdwyEuZiwNoHiSsgWRXGpkpdeU=w224-h397-k-no"
            }
        ],
        "link": "https://www.google.com/maps/place/Masjid-e-Aqsa/data=!4m7!3m6!1s0x3975dfdc39d377d7:0xba95693a5602240a!8m2!3d26.7721092!4d79.012422!16s%2Fg%2F11ggcgz6tk!19sChIJ13fTOdzfdTkRCiQCVjpplbo?authuser=0&hl=en&rclk=1",
        "coordinates": {
            "latitude": 26.7721092,
            "longitude": 79.012422
        }
    },
    {
        "name": "Masjid Ehelehadish",
        "main_category": "Mosque",
        "address": "Q2C7+89M Masjid Ehelehadish, Nai Basti, Mehtar Tola, Etawah, Uttar Pradesh 206001",
        "detailed_address": {
            "ward": "Nai Basti, Mehtar Tola",
            "street": "Q2C7+89M",
            "city": "Etawah",
            "postal_code": "206001",
            "state": "Uttar Pradesh",
            "country_code": "IN"
        },
        "images": [],
        "link": "https://www.google.com/maps/place/Masjid+Ehelehadish/data=!4m7!3m6!1s0x3975dfddd71a778f:0x26963e799c6a0fef!8m2!3d26.770843!4d79.0134127!16s%2Fg%2F11f3rx1j_p!19sChIJj3ca193fdTkR7w9qnHk-liY?authuser=0&hl=en&rclk=1",
        "coordinates": {
            "latitude": 26.770843,
            "longitude": 79.0134127
        }
    },
    {
        "name": "Dargah Hazrat Abbas (a.s)",
        "main_category": "Mosque",
        "address": "Q2HP+GG7 Dargah Hazrat Abbas (a.s), Sharwati Nagar, Etawah, Uttar Pradesh 206001",
        "detailed_address": {
            "ward": "Sharwati Nagar",
            "street": "Q2HP+GG7",
            "city": "Etawah",
            "postal_code": "206001",
            "state": "Uttar Pradesh",
            "country_code": "IN"
        },
        "images": [
            {
                "about": "All",
                "link": "https://lh5.googleusercontent.com/p/AF1QipNoQZj1xlbcFMAGKzNH1yijgBA2OdXMSPB5eKdH=w224-h497-k-no"
            },
            {
                "about": "Dome",
                "link": "https://lh5.googleusercontent.com/p/AF1QipOVAMDwfQYjzR4YaZz9LaF-iTqHNcThJ8OdOfsX=w529-h298-k-no"
            },
            {
                "about": "Street View & 360deg",
                "link": "https://streetviewpixels-pa.googleapis.com/v1/thumbnail?panoid=TzXiiINh0JeFGl30Gag1ew&cb_client=maps_sv.tactile.gps&w=224&h=298&yaw=19.008932&pitch=0&thumbfov=100"
            }
        ],
        "link": "https://www.google.com/maps/place/Dargah+Hazrat+Abbas+%28a.s%29/data=!4m7!3m6!1s0x3975e14b3ad8681d:0xbe7212637ebd3501!8m2!3d26.7787759!4d79.0362855!16s%2Fg%2F11fkpklgzt!19sChIJHWjYOkvhdTkRATW9fmMScr4?authuser=0&hl=en&rclk=1",
        "coordinates": {
            "latitude": 26.7787759,
            "longitude": 79.03628549999999
        }
    },
    {
        "name": "Peer Bangali Masjid",
        "main_category": "Mosque",
        "address": "Q2JG+835 Peer Bangali Masjid, Mewati Tola, Chogurjee Nagar, Etawah, Uttar Pradesh 206001",
        "detailed_address": {
            "ward": "Mewati Tola, Chogurjee Nagar",
            "street": "Q2JG+835",
            "city": "Etawah",
            "postal_code": "206001",
            "state": "Uttar Pradesh",
            "country_code": "IN"
        },
        "images": [
            {
                "about": "All",
                "link": "https://streetviewpixels-pa.googleapis.com/v1/thumbnail?panoid=fnUqUC0oXuAOP7hkp1tgQA&cb_client=maps_sv.tactile.gps&w=224&h=298&yaw=242.04196&pitch=0&thumbfov=100"
            },
            {
                "about": "Street View & 360deg",
                "link": "https://streetviewpixels-pa.googleapis.com/v1/thumbnail?panoid=fnUqUC0oXuAOP7hkp1tgQA&cb_client=maps_sv.tactile.gps&w=224&h=298&yaw=242.04196&pitch=0&thumbfov=100"
            }
        ],
        "link": "https://www.google.com/maps/place/Peer+Bangali+Masjid/data=!4m7!3m6!1s0x3975e190c57edfdf:0xf0c7c2739116159a!8m2!3d26.780763!4d79.025244!16s%2Fg%2F11f61h1h9k!19sChIJ399-xZDhdTkRmhUWkXPCx_A?authuser=0&hl=en&rclk=1",
        "coordinates": {
            "latitude": 26.780763,
            "longitude": 79.025244
        }
    },
    {
        "name": "msjd pkh tlb",
        "main_category": "Mosque",
        "address": "Q2J7+33R msjd pkh tlb, Purbia Tola, Etawah, Uttar Pradesh 206001",
        "detailed_address": {
            "ward": "Purbia Tola",
            "street": "Q2J7+33R",
            "city": "Etawah",
            "postal_code": "206001",
            "state": "Uttar Pradesh",
            "country_code": "IN"
        },
        "images": [
            {
                "about": "All",
                "link": "https://lh5.googleusercontent.com/p/AF1QipPnf6AZOvdy7PiP17G8SoONN4WCtoU_DawGU5S-=w554-h298-k-no"
            },
            {
                "about": "Street View & 360deg",
                "link": "https://streetviewpixels-pa.googleapis.com/v1/thumbnail?panoid=TJSKYTjuXd1FTdRRXWgoGQ&cb_client=maps_sv.tactile.gps&w=224&h=298&yaw=291.59366&pitch=0&thumbfov=100"
            },
            {
                "about": "Videos",
                "link": "https://lh5.googleusercontent.com/p/AF1QipPu-ZiIKY8DyeloHwH-wvaBxe-UaV0l1vX1e562=w224-h398-k-no"
            }
        ],
        "link": "https://www.google.com/maps/place/%D9%85%D8%B3%D8%AC%D8%AF+%D9%BE%DA%A9%D8%A7+%D8%AA%D8%A7%D9%84%D8%A7%D8%A8%E2%80%AD/data=!4m7!3m6!1s0x3975dfd0a725369b:0x7d72088686483ad7!8m2!3d26.7802359!4d79.0126382!16s%2Fg%2F11g9m9nxnw!19sChIJmzYlp9DfdTkR1zpIhoYIcn0?authuser=0&hl=en&rclk=1",
        "coordinates": {
            "latitude": 26.780235899999997,
            "longitude": 79.0126382
        }
    },
    {
        "name": "Ahle Hadees Masjid",
        "main_category": "Mosque",
        "address": "Ahle Hadees Masjid, 08, Shahgran, Nai Basti, Mehtar Tola, Etawah, Uttar Pradesh 206001",
        "detailed_address": {
            "ward": "Shahgran, Nai Basti, Mehtar Tola",
            "street": "08",
            "city": "Etawah",
            "postal_code": "206001",
            "state": "Uttar Pradesh",
            "country_code": "IN"
        },
        "images": [],
        "link": "https://www.google.com/maps/place/Ahle+Hadees+Masjid/data=!4m7!3m6!1s0x3975dfbd6f03b03b:0xe092bd7ed7902c9f!8m2!3d26.7709909!4d79.0131884!16s%2Fg%2F11fp8jl8y3!19sChIJO7ADb73fdTkRnyyQ1369kuA?authuser=0&hl=en&rclk=1",
        "coordinates": {
            "latitude": 26.770990899999997,
            "longitude": 79.01318839999999
        }
    },
    {
        "name": "Chaukhar Kuan Masjid",
        "main_category": "Mosque",
        "address": "Q2C9+MGF Chaukhar Kuan Masjid, Purbia Tola, Etawah, Uttar Pradesh 206001",
        "detailed_address": {
            "ward": "Purbia Tola",
            "street": "Q2C9+MGF",
            "city": "Etawah",
            "postal_code": "206001",
            "state": "Uttar Pradesh",
            "country_code": "IN"
        },
        "images": [
            {
                "about": "All",
                "link": "https://streetviewpixels-pa.googleapis.com/v1/thumbnail?panoid=REOFqvPtoultpijWxZVfoA&cb_client=maps_sv.tactile.gps&w=224&h=298&yaw=97.00396&pitch=0&thumbfov=100"
            },
            {
                "about": "Street View & 360deg",
                "link": "https://streetviewpixels-pa.googleapis.com/v1/thumbnail?panoid=REOFqvPtoultpijWxZVfoA&cb_client=maps_sv.tactile.gps&w=224&h=298&yaw=97.00396&pitch=0&thumbfov=100"
            }
        ],
        "link": "https://www.google.com/maps/place/Chaukhar+Kuan+Masjid/data=!4m7!3m6!1s0x3975dfdf825bedef:0xacffd0700b46d5b7!8m2!3d26.7716916!4d79.0187937!16s%2Fg%2F11g9m8t296!19sChIJ7-1bgt_fdTkRt9VGC3DQ_6w?authuser=0&hl=en&rclk=1",
        "coordinates": {
            "latitude": 26.7716916,
            "longitude": 79.0187937
        }
    },
    {
        "name": "Berun Tola Masjid",
        "main_category": "Mosque",
        "address": "Q2F8+MHF Berun Tola Masjid, Purabia Tola Rd, Purbia Tola, Etawah, Uttar Pradesh 206001",
        "detailed_address": {
            "ward": "Purbia Tola",
            "street": "Q2F8+MHF, Purabia Tola Rd",
            "city": "Etawah",
            "postal_code": "206001",
            "state": "Uttar Pradesh",
            "country_code": "IN"
        },
        "images": [],
        "link": "https://www.google.com/maps/place/Berun+Tola+Masjid/data=!4m7!3m6!1s0x3975df861afe0c43:0x2a400fac7dee306a!8m2!3d26.7741882!4d79.0164107!16s%2Fg%2F11j0jr48kn!19sChIJQwz-GobfdTkRajDufawPQCo?authuser=0&hl=en&rclk=1",
        "coordinates": {
            "latitude": 26.774188199999998,
            "longitude": 79.0164107
        }
    },
    {
        "name": "jel vaale saiyyd baabaa ittaavaa,",
        "main_category": "Mosque",
        "address": "jel vaale saiyyd baabaa ittaavaa,, Railway Colony, Etawah, Uttar Pradesh 206001",
        "detailed_address": {
            "ward": "Railway Colony",
            "street": null,
            "city": "Etawah",
            "postal_code": "206001",
            "state": "Uttar Pradesh",
            "country_code": "IN"
        },
        "images": [
            {
                "about": "All",
                "link": "https://lh5.googleusercontent.com/p/AF1QipPZyZVCPrUFzGCRVuJ7_nTXXNyyINTv0L2hhNZE=w397-h298-k-no"
            },
            {
                "about": "Dome",
                "link": "https://lh5.googleusercontent.com/p/AF1QipOLbvrt5qvLCVakDkJL2IpmVJz7Z_2G5j6oMbKo=w224-h298-k-no"
            },
            {
                "about": "Street View & 360deg",
                "link": "https://streetviewpixels-pa.googleapis.com/v1/thumbnail?panoid=sk2AfxCpMc9m-2pQXB9ItA&cb_client=maps_sv.tactile.gps&w=224&h=298&yaw=2.0882487&pitch=0&thumbfov=100"
            }
        ],
        "link": "https://www.google.com/maps/place/%E0%A4%9C%E0%A5%87%E0%A4%B2+%E0%A4%B5%E0%A4%BE%E0%A4%B2%E0%A5%87+%E0%A4%B8%E0%A5%88%E0%A4%AF%E0%A5%8D%E0%A4%AF%E0%A4%A6+%E0%A4%AC%E0%A4%BE%E0%A4%AC%E0%A4%BE+%E0%A4%87%E0%A4%9F%E0%A4%BE%E0%A4%B5%E0%A4%BE,/data=!4m7!3m6!1s0x3975dfc68fe00407:0x1d42a6e737c29806!8m2!3d26.7879825!4d79.0182953!16s%2Fg%2F11qnlh6xj1!19sChIJBwTgj8bfdTkRBpjCN-emQh0?authuser=0&hl=en&rclk=1",
        "coordinates": {
            "latitude": 26.7879825,
            "longitude": 79.01829529999999
        }
    },
    {
        "name": "Masjid Hisamuddin",
        "main_category": "Mosque",
        "address": "Q2FG+VPW Masjid Hisamuddin, Katra Shamsher Khan, Anand Nagar, Kabirganj, Etawah, Uttar Pradesh 206001",
        "detailed_address": {
            "ward": "Anand Nagar, Kabirganj",
            "street": "Q2FG+VPW, Katra Shamsher Khan",
            "city": "Etawah",
            "postal_code": "206001",
            "state": "Uttar Pradesh",
            "country_code": "IN"
        },
        "images": [
            {
                "about": "All",
                "link": "https://streetviewpixels-pa.googleapis.com/v1/thumbnail?panoid=zaWSLWjHezSyl0VtLUizug&cb_client=maps_sv.tactile.gps&w=224&h=298&yaw=217.50943&pitch=0&thumbfov=100"
            },
            {
                "about": "Street View & 360deg",
                "link": "https://streetviewpixels-pa.googleapis.com/v1/thumbnail?panoid=zaWSLWjHezSyl0VtLUizug&cb_client=maps_sv.tactile.gps&w=224&h=298&yaw=217.50943&pitch=0&thumbfov=100"
            }
        ],
        "link": "https://www.google.com/maps/place/Masjid+Hisamuddin/data=!4m7!3m6!1s0x3975e14fc86f0381:0x71a947527fb6b614!8m2!3d26.774742!4d79.0268287!16s%2Fg%2F11g_r3g045!19sChIJgQNvyE_hdTkRFLa2f1JHqXE?authuser=0&hl=en&rclk=1",
        "coordinates": {
            "latitude": 26.774742,
            "longitude": 79.0268287
        }
    },
    {
        "name": "Bulaki masjid",
        "main_category": "Mosque",
        "address": "Q2GG+RW3 Bulaki masjid, Unnamed Road, Karm Ganj, Etawah, Uttar Pradesh 206001",
        "detailed_address": {
            "ward": "Karm Ganj",
            "street": "Q2GG+RW3, Unnamed Road",
            "city": "Etawah",
            "postal_code": "206001",
            "state": "Uttar Pradesh",
            "country_code": "IN"
        },
        "images": [],
        "link": "https://www.google.com/maps/place/Bulaki+masjid/data=!4m7!3m6!1s0x3975e147a471dd7f:0x2b2d68f6070cdb5f!8m2!3d26.7770117!4d79.0272999!16s%2Fg%2F11gy87rg9p!19sChIJf91xpEfhdTkRX9sMB_ZoLSs?authuser=0&hl=en&rclk=1",
        "coordinates": {
            "latitude": 26.7770117,
            "longitude": 79.0272999
        }
    },
    {
        "name": "Badi Masjid Chauhatta",
        "main_category": "Religious destination",
        "address": "Badi Masjid Chauhatta, NakhasaRoad, Purbia Tola, Etawah, Uttar Pradesh 206001",
        "detailed_address": {
            "ward": "Purbia Tola",
            "street": "NakhasaRoad",
            "city": "Etawah",
            "postal_code": "206001",
            "state": "Uttar Pradesh",
            "country_code": "IN"
        },
        "images": [
            {
                "about": "All",
                "link": "https://lh5.googleusercontent.com/p/AF1QipNRbUmN6tjxZz-99LST8lrXBiwUXN-4Kt2MSqo1=w224-h398-k-no"
            },
            {
                "about": "Street View & 360deg",
                "link": "https://streetviewpixels-pa.googleapis.com/v1/thumbnail?panoid=MJJvBFX-JbvZpkz6G72EXw&cb_client=maps_sv.tactile.gps&w=224&h=298&yaw=252.6129&pitch=0&thumbfov=100"
            },
            {
                "about": "Videos",
                "link": "https://lh5.googleusercontent.com/p/AF1QipNYyssEKa_Un433pA6HbzC6CHiAd3SKO8cN9zXp=w224-h398-k-no"
            }
        ],
        "link": "https://www.google.com/maps/place/Badi+Masjid+Chauhatta/data=!4m7!3m6!1s0x3975dfd6da5514d9:0x4b35640d23b0a8e6!8m2!3d26.7729914!4d79.0163548!16s%2Fg%2F11fkvyg0bs!19sChIJ2RRV2tbfdTkR5qiwIw1kNUs?authuser=0&hl=en&rclk=1",
        "coordinates": {
            "latitude": 26.7729914,
            "longitude": 79.0163548
        }
    },
    {
        "name": "Badi masjid",
        "main_category": "Mosque",
        "address": "Q2JF+38G Badi masjid, Faiyaz St, Urdu Mohalla, Chogurjee Nagar, Etawah, Uttar Pradesh 206001",
        "detailed_address": {
            "ward": "Urdu Mohalla, Chogurjee Nagar",
            "street": "Q2JF+38G, Faiyaz St",
            "city": "Etawah",
            "postal_code": "206001",
            "state": "Uttar Pradesh",
            "country_code": "IN"
        },
        "images": [],
        "link": "https://www.google.com/maps/place/Badi+masjid/data=!4m7!3m6!1s0x3975e1897d5292f1:0xe5048e98ad79e634!8m2!3d26.7801799!4d79.0233388!16s%2Fg%2F11j8pc3tbg!19sChIJ8ZJSfYnhdTkRNOZ5rZiOBOU?authuser=0&hl=en&rclk=1",
        "coordinates": {
            "latitude": 26.7801799,
            "longitude": 79.02333879999999
        }
    },
    {
        "name": "Madeena Masjid (Tele Wali Masjid) mdynh msjd",
        "main_category": "Mosque",
        "address": "Q2FM+RV6 Madeena Masjid (Tele Wali Masjid) mdynh msjd, Azad Nagar, Etawah, Uttar Pradesh 206001",
        "detailed_address": {
            "ward": "Azad Nagar",
            "street": "Q2FM+RV6",
            "city": "Etawah",
            "postal_code": "206001",
            "state": "Uttar Pradesh",
            "country_code": "IN"
        },
        "images": [
            {
                "about": "All",
                "link": "https://lh5.googleusercontent.com/p/AF1QipNdN2SPn1ENl2D4OMsPgCAc6Ff8YjpolMzOtoVV=w224-h398-k-no"
            },
            {
                "about": "Videos",
                "link": "https://lh5.googleusercontent.com/p/AF1QipNdN2SPn1ENl2D4OMsPgCAc6Ff8YjpolMzOtoVV=w224-h398-k-no"
            }
        ],
        "link": "https://www.google.com/maps/place/Madeena+Masjid+%28Tele+Wali+Masjid%29+%D9%85%D8%AF%DB%8C%D9%86%DB%81+%D9%85%D8%B3%D8%AC%D8%AF%E2%80%AD/data=!4m7!3m6!1s0x3975e1ac00339a73:0xe7e46a494bc8ccab!8m2!3d26.7745458!4d79.0346474!16s%2Fg%2F11pkcyc8s9!19sChIJc5ozAKzhdTkRq8zIS0lq5Oc?authuser=0&hl=en&rclk=1",
        "coordinates": {
            "latitude": 26.7745458,
            "longitude": 79.0346474
        }
    },
    {
        "name": "Masjid",
        "main_category": "Mosque",
        "address": "Masjid, 291, Karanpura, Lalpura, Etawah, Uttar Pradesh 206001",
        "detailed_address": {
            "ward": "Karanpura, Lalpura",
            "street": "291",
            "city": "Etawah",
            "postal_code": "206001",
            "state": "Uttar Pradesh",
            "country_code": "IN"
        },
        "images": [
            {
                "about": "All",
                "link": "https://lh5.googleusercontent.com/p/AF1QipPfQl2RJ2vGZww-0BK-rOSJzMy3q5ZyPNcUMxcA=w518-h298-k-no"
            },
            {
                "about": "Dome",
                "link": "https://lh5.googleusercontent.com/p/AF1QipOBSYtd8ytXrwPK-t3ezbrzbvQrHhHfWVwGMx3p=w662-h298-k-no"
            },
            {
                "about": "By owner",
                "link": "https://lh5.googleusercontent.com/p/AF1QipN0dUnk3Cxy-GyTqCBrh0Jn2OF_bAs8VKJ59_pQ=w397-h298-k-no"
            }
        ],
        "link": "https://www.google.com/maps/place/Masjid/data=!4m7!3m6!1s0x3975df6c82ef5c93:0x18f9246f6e3ab292!8m2!3d26.7657877!4d79.0134073!16s%2Fg%2F11lk1443_g!19sChIJk1zvgmzfdTkRkrI6bm8k-Rg?authuser=0&hl=en&rclk=1",
        "coordinates": {
            "latitude": 26.765787699999997,
            "longitude": 79.0134073
        }
    },
    {
        "name": "Sunni Masjid",
        "main_category": "Mosque",
        "address": "Q2J8+3G4 Sunni Masjid, Chogurjee, Civil Lines, Etawah, Uttar Pradesh 206001",
        "detailed_address": {
            "ward": "Chogurjee, Civil Lines",
            "street": "Q2J8+3G4",
            "city": "Etawah",
            "postal_code": "206001",
            "state": "Uttar Pradesh",
            "country_code": "IN"
        },
        "images": [
            {
                "about": "All",
                "link": "https://streetviewpixels-pa.googleapis.com/v1/thumbnail?panoid=IGWyoZPHiVRoTPOjImqLrg&cb_client=maps_sv.tactile.gps&w=224&h=298&yaw=15.700289&pitch=0&thumbfov=100"
            },
            {
                "about": "Street View & 360deg",
                "link": "https://streetviewpixels-pa.googleapis.com/v1/thumbnail?panoid=IGWyoZPHiVRoTPOjImqLrg&cb_client=maps_sv.tactile.gps&w=224&h=298&yaw=15.700289&pitch=0&thumbfov=100"
            }
        ],
        "link": "https://www.google.com/maps/place/Sunni+Masjid/data=!4m7!3m6!1s0x3975dfd9d4ee4b4b:0x3702b09f4044b3d!8m2!3d26.7801481!4d79.0163273!16s%2Fg%2F11hb2dwdb2!19sChIJS0vu1NnfdTkRPUsE9AkrcAM?authuser=0&hl=en&rclk=1",
        "coordinates": {
            "latitude": 26.780148099999998,
            "longitude": 79.0163273
        }
    },
    {
        "name": "Ratan Nagar Masjid",
        "main_category": "Mosque",
        "address": "Q2H3+34H Ratan Nagar Masjid, Ratan Nagar, Jyoti Nagar, Etawah, Uttar Pradesh 206001",
        "detailed_address": {
            "ward": "Ratan Nagar, Jyoti Nagar",
            "street": "Q2H3+34H",
            "city": "Etawah",
            "postal_code": "206001",
            "state": "Uttar Pradesh",
            "country_code": "IN"
        },
        "images": [],
        "link": "https://www.google.com/maps/place/Ratan+Nagar+Masjid/data=!4m7!3m6!1s0x3975df022f77a977:0xc7002aa020352f2!8m2!3d26.7776857!4d79.0028532!16s%2Fg%2F11tfzc5wlj!19sChIJd6l3LwLfdTkR8lIDAqoCcAw?authuser=0&hl=en&rclk=1",
        "coordinates": {
            "latitude": 26.7776857,
            "longitude": 79.00285319999999
        }
    },
    {
        "name": "Kuen Wali Masjid",
        "main_category": "Mosque",
        "address": "Q2GC+3WC Kuen Wali Masjid, Anand Nagar, Sabit gunj, Etawah, Uttar Pradesh 206001",
        "detailed_address": {
            "ward": "Anand Nagar, Sabit gunj",
            "street": "Q2GC+3WC",
            "city": "Etawah",
            "postal_code": "206001",
            "state": "Uttar Pradesh",
            "country_code": "IN"
        },
        "images": [
            {
                "about": "All",
                "link": "https://streetviewpixels-pa.googleapis.com/v1/thumbnail?panoid=WnOdRVuNNAPndYsazrIaBA&cb_client=maps_sv.tactile.gps&w=224&h=298&yaw=160.06769&pitch=0&thumbfov=100"
            },
            {
                "about": "Street View & 360deg",
                "link": "https://streetviewpixels-pa.googleapis.com/v1/thumbnail?panoid=WnOdRVuNNAPndYsazrIaBA&cb_client=maps_sv.tactile.gps&w=224&h=298&yaw=160.06769&pitch=0&thumbfov=100"
            }
        ],
        "link": "https://www.google.com/maps/place/Kuen+Wali+Masjid/data=!4m7!3m6!1s0x3975e1ccf08ef4fb:0x8735d388af90f73c!8m2!3d26.7751922!4d79.0222769!16s%2Fg%2F11flzqc_m2!19sChIJ-_SO8MzhdTkRPPeQr4jTNYc?authuser=0&hl=en&rclk=1",
        "coordinates": {
            "latitude": 26.7751922,
            "longitude": 79.0222769
        }
    },
    {
        "name": "Mosque",
        "main_category": "Mosque",
        "address": "Q2P3+RW7 Mosque, Civil Lines, Etawah, Uttar Pradesh 206001",
        "detailed_address": {
            "ward": "Civil Lines",
            "street": "Q2P3+RW7",
            "city": "Etawah",
            "postal_code": "206001",
            "state": "Uttar Pradesh",
            "country_code": "IN"
        },
        "images": [],
        "link": "https://www.google.com/maps/place/Mosque/data=!4m7!3m6!1s0x3975df7ceabe79d5:0x3e1432737640e12!8m2!3d26.787034!4d79.0048095!16s%2Fg%2F11qnt54m4p!19sChIJ1Xm-6nzfdTkREg5kNydD4QM?authuser=0&hl=en&rclk=1",
        "coordinates": {
            "latitude": 26.787034,
            "longitude": 79.0048095
        }
    },
    {
        "name": "Masjid Arar Tawizat E Attariya Ruhani Elaj",
        "main_category": "Mosque",
        "address": "Q2JC+3VC Masjid Arar Tawizat E Attariya Ruhani Elaj, Station Rd, Urdu Mohalla, Chogurjee Nagar, Etawah, Uttar Pradesh 206001",
        "detailed_address": {
            "ward": "Urdu Mohalla, Chogurjee Nagar",
            "street": "Q2JC+3VC, Station Rd",
            "city": "Etawah",
            "postal_code": "206001",
            "state": "Uttar Pradesh",
            "country_code": "IN"
        },
        "images": [
            {
                "about": "All",
                "link": "https://streetviewpixels-pa.googleapis.com/v1/thumbnail?panoid=TWvPFJLFr3Gl9aGtPZx5Ww&cb_client=maps_sv.tactile.gps&w=224&h=298&yaw=307.7005&pitch=0&thumbfov=100"
            },
            {
                "about": "Street View & 360deg",
                "link": "https://streetviewpixels-pa.googleapis.com/v1/thumbnail?panoid=TWvPFJLFr3Gl9aGtPZx5Ww&cb_client=maps_sv.tactile.gps&w=224&h=298&yaw=307.7005&pitch=0&thumbfov=100"
            }
        ],
        "link": "https://www.google.com/maps/place/Masjid+Arar+Tawizat+E+Attariya+Ruhani+Elaj/data=!4m7!3m6!1s0x3975e1abf233b97f:0x434759d334db86ab!8m2!3d26.7801839!4d79.0221527!16s%2Fg%2F11rk8v72_x!19sChIJf7kz8qvhdTkRq4bbNNNZR0M?authuser=0&hl=en&rclk=1",
        "coordinates": {
            "latitude": 26.780183899999997,
            "longitude": 79.02215269999999
        }
    },
    {
        "name": "Masjid Punjabiyan",
        "main_category": "Mosque",
        "address": "Masjid Punjabiyan, Shahab Khan, Katra, Punjabi Mohalla, Etawah, Uttar Pradesh 206001",
        "detailed_address": {
            "ward": "Punjabi Mohalla",
            "street": "Shahab Khan, Katra",
            "city": "Etawah",
            "postal_code": "206001",
            "state": "Uttar Pradesh",
            "country_code": "IN"
        },
        "images": [],
        "link": "https://www.google.com/maps/place/Masjid+Punjabiyan/data=!4m7!3m6!1s0x3975e134056c753f:0x379dc6c4b59708d2!8m2!3d26.7757674!4d79.0260711!16s%2Fg%2F11gyc_lk29!19sChIJP3VsBTThdTkR0giXtcTGnTc?authuser=0&hl=en&rclk=1",
        "coordinates": {
            "latitude": 26.7757674,
            "longitude": 79.0260711
        }
    },
    {
        "name": "Rayeeni masjid",
        "main_category": "Mosque",
        "address": "Q2HC+8H7 Rayeeni masjid, Naurangabad Rd, Purbia Tola, Etawah, Uttar Pradesh 206001",
        "detailed_address": {
            "ward": "Purbia Tola",
            "street": "Q2HC+8H7, Naurangabad Rd",
            "city": "Etawah",
            "postal_code": "206001",
            "state": "Uttar Pradesh",
            "country_code": "IN"
        },
        "images": [],
        "link": "https://www.google.com/maps/place/Rayeeni+masjid/data=!4m7!3m6!1s0x3975e1220156bc51:0x615c358b34388d98!8m2!3d26.7782961!4d79.0214303!16s%2Fg%2F11jx27hpfc!19sChIJUbxWASLhdTkRmI04NIs1XGE?authuser=0&hl=en&rclk=1",
        "coordinates": {
            "latitude": 26.7782961,
            "longitude": 79.02143029999999
        }
    },
    {
        "name": "Choti Masjid",
        "main_category": "Mosque",
        "address": "Q2JF+269 Choti Masjid, Urdu Mohalla, Chogurjee Nagar, Etawah, Uttar Pradesh 206001",
        "detailed_address": {
            "ward": "Urdu Mohalla, Chogurjee Nagar",
            "street": "Q2JF+269",
            "city": "Etawah",
            "postal_code": "206001",
            "state": "Uttar Pradesh",
            "country_code": "IN"
        },
        "images": [],
        "link": "https://www.google.com/maps/place/Choti+Masjid/data=!4m7!3m6!1s0x3975e1baa033be7f:0x9d007c27ee68ee13!8m2!3d26.7800448!4d79.0231048!16s%2Fg%2F11qg24d1gb!19sChIJf74zoLrhdTkRE-5o7id8AJ0?authuser=0&hl=en&rclk=1",
        "coordinates": {
            "latitude": 26.7800448,
            "longitude": 79.0231048
        }
    },
    {
        "name": "Masjid E Mohammadi Takia Azadgan",
        "main_category": "Mosque",
        "address": "Masjid E Mohammadi Takia Azadgan, 206001 Katra fateh Mahmood Khan, Anand Nagar, Kabirganj, Etawah, Uttar Pradesh 206001",
        "detailed_address": {
            "ward": "Anand Nagar, Kabirganj",
            "street": "206001 Katra fateh Mahmood Khan",
            "city": "Etawah",
            "postal_code": "206001",
            "state": "Uttar Pradesh",
            "country_code": "IN"
        },
        "images": [
            {
                "about": "All",
                "link": "https://lh5.googleusercontent.com/p/AF1QipPYiRHRNHkC54oPusdazNZue5jllZ1o4NMFzSu4=w529-h298-k-no"
            },
            {
                "about": "Street View & 360deg",
                "link": "https://streetviewpixels-pa.googleapis.com/v1/thumbnail?panoid=X73nrU5-LQzfj6AgOmIIrw&cb_client=maps_sv.tactile.gps&w=224&h=298&yaw=341.58368&pitch=0&thumbfov=100"
            }
        ],
        "link": "https://www.google.com/maps/place/Masjid+E+Mohammadi+Takia+Azadgan/data=!4m7!3m6!1s0x3975e15f563fb6c1:0x5018728b56c166ca!8m2!3d26.7745471!4d79.0276533!16s%2Fg%2F11rqjcxn2f!19sChIJwbY_Vl_hdTkRymbBVotyGFA?authuser=0&hl=en&rclk=1",
        "coordinates": {
            "latitude": 26.7745471,
            "longitude": 79.0276533
        }
    },
    {
        "name": "Ashrafi masjid",
        "main_category": "Mosque",
        "address": "Q2GH+47R Ashrafi masjid, Kabirganj, Etawah, Uttar Pradesh 206001",
        "detailed_address": {
            "ward": "Kabirganj",
            "street": "Q2GH+47R",
            "city": "Etawah",
            "postal_code": "206001",
            "state": "Uttar Pradesh",
            "country_code": "IN"
        },
        "images": [
            {
                "about": "All",
                "link": "https://lh5.googleusercontent.com/p/AF1QipNZ6-M9cNc36hqvv3py7JFjZ6-lyJm_dhT-Fnqj=w224-h398-k-no"
            }
        ],
        "link": "https://www.google.com/maps/place/Ashrafi+masjid/data=!4m7!3m6!1s0x3975e1e4fed365c1:0xd50e78d2883bf722!8m2!3d26.7751932!4d79.0281642!16s%2Fg%2F11v5g0_sz7!19sChIJwWXT_uThdTkRIvc7iNJ4DtU?authuser=0&hl=en&rclk=1",
        "coordinates": {
            "latitude": 26.7751932,
            "longitude": 79.02816419999999
        }
    },
    {
        "name": "Masjid Kabrastan msjd qbrstn",
        "main_category": "Mosque",
        "address": "Masjid Kabrastan msjd qbrstn, Anand Nagar, Kabirganj, Etawah, Uttar Pradesh 206001",
        "detailed_address": {
            "ward": "Anand Nagar, Kabirganj",
            "street": null,
            "city": "Etawah",
            "postal_code": "206001",
            "state": "Uttar Pradesh",
            "country_code": "IN"
        },
        "images": [
            {
                "about": "All",
                "link": "https://lh5.googleusercontent.com/p/AF1QipMg8raHDE06l6-KGdbTBq4ftJ-3KBD0LEUyctby=w224-h298-k-no"
            },
            {
                "about": "By owner",
                "link": "https://lh5.googleusercontent.com/p/AF1QipPTjc1ewB2c14KZ9clKyhOH1Aq4E8t_MmzWuYo-=w224-h497-k-no"
            },
            {
                "about": "Street View & 360deg",
                "link": "https://streetviewpixels-pa.googleapis.com/v1/thumbnail?panoid=sk1zIiPC-zLnx0YNbFNE1A&cb_client=maps_sv.tactile.gps&w=224&h=298&yaw=172.80542&pitch=0&thumbfov=100"
            }
        ],
        "link": "https://www.google.com/maps/place/Masjid+Kabrastan+%D9%85%D8%B3%D8%AC%D8%AF+%D9%82%D8%A8%D8%B1%D8%B3%D8%AA%D8%A7%D9%86%E2%80%AD/data=!4m7!3m6!1s0x3975e157aaa979a7:0xec0746627930c36e!8m2!3d26.773247!4d79.0334428!16s%2Fg%2F11rkggzrqz!19sChIJp3mpqlfhdTkRbsMweWJGB-w?authuser=0&hl=en&rclk=1",
        "coordinates": {
            "latitude": 26.773246999999998,
            "longitude": 79.0334428
        }
    },
    {
        "name": "Dargah mohammad ali sayyed and mosque",
        "main_category": "Mosque",
        "address": "Q2GP+PMR Dargah mohammad ali sayyed and mosque, Mahera, chungi, Sharwati Nagar, Etawah, Uttar Pradesh 206001",
        "detailed_address": {
            "ward": "Sharwati Nagar",
            "street": "Q2GP+PMR Mahera, chungi",
            "city": "Etawah",
            "postal_code": "206001",
            "state": "Uttar Pradesh",
            "country_code": "IN"
        },
        "images": [
            {
                "about": "All",
                "link": "https://streetviewpixels-pa.googleapis.com/v1/thumbnail?panoid=_4CE76f6KXvvea8MD4cZBw&cb_client=maps_sv.tactile.gps&w=224&h=298&yaw=182.48778&pitch=0&thumbfov=100"
            },
            {
                "about": "Street View & 360deg",
                "link": "https://streetviewpixels-pa.googleapis.com/v1/thumbnail?panoid=_4CE76f6KXvvea8MD4cZBw&cb_client=maps_sv.tactile.gps&w=224&h=298&yaw=182.48778&pitch=0&thumbfov=100"
            }
        ],
        "link": "https://www.google.com/maps/place/Dargah+mohammad+ali+sayyed+and+mosque/data=!4m7!3m6!1s0x3975e151b7366fcf:0x902cc6b005a5f6a9!8m2!3d26.7768503!4d79.0366359!16s%2Fg%2F11q9m7q1b8!19sChIJz282t1HhdTkRqfalBbDGLJA?authuser=0&hl=en&rclk=1",
        "coordinates": {
            "latitude": 26.7768503,
            "longitude": 79.0366359
        }
    },
    {
        "name": "shaahii jaamaa msjid",
        "main_category": "Mosque",
        "address": "Q295+VQ7 shaahii jaamaa msjid, Chhipaiti, Etawah, Uttar Pradesh 206001",
        "detailed_address": {
            "ward": "Chhipaiti",
            "street": "Q295+VQ7",
            "city": "Etawah",
            "postal_code": "206001",
            "state": "Uttar Pradesh",
            "country_code": "IN"
        },
        "images": [],
        "link": "https://www.google.com/maps/place/%E0%A4%B6%E0%A4%BE%E0%A4%B9%E0%A5%80+%E0%A4%9C%E0%A4%BE%E0%A4%AE%E0%A4%BE+%E0%A4%AE%E0%A4%B8%E0%A4%9C%E0%A4%BF%E0%A4%A6/data=!4m7!3m6!1s0x3975df57f82f6481:0xa38a626d10f49955!8m2!3d26.7696663!4d79.0094081!16s%2Fg%2F11s8swjq1v!19sChIJgWQv-FffdTkRVZn0EG1iiqM?authuser=0&hl=en&rclk=1",
        "coordinates": {
            "latitude": 26.769666299999997,
            "longitude": 79.0094081
        }
    },
    {
        "name": "Badi Masjid",
        "main_category": "School",
        "address": "Q2G8+2PJ Badi Masjid, Unnamed Road, Purbia Tola, Etawah, Uttar Pradesh 206001",
        "detailed_address": {
            "ward": "Purbia Tola",
            "street": "Q2G8+2PJ, Unnamed Road",
            "city": "Etawah",
            "postal_code": "206001",
            "state": "Uttar Pradesh",
            "country_code": "IN"
        },
        "images": [],
        "link": "https://www.google.com/maps/place/Badi+Masjid/data=!4m7!3m6!1s0x3975dfd8d6d5cb05:0x44353f71fc2c765f!8m2!3d26.7750756!4d79.0167671!16s%2Fg%2F11c6rh01tj!19sChIJBcvV1tjfdTkRX3Ys_HE_NUQ?authuser=0&hl=en&rclk=1",
        "coordinates": {
            "latitude": 26.775075599999997,
            "longitude": 79.0167671
        }
    },
    {
        "name": "Sunni Masjid",
        "main_category": "Mosque",
        "address": "Q2QH+WWG Sunni Masjid, Ajeet Nagar, Etawah, Uttar Pradesh 206001",
        "detailed_address": {
            "ward": "Ajeet Nagar",
            "street": "Q2QH+WWG",
            "city": "Etawah",
            "postal_code": "206001",
            "state": "Uttar Pradesh",
            "country_code": "IN"
        },
        "images": [
            {
                "about": "All",
                "link": "https://streetviewpixels-pa.googleapis.com/v1/thumbnail?panoid=phT1lxmosz-9sIjIf7h1fA&cb_client=maps_sv.tactile.gps&w=224&h=298&yaw=2.6770895&pitch=0&thumbfov=100"
            },
            {
                "about": "Street View & 360deg",
                "link": "https://streetviewpixels-pa.googleapis.com/v1/thumbnail?panoid=phT1lxmosz-9sIjIf7h1fA&cb_client=maps_sv.tactile.gps&w=224&h=298&yaw=2.6770895&pitch=0&thumbfov=100"
            }
        ],
        "link": "https://www.google.com/maps/place/Sunni+Masjid/data=!4m7!3m6!1s0x3975e172e801e399:0xc3b214759174fbc7!8m2!3d26.7898043!4d79.0298228!16s%2Fg%2F11tk6pglwf!19sChIJmeMB6HLhdTkRx_t0kXUUssM?authuser=0&hl=en&rclk=1",
        "coordinates": {
            "latitude": 26.7898043,
            "longitude": 79.02982279999999
        }
    },
    {
        "name": "Shahi jama masjid",
        "main_category": "Mosque",
        "address": "Q2J9+3XJ Shahi jama masjid, Naurangabad, Chogurjee Nagar, Etawah, Uttar Pradesh 206001",
        "detailed_address": {
            "ward": "Naurangabad, Chogurjee Nagar",
            "street": "Q2J9+3XJ",
            "city": "Etawah",
            "postal_code": "206001",
            "state": "Uttar Pradesh",
            "country_code": "IN"
        },
        "images": [],
        "link": "https://www.google.com/maps/place/Shahi+jama+masjid/data=!4m7!3m6!1s0x3975e1f463219597:0x14aad8967a51df6e!8m2!3d26.7802228!4d79.0198911!16s%2Fg%2F11jyyzg4yk!19sChIJl5UhY_ThdTkRbt9RepbYqhQ?authuser=0&hl=en&rclk=1",
        "coordinates": {
            "latitude": 26.780222799999997,
            "longitude": 79.0198911
        }
    },
    {
        "name": "Ahte ilahi masjid",
        "main_category": "Mosque",
        "address": "Q2FG+XXP Ahte ilahi masjid, Katra Shamsher Khan, Alkapuri, Karm Ganj, Etawah, Uttar Pradesh 206001",
        "detailed_address": {
            "ward": "Alkapuri, Karm Ganj",
            "street": "Q2FG+XXP, Katra Shamsher Khan",
            "city": "Etawah",
            "postal_code": "206001",
            "state": "Uttar Pradesh",
            "country_code": "IN"
        },
        "images": [
            {
                "about": "All",
                "link": "https://lh5.googleusercontent.com/p/AF1QipOVezYMQ0fUhqb2C5uTUMGEN4k3k-hOeKDYcMDr=w224-h498-k-no"
            }
        ],
        "link": "https://www.google.com/maps/place/Ahte+ilahi+masjid/data=!4m7!3m6!1s0x3975e107bb80c345:0xf8ed9956873e7d78!8m2!3d26.7748604!4d79.0276911!16s%2Fg%2F11kqxd1xbw!19sChIJRcOAuwfhdTkReH0-h1aZ7fg?authuser=0&hl=en&rclk=1",
        "coordinates": {
            "latitude": 26.774860399999998,
            "longitude": 79.0276911
        }
    },
    {
        "name": "Noori Masjid",
        "main_category": "Mosque",
        "address": "Q2GC+5RH Noori Masjid, Sabit Gunj Rd, Anand Nagar, Kabirganj, Etawah, Uttar Pradesh 206001",
        "detailed_address": {
            "ward": "Anand Nagar, Kabirganj",
            "street": "Q2GC+5RH, Sabit Gunj Rd",
            "city": "Etawah",
            "postal_code": "206001",
            "state": "Uttar Pradesh",
            "country_code": "IN"
        },
        "images": [
            {
                "about": "All",
                "link": "https://streetviewpixels-pa.googleapis.com/v1/thumbnail?panoid=7P6uTSdIaVUV3VWYvV9ZLg&cb_client=maps_sv.tactile.gps&w=224&h=298&yaw=251.45998&pitch=0&thumbfov=100"
            },
            {
                "about": "Street View & 360deg",
                "link": "https://streetviewpixels-pa.googleapis.com/v1/thumbnail?panoid=7P6uTSdIaVUV3VWYvV9ZLg&cb_client=maps_sv.tactile.gps&w=224&h=298&yaw=251.45998&pitch=0&thumbfov=100"
            }
        ],
        "link": "https://www.google.com/maps/place/Noori+Masjid/data=!4m7!3m6!1s0x3975e12d2726c653:0x1a61232dc4048dfc!8m2!3d26.7754347!4d79.0221004!16s%2Fg%2F11tjm1lwyw!19sChIJU8YmJy3hdTkR_I0ExC0jYRo?authuser=0&hl=en&rclk=1",
        "coordinates": {
            "latitude": 26.775434699999998,
            "longitude": 79.0221004
        }
    },
    {
        "name": "Lalpura Masjid",
        "main_category": "Mosque",
        "address": "Q29C+38J Lalpura Masjid, Lalpura, Etawah, Uttar Pradesh 206001",
        "detailed_address": {
            "ward": "Lalpura",
            "street": "Q29C+38J",
            "city": "Etawah",
            "postal_code": "206001",
            "state": "Uttar Pradesh",
            "country_code": "IN"
        },
        "images": [],
        "link": "https://www.google.com/maps/place/Lalpura+Masjid/data=!4m7!3m6!1s0x3975e19c1f47762b:0xbfcd1a0ee121cd87!8m2!3d26.7677193!4d79.0207558!16s%2Fg%2F11vkmb9dvf!19sChIJK3ZHH5zhdTkRh80h4Q4azb8?authuser=0&hl=en&rclk=1",
        "coordinates": {
            "latitude": 26.7677193,
            "longitude": 79.0207558
        }
    },
    {
        "name": "Mosque",
        "main_category": "Mosque",
        "address": "Mosque, 246, Shahgran, Nai Basti, NEW BASTI, Etawah, Uttar Pradesh 206001",
        "detailed_address": {
            "ward": "Shahgran, Nai Basti, NEW BASTI",
            "street": "246",
            "city": "Etawah",
            "postal_code": "206001",
            "state": "Uttar Pradesh",
            "country_code": "IN"
        },
        "images": [],
        "link": "https://www.google.com/maps/place/Mosque/data=!4m7!3m6!1s0x3975df2e8946f1e5:0x7dd3eeaa314ed6d1!8m2!3d26.7725861!4d79.013294!16s%2Fg%2F11tjm4bd73!19sChIJ5fFGiS7fdTkR0dZOMaru030?authuser=0&hl=en&rclk=1",
        "coordinates": {
            "latitude": 26.772586099999998,
            "longitude": 79.013294
        }
    },
    {
        "name": "kuraishiyaan mszid",
        "main_category": "Mosque",
        "address": "kuraishiyaan mszid, near, Sabitganj,new,city,chowki, Ramganj, Etawah, Uttar Pradesh 206001",
        "detailed_address": {
            "ward": "Anand Nagar, Ramganj",
            "street": "near, Sabitganj,new,city,chowki",
            "city": "Etawah",
            "postal_code": "206001",
            "state": "Uttar Pradesh",
            "country_code": "IN"
        },
        "images": [
            {
                "about": "All",
                "link": "https://lh5.googleusercontent.com/p/AF1QipPH7CCPE5D5CHRIUS3M4Q3WWxvnMv6CZy6gPZg=w529-h298-k-no"
            },
            {
                "about": "Street View & 360deg",
                "link": "https://streetviewpixels-pa.googleapis.com/v1/thumbnail?panoid=5y0IWxoMJUvRwwQ9fF4_dQ&cb_client=maps_sv.tactile.gps&w=224&h=298&yaw=260.05157&pitch=0&thumbfov=100"
            }
        ],
        "link": "https://www.google.com/maps/place/%E0%A4%95%E0%A5%81%E0%A4%B0%E0%A5%88%E0%A4%B6%E0%A4%BF%E0%A4%AF%E0%A4%BE%E0%A4%A8+%E0%A4%AE%E0%A4%B8%E0%A5%8D%E0%A5%9B%E0%A4%BF%E0%A4%A6/data=!4m7!3m6!1s0x3975e1de163562a7:0x6e9fe61e8e3dc1bb!8m2!3d26.7766704!4d79.0240617!16s%2Fg%2F11fn9j8s7x!19sChIJp2I1Ft7hdTkRu8E9jh7mn24?authuser=0&hl=en&rclk=1",
        "coordinates": {
            "latitude": 26.7766704,
            "longitude": 79.02406169999999
        }
    }
]