[
    {
        "name": "Al Jamiyathul Madhina Pallivasal",
        "main_category": "Mosque",
        "address": "Al Jamiyathul Madhina Pallivasal, 183, madhina nagar ,last street,, Srivilliputhur, Tamil Nadu",
        "detailed_address": {
            "ward": "Mangapuram",
            "street": "183, madhina nagar ,last street,",
            "city": "Srivilliputhur",
            "postal_code": null,
            "state": "Tamil Nadu",
            "country_code": "IN"
        },
        "images": [
            {
                "about": "All",
                "link": "https://lh5.googleusercontent.com/p/AF1QipPp3vPKS2Syt-UWQ880DOyQmw6OJyB_DuDC9B8o=w529-h298-k-no"
            }
        ],
        "link": "https://www.google.com/maps/place/Al+Jamiyathul+Madhina+Pallivasal/data=!4m7!3m6!1s0x3b06dcc3d66b7d1d:0x5fc8f8eb653e8174!8m2!3d9.5202134!4d77.6248772!16s%2Fg%2F11csqd0k8p!19sChIJHX1r1sPcBjsRdIE-Zev4yF8?authuser=0&hl=en&rclk=1",
        "coordinates": {
            "latitude": 9.5202134,
            "longitude": 77.6248772
        }
    },
    {
        "name": "Jumma Puthu Pallivasal - Masjid",
        "main_category": "Mosque",
        "address": "Jumma Puthu Pallivasal - Masjid, Nethaji Road, Mangapuram, Srivilliputhur, Tamil Nadu 626125",
        "detailed_address": {
            "ward": "Mangapuram",
            "street": "Nethaji Road",
            "city": "Srivilliputhur",
            "postal_code": "626125",
            "state": "Tamil Nadu",
            "country_code": "IN"
        },
        "images": [
            {
                "about": "All",
                "link": "https://lh5.googleusercontent.com/p/AF1QipMRr_n4ZthFPuofHRmH9QcyY8jNkgxdBM-QLaU=w397-h298-k-no"
            },
            {
                "about": "Street View & 360deg",
                "link": "https://streetviewpixels-pa.googleapis.com/v1/thumbnail?panoid=yX1bkGlsgfiFaN3Cnd7cjA&cb_client=maps_sv.tactile.gps&w=224&h=298&yaw=221.22256&pitch=0&thumbfov=100"
            },
            {
                "about": "Videos",
                "link": "https://lh5.googleusercontent.com/p/AF1QipPFM2HBdb3OelrtXfH_ljuv_Npz4h42jN5u6KY=w224-h398-k-no"
            }
        ],
        "link": "https://www.google.com/maps/place/Jumma+Puthu+Pallivasal+-+Masjid/data=!4m7!3m6!1s0x3b06dcb8021f8397:0xb6ec07dadd62ea57!8m2!3d9.5127662!4d77.631141!16s%2Fg%2F11fx63fpw0!19sChIJl4MfArjcBjsRV-pi3doH7LY?authuser=0&hl=en&rclk=1",
        "coordinates": {
            "latitude": 9.5127662,
            "longitude": 77.631141
        }
    },
    {
        "name": "Masjid Parking",
        "main_category": "Parking lot for motorcycles",
        "address": "GJCF+3VX Masjid Parking, Mangapuram, Srivilliputhur, Tamil Nadu 626125",
        "detailed_address": {
            "ward": "Mangapuram",
            "street": "GJCF+3VX",
            "city": "Srivilliputhur",
            "postal_code": "626125",
            "state": "Tamil Nadu",
            "country_code": "IN"
        },
        "images": [],
        "link": "https://www.google.com/maps/place/Masjid+Parking/data=!4m7!3m6!1s0x3b06ddc13cc133bd:0xff9a10056ca6f00!8m2!3d9.5202332!4d77.6247248!16s%2Fg%2F11sk5s6jdm!19sChIJvTPBPMHdBjsRAG_KVgCh-Q8?authuser=0&hl=en&rclk=1",
        "coordinates": {
            "latitude": 9.5202332,
            "longitude": 77.6247248
        }
    }
]