[
    {
        "name": "Gulzaar Masjid",
        "main_category": "Mosque",
        "address": "MGCR+66Q Gulzaar Masjid, Bokkalguda St, Brahmanwadi, Adilabad, Telangana 504001",
        "detailed_address": {
            "ward": "Brahmanwadi",
            "street": "MGCR+66Q, Bokkalguda St",
            "city": "Adilabad",
            "postal_code": "504001",
            "state": "Telangana",
            "country_code": "IN"
        },
        "images": [
            {
                "about": "All",
                "link": "https://lh5.googleusercontent.com/p/AF1QipPmV3_7b_4d4-yd3TDYdhSwh-dkAtQLbh-hwyA=w397-h298-k-no"
            },
            {
                "about": "Street View & 360deg",
                "link": "https://streetviewpixels-pa.googleapis.com/v1/thumbnail?panoid=Hjurfo0YTHMAMkuvVanxqg&cb_client=maps_sv.tactile.gps&w=224&h=298&yaw=359.00403&pitch=0&thumbfov=100"
            }
        ],
        "link": "https://www.google.com/maps/place/Gulzaar+Masjid/data=!4m7!3m6!1s0x3bd25c7477d00337:0x3dc61fe7489f62b1!8m2!3d19.6704596!4d78.5395986!16s%2Fg%2F1tcz6sjz!19sChIJNwPQd3Rc0jsRsWKfSOcfxj0?authuser=0&hl=en&rclk=1",
        "coordinates": {
            "latitude": 19.670459599999997,
            "longitude": 78.53959859999999
        }
    },
    {
        "name": "Masjid E Abubaker",
        "main_category": "Mosque",
        "address": "MG8V+54F Masjid E Abubaker, Shanti Nagar, Adilabad, Telangana 504001",
        "detailed_address": {
            "ward": "Shanti Nagar",
            "street": "MG8V+54F",
            "city": "Adilabad",
            "postal_code": "504001",
            "state": "Telangana",
            "country_code": "IN"
        },
        "images": [
            {
                "about": "All",
                "link": "https://lh5.googleusercontent.com/p/AF1QipNsiv3Zwshd4f2vzPKsjvZ2xjudRyZrKNnp9bDn=w224-h298-k-no"
            },
            {
                "about": "Street View & 360deg",
                "link": "https://streetviewpixels-pa.googleapis.com/v1/thumbnail?panoid=dEarHw3mXpnMVH5WKtI28g&cb_client=maps_sv.tactile.gps&w=224&h=298&yaw=200.17949&pitch=0&thumbfov=100"
            }
        ],
        "link": "https://www.google.com/maps/place/Masjid+E+Abubaker/data=!4m7!3m6!1s0x3bd25c72afd994d1:0x55e84f035f33b282!8m2!3d19.6654385!4d78.542794!16s%2Fg%2F11c1wsmygw!19sChIJ0ZTZr3Jc0jsRgrIzXwNP6FU?authuser=0&hl=en&rclk=1",
        "coordinates": {
            "latitude": 19.6654385,
            "longitude": 78.542794
        }
    },
    {
        "name": "Masjid E Firdous",
        "main_category": "Mosque",
        "address": "Masjid E Firdous, Utukur, Lakshettipet, Telangana 504215",
        "detailed_address": {
            "ward": null,
            "street": null,
            "city": "Utukur, Lakshettipet",
            "postal_code": null,
            "state": "Telangana",
            "country_code": "IN"
        },
        "images": [
            {
                "about": "All",
                "link": "https://lh5.googleusercontent.com/p/AF1QipPT7IB1G4WIzjOlIfmFRzj27CESxvsoRgL5D3tp=w224-h298-k-no"
            },
            {
                "about": "Street View & 360deg",
                "link": "https://streetviewpixels-pa.googleapis.com/v1/thumbnail?panoid=GhmZhEdq-mUDp4XUM-1JPQ&cb_client=maps_sv.tactile.gps&w=224&h=298&yaw=44.815517&pitch=0&thumbfov=100"
            }
        ],
        "link": "https://www.google.com/maps/place/Masjid+E+Firdous/data=!4m7!3m6!1s0x3bcd480ee90e2c3f:0xfcd8f71cabc7c5c8!8m2!3d18.8884431!4d79.2072006!16s%2Fg%2F1td5721r!19sChIJPywO6Q5IzTsRyMXHqxz32Pw?authuser=0&hl=en&rclk=1",
        "coordinates": {
            "latitude": 18.8884431,
            "longitude": 79.2072006
        }
    },
    {
        "name": "Madeena Masjid",
        "main_category": "Mosque",
        "address": "V6P3+8XJ Madeena Masjid, Unnamed Road, Lakshettipet, Utukur, Telangana 504215",
        "detailed_address": {
            "ward": null,
            "street": "V6P3+8XJ, Unnamed Road",
            "city": "Lakshettipet, Utukur",
            "postal_code": "504215",
            "state": "Telangana",
            "country_code": "IN"
        },
        "images": [
            {
                "about": "All",
                "link": "https://streetviewpixels-pa.googleapis.com/v1/thumbnail?panoid=gGh0N2l0YFnyBs5z-_-ZjA&cb_client=maps_sv.tactile.gps&w=224&h=298&yaw=249.1473&pitch=0&thumbfov=100"
            },
            {
                "about": "Street View & 360deg",
                "link": "https://streetviewpixels-pa.googleapis.com/v1/thumbnail?panoid=gGh0N2l0YFnyBs5z-_-ZjA&cb_client=maps_sv.tactile.gps&w=224&h=298&yaw=249.1473&pitch=0&thumbfov=100"
            }
        ],
        "link": "https://www.google.com/maps/place/Madeena+Masjid/data=!4m7!3m6!1s0x3bcd4808b8069611:0xa08757891f8dc24f!8m2!3d18.8858394!4d79.2049032!16s%2Fg%2F11h9rd_j48!19sChIJEZYGuAhIzTsRT8KNH4lXh6A?authuser=0&hl=en&rclk=1",
        "coordinates": {
            "latitude": 18.8858394,
            "longitude": 79.20490319999999
        }
    },
    {
        "name": "Jaame Masjid",
        "main_category": "Mosque",
        "address": "22MM+M88 Jaame Masjid, Donthapur, Telangana 505425",
        "detailed_address": {
            "ward": null,
            "street": "22MM+M88",
            "city": "Donthapur",
            "postal_code": "505425",
            "state": "Telangana",
            "country_code": "IN"
        },
        "images": [
            {
                "about": "All",
                "link": "https://lh5.googleusercontent.com/p/AF1QipPlh61d4ddzDhvV8NoyE2-UZZuKbZJ7sKpLtiT0=w397-h298-k-no"
            },
            {
                "about": "Videos",
                "link": "https://lh5.googleusercontent.com/p/AF1QipOedv9M5RspWPfx3CvZPOysQf7X9V7Ry-kbj3SR=w529-h298-k-no"
            }
        ],
        "link": "https://www.google.com/maps/place/Jaame+Masjid/data=!4m7!3m6!1s0x3bcd42bb0af194e7:0x637d967f2a20d1f7!8m2!3d19.0341733!4d79.0333137!16s%2Fg%2F11bx1hgl96!19sChIJ55TxCrtCzTsR99EgKn-WfWM?authuser=0&hl=en&rclk=1",
        "coordinates": {
            "latitude": 19.0341733,
            "longitude": 79.0333137
        }
    },
    {
        "name": "HAZRAT SYED BULAND SHAH WALI DARGAH.",
        "main_category": "Mosque",
        "address": "R8QQ+JQ8 HAZRAT SYED BULAND SHAH WALI DARGAH., Adilabad, Telangana 504209",
        "detailed_address": {
            "ward": null,
            "street": "R8QQ+JQ8",
            "city": "Adilabad",
            "postal_code": null,
            "state": "Telangana",
            "country_code": "IN"
        },
        "images": [
            {
                "about": "All",
                "link": "https://lh5.googleusercontent.com/p/AF1QipPz9KeCm0tgDvQCZaAjwQJrrOONhJExb3J_zuP_=w529-h298-k-no"
            },
            {
                "about": "Latest",
                "link": "https://streetviewpixels-pa.googleapis.com/v1/thumbnail?panoid=Wtq3S8auP43QVSHGlcAKeQ&cb_client=maps_sv.tactile.gps&w=224&h=298&yaw=334.77066&pitch=0&thumbfov=100"
            },
            {
                "about": "Street View & 360deg",
                "link": "https://streetviewpixels-pa.googleapis.com/v1/thumbnail?panoid=Wtq3S8auP43QVSHGlcAKeQ&cb_client=maps_sv.tactile.gps&w=224&h=298&yaw=334.77066&pitch=0&thumbfov=100"
            }
        ],
        "link": "https://www.google.com/maps/place/HAZRAT+SYED+BULAND+SHAH+WALI+DARGAH./data=!4m7!3m6!1s0x3bcd35f4fa83e7b5:0x7c59fc3987391ab6!8m2!3d18.83903!4d79.3394643!16s%2Fg%2F11glwbnpw7!19sChIJteeD-vQ1zTsRtho5hzn8WXw?authuser=0&hl=en&rclk=1",
        "coordinates": {
            "latitude": 18.839029999999998,
            "longitude": 79.3394643
        }
    },
    {
        "name": "Masjid E Aqsa",
        "main_category": "Mosque",
        "address": "V6M3+CQ7 Masjid E Aqsa, Godavari Rd, Luxettipet, Utukur, Telangana 504215",
        "detailed_address": {
            "ward": null,
            "street": "V6M3+CQ7, Godavari Rd",
            "city": "Luxettipet, Utukur",
            "postal_code": "504215",
            "state": "Telangana",
            "country_code": "IN"
        },
        "images": [
            {
                "about": "All",
                "link": "https://lh5.googleusercontent.com/p/AF1QipMpfKxE7fdWagd-rx-cz2etK0QLWDalWa5hG7HX=w298-h298-k-no"
            },
            {
                "about": "Dome",
                "link": "https://lh5.googleusercontent.com/p/AF1QipMpfKxE7fdWagd-rx-cz2etK0QLWDalWa5hG7HX=w298-h298-k-no"
            },
            {
                "about": "Street View & 360deg",
                "link": "https://streetviewpixels-pa.googleapis.com/v1/thumbnail?panoid=mCVqNBmWwbjZwz8u3lS4DQ&cb_client=maps_sv.tactile.gps&w=224&h=298&yaw=274.5184&pitch=0&thumbfov=100"
            }
        ],
        "link": "https://www.google.com/maps/place/Masjid+E+Aqsa/data=!4m7!3m6!1s0x3bcd4806170503ff:0x41898622cf17800e!8m2!3d18.8835328!4d79.204429!16s%2Fg%2F11dx9f8k5s!19sChIJ_wMFFwZIzTsRDoAXzyKGiUE?authuser=0&hl=en&rclk=1",
        "coordinates": {
            "latitude": 18.883532799999998,
            "longitude": 79.20442899999999
        }
    },
    {
        "name": "MASJID",
        "main_category": "Mosque",
        "address": "P5MR+3P9 MASJID, Dharmaram, Telangana 505416",
        "detailed_address": {
            "ward": null,
            "street": "P5MR+3P9",
            "city": "Dharmaram",
            "postal_code": "505416",
            "state": "Telangana",
            "country_code": "IN"
        },
        "images": [
            {
                "about": "All",
                "link": "https://lh5.googleusercontent.com/p/AF1QipN2TuDwVzgAzn6Lkey4-Uta9JKeoqU-fZoR78sc=w224-h398-k-no"
            }
        ],
        "link": "https://www.google.com/maps/place/MASJID/data=!4m7!3m6!1s0x3bcd3a7d9f48ae57:0x86d0cdc6ca2be587!8m2!3d18.7326632!4d79.1918711!16s%2Fg%2F11c1tyx563!19sChIJV65In306zTsRh-UrysbN0IY?authuser=0&hl=en&rclk=1",
        "coordinates": {
            "latitude": 18.732663199999998,
            "longitude": 79.1918711
        }
    },
    {
        "name": "Mosque CKDR",
        "main_category": "Mosque",
        "address": "R32W+GGP Mosque CKDR, Chilvakodur, Telangana 505532",
        "detailed_address": {
            "ward": null,
            "street": "R32W+GGP",
            "city": "Chilvakodur",
            "postal_code": "505532",
            "state": "Telangana",
            "country_code": "IN"
        },
        "images": [
            {
                "about": "All",
                "link": "https://lh5.googleusercontent.com/p/AF1QipMTSBoPP0cltwB3X0-QOkB0kEu6kLuFN9YC0faq=w224-h298-k-no"
            },
            {
                "about": "Videos",
                "link": "https://lh5.googleusercontent.com/p/AF1QipNvqmQaIya3rmkMl6fbS5Yr9KqpbplhsDbjNTLI=w224-h398-k-no"
            }
        ],
        "link": "https://www.google.com/maps/place/Mosque+CKDR/data=!4m7!3m6!1s0x3bcd3f73b2e10561:0xb05753a7af11049e!8m2!3d18.8013409!4d79.0963389!16s%2Fg%2F11gm8p209y!19sChIJYQXhsnM_zTsRngQRr6dTV7A?authuser=0&hl=en&rclk=1",
        "coordinates": {
            "latitude": 18.8013409,
            "longitude": 79.09633889999999
        }
    },
    {
        "name": "Mosque",
        "main_category": "Mosque",
        "address": "X52G+R6F Mosque, Mutyampet, Telangana 504206",
        "detailed_address": {
            "ward": null,
            "street": "X52G+R6F",
            "city": "Mutyampet",
            "postal_code": "504206",
            "state": "Telangana",
            "country_code": "IN"
        },
        "images": [
            {
                "about": "All",
                "link": "https://streetviewpixels-pa.googleapis.com/v1/thumbnail?panoid=NrS9hW4bjoOZvKKwRjEHuQ&cb_client=maps_sv.tactile.gps&w=224&h=298&yaw=68.89017&pitch=0&thumbfov=100"
            },
            {
                "about": "Street View & 360deg",
                "link": "https://streetviewpixels-pa.googleapis.com/v1/thumbnail?panoid=NrS9hW4bjoOZvKKwRjEHuQ&cb_client=maps_sv.tactile.gps&w=224&h=298&yaw=68.89017&pitch=0&thumbfov=100"
            }
        ],
        "link": "https://www.google.com/maps/place/Mosque/data=!4m7!3m6!1s0x3bcd466d6eedd661:0x2921ef9d1613e136!8m2!3d18.9520508!4d79.1755405!16s%2Fg%2F11ddxvk81c!19sChIJYdbtbm1GzTsRNuETFp3vISk?authuser=0&hl=en&rclk=1",
        "coordinates": {
            "latitude": 18.9520508,
            "longitude": 79.1755405
        }
    },
    {
        "name": "Masjid E Ayesha",
        "main_category": "Mosque",
        "address": "V6H2+8JM Masjid E Ayesha, Luxettipet, Telangana 504215",
        "detailed_address": {
            "ward": null,
            "street": "V6H2+8JM",
            "city": "Luxettipet",
            "postal_code": "504215",
            "state": "Telangana",
            "country_code": "IN"
        },
        "images": [
            {
                "about": "All",
                "link": "https://lh5.googleusercontent.com/p/AF1QipPn-Y5yrClDZuE5TIHexsjBGkDOwHVUBX7fIoIY=w397-h298-k-no"
            }
        ],
        "link": "https://www.google.com/maps/place/Masjid+E+Ayesha/data=!4m7!3m6!1s0x3bcd49d98161d923:0x59d66f4dcf609572!8m2!3d18.8783282!4d79.2015539!16s%2Fg%2F11q24cd0db!19sChIJI9lhgdlJzTsRcpVgz01v1lk?authuser=0&hl=en&rclk=1",
        "coordinates": {
            "latitude": 18.8783282,
            "longitude": 79.2015539
        }
    },
    {
        "name": "Masjid-e-Mahmoodunnisa",
        "main_category": "Mosque",
        "address": "3435+9WM Masjid-e-Mahmoodunnisa, Thallapet, Tallapet, Telangana 504206",
        "detailed_address": {
            "ward": null,
            "street": "3435+9WM",
            "city": "Thallapet, Tallapet",
            "postal_code": "504206",
            "state": "Telangana",
            "country_code": "IN"
        },
        "images": [
            {
                "about": "All",
                "link": "https://lh5.googleusercontent.com/p/AF1QipNeIcheaYziX2Mm8DGhCrAdoMpzMe2LXp6wqhOo=w224-h298-k-no"
            },
            {
                "about": "Street View & 360deg",
                "link": "https://streetviewpixels-pa.googleapis.com/v1/thumbnail?panoid=nbN0KBGYfHp66jnFdbMo7Q&cb_client=maps_sv.tactile.gps&w=224&h=298&yaw=48.546665&pitch=0&thumbfov=100"
            }
        ],
        "link": "https://www.google.com/maps/place/Masjid-e-Mahmoodunnisa/data=!4m7!3m6!1s0x3bcd453f06c5e385:0x8bfd0695f73e7367!8m2!3d19.0534615!4d79.1098047!16s%2Fg%2F11ghs2kky5!19sChIJhePFBj9FzTsRZ3M-95UG_Ys?authuser=0&hl=en&rclk=1",
        "coordinates": {
            "latitude": 19.053461499999997,
            "longitude": 79.1098047
        }
    },
    {
        "name": "Mosque",
        "main_category": "Mosque",
        "address": "Mosque, Devapur, Telangana 504218",
        "detailed_address": {
            "ward": null,
            "street": null,
            "city": "Devapur",
            "postal_code": null,
            "state": "Telangana",
            "country_code": "IN"
        },
        "images": [],
        "link": "https://www.google.com/maps/place/Mosque/data=!4m7!3m6!1s0x3bcd4d17c2ad90f3:0xab9c721020869a11!8m2!3d19.0355273!4d79.3571019!16s%2Fg%2F1tfzqcm7!19sChIJ85CtwhdNzTsREZqGIBBynKs?authuser=0&hl=en&rclk=1",
        "coordinates": {
            "latitude": 19.0355273,
            "longitude": 79.35710189999999
        }
    },
    {
        "name": "Masjid",
        "main_category": "Mosque",
        "address": "P8PM+23W Masjid, Gudipadu, Telangana 505416",
        "detailed_address": {
            "ward": null,
            "street": "P8PM+23W",
            "city": "Gudipadu",
            "postal_code": "505416",
            "state": "Telangana",
            "country_code": "IN"
        },
        "images": [
            {
                "about": "All",
                "link": "https://lh5.googleusercontent.com/p/AF1QipOclY05C-4A3H1paCZLo6Dm_tLGlhbuV78wq5p5=w224-h485-k-no"
            }
        ],
        "link": "https://www.google.com/maps/place/Masjid/data=!4m7!3m6!1s0x3bcd3255b43543df:0xcc022fc705a04fd2!8m2!3d18.7351001!4d79.3327068!16s%2Fg%2F11g690sl7v!19sChIJ30M1tFUyzTsR0k-gBccvAsw?authuser=0&hl=en&rclk=1",
        "coordinates": {
            "latitude": 18.7351001,
            "longitude": 79.3327068
        }
    },
    {
        "name": "Masjid",
        "main_category": "Mosque",
        "address": "V6MR+V66 Masjid, Ankathipally, Telangana 504215",
        "detailed_address": {
            "ward": null,
            "street": "V6MR+V66",
            "city": "Ankathipally",
            "postal_code": "504215",
            "state": "Telangana",
            "country_code": "IN"
        },
        "images": [
            {
                "about": "All",
                "link": "https://streetviewpixels-pa.googleapis.com/v1/thumbnail?panoid=TpL2ezeqpsdsaVsRSuPdzg&cb_client=maps_sv.tactile.gps&w=224&h=298&yaw=194.30045&pitch=0&thumbfov=100"
            },
            {
                "about": "Street View & 360deg",
                "link": "https://streetviewpixels-pa.googleapis.com/v1/thumbnail?panoid=TpL2ezeqpsdsaVsRSuPdzg&cb_client=maps_sv.tactile.gps&w=224&h=298&yaw=194.30045&pitch=0&thumbfov=100"
            }
        ],
        "link": "https://www.google.com/maps/place/Masjid/data=!4m7!3m6!1s0x3bcd49bdc216284d:0x350592a99ce08e14!8m2!3d18.8846738!4d79.2405227!16s%2Fg%2F11h2hhxpqs!19sChIJTSgWwr1JzTsRFI7gnKmSBTU?authuser=0&hl=en&rclk=1",
        "coordinates": {
            "latitude": 18.884673799999998,
            "longitude": 79.2405227
        }
    },
    {
        "name": "Jama Mosque Devapur",
        "main_category": "Mosque",
        "address": "29R3+5CH Jama Mosque Devapur, Devapur, Telangana 504218",
        "detailed_address": {
            "ward": null,
            "street": "29R3+5CH",
            "city": "Devapur",
            "postal_code": "504218",
            "state": "Telangana",
            "country_code": "IN"
        },
        "images": [
            {
                "about": "All",
                "link": "https://lh5.googleusercontent.com/p/AF1QipNasVqxqJouIMc6LFaSP-8Q6RRdQW2P8S0ywUcU=w224-h298-k-no"
            }
        ],
        "link": "https://www.google.com/maps/place/Jama+Mosque+Devapur/data=!4m7!3m6!1s0x3bcd4d143d51615b:0xd161b4f792ad7f92!8m2!3d19.0404421!4d79.3536248!16s%2Fg%2F11hbvtzyrz!19sChIJW2FRPRRNzTsRkn-tkve0YdE?authuser=0&hl=en&rclk=1",
        "coordinates": {
            "latitude": 19.0404421,
            "longitude": 79.35362479999999
        }
    },
    {
        "name": "Khankha e mohammadi luxettipet",
        "main_category": "Mosque",
        "address": "V6G2+MFW Khankha e mohammadi luxettipet, Unnamed Road, Luxettipet, Telangana 504215",
        "detailed_address": {
            "ward": null,
            "street": "V6G2+MFW, Unnamed Road",
            "city": "Luxettipet",
            "postal_code": "504215",
            "state": "Telangana",
            "country_code": "IN"
        },
        "images": [],
        "link": "https://www.google.com/maps/place/Khankha+e+mohammadi+luxettipet/data=!4m7!3m6!1s0x3bcd494724f49b4d:0x987539901e1b05d2!8m2!3d18.8767471!4d79.2012099!16s%2Fg%2F11nt4bv2g0!19sChIJTZv0JEdJzTsR0gUbHpA5dZg?authuser=0&hl=en&rclk=1",
        "coordinates": {
            "latitude": 18.8767471,
            "longitude": 79.2012099
        }
    },
    {
        "name": "Masjid e Amina Abdullah Rashod",
        "main_category": "Mosque",
        "address": "X5W3+5FW Masjid e Amina Abdullah Rashod, bolishetty rajanna mro office, Dantepally, Telangana 504206",
        "detailed_address": {
            "ward": null,
            "street": "X5W3+5FW, bolishetty rajanna mro office",
            "city": "Dantepally",
            "postal_code": "504206",
            "state": "Telangana",
            "country_code": "IN"
        },
        "images": [
            {
                "about": "All",
                "link": "https://lh5.googleusercontent.com/p/AF1QipOzuQp4JKM5c64lZwoU0I5JcBcbatSoo9BkAi7Z=w224-h398-k-no"
            }
        ],
        "link": "https://www.google.com/maps/place/Masjid+e+Amina+Abdullah+Rashod/data=!4m7!3m6!1s0x3bcd45765b74900f:0xabe4778fa50cba8c!8m2!3d18.9954814!4d79.1537153!16s%2Fg%2F11n25bc1t1!19sChIJD5B0W3ZFzTsRjLoMpY935Ks?authuser=0&hl=en&rclk=1",
        "coordinates": {
            "latitude": 18.9954814,
            "longitude": 79.1537153
        }
    },
    {
        "name": "MASJID- E- HUDA",
        "main_category": "Mosque",
        "address": "V994+7H7 MASJID- E- HUDA, Gudipet, Telangana 504209",
        "detailed_address": {
            "ward": null,
            "street": "V994+7H7",
            "city": "Gudipet",
            "postal_code": "504209",
            "state": "Telangana",
            "country_code": "IN"
        },
        "images": [
            {
                "about": "All",
                "link": "https://lh5.googleusercontent.com/p/AF1QipOS5phzKeew9sErz3I1YOBIao2QpEy_CpxlFgwg=w224-h480-k-no"
            },
            {
                "about": "Street View & 360deg",
                "link": "https://streetviewpixels-pa.googleapis.com/v1/thumbnail?panoid=9pq1EbpxZwT714vEayWglg&cb_client=maps_sv.tactile.gps&w=224&h=298&yaw=22.50198&pitch=0&thumbfov=100"
            }
        ],
        "link": "https://www.google.com/maps/place/MASJID-+E-+HUDA/data=!4m7!3m6!1s0x3bcd35851ef1ea0d:0x28b2fd586b6d1379!8m2!3d18.8681534!4d79.3564285!16s%2Fg%2F11kjjp9bk1!19sChIJDerxHoU1zTsReRNta1j9sig?authuser=0&hl=en&rclk=1",
        "coordinates": {
            "latitude": 18.8681534,
            "longitude": 79.35642849999999
        }
    },
    {
        "name": "MASJID -E-HUDA",
        "main_category": "Mosque",
        "address": "V9C6+23C MASJID -E-HUDA, Gudipet, Telangana 504209",
        "detailed_address": {
            "ward": null,
            "street": "V9C6+23C",
            "city": "Gudipet",
            "postal_code": "504209",
            "state": "Telangana",
            "country_code": "IN"
        },
        "images": [],
        "link": "https://www.google.com/maps/place/MASJID+-E-HUDA/data=!4m7!3m6!1s0x3bcd356b38b7731f:0xc3294b0d95965bcf!8m2!3d18.8700652!4d79.3601319!16s%2Fg%2F11sstt55j6!19sChIJH3O3OGs1zTsRz1uWlQ1LKcM?authuser=0&hl=en&rclk=1",
        "coordinates": {
            "latitude": 18.8700652,
            "longitude": 79.3601319
        }
    },
    {
        "name": "Masjid",
        "main_category": "Mosque",
        "address": "V7J4+GG5 Masjid, Telangana 504215",
        "detailed_address": {
            "ward": null,
            "street": "V7J4+GG5",
            "city": null,
            "postal_code": "504215",
            "state": "Telangana",
            "country_code": "IN"
        },
        "images": [
            {
                "about": "All",
                "link": "https://lh5.googleusercontent.com/p/AF1QipOcsNqRJUWKaj2mYrG46XlbWwcVrLuZAV-qX6M4=w224-h486-k-no"
            }
        ],
        "link": "https://www.google.com/maps/place/Masjid/data=!4m7!3m6!1s0x3bcd4949a9bf89a1:0xfedf2abfb93c1c36!8m2!3d18.8812544!4d79.2563521!16s%2Fg%2F11rw9wcgw5!19sChIJoYm_qUlJzTsRNhw8ub8q3_4?authuser=0&hl=en&rclk=1",
        "coordinates": {
            "latitude": 18.8812544,
            "longitude": 79.2563521
        }
    },
    {
        "name": "Masjid E Yaqub Ali",
        "main_category": "Mosque",
        "address": "R83X+854 Masjid E Yaqub Ali, Potial, Telangana 505187",
        "detailed_address": {
            "ward": null,
            "street": "R83X+854",
            "city": "Potial",
            "postal_code": "505187",
            "state": "Telangana",
            "country_code": "IN"
        },
        "images": [],
        "link": "https://www.google.com/maps/place/Masjid+E+Yaqub+Ali/data=!4m7!3m6!1s0x3bcd353c84f91ed1:0x836c93a56e1d021c!8m2!3d18.8032522!4d79.3479638!16s%2Fg%2F11l2xpxbkc!19sChIJ0R75hDw1zTsRHAIdbqWTbIM?authuser=0&hl=en&rclk=1",
        "coordinates": {
            "latitude": 18.8032522,
            "longitude": 79.3479638
        }
    },
    {
        "name": "MASJID E MUBARAK",
        "main_category": "Mosque",
        "address": "P2J9+CQ9 MASJID E MUBARAK, Suddapally, Telangana 505452",
        "detailed_address": {
            "ward": null,
            "street": "P2J9+CQ9",
            "city": "Suddapally",
            "postal_code": "505452",
            "state": "Telangana",
            "country_code": "IN"
        },
        "images": [
            {
                "about": "All",
                "link": "https://lh5.googleusercontent.com/p/AF1QipNngQ6WsXF92UrEZXTFLulSakV1hWDntQ006K2P=w224-h398-k-no"
            }
        ],
        "link": "https://www.google.com/maps/place/MASJID+E+MUBARAK/data=!4m7!3m6!1s0x3bcd3d76e7bdd319:0xae325de6eab0e215!8m2!3d18.7310498!4d79.0194722!16s%2Fg%2F11vdnvrgd0!19sChIJGdO953Y9zTsRFeKw6uZdMq4?authuser=0&hl=en&rclk=1",
        "coordinates": {
            "latitude": 18.731049799999997,
            "longitude": 79.0194722
        }
    },
    {
        "name": "Masjid - E - Mahamaadiya",
        "main_category": "Mosque",
        "address": "R5F3+635 Masjid - E - Mahamaadiya, Unnamed Road, Jagdevpet, Telangana 505526",
        "detailed_address": {
            "ward": null,
            "street": "R5F3+635, Unnamed Road",
            "city": "Jagdevpet",
            "postal_code": "505526",
            "state": "Telangana",
            "country_code": "IN"
        },
        "images": [
            {
                "about": "All",
                "link": "https://lh5.googleusercontent.com/p/AF1QipOF_Cc5KXhatH6JLKXLDf8ePDU6KjWvxRTUJMUe=w298-h298-k-no"
            }
        ],
        "link": "https://www.google.com/maps/place/Masjid+-+E+-+Mahamaadiya/data=!4m7!3m6!1s0x3bcd392b8cb46fcb:0x3d2e7f72c42bba7!8m2!3d18.8230147!4d79.1527337!16s%2Fg%2F11np4sc5d4!19sChIJy2-0jCs5zTsRp7tCLPfn0gM?authuser=0&hl=en&rclk=1",
        "coordinates": {
            "latitude": 18.823014699999998,
            "longitude": 79.1527337
        }
    },
    {
        "name": "Masjid",
        "main_category": "Mosque",
        "address": "Q4F6+VX5 Masjid, Laxmipur, Telangana 505532",
        "detailed_address": {
            "ward": null,
            "street": "Q4F6+VX5",
            "city": "Laxmipur",
            "postal_code": "505532",
            "state": "Telangana",
            "country_code": "IN"
        },
        "images": [],
        "link": "https://www.google.com/maps/place/Masjid/data=!4m7!3m6!1s0x3bcd398cd87369e5:0xa04dc91ce91f0f04!8m2!3d18.775158!4d79.1120486!16s%2Fg%2F11k4psd7d8!19sChIJ5Wlz2Iw5zTsRBA8f6RzJTaA?authuser=0&hl=en&rclk=1",
        "coordinates": {
            "latitude": 18.775157999999998,
            "longitude": 79.1120486
        }
    },
    {
        "name": "Badi masjid",
        "main_category": "Mosque",
        "address": "V6M4+6G6 Badi masjid, Luxettipet, Utukur, Telangana 504215",
        "detailed_address": {
            "ward": null,
            "street": "V6M4+6G6",
            "city": "Luxettipet, Utukur",
            "postal_code": "504215",
            "state": "Telangana",
            "country_code": "IN"
        },
        "images": [
            {
                "about": "All",
                "link": "https://streetviewpixels-pa.googleapis.com/v1/thumbnail?panoid=2Fma5QjCQUEZ-Ww14r02Sg&cb_client=maps_sv.tactile.gps&w=224&h=298&yaw=145.20671&pitch=0&thumbfov=100"
            },
            {
                "about": "Street View & 360deg",
                "link": "https://streetviewpixels-pa.googleapis.com/v1/thumbnail?panoid=2Fma5QjCQUEZ-Ww14r02Sg&cb_client=maps_sv.tactile.gps&w=224&h=298&yaw=145.20671&pitch=0&thumbfov=100"
            }
        ],
        "link": "https://www.google.com/maps/place/Badi+masjid/data=!4m7!3m6!1s0x3bcd4983c8455595:0x967acd0ca59d0e65!8m2!3d18.8830416!4d79.2062597!16s%2Fg%2F11vf2g1rj5!19sChIJlVVFyINJzTsRZQ6dpQzNepY?authuser=0&hl=en&rclk=1",
        "coordinates": {
            "latitude": 18.8830416,
            "longitude": 79.20625969999999
        }
    },
    {
        "name": "Jama masjid luxettipet",
        "main_category": "Mosque",
        "address": "W656+7GJ Jama masjid luxettipet, Luxettipet, Utukur, Telangana 504215",
        "detailed_address": {
            "ward": null,
            "street": "W656+7GJ",
            "city": "Luxettipet, Utukur",
            "postal_code": "504215",
            "state": "Telangana",
            "country_code": "IN"
        },
        "images": [],
        "link": "https://www.google.com/maps/place/Jama+masjid+luxettipet/data=!4m7!3m6!1s0x3bcd495e1c762f25:0xa0cfa07634d3bb03!8m2!3d18.9082189!4d79.2112769!16s%2Fg%2F11vf2fh6z5!19sChIJJS92HF5JzTsRA7vTNHagz6A?authuser=0&hl=en&rclk=1",
        "coordinates": {
            "latitude": 18.908218899999998,
            "longitude": 79.2112769
        }
    },
    {
        "name": "Masjid e huda",
        "main_category": "Mosque",
        "address": "V952+923 Masjid e huda, Sreepada Yellampalli Project Rd, Gudipet, Telangana 504209",
        "detailed_address": {
            "ward": null,
            "street": "V952+923, Sreepada Yellampalli Project Rd",
            "city": "Gudipet",
            "postal_code": null,
            "state": "Telangana",
            "country_code": "IN"
        },
        "images": [],
        "link": "https://www.google.com/maps/place/Masjid+e+huda/data=!4m7!3m6!1s0x3bcd35a4b83cc6fb:0x359de6bfb8d84da8!8m2!3d18.8583928!4d79.350041!16s%2Fg%2F11kjjnt7pp!19sChIJ-8Y8uKQ1zTsRqE3YuL_mnTU?authuser=0&hl=en&rclk=1",
        "coordinates": {
            "latitude": 18.8583928,
            "longitude": 79.35004099999999
        }
    },
    {
        "name": "MASJID E COURT AREA LUXETTIPET",
        "main_category": "Mosque",
        "address": "V6Q3+JGJ MASJID E COURT AREA LUXETTIPET, Utukur, Telangana 504215",
        "detailed_address": {
            "ward": null,
            "street": "V6Q3+JGJ",
            "city": "Utukur",
            "postal_code": "504215",
            "state": "Telangana",
            "country_code": "IN"
        },
        "images": [
            {
                "about": "All",
                "link": "https://streetviewpixels-pa.googleapis.com/v1/thumbnail?panoid=fpZuJVX7Gnhj9mn2MZSqLg&cb_client=maps_sv.tactile.gps&w=224&h=298&yaw=347.23236&pitch=0&thumbfov=100"
            },
            {
                "about": "Street View & 360deg",
                "link": "https://streetviewpixels-pa.googleapis.com/v1/thumbnail?panoid=fpZuJVX7Gnhj9mn2MZSqLg&cb_client=maps_sv.tactile.gps&w=224&h=298&yaw=347.23236&pitch=0&thumbfov=100"
            }
        ],
        "link": "https://www.google.com/maps/place/MASJID+E+COURT+AREA+LUXETTIPET/data=!4m7!3m6!1s0x3bcd49085fcf7d37:0xb9935c9de9f0090d!8m2!3d18.8890885!4d79.2037506!16s%2Fg%2F11nn43__y4!19sChIJN33PXwhJzTsRDQnw6Z1ck7k?authuser=0&hl=en&rclk=1",
        "coordinates": {
            "latitude": 18.8890885,
            "longitude": 79.20375059999999
        }
    },
    {
        "name": "Eid Gah",
        "main_category": "Mosque",
        "address": "V6R3+844 Eid Gah, Lakshettipet, Utukur, Telangana 504215",
        "detailed_address": {
            "ward": null,
            "street": "V6R3+844",
            "city": "Lakshettipet, Utukur",
            "postal_code": "504215",
            "state": "Telangana",
            "country_code": "IN"
        },
        "images": [
            {
                "about": "All",
                "link": "https://lh5.googleusercontent.com/p/AF1QipNZgTIrs0DoEc3aijr8Uat1OEzPiDbcz1QCzg3J=w224-h298-k-no"
            },
            {
                "about": "Videos",
                "link": "https://lh5.googleusercontent.com/p/AF1QipNPdzRkn1CArjGX6kBTKIzVuhEh7ticQUecNTr6=w224-h398-k-no"
            }
        ],
        "link": "https://www.google.com/maps/place/Eid+Gah/data=!4m7!3m6!1s0x3bcd49633e4aa623:0xc8ba704d0873bb4a!8m2!3d18.8907702!4d79.202828!16s%2Fg%2F11q_1t7gt0!19sChIJI6ZKPmNJzTsRSrtzCE1wusg?authuser=0&hl=en&rclk=1",
        "coordinates": {
            "latitude": 18.8907702,
            "longitude": 79.202828
        }
    },
    {
        "name": "MAJED MBD",
        "main_category": "Mosque",
        "address": "33QC+436 MAJED MBD, Malyal1, Telangana 504205",
        "detailed_address": {
            "ward": null,
            "street": "33QC+436",
            "city": "Malyal1",
            "postal_code": "504205",
            "state": "Telangana",
            "country_code": "IN"
        },
        "images": [],
        "link": "https://www.google.com/maps/place/MAJED+MBD/data=!4m7!3m6!1s0x3bcd5dc7d8043ab9:0xd0a3a374a7512c1b!8m2!3d19.087524!4d79.070119!16s%2Fg%2F11t4_mj0wl!19sChIJuToE2MddzTsRGyxRp3Sjo9A?authuser=0&hl=en&rclk=1",
        "coordinates": {
            "latitude": 19.087524,
            "longitude": 79.07011899999999
        }
    },
    {
        "name": "Masjid e Saleh",
        "main_category": "Mosque",
        "address": "X5W3+5FW Masjid e Saleh, bolishetty rajanna mro office, Dantepally, Telangana 504206",
        "detailed_address": {
            "ward": null,
            "street": "X5W3+5FW, bolishetty rajanna mro office",
            "city": "Dantepally",
            "postal_code": "504206",
            "state": "Telangana",
            "country_code": "IN"
        },
        "images": [],
        "link": "https://www.google.com/maps/place/Masjid+e+Saleh/data=!4m7!3m6!1s0x3bcd45dc06307c6d:0xb5279caa5d165fe6!8m2!3d18.9954959!4d79.1537098!16s%2Fg%2F11n258mlmb!19sChIJbXwwBtxFzTsR5l8WXaqcJ7U?authuser=0&hl=en&rclk=1",
        "coordinates": {
            "latitude": 18.995495899999998,
            "longitude": 79.1537098
        }
    },
    {
        "name": "Mosque",
        "main_category": "Mosque",
        "address": "Q648+MRH Mosque, Pathagudur, Telangana 505416",
        "detailed_address": {
            "ward": null,
            "street": "Q648+MRH",
            "city": "Pathagudur",
            "postal_code": "505416",
            "state": "Telangana",
            "country_code": "IN"
        },
        "images": [],
        "link": "https://www.google.com/maps/place/Mosque/data=!4m7!3m6!1s0x3bcd312a04e689b7:0x3ed7debf2c70a13b!8m2!3d18.7566959!4d79.217114!16s%2Fg%2F11fhypx8lq!19sChIJt4nmBCoxzTsRO6FwLL_e1z4?authuser=0&hl=en&rclk=1",
        "coordinates": {
            "latitude": 18.7566959,
            "longitude": 79.217114
        }
    },
    {
        "name": "Mohemmadia masjid",
        "main_category": "Mosque",
        "address": "R5FR+M62 Mohemmadia masjid, Near, Velgatoor, Telangana 505526",
        "detailed_address": {
            "ward": null,
            "street": "R5FR+M62, Near",
            "city": "Velgatoor",
            "postal_code": "505526",
            "state": "Telangana",
            "country_code": "IN"
        },
        "images": [],
        "link": "https://www.google.com/maps/place/Mohemmadia+masjid/data=!4m7!3m6!1s0x3bcd396e0c55724d:0x9246d89c35515730!8m2!3d18.8241423!4d79.1905173!16s%2Fg%2F11vj4pvttk!19sChIJTXJVDG45zTsRMFdRNZzYRpI?authuser=0&hl=en&rclk=1",
        "coordinates": {
            "latitude": 18.8241423,
            "longitude": 79.1905173
        }
    },
    {
        "name": "Mosque Mahammadabad",
        "main_category": "Mosque",
        "address": "33QC+229 Mosque Mahammadabad, jannaram mahammadabad, 504205",
        "detailed_address": {
            "ward": null,
            "street": "33QC+229, jannaram mahammadabad",
            "city": null,
            "postal_code": "504205",
            "state": "Telangana",
            "country_code": "IN"
        },
        "images": [],
        "link": "https://www.google.com/maps/place/Mosque+Mahammadabad/data=!4m7!3m6!1s0x3bcd5d75c529e10b:0x76390774d02a9d68!8m2!3d19.0875411!4d79.0700938!16s%2Fg%2F11t6ky02_j!19sChIJC-EpxXVdzTsRaJ0q0HQHOXY?authuser=0&hl=en&rclk=1",
        "coordinates": {
            "latitude": 19.0875411,
            "longitude": 79.0700938
        }
    },
    {
        "name": "MADHINA MASJID",
        "main_category": "Mosque",
        "address": "MADHINA MASJID, 3-89, Jagtial - Dharmaram X Rd, near Hanuman Temple, Gullakota, Telangana 505526",
        "detailed_address": {
            "ward": null,
            "street": "3-89, Jagtial - Dharmaram X Rd, near Hanuman Temple",
            "city": "Gullakota",
            "postal_code": "505526",
            "state": "Telangana",
            "country_code": "IN"
        },
        "images": [],
        "link": "https://www.google.com/maps/place/MADHINA+MASJID/data=!4m7!3m6!1s0x3bcd3b75753f01b5:0x4e63da8a32d3166d!8m2!3d18.7719137!4d79.1495881!16s%2Fg%2F11kjm5z6l5!19sChIJtQE_dXU7zTsRbRbTMoraY04?authuser=0&hl=en&rclk=1",
        "coordinates": {
            "latitude": 18.7719137,
            "longitude": 79.1495881
        }
    },
    {
        "name": "Masjid Umm e Abdul Haadi",
        "main_category": "Mosque",
        "address": "Masjid Umm e Abdul Haadi, Vill:Yeshwanthraopet, Yeshwanthraopet, Telangana 505454",
        "detailed_address": {
            "ward": null,
            "street": "Vill:Yeshwanthraopet",
            "city": "Yeshwanthraopet",
            "postal_code": "505454",
            "state": "Telangana",
            "country_code": "IN"
        },
        "images": [
            {
                "about": "All",
                "link": "https://lh5.googleusercontent.com/p/AF1QipM2MauV5GBerQBstkaIMNramxoBobNBky9WcSBZ=w397-h298-k-no"
            },
            {
                "about": "Latest",
                "link": "https://lh5.googleusercontent.com/p/AF1QipNtlq_U-PD4CG9jyLZ_CV_XvIb-e-dvd8Uo9J_x=w529-h298-k-no"
            },
            {
                "about": "Videos",
                "link": "https://lh5.googleusercontent.com/p/AF1QipPxZ6FBENSYrCeqfvw-mUFCsOWszQTk9eJN_ztw=w541-h298-k-no"
            },
            {
                "about": "By owner",
                "link": "https://lh5.googleusercontent.com/p/AF1QipPgzMa88NLq1U0_JACL8KemxF9pR1y7DyYiGuID=w662-h298-k-no"
            }
        ],
        "link": "https://www.google.com/maps/place/Masjid+Umm+e+Abdul+Haadi/data=!4m7!3m6!1s0x3bcd3fddb2cee285:0x4cb16a2946601131!8m2!3d18.8441999!4d79.0432947!16s%2Fg%2F11qnhzfdql!19sChIJheLOst0_zTsRMRFgRilqsUw?authuser=0&hl=en&rclk=1",
        "coordinates": {
            "latitude": 18.8441999,
            "longitude": 79.04329469999999
        }
    },
    {
        "name": "haji malang baba dargah sharif",
        "main_category": "Mosque",
        "address": "Q3WR+Q4H haji malang baba dargah sharif, Chilvakodur, Telangana 505532",
        "detailed_address": {
            "ward": null,
            "street": "Q3WR+Q4H",
            "city": "Chilvakodur",
            "postal_code": "505532",
            "state": "Telangana",
            "country_code": "IN"
        },
        "images": [],
        "link": "https://www.google.com/maps/place/haji+malang+baba+dargah+sharif/data=!4m7!3m6!1s0x3bcd3faf22479545:0x395ef3b44a6c19fb!8m2!3d18.796948!4d79.090369!16s%2Fg%2F11t5jgw9sz!19sChIJRZVHIq8_zTsR-xlsSrTzXjk?authuser=0&hl=en&rclk=1",
        "coordinates": {
            "latitude": 18.796948,
            "longitude": 79.090369
        }
    },
    {
        "name": "Jama Masjid",
        "main_category": "Mosque",
        "address": "V6G3+54W Jama Masjid, Luxettipet, Telangana 504215",
        "detailed_address": {
            "ward": null,
            "street": "V6G3+54W",
            "city": "Luxettipet",
            "postal_code": null,
            "state": "Telangana",
            "country_code": "IN"
        },
        "images": [],
        "link": "https://www.google.com/maps/place/Jama+Masjid/data=!4m7!3m6!1s0x3bcd4970ae68eff7:0x61bbf5e4054c084d!8m2!3d18.8754757!4d79.2028155!16s%2Fg%2F11sdxmbcv_!19sChIJ9-9ornBJzTsRTQhMBeT1u2E?authuser=0&hl=en&rclk=1",
        "coordinates": {
            "latitude": 18.8754757,
            "longitude": 79.2028155
        }
    }
]