[
    {
        "name": "Masjid Sarai Khalil",
        "main_category": "Mosque",
        "address": "Masjid Sarai Khalil, 2733, Idgah Rd D.D.A FLAT SARAI KHALIL, Narain Market, Sadar Bazaar, New Delhi, Delhi 110006",
        "detailed_address": {
            "ward": "Narain Market, Sadar Bazaar",
            "street": "2733, Idgah Rd D.D.A FLAT SARAI KHALIL",
            "city": "New Delhi, Delhi",
            "postal_code": "110006",
            "state": "Delhi",
            "country_code": "IN"
        },
        "images": [
            {
                "about": "All",
                "link": "https://lh5.googleusercontent.com/p/AF1QipMGIrZxRepeuMt0HDj1kMokDcszmf-AV23hNHQp=w401-h298-k-no"
            },
            {
                "about": "Street View & 360deg",
                "link": "https://lh5.googleusercontent.com/p/AF1QipNN9thBsU1E9mbG5o0LTMqMIGLZQnqxLNfrDnyI=w224-h298-k-no-pi-20-ya352.00003-ro-0-fo100"
            },
            {
                "about": "Videos",
                "link": "https://lh5.googleusercontent.com/p/AF1QipPkdJjNKZDLgUz8c3u4WZ3xCWJGa8oqrHSIUtI4=w224-h398-k-no"
            }
        ],
        "link": "https://www.google.com/maps/place/Masjid+Sarai+Khalil/data=!4m7!3m6!1s0x390cfd6dca84d497:0xf96841361b10a0e2!8m2!3d28.6547095!4d77.2134842!16s%2Fg%2F11cn6htrcd!19sChIJl9SEym39DDkR4qAQGzZBaPk?authuser=0&hl=en&rclk=1",
        "coordinates": {
            "latitude": 28.6547095,
            "longitude": 77.2134842
        }
    },
    {
        "name": "Saeediya Masjid",
        "main_category": "Mosque",
        "address": "Saeediya Masjid, 45, New Silampur Gali, Block A, Chauhan Banger, Shahdara, Delhi, 110031",
        "detailed_address": {
            "ward": "Block A, Chauhan Banger, Shahdara",
            "street": "45, New Silampur Gali",
            "city": "Delhi",
            "postal_code": "110031",
            "state": "Delhi",
            "country_code": "IN"
        },
        "images": [
            {
                "about": "All",
                "link": "https://lh5.googleusercontent.com/p/AF1QipMuIuI2OtXWhtJ32O5v67021DHvP-Vs9R6PNTAu=w224-h298-k-no"
            },
            {
                "about": "Street View & 360deg",
                "link": "https://streetviewpixels-pa.googleapis.com/v1/thumbnail?panoid=hbL5PVWdI0Nu5WGu4XhlUw&cb_client=maps_sv.tactile.gps&w=224&h=298&yaw=339.2182&pitch=0&thumbfov=100"
            },
            {
                "about": "Videos",
                "link": "https://lh5.googleusercontent.com/p/AF1QipPEzvBxhRp7VI-L-qmQ6-z-FAPWreHJteTnbLXO=w224-h398-k-no"
            }
        ],
        "link": "https://www.google.com/maps/place/Saeediya+Masjid/data=!4m7!3m6!1s0x390cfc61230920b1:0xd4902005e34cb106!8m2!3d28.678415!4d77.2672561!16s%2Fg%2F11c6qcjmhv!19sChIJsSAJI2H8DDkRBrFM4wUgkNQ?authuser=0&hl=en&rclk=1",
        "coordinates": {
            "latitude": 28.678414999999998,
            "longitude": 77.2672561
        }
    },
    {
        "name": "Sunehari Bagh Masjid msjd",
        "main_category": "Mosque",
        "address": "J666+5R2 Sunehari Bagh Masjid msjd, Motilal Nehru Marg, Rajpath Area, Central Secretariat, New Delhi, Delhi 110011",
        "detailed_address": {
            "ward": "Rajpath Area, Central Secretariat",
            "street": "J666+5R2, Motilal Nehru Marg",
            "city": "New Delhi",
            "postal_code": "110011",
            "state": "Delhi",
            "country_code": "IN"
        },
        "images": [
            {
                "about": "All",
                "link": "https://lh5.googleusercontent.com/p/AF1QipN_WV3VLbLk_EH6dSXs8C1WOAW-s7u6cZ0FTIwT=w224-h298-k-no"
            }
        ],
        "link": "https://www.google.com/maps/place/Sunehari+Bagh+Masjid+%D9%85%D8%B3%D8%AC%D8%AF%E2%80%AD/data=!4m7!3m6!1s0x390ce2b9f7ae5b25:0x9e058e770ffa962f!8m2!3d28.610384!4d77.212024!16s%2Fg%2F124ycq4lc!19sChIJJVuu97niDDkRL5b6D3eOBZ4?authuser=0&hl=en&rclk=1",
        "coordinates": {
            "latitude": 28.610384,
            "longitude": 77.212024
        }
    },
    {
        "name": "Puliya Wali Masjid",
        "main_category": "Mosque",
        "address": "J6R9+Q48 Puliya Wali Masjid, Main Bazar Rd, Ratan Lal Market, Aram Bagh, Paharganj, New Delhi, Delhi, 110055",
        "detailed_address": {
            "ward": "Ratan Lal Market, Aram Bagh, Paharganj",
            "street": "J6R9+Q48, Main Bazar Rd",
            "city": "New Delhi, Delhi",
            "postal_code": "110055",
            "state": "Delhi",
            "country_code": "IN"
        },
        "images": [
            {
                "about": "All",
                "link": "https://lh5.googleusercontent.com/p/AF1QipOR7_MTn0SP5NJGdXWtRmkeSDefKrvZkCll-aYb=w529-h298-k-no"
            },
            {
                "about": "Latest",
                "link": "https://lh5.googleusercontent.com/p/AF1QipOvAeQGMyznrV5mUqHYuwi_qdzwDAbrmla3_F_I=w224-h298-k-no"
            },
            {
                "about": "Videos",
                "link": "https://lh5.googleusercontent.com/p/AF1QipM7O8NLABCbhhN1IjWqvS9feZQQGdQxXsaAHJBl=w224-h398-k-no"
            }
        ],
        "link": "https://www.google.com/maps/place/Puliya+Wali+Masjid/data=!4m7!3m6!1s0x390cfd3f5dcc4137:0x1ed0072a0c155076!8m2!3d28.6419015!4d77.2178423!16s%2Fg%2F12q4q_hw8!19sChIJN0HMXT_9DDkRdlAVDCoH0B4?authuser=0&hl=en&rclk=1",
        "coordinates": {
            "latitude": 28.6419015,
            "longitude": 77.2178423
        }
    },
    {
        "name": "Masjid Dai-Wali",
        "main_category": "Mosque",
        "address": "Shop No, Masjid Dai-Wali, 3136, Delhi Gate Bazar, Kucha Alam, Khabas Pura, Daryaganj, New Delhi, Delhi, 110002",
        "detailed_address": {
            "ward": "Kucha Alam, Khabas Pura, Daryaganj",
            "street": "Shop No, 3136, Delhi Gate Bazar",
            "city": "New Delhi, Delhi",
            "postal_code": "110002",
            "state": "Delhi",
            "country_code": "IN"
        },
        "images": [
            {
                "about": "All",
                "link": "https://lh5.googleusercontent.com/p/AF1QipOaisNnDX5FEuFLM4JAFB2uQ91YPdMumSVyXN8W=w224-h298-k-no"
            },
            {
                "about": "Dome",
                "link": "https://lh5.googleusercontent.com/p/AF1QipMq5VrFPYNWletBhy94Uixs4BeNdw2lr_OzpRm1=w397-h298-k-no"
            }
        ],
        "link": "https://www.google.com/maps/place/Masjid+Dai-Wali/data=!4m7!3m6!1s0x390cfd20da360d31:0x7e303aff50cc4c2b!8m2!3d28.6435772!4d77.2380546!16s%2Fg%2F1jky_pbsw!19sChIJMQ022iD9DDkRK0zMUP86MH4?authuser=0&hl=en&rclk=1",
        "coordinates": {
            "latitude": 28.6435772,
            "longitude": 77.2380546
        }
    },
    {
        "name": "Masjid Bawli Wali",
        "main_category": "Mosque",
        "address": "Masjid Bawli Wali, Shop No:921/13, Gali Number 1, Nai Walan, Sewak Chember, Block 49A, Nai Walan, Karol Bagh, Delhi, 110005",
        "detailed_address": {
            "ward": "Nai Walan, Sewak Chember, Block 49A, Nai Walan, Karol Bagh",
            "street": "Shop No:921/13, Gali Number 1",
            "city": "Delhi",
            "postal_code": "110005",
            "state": "Delhi",
            "country_code": "IN"
        },
        "images": [
            {
                "about": "All",
                "link": "https://lh5.googleusercontent.com/p/AF1QipOaYIWeaAdZnLYck9moxIscZstI6-FjpCraM8wQ=w224-h398-k-no"
            },
            {
                "about": "Street View & 360deg",
                "link": "https://streetviewpixels-pa.googleapis.com/v1/thumbnail?panoid=DAwTnE6upIWUDIsXbQRutA&cb_client=maps_sv.tactile.gps&w=224&h=298&yaw=161.15512&pitch=0&thumbfov=100"
            }
        ],
        "link": "https://www.google.com/maps/place/Masjid+Bawli+Wali/data=!4m7!3m6!1s0x390cfd613f8e033b:0x60fed6bb157588e7!8m2!3d28.648882!4d77.1989608!16s%2Fg%2F12q4yp2sd!19sChIJOwOOP2H9DDkR54h1FbvW_mA?authuser=0&hl=en&rclk=1",
        "coordinates": {
            "latitude": 28.648882,
            "longitude": 77.1989608
        }
    },
    {
        "name": "Masjid Sabeel Wali",
        "main_category": "Mosque",
        "address": "J6WP+93F Masjid Sabeel Wali, Chittli Qabar Bazar Rd, Bazar Chitli Qabar, Kalan Mehal, Old Delhi, Delhi, 110002",
        "detailed_address": {
            "ward": "Bazar Chitli Qabar, Kalan Mehal, Old Delhi",
            "street": "J6WP+93F, Chittli Qabar Bazar Rd",
            "city": "Delhi",
            "postal_code": "110002",
            "state": "Delhi",
            "country_code": "IN"
        },
        "images": [],
        "link": "https://www.google.com/maps/place/Masjid+Sabeel+Wali/data=!4m7!3m6!1s0x390cfd218f4865b9:0x8392357b25cb3df8!8m2!3d28.6459304!4d77.2351802!16s%2Fg%2F11fxb41y92!19sChIJuWVIjyH9DDkR-D3LJXs1koM?authuser=0&hl=en&rclk=1",
        "coordinates": {
            "latitude": 28.645930399999997,
            "longitude": 77.2351802
        }
    },
    {
        "name": "Fakhrul Masjid msjd",
        "main_category": "Mosque",
        "address": "Fakhrul Masjid msjd, 1268, Bara Bazar Rd, Chabi Ganj, Kashmere Gate, New Delhi, Delhi, 110006",
        "detailed_address": {
            "ward": "Chabi Ganj, Kashmere Gate",
            "street": "1268, Bara Bazar Rd",
            "city": "New Delhi, Delhi",
            "postal_code": "110006",
            "state": "Delhi",
            "country_code": "IN"
        },
        "images": [
            {
                "about": "All",
                "link": "https://lh5.googleusercontent.com/p/AF1QipPNB4Ycx-mpB2d8B8TkcREe42lp8FT_QRkxECs=w397-h298-k-no"
            },
            {
                "about": "Dome",
                "link": "https://lh5.googleusercontent.com/p/AF1QipNfX-n3Kb7dLt5xNEUopDRFt9KxwsHy5Zd7pmE=w397-h298-k-no"
            },
            {
                "about": "Street View & 360deg",
                "link": "https://lh5.googleusercontent.com/p/AF1QipMR-McBjB_hHELD1djVqQ6cHZI61RkY2ZNwjAU=w224-h298-k-no-pi0-ya331-ro-0-fo100"
            }
        ],
        "link": "https://www.google.com/maps/place/Fakhrul+Masjid+%D9%85%D8%B3%D8%AC%D8%AF%E2%80%AD/data=!4m7!3m6!1s0x390cfd060683b301:0xc9d92074bb420992!8m2!3d28.665012!4d77.2295583!16s%2Fg%2F11cmytc3k3!19sChIJAbODBgb9DDkRkglCu3Qg2ck?authuser=0&hl=en&rclk=1",
        "coordinates": {
            "latitude": 28.665011999999997,
            "longitude": 77.2295583
        }
    },
    {
        "name": "Masjid Teliyan",
        "main_category": "Mosque",
        "address": "J6VP+9JM Masjid Teliyan, Bazar Chitli Qabar, Rakab Ganj, Chandni Mahal, Chandni Chowk, New Delhi, Delhi, 110006",
        "detailed_address": {
            "ward": "Bazar Chitli Qabar, Rakab Ganj, Chandni Mahal, Chandni Chowk",
            "street": "J6VP+9JM",
            "city": "New Delhi, Delhi",
            "postal_code": "110006",
            "state": "Delhi",
            "country_code": "IN"
        },
        "images": [
            {
                "about": "All",
                "link": "https://lh5.googleusercontent.com/p/AF1QipN6OCsH8Oh4vnrZQFXexkJBrgsB04vwPjpP0PoL=w318-h298-k-no"
            }
        ],
        "link": "https://www.google.com/maps/place/Masjid+Teliyan/data=!4m7!3m6!1s0x390cfd214be94f43:0x2cda7c5aeb3a5464!8m2!3d28.6434733!4d77.2365384!16s%2Fg%2F11bzzlszqp!19sChIJQ0_pSyH9DDkRZFQ661p82iw?authuser=0&hl=en&rclk=1",
        "coordinates": {
            "latitude": 28.6434733,
            "longitude": 77.2365384
        }
    },
    {
        "name": "Ghausiya Masjid-Ahle Sunnat",
        "main_category": "Mosque",
        "address": "P754+C9V Ghausiya Masjid-Ahle Sunnat, Shriram Colony, Block A, Rajiv Nagar, Sonia Vihar, Delhi, 110094",
        "detailed_address": {
            "ward": "Shriram Colony, Block A, Rajiv Nagar, Sonia Vihar",
            "street": "P754+C9V",
            "city": "Delhi",
            "postal_code": "110094",
            "state": "Delhi",
            "country_code": "IN"
        },
        "images": [
            {
                "about": "All",
                "link": "https://lh5.googleusercontent.com/p/AF1QipONVORL1-mxaX5Vqnf8TCs8LMcMEQA2fEDhOsxR=w224-h398-k-no"
            },
            {
                "about": "Videos",
                "link": "https://lh5.googleusercontent.com/p/AF1QipNLobANjJpQm2k43zOyVbQOUGcksJWOUk-__tIo=w298-h298-k-no"
            }
        ],
        "link": "https://www.google.com/maps/place/Ghausiya+Masjid-Ahle+Sunnat/data=!4m7!3m6!1s0x390cfc24c230725f:0x1f4267f592f4dcc4!8m2!3d28.7086023!4d77.25591!16s%2Fg%2F11g8ktyrzr!19sChIJX3IwwiT8DDkRxNz0kvVnQh8?authuser=0&hl=en&rclk=1",
        "coordinates": {
            "latitude": 28.7086023,
            "longitude": 77.25591
        }
    },
    {
        "name": "Maszid Saifiyaan",
        "main_category": "Mosque",
        "address": "Maszid Saifiyaan, A56, Deoli, Block C, Khanpur, New Delhi, Delhi 110080",
        "detailed_address": {
            "ward": "Deoli, Block C, Khanpur",
            "street": "A56",
            "city": "New Delhi",
            "postal_code": "110080",
            "state": "Delhi",
            "country_code": "IN"
        },
        "images": [
            {
                "about": "All",
                "link": "https://lh5.googleusercontent.com/p/AF1QipOKWf-6BDWVw2bRSSPns1lAfVa75FslYZOVT5m_=w645-h298-k-no"
            },
            {
                "about": "Videos",
                "link": "https://lh5.googleusercontent.com/p/AF1QipPTQxpnGvBrUcH6jYEakLEJKcyi8v4QvNw-w24N=w224-h398-k-no"
            }
        ],
        "link": "https://www.google.com/maps/place/Maszid+Saifiyaan/data=!4m7!3m6!1s0x390ce1e22fbf3cbf:0x7bb4134d107773d0!8m2!3d28.504321!4d77.226911!16s%2Fg%2F11ngbqm772!19sChIJvzy_L-LhDDkR0HN3EE0TtHs?authuser=0&hl=en&rclk=1",
        "coordinates": {
            "latitude": 28.504320999999997,
            "longitude": 77.226911
        }
    },
    {
        "name": "Masjid Madarsay Wali msjd mdrsh wly",
        "main_category": "Mosque",
        "address": "Masjid Madarsay Wali msjd mdrsh wly, 9/4062 Street Number 15 Ajeet Nagar, Gandhi Nagar, Seelampur, Shahdara, Delhi, 110031",
        "detailed_address": {
            "ward": "Gandhi Nagar, Seelampur, Shahdara",
            "street": "9/4062 Street Number 15 Ajeet Nagar",
            "city": "Delhi",
            "postal_code": "110031",
            "state": "Delhi",
            "country_code": "IN"
        },
        "images": [
            {
                "about": "All",
                "link": "https://lh5.googleusercontent.com/p/AF1QipNbdLtC3RxK3Sf6H8HIENShjcCuxmb2xTXWRkPE=w224-h398-k-no"
            },
            {
                "about": "Videos",
                "link": "https://lh5.googleusercontent.com/p/AF1QipNw0G78yX9S52pBZ1wERYT81yiKUMB8EOxfBH-p=w224-h395-k-no"
            }
        ],
        "link": "https://www.google.com/maps/place/Masjid+Madarsay+Wali+%D9%85%D8%B3%D8%AC%D8%AF+%D9%85%D8%AF%D8%B1%D8%B3%DB%81+%D9%88%D8%A7%D9%84%DB%8C%E2%80%AD/data=!4m7!3m6!1s0x390cfd30c19695f1:0x56b150c51a56e61e!8m2!3d28.6682086!4d77.2644022!16s%2Fg%2F11g071sw7v!19sChIJ8ZWWwTD9DDkRHuZWGsVQsVY?authuser=0&hl=en&rclk=1",
        "coordinates": {
            "latitude": 28.6682086,
            "longitude": 77.26440219999999
        }
    },
    {
        "name": "Masjid Mashal Chiyan",
        "main_category": "Mosque",
        "address": "Masjid Mashal Chiyan, 2100, Pahari Bhojla Rd, Pahari Bhojla, Sita Ram Bazar, Old Delhi, Delhi, 110006",
        "detailed_address": {
            "ward": "Pahari Bhojla, Sita Ram Bazar, Old Delhi",
            "street": "2100, Pahari Bhojla Rd",
            "city": "Delhi",
            "postal_code": "110006",
            "state": "Delhi",
            "country_code": "IN"
        },
        "images": [
            {
                "about": "All",
                "link": "https://lh5.googleusercontent.com/p/AF1QipPzNvoJ45dUDOg4NSCV-Cfkjrf1e9sHf6J5a3V6=w224-h298-k-no"
            },
            {
                "about": "Street View & 360deg",
                "link": "https://lh5.googleusercontent.com/p/AF1QipPufLeuFKWRnfluVeqfqMox5vU2GDYv00mbZhtt=w224-h298-k-no-pi-30.456415-ya134-ro-0-fo100"
            }
        ],
        "link": "https://www.google.com/maps/place/Masjid+Mashal+Chiyan/data=!4m7!3m6!1s0x390cfd225b6ed379:0x9d5cccd781f0a815!8m2!3d28.6454716!4d77.232231!16s%2Fg%2F11f1211zsv!19sChIJedNuWyL9DDkRFajwgdfMXJ0?authuser=0&hl=en&rclk=1",
        "coordinates": {
            "latitude": 28.6454716,
            "longitude": 77.232231
        }
    },
    {
        "name": "Masjid Badi msjd",
        "main_category": "Mosque",
        "address": "Masjid Badi msjd, 893,, Chittli Qabar Bazar Rd, Jama Masjid, Chandni Chowk, New Delhi, Delhi 110006",
        "detailed_address": {
            "ward": "Bazar Chitli Qabar, Kucha Chelan, Jama Masjid, Chandni Chowk",
            "street": "893,, Chittli Qabar Bazar Rd",
            "city": "New Delhi, Delhi",
            "postal_code": "110006",
            "state": "Delhi",
            "country_code": "IN"
        },
        "images": [
            {
                "about": "All",
                "link": "https://lh5.googleusercontent.com/p/AF1QipMv3dJUod1k8kUgXwL85usmybd-8tX6XcB5-BPW=w397-h298-k-no"
            },
            {
                "about": "Dome",
                "link": "https://lh5.googleusercontent.com/p/AF1QipM5G6M6udRuekulA88NQ_2zpdC1iLOlIDdsQsdJ=w224-h298-k-no"
            }
        ],
        "link": "https://www.google.com/maps/place/Masjid+Badi+%D9%85%D8%B3%D8%AC%D8%AF%E2%80%AD/data=!4m7!3m6!1s0x390cfd219cfec1f3:0x93ccacb281d71709!8m2!3d28.645321!4d77.2357133!16s%2Fg%2F12m98gjn5!19sChIJ88H-nCH9DDkRCRfXgbKszJM?authuser=0&hl=en&rclk=1",
        "coordinates": {
            "latitude": 28.645321,
            "longitude": 77.2357133
        }
    },
    {
        "name": "Garahaiya Wali Masjid msjd ghrrhy wly",
        "main_category": "Mosque",
        "address": "M645+P9X Garahaiya Wali Masjid msjd ghrrhy wly, Qureshnagar, Sadar Bazaar, Delhi, 110006",
        "detailed_address": {
            "ward": "Sarai Khalil, Sadar Bazaar",
            "street": "M645+P9X, Qureshnagar, Sadar Bazaar",
            "city": "Delhi",
            "postal_code": "110006",
            "state": "Delhi",
            "country_code": "IN"
        },
        "images": [
            {
                "about": "All",
                "link": "https://lh5.googleusercontent.com/p/AF1QipOhfNiunLypzdmYdGfka4otztHI3xo1tm7-rUH1=w224-h298-k-no"
            }
        ],
        "link": "https://www.google.com/maps/place/Garahaiya+Wali+Masjid+%D9%85%D8%B3%D8%AC%D8%AF+%DA%AF%DA%BE%DA%91%DA%BE%DB%8C%D8%A7+%D9%88%D8%A7%D9%84%DB%8C%E2%80%AD/data=!4m7!3m6!1s0x390cfd6fd6004367:0xfebc1f26322235da!8m2!3d28.6568604!4d77.2084973!16s%2Fg%2F11c3w0w7y_!19sChIJZ0MA1m_9DDkR2jUiMiYfvP4?authuser=0&hl=en&rclk=1",
        "coordinates": {
            "latitude": 28.6568604,
            "longitude": 77.20849729999999
        }
    },
    {
        "name": "Jahtari Wali Masjid",
        "main_category": "Mosque",
        "address": "Jahtari Wali Masjid, 5077, Main Bazar Rd, Bharat Nagar, Main Bazar, Aram Bagh, Paharganj, New Delhi, Delhi 110055",
        "detailed_address": {
            "ward": "Bharat Nagar, Main Bazar, Aram Bagh, Paharganj",
            "street": "5077, Main Bazar Rd",
            "city": "New Delhi",
            "postal_code": "110055",
            "state": "Delhi",
            "country_code": "IN"
        },
        "images": [
            {
                "about": "All",
                "link": "https://lh5.googleusercontent.com/p/AF1QipP0cPpKWi9HXvUvBF7SNRfES3Ly8pD0S5uEGqm5=w398-h298-k-no"
            },
            {
                "about": "Latest",
                "link": "https://streetviewpixels-pa.googleapis.com/v1/thumbnail?panoid=Z2MlVgibB9ss1o2s8NtFvg&cb_client=maps_sv.tactile.gps&w=224&h=298&yaw=190.70903&pitch=0&thumbfov=100"
            },
            {
                "about": "Street View & 360deg",
                "link": "https://streetviewpixels-pa.googleapis.com/v1/thumbnail?panoid=Z2MlVgibB9ss1o2s8NtFvg&cb_client=maps_sv.tactile.gps&w=224&h=298&yaw=190.70903&pitch=0&thumbfov=100"
            }
        ],
        "link": "https://www.google.com/maps/place/Jahtari+Wali+Masjid/data=!4m7!3m6!1s0x390cfd815a030b8b:0xe18350aa13859d7a!8m2!3d28.6406795!4d77.2115511!16s%2Fg%2F11gjxtbc0j!19sChIJiwsDWoH9DDkRep2FE6pQg-E?authuser=0&hl=en&rclk=1",
        "coordinates": {
            "latitude": 28.640679499999997,
            "longitude": 77.2115511
        }
    },
    {
        "name": "MASJID GOUSUL WARA",
        "main_category": "Mosque",
        "address": "G79M+8MW MASJID GOUSUL WARA, Tekhand, Okhla Phase I, Okhla Industrial Estate, New Delhi, Delhi 110020",
        "detailed_address": {
            "ward": "Tekhand, Okhla Phase I, Okhla Industrial Estate",
            "street": "G79M+8MW",
            "city": "New Delhi",
            "postal_code": "110020",
            "state": "Delhi",
            "country_code": "IN"
        },
        "images": [
            {
                "about": "All",
                "link": "https://lh5.googleusercontent.com/p/AF1QipOlnamDWOSzZ_rgmA062yanWqpajn0s_uXGnzCY=w224-h398-k-no"
            }
        ],
        "link": "https://www.google.com/maps/place/MASJID+GOUSUL+WARA/data=!4m7!3m6!1s0x390ce15f4f8ec11b:0x9d50897d641b8031!8m2!3d28.5183625!4d77.2842054!16s%2Fg%2F11sy5qrxj3!19sChIJG8GOT1_hDDkRMYAbZH2JUJ0?authuser=0&hl=en&rclk=1",
        "coordinates": {
            "latitude": 28.5183625,
            "longitude": 77.28420539999999
        }
    },
    {
        "name": "Subhanallah masjid",
        "main_category": "Mosque",
        "address": "P77J+M63 Subhanallah masjid, Indra Vihar II, Phase 1, Indra Vihar, New Mustafabad, Delhi, 110094",
        "detailed_address": {
            "ward": "Indra Vihar II, Phase 1, Indra Vihar, New Mustafabad",
            "street": "P77J+M63",
            "city": "Delhi",
            "postal_code": "110094",
            "state": "Delhi",
            "country_code": "IN"
        },
        "images": [
            {
                "about": "All",
                "link": "https://lh5.googleusercontent.com/p/AF1QipNLGEYsWF3PGzkSaYfoW7XeMP5HZ3zKO_ni3XAH=w229-h298-k-no"
            },
            {
                "about": "Dome",
                "link": "https://lh5.googleusercontent.com/p/AF1QipOmKPTPHMR61Lvqi7BWhZCFBqgXfqplDUcx77yX=w224-h298-k-no"
            },
            {
                "about": "Videos",
                "link": "https://lh5.googleusercontent.com/p/AF1QipPOPr-LxQrDm7ILFzv-N0086vvkwym1ekiWxKuH=w224-h398-k-no"
            },
            {
                "about": "Street View & 360deg",
                "link": "https://streetviewpixels-pa.googleapis.com/v1/thumbnail?panoid=fQ5__eEBaTFxfnhSAfxdvQ&cb_client=maps_sv.tactile.gps&w=224&h=298&yaw=206.13861&pitch=0&thumbfov=100"
            }
        ],
        "link": "https://www.google.com/maps/place/Subhanallah+masjid/data=!4m7!3m6!1s0x390cfd73e42a428d:0x9775315c361b368f!8m2!3d28.7141446!4d77.280536!16s%2Fg%2F11q1r51bwh!19sChIJjUIq5HP9DDkRjzYbNlwxdZc?authuser=0&hl=en&rclk=1",
        "coordinates": {
            "latitude": 28.714144599999997,
            "longitude": 77.280536
        }
    },
    {
        "name": "SHAHI JAMA MASJID jm` msjd shhy",
        "main_category": "Mosque",
        "address": "SHAHI JAMA MASJID jm` msjd shhy, 22, foot road, Shram Vihar, Pocket N, Madanpur Khadar, New Delhi, Delhi 110025",
        "detailed_address": {
            "ward": "Shram Vihar, Pocket N, Madanpur Khadar",
            "street": "22, foot road",
            "city": "New Delhi",
            "postal_code": "110025",
            "state": "Delhi",
            "country_code": "IN"
        },
        "images": [
            {
                "about": "All",
                "link": "https://streetviewpixels-pa.googleapis.com/v1/thumbnail?panoid=yVSh3oWJrlZYahp9kvLZpQ&cb_client=maps_sv.tactile.gps&w=224&h=298&yaw=52.15353&pitch=0&thumbfov=100"
            },
            {
                "about": "Street View & 360deg",
                "link": "https://streetviewpixels-pa.googleapis.com/v1/thumbnail?panoid=yVSh3oWJrlZYahp9kvLZpQ&cb_client=maps_sv.tactile.gps&w=224&h=298&yaw=52.15353&pitch=0&thumbfov=100"
            }
        ],
        "link": "https://www.google.com/maps/place/SHAHI+JAMA+MASJID+%D8%AC%D8%A7%D9%85%D8%B9+%D9%85%D8%B3%D8%AC%D8%AF+%D8%B4%D8%A7%DA%BE%DB%8C%E2%80%AD/data=!4m7!3m6!1s0x390ce5a36ba3a95d:0x7cb7c1435cda3fd2!8m2!3d28.5405938!4d77.3038368!16s%2Fg%2F11n733rllr!19sChIJXamja6PlDDkR0j_aXEPBt3w?authuser=0&hl=en&rclk=1",
        "coordinates": {
            "latitude": 28.5405938,
            "longitude": 77.3038368
        }
    },
    {
        "name": "Masjid Musalla",
        "main_category": "Mosque",
        "address": "M75F+GMP Masjid Musalla, Jheel Kuranja, Jheel Khurenja, Geeta Colony, Delhi, 110031",
        "detailed_address": {
            "ward": "Jheel Kuranja, Jheel Khurenja, Geeta Colony",
            "street": "M75F+GMP",
            "city": "Delhi",
            "postal_code": "110031",
            "state": "Delhi",
            "country_code": "IN"
        },
        "images": [
            {
                "about": "All",
                "link": "https://lh5.googleusercontent.com/p/AF1QipOLHvjqTqi9vtc4D58_hv1HkzAIbfZgiwTZCAyM=w224-h398-k-no"
            }
        ],
        "link": "https://www.google.com/maps/place/Masjid+Musalla/data=!4m7!3m6!1s0x390cfdcedfa7fe77:0xfad03951c02d26e8!8m2!3d28.6588293!4d77.2742!16s%2Fg%2F11q4d20g0_!19sChIJd_6n3879DDkR6CYtwFE50Po?authuser=0&hl=en&rclk=1",
        "coordinates": {
            "latitude": 28.658829299999997,
            "longitude": 77.2742
        }
    },
    {
        "name": "Baghwali Masjid msjd bG wly",
        "main_category": "Mosque",
        "address": "Baghwali Masjid msjd bG wly, 785, Nicholson Rd, Kashmere Gate, New Delhi, Delhi 110006",
        "detailed_address": {
            "ward": "Ganda Nala Bazar, Kashmere Gate",
            "street": "785, Nicholson Rd",
            "city": "New Delhi, Delhi",
            "postal_code": "110006",
            "state": "Delhi",
            "country_code": "IN"
        },
        "images": [
            {
                "about": "All",
                "link": "https://lh5.googleusercontent.com/p/AF1QipOj93ktGL6APBJNMzc_7PhNaunaSjGN7K4hfh5G=w224-h298-k-no"
            },
            {
                "about": "Street View & 360deg",
                "link": "https://streetviewpixels-pa.googleapis.com/v1/thumbnail?panoid=287pGkvCspdq6H_bLp6xpw&cb_client=maps_sv.tactile.gps&w=224&h=298&yaw=126.90531&pitch=0&thumbfov=100"
            }
        ],
        "link": "https://www.google.com/maps/place/Baghwali+Masjid+%D9%85%D8%B3%D8%AC%D8%AF+%D8%A8%D8%A7%D8%BA+%D9%88%D8%A7%D9%84%DB%8C%E2%80%AD/data=!4m7!3m6!1s0x390cfd092767785b:0xd4966cf4d21cbda8!8m2!3d28.6653187!4d77.2261277!16s%2Fg%2F12llwbr4n!19sChIJW3hnJwn9DDkRqL0c0vRsltQ?authuser=0&hl=en&rclk=1",
        "coordinates": {
            "latitude": 28.6653187,
            "longitude": 77.22612769999999
        }
    },
    {
        "name": "Saeediya Masjid Road",
        "main_category": "Mosque",
        "address": "Saeediya Masjid Road, Gali No.23, Saeediya -110053, Masjid Rd, New Seelampur, Chauhan Banger, Shahdara, Delhi, 110053",
        "detailed_address": {
            "ward": "New Seelampur Phase II, New Seelampur, Chauhan Banger, Shahdara",
            "street": "Gali No.23, Saeediya -110053, Masjid Rd",
            "city": "Delhi",
            "postal_code": "110053",
            "state": "Delhi",
            "country_code": "IN"
        },
        "images": [
            {
                "about": "All",
                "link": "https://lh5.googleusercontent.com/p/AF1QipPMzyos4tL0hHwQbZEWw4MyDASOpXbaxkTgZkXd=w397-h298-k-no"
            },
            {
                "about": "Street View & 360deg",
                "link": "https://streetviewpixels-pa.googleapis.com/v1/thumbnail?panoid=JXBgD8XdQWGFHkMi8eozbg&cb_client=maps_sv.tactile.gps&w=224&h=298&yaw=120.86143&pitch=0&thumbfov=100"
            }
        ],
        "link": "https://www.google.com/maps/place/Saeediya+Masjid+Road/data=!4m7!3m6!1s0x390cfc6050ea77bb:0xd22718f2efe0f06e!8m2!3d28.6762654!4d77.2657631!16s%2Fg%2F11f125nm2g!19sChIJu3fqUGD8DDkRbvDg7_IYJ9I?authuser=0&hl=en&rclk=1",
        "coordinates": {
            "latitude": 28.6762654,
            "longitude": 77.2657631
        }
    },
    {
        "name": "Masjid Aashikan-E-Rasool",
        "main_category": "Mosque",
        "address": "Masjid Aashikan-E-Rasool, B168A, Block B, Baljit Nagar, Patel Nagar, New Delhi, Delhi, 110008",
        "detailed_address": {
            "ward": "Block B, Baljit Nagar, Patel Nagar",
            "street": "B168A",
            "city": "New Delhi, Delhi",
            "postal_code": "110008",
            "state": "Delhi",
            "country_code": "IN"
        },
        "images": [
            {
                "about": "All",
                "link": "https://lh5.googleusercontent.com/p/AF1QipOhxrUqRSEqVNvduefSotjDrm4jmlZimPF-0bD3=w224-h497-k-no"
            }
        ],
        "link": "https://www.google.com/maps/place/Masjid+Aashikan-E-Rasool/data=!4m7!3m6!1s0x390d03568277eb99:0x27959f1a230ab399!8m2!3d28.6610366!4d77.1631945!16s%2Fg%2F11qz5hv88s!19sChIJmet3glYDDTkRmbMKIxqflSc?authuser=0&hl=en&rclk=1",
        "coordinates": {
            "latitude": 28.6610366,
            "longitude": 77.1631945
        }
    },
    {
        "name": "Sunni Muslim Masjid, Sayla",
        "main_category": "Mosque",
        "address": "GFXJ+8P3 Sunni Muslim Masjid, Sayla, Sayla, Gujarat 363430",
        "detailed_address": {
            "ward": null,
            "street": "GFXJ+8P3",
            "city": "Sayla",
            "postal_code": null,
            "state": "Gujarat",
            "country_code": "IN"
        },
        "images": [
            {
                "about": "All",
                "link": "https://lh5.googleusercontent.com/p/AF1QipNXwPDWceGPdaHmvvEYd4Ow6OJHu7XXVJEJxVzK=w224-h495-k-no"
            },
            {
                "about": "Videos",
                "link": "https://lh5.googleusercontent.com/p/AF1QipPF6mZhN9FPAS_k2fQSQOdV-qWHywPnarSLqYhu=w224-h398-k-no"
            }
        ],
        "link": "https://www.google.com/maps/place/Sunni+Muslim+Masjid,+Sayla/data=!4m7!3m6!1s0x395917aa443e1e63:0xd4478e9469d56223!8m2!3d22.5482592!4d71.4817889!16s%2Fg%2F11h2394y3w!19sChIJYx4-RKoXWTkRI2LVaZSOR9Q?authuser=0&hl=en&rclk=1",
        "coordinates": {
            "latitude": 22.5482592,
            "longitude": 71.4817889
        }
    },
    {
        "name": "Allah Wali Masjid allaah vaalii msjid",
        "main_category": "Mosque",
        "address": "Allah Wali Masjid allaah vaalii msjid, 655, Block D, Bhalswa Jahangirpuri, Jahangirpuri, JahangirpuriDelhi, Delhi, 110033",
        "detailed_address": {
            "ward": "Block D, Bhalswa Jahangirpuri, Jahangirpuri",
            "street": "655",
            "city": "JahangirpuriDelhi, Delhi",
            "postal_code": "110033",
            "state": "Delhi",
            "country_code": "IN"
        },
        "images": [
            {
                "about": "All",
                "link": "https://lh5.googleusercontent.com/p/AF1QipNfewEMbVv0Pg6RvBLQeVWJG-kvIv3lNi46X3Ue=w660-h298-k-no"
            },
            {
                "about": "Dome",
                "link": "https://lh5.googleusercontent.com/p/AF1QipNfewEMbVv0Pg6RvBLQeVWJG-kvIv3lNi46X3Ue=w660-h298-k-no"
            },
            {
                "about": "Videos",
                "link": "https://lh5.googleusercontent.com/p/AF1QipMa_RmtTEohUkLmrEizkZNwqxWb2qfmqTLDiCLJ=w224-h398-k-no"
            }
        ],
        "link": "https://www.google.com/maps/place/Allah+Wali+Masjid+%E0%A4%85%E0%A4%B2%E0%A5%8D%E0%A4%B2%E0%A4%BE%E0%A4%B9+%E0%A4%B5%E0%A4%BE%E0%A4%B2%E0%A5%80+%E0%A4%AE%E0%A4%B8%E0%A5%8D%E0%A4%9C%E0%A4%BF%E0%A4%A6/data=!4m7!3m6!1s0x390d01417ad0e561:0x459974438a39a7fc!8m2!3d28.729919!4d77.1744335!16s%2Fg%2F11syt8fb_7!19sChIJYeXQekEBDTkR_Kc5ikN0mUU?authuser=0&hl=en&rclk=1",
        "coordinates": {
            "latitude": 28.729919,
            "longitude": 77.17443349999999
        }
    },
    {
        "name": "Fukrulla Beg Masjid",
        "main_category": "Mosque",
        "address": "M62C+Q3V Fukrulla Beg Masjid, Fasil Rd, Chabdi Bazar, Shardhanand Market, Farash Khana, Chandni Chowk, New Delhi, Delhi, 110006",
        "detailed_address": {
            "ward": "Chabdi Bazar, Shardhanand Market, Farash Khana, Chandni Chowk",
            "street": "M62C+Q3V, Fasil Rd",
            "city": "New Delhi, Delhi",
            "postal_code": "110006",
            "state": "Delhi",
            "country_code": "IN"
        },
        "images": [
            {
                "about": "All",
                "link": "https://streetviewpixels-pa.googleapis.com/v1/thumbnail?panoid=6FUXnPMuL0U-biwFU83K3w&cb_client=maps_sv.tactile.gps&w=224&h=298&yaw=82.37912&pitch=0&thumbfov=100"
            },
            {
                "about": "Street View & 360deg",
                "link": "https://streetviewpixels-pa.googleapis.com/v1/thumbnail?panoid=6FUXnPMuL0U-biwFU83K3w&cb_client=maps_sv.tactile.gps&w=224&h=298&yaw=82.37912&pitch=0&thumbfov=100"
            }
        ],
        "link": "https://www.google.com/maps/place/Fukrulla+Beg+Masjid/data=!4m7!3m6!1s0x390cfd1483eebfb7:0xc967bc440a10c6d5!8m2!3d28.6519886!4d77.2201721!16s%2Fg%2F1hm6f2k64!19sChIJt7_ugxT9DDkR1cYQCkS8Z8k?authuser=0&hl=en&rclk=1",
        "coordinates": {
            "latitude": 28.6519886,
            "longitude": 77.2201721
        }
    },
    {
        "name": "Masjid Suhailwali",
        "main_category": "Mosque",
        "address": "G59P+JVH Masjid Suhailwali, Archeological Pk Trl, Ladha Sarai Village, Mehrauli, New Delhi, Delhi 110030",
        "detailed_address": {
            "ward": "Ladha Sarai Village, Mehrauli",
            "street": "G59P+JVH Archeological Pk Trl",
            "city": "New Delhi",
            "postal_code": "110030",
            "state": "Delhi",
            "country_code": "IN"
        },
        "images": [
            {
                "about": "All",
                "link": "https://lh5.googleusercontent.com/p/AF1QipMsGvcaV98jNhngv-ZGmneBwSxfhTulxfEd3W3B=w224-h298-k-no"
            }
        ],
        "link": "https://www.google.com/maps/place/Masjid+Suhailwali/data=!4m7!3m6!1s0x390d1f7c153e757f:0xd87f61dba133c08f!8m2!3d28.5182244!4d77.1874102!16s%2Fg%2F11k39wfxml!19sChIJf3U-FXwfDTkRj8Azodthf9g?authuser=0&hl=en&rclk=1",
        "coordinates": {
            "latitude": 28.518224399999998,
            "longitude": 77.1874102
        }
    },
    {
        "name": "Masjid",
        "main_category": "Mosque",
        "address": "Masjid, 2508, Fasil Rd, Gali Sakko Wali, Shah Ganj, Chandni Chowk, New Delhi, Delhi, 110006",
        "detailed_address": {
            "ward": "Gali Sakko Wali, Shah Ganj, Chandni Chowk",
            "street": "2508, Fasil Rd",
            "city": "New Delhi, Delhi",
            "postal_code": "110006",
            "state": "Delhi",
            "country_code": "IN"
        },
        "images": [
            {
                "about": "All",
                "link": "https://streetviewpixels-pa.googleapis.com/v1/thumbnail?panoid=Mtyk_aswPXhCJ3sOrj7kog&cb_client=maps_sv.tactile.gps&w=224&h=298&yaw=88.42564&pitch=0&thumbfov=100"
            },
            {
                "about": "Street View & 360deg",
                "link": "https://streetviewpixels-pa.googleapis.com/v1/thumbnail?panoid=Mtyk_aswPXhCJ3sOrj7kog&cb_client=maps_sv.tactile.gps&w=224&h=298&yaw=88.42564&pitch=0&thumbfov=100"
            }
        ],
        "link": "https://www.google.com/maps/place/Masjid/data=!4m7!3m6!1s0x390cfd15c9a8a4b1:0xf975aada141da03e!8m2!3d28.6491552!4d77.2220471!16s%2Fg%2F1hm4gjxkd!19sChIJsaSoyRX9DDkRPqAdFNqqdfk?authuser=0&hl=en&rclk=1",
        "coordinates": {
            "latitude": 28.6491552,
            "longitude": 77.2220471
        }
    },
    {
        "name": "Gosiyan masjid msjd",
        "main_category": "Mosque",
        "address": "M6C3+6MM Gosiyan masjid msjd, Arya Pura, Sabzi Mandi Old, Delhi, 110007",
        "detailed_address": {
            "ward": "Arya Pura, Sabzi Mandi Old",
            "street": "M6C3+6MM",
            "city": "Delhi",
            "postal_code": "110007",
            "state": "Delhi",
            "country_code": "IN"
        },
        "images": [
            {
                "about": "All",
                "link": "https://lh5.googleusercontent.com/p/AF1QipPIguRjXkPSPvoakXOfjAovhPrjc1dS6xAF4WqH=w224-h298-k-no"
            },
            {
                "about": "Street View & 360deg",
                "link": "https://streetviewpixels-pa.googleapis.com/v1/thumbnail?panoid=3qVFFC0KrRzuLwTKdpBNpw&cb_client=maps_sv.tactile.gps&w=224&h=298&yaw=171.07703&pitch=0&thumbfov=100"
            }
        ],
        "link": "https://www.google.com/maps/place/Gosiyan+masjid+%D9%85%D8%B3%D8%AC%D8%AF%E2%80%AD/data=!4m7!3m6!1s0x390cfd5ef95c48f9:0x4f3b43266a74c420!8m2!3d28.6705759!4d77.2041848!16s%2Fg%2F11g4db0xfq!19sChIJ-Uhc-V79DDkRIMR0aiZDO08?authuser=0&hl=en&rclk=1",
        "coordinates": {
            "latitude": 28.6705759,
            "longitude": 77.2041848
        }
    },
    {
        "name": "Masjid",
        "main_category": "Mosque",
        "address": "Masjid, 242, Masjid Jheel Pio, Near ITO metro GateNo.3, Bahadur Shah Zafar Marg, Balmiki Basti, Vikram Nagar, Delhi, 110002",
        "detailed_address": {
            "ward": "Bahadur Shah Zafar Marg, Balmiki Basti, Vikram Nagar",
            "street": "242, Masjid Jheel Pio, Near ITO metro GateNo.3, Bahadur Shah Zafar Marg",
            "city": "Delhi",
            "postal_code": "110002",
            "state": "Delhi",
            "country_code": "IN"
        },
        "images": [
            {
                "about": "All",
                "link": "https://lh5.googleusercontent.com/p/AF1QipN5OIjFkkkgGTvUKU3X0RBq6O9cBwfBTptPMeSA=w529-h298-k-no"
            },
            {
                "about": "Latest",
                "link": "https://streetviewpixels-pa.googleapis.com/v1/thumbnail?panoid=TdjZf0mnRqsq_KV6xB3IhQ&cb_client=maps_sv.tactile.gps&w=224&h=298&yaw=67.971146&pitch=0&thumbfov=100"
            },
            {
                "about": "Street View & 360deg",
                "link": "https://streetviewpixels-pa.googleapis.com/v1/thumbnail?panoid=TdjZf0mnRqsq_KV6xB3IhQ&cb_client=maps_sv.tactile.gps&w=224&h=298&yaw=67.971146&pitch=0&thumbfov=100"
            }
        ],
        "link": "https://www.google.com/maps/place/Masjid/data=!4m7!3m6!1s0x390cfd441769149d:0xa1929f1b4f5921d6!8m2!3d28.6298914!4d77.2415098!16s%2Fg%2F11s2n38r9b!19sChIJnRRpF0T9DDkR1iFZTxufkqE?authuser=0&hl=en&rclk=1",
        "coordinates": {
            "latitude": 28.629891399999998,
            "longitude": 77.2415098
        }
    },
    {
        "name": "Masjid Saguwa Wali (Choti Masjid)",
        "main_category": "Mosque",
        "address": "Masjid Saguwa Wali (Choti Masjid), 1614, Old Dariya Ganj, Daryaganj, New Delhi, Delhi, 110002",
        "detailed_address": {
            "ward": "Old Dariya Ganj, Daryaganj",
            "street": "1614",
            "city": "New Delhi, Delhi",
            "postal_code": "110002",
            "state": "Delhi",
            "country_code": "IN"
        },
        "images": [
            {
                "about": "All",
                "link": "https://streetviewpixels-pa.googleapis.com/v1/thumbnail?panoid=9yowCK2Fet1TgecWrtD4MQ&cb_client=maps_sv.tactile.gps&w=224&h=298&yaw=164.85298&pitch=0&thumbfov=100"
            },
            {
                "about": "Street View & 360deg",
                "link": "https://streetviewpixels-pa.googleapis.com/v1/thumbnail?panoid=9yowCK2Fet1TgecWrtD4MQ&cb_client=maps_sv.tactile.gps&w=224&h=298&yaw=164.85298&pitch=0&thumbfov=100"
            }
        ],
        "link": "https://www.google.com/maps/place/Masjid+Saguwa+Wali+%28Choti+Masjid%29/data=!4m7!3m6!1s0x390cfde70c37cfe3:0xcd9ebd43305f88c8!8m2!3d28.6470267!4d77.2382029!16s%2Fg%2F11f7qykm_q!19sChIJ4883DOf9DDkRyIhfMEO9ns0?authuser=0&hl=en&rclk=1",
        "coordinates": {
            "latitude": 28.647026699999998,
            "longitude": 77.23820289999999
        }
    },
    {
        "name": "Masjid golar wali",
        "main_category": "Mosque",
        "address": "Shop No, Masjid golar wali, 4464, Gali Shahtara, Kaccha Pandit Main Bazar, Lal Kuan Bazar, Ajmeri Gate, New Delhi, Delhi, 110006",
        "detailed_address": {
            "ward": "Kaccha Pandit Main Bazar, Lal Kuan Bazar, Ajmeri Gate",
            "street": "Shop No, 4464, Gali Shahtara",
            "city": "New Delhi, Delhi",
            "postal_code": "110006",
            "state": "Delhi",
            "country_code": "IN"
        },
        "images": [],
        "link": "https://www.google.com/maps/place/Masjid+golar+wali/data=!4m7!3m6!1s0x390cfd15b3e12a53:0xc55cec9c0a829731!8m2!3d28.6478688!4d77.2247622!16s%2Fg%2F11h94g1jcr!19sChIJUyrhsxX9DDkRMZeCCpzsXMU?authuser=0&hl=en&rclk=1",
        "coordinates": {
            "latitude": 28.647868799999998,
            "longitude": 77.2247622
        }
    },
    {
        "name": "Sabeel Wali Masjid",
        "main_category": "Mosque",
        "address": "M676+PJQ Sabeel Wali Masjid, Gali Zameer Wali, Nawabganj, Tis Hazari, New Delhi, Delhi, 110055",
        "detailed_address": {
            "ward": "Nawabganj, Tis Hazari",
            "street": "M676+PJQ, Gali Zameer Wali",
            "city": "New Delhi, Delhi",
            "postal_code": "110055",
            "state": "Delhi",
            "country_code": "IN"
        },
        "images": [],
        "link": "https://www.google.com/maps/place/Sabeel+Wali+Masjid/data=!4m7!3m6!1s0x390cfda2f2270c4d:0x9587bec3bb500c1f!8m2!3d28.6643348!4d77.2116016!16s%2Fg%2F11fpd01gx9!19sChIJTQwn8qL9DDkRHwxQu8O-h5U?authuser=0&hl=en&rclk=1",
        "coordinates": {
            "latitude": 28.6643348,
            "longitude": 77.2116016
        }
    },
    {
        "name": "Masjid sadak wali",
        "main_category": "Mosque",
        "address": "7992, Masjid sadak wali, 1, Md. Ismail Marg, Chowk Nai Basti, Sadar Bazaar, New Delhi, Delhi, 110006",
        "detailed_address": {
            "ward": "Chowk Nai Basti, Sadar Bazaar",
            "street": "7992, 1, Md. Ismail Marg",
            "city": "New Delhi, Delhi",
            "postal_code": "110006",
            "state": "Delhi",
            "country_code": "IN"
        },
        "images": [
            {
                "about": "All",
                "link": "https://lh5.googleusercontent.com/p/AF1QipPUOaQllhomVOL1pC94hJvcBgKIBTp12x55PqfR=w224-h298-k-no"
            },
            {
                "about": "Street View & 360deg",
                "link": "https://streetviewpixels-pa.googleapis.com/v1/thumbnail?panoid=YXUxcG3EPZrk90rbzDTinA&cb_client=maps_sv.tactile.gps&w=224&h=298&yaw=319.23047&pitch=0&thumbfov=100"
            },
            {
                "about": "Videos",
                "link": "https://lh5.googleusercontent.com/p/AF1QipORC0jsH43ZyKGoTcZ1Lmjab44w0SDjGbj8wRRB=w224-h400-k-no"
            }
        ],
        "link": "https://www.google.com/maps/place/Masjid+sadak+wali/data=!4m7!3m6!1s0x390cfd2020037aed:0xf4109e03947cf68f!8m2!3d28.6602926!4d77.2062804!16s%2Fg%2F11jz7vcbwz!19sChIJ7XoDICD9DDkRj_Z8lAOeEPQ?authuser=0&hl=en&rclk=1",
        "coordinates": {
            "latitude": 28.6602926,
            "longitude": 77.2062804
        }
    },
    {
        "name": "Syed Hasan Masjid",
        "main_category": "Mosque",
        "address": "Syed Hasan Masjid, 124, Sector C, Gole Market, New Delhi, Delhi 110001",
        "detailed_address": {
            "ward": "Sector C, Gole Market",
            "street": "124",
            "city": "New Delhi",
            "postal_code": "110001",
            "state": "Delhi",
            "country_code": "IN"
        },
        "images": [
            {
                "about": "All",
                "link": "https://lh5.googleusercontent.com/p/AF1QipPP5JapPjr-ARv-GxrAIad4dijWV3bC2oORjaOp=w224-h501-k-no"
            },
            {
                "about": "Latest",
                "link": "https://streetviewpixels-pa.googleapis.com/v1/thumbnail?panoid=zYzPvmekszlUG66nggUjYg&cb_client=maps_sv.tactile.gps&w=224&h=298&yaw=184.49135&pitch=0&thumbfov=100"
            },
            {
                "about": "Street View & 360deg",
                "link": "https://streetviewpixels-pa.googleapis.com/v1/thumbnail?panoid=zYzPvmekszlUG66nggUjYg&cb_client=maps_sv.tactile.gps&w=224&h=298&yaw=184.49135&pitch=0&thumbfov=100"
            }
        ],
        "link": "https://www.google.com/maps/place/Syed+Hasan+Masjid/data=!4m7!3m6!1s0x390cfd263f536697:0x174e102183d9d2d1!8m2!3d28.63939!4d77.2065116!16s%2Fg%2F11pvclr7q6!19sChIJl2ZTPyb9DDkR0dLZgyEQThc?authuser=0&hl=en&rclk=1",
        "coordinates": {
            "latitude": 28.63939,
            "longitude": 77.2065116
        }
    },
    {
        "name": "Masjid Sumbul Islam",
        "main_category": "Mosque",
        "address": "Masjid Sumbul Islam, 2176, Tilak Bazar, Naya Bazar, Khari Baoli, Chandni Chowk, New Delhi, Delhi, 110006",
        "detailed_address": {
            "ward": "Tilak Bazar, Naya Bazar, Khari Baoli, Chandni Chowk",
            "street": "2176, Tilak Bazar",
            "city": "New Delhi, Delhi",
            "postal_code": "110006",
            "state": "Delhi",
            "country_code": "IN"
        },
        "images": [],
        "link": "https://www.google.com/maps/place/Masjid+Sumbul+Islam/data=!4m7!3m6!1s0x390cfd0d9b001377:0xd7847d9de7a9acbd!8m2!3d28.6588039!4d77.2208348!16s%2Fg%2F11cncrfn0v!19sChIJdxMAmw39DDkRvayp5519hNc?authuser=0&hl=en&rclk=1",
        "coordinates": {
            "latitude": 28.6588039,
            "longitude": 77.22083479999999
        }
    },
    {
        "name": "Musalla Masjid",
        "main_category": "Mosque",
        "address": "Musalla Masjid, A84, Gali Number 19, Block B, Bharat Vihar, Madhu Vihar, New Delhi, Delhi, 110059",
        "detailed_address": {
            "ward": "Block B, Bharat Vihar, Madhu Vihar",
            "street": "A84, Gali Number 19",
            "city": "New Delhi, Delhi",
            "postal_code": "110059",
            "state": "Delhi",
            "country_code": "IN"
        },
        "images": [
            {
                "about": "All",
                "link": "https://streetviewpixels-pa.googleapis.com/v1/thumbnail?panoid=P7YryIQdI8dhmRjNhB-FVA&cb_client=maps_sv.tactile.gps&w=224&h=298&yaw=308.30298&pitch=0&thumbfov=100"
            },
            {
                "about": "Street View & 360deg",
                "link": "https://streetviewpixels-pa.googleapis.com/v1/thumbnail?panoid=P7YryIQdI8dhmRjNhB-FVA&cb_client=maps_sv.tactile.gps&w=224&h=298&yaw=308.30298&pitch=0&thumbfov=100"
            }
        ],
        "link": "https://www.google.com/maps/place/Musalla+Masjid/data=!4m7!3m6!1s0x390d1b5228eab2b5:0x4c225624c80dfd40!8m2!3d28.6062216!4d77.0614438!16s%2Fg%2F11t6nng3_f!19sChIJtbLqKFIbDTkRQP0NyCRWIkw?authuser=0&hl=en&rclk=1",
        "coordinates": {
            "latitude": 28.606221599999998,
            "longitude": 77.06144379999999
        }
    },
    {
        "name": "Masjid Shatoot Wali",
        "main_category": "Mosque",
        "address": "M67H+G5Q Masjid Shatoot Wali, Chhota Bazar, Mori Gate, New Delhi, Delhi, 110006",
        "detailed_address": {
            "ward": "Chhota Bazar, Mori Gate",
            "street": "M67H+G5Q",
            "city": "New Delhi, Delhi",
            "postal_code": "110006",
            "state": "Delhi",
            "country_code": "IN"
        },
        "images": [],
        "link": "https://www.google.com/maps/place/Masjid+Shatoot+Wali/data=!4m7!3m6!1s0x390cfdd8114d08fd:0x326042596014276a!8m2!3d28.663827!4d77.2279973!16s%2Fg%2F11g4h_zjtj!19sChIJ_QhNEdj9DDkRaicUYFlCYDI?authuser=0&hl=en&rclk=1",
        "coordinates": {
            "latitude": 28.663826999999998,
            "longitude": 77.2279973
        }
    },
    {
        "name": "Masjid quwwatul islam",
        "main_category": "Mosque",
        "address": "Masjid quwwatul islam, 357, Block T, Chowk Nai Basti, Sadar Bazaar, Delhi, 110006",
        "detailed_address": {
            "ward": "Block T, Chowk Nai Basti, Sadar Bazaar",
            "street": "357",
            "city": "Delhi",
            "postal_code": "110006",
            "state": "Delhi",
            "country_code": "IN"
        },
        "images": [
            {
                "about": "All",
                "link": "https://streetviewpixels-pa.googleapis.com/v1/thumbnail?panoid=PajX1-RFw-5gJHEkCtEwjw&cb_client=maps_sv.tactile.gps&w=224&h=298&yaw=241.19022&pitch=0&thumbfov=100"
            },
            {
                "about": "Street View & 360deg",
                "link": "https://streetviewpixels-pa.googleapis.com/v1/thumbnail?panoid=PajX1-RFw-5gJHEkCtEwjw&cb_client=maps_sv.tactile.gps&w=224&h=298&yaw=241.19022&pitch=0&thumbfov=100"
            }
        ],
        "link": "https://www.google.com/maps/place/Masjid+quwwatul+islam/data=!4m7!3m6!1s0x390cfd9c705c4e2b:0x298cefbe95121ef1!8m2!3d28.657458!4d77.206855!16s%2Fg%2F11vk_pyptp!19sChIJK05ccJz9DDkR8R4Slb7vjCk?authuser=0&hl=en&rclk=1",
        "coordinates": {
            "latitude": 28.657458,
            "longitude": 77.20685499999999
        }
    },
    {
        "name": "Masjid",
        "main_category": "Mosque",
        "address": "Masjid, Gali No 19, Gali Number 1, Mustafabad Extn, New Mustafabad, Delhi, 110094",
        "detailed_address": {
            "ward": "E2 Block, Mustafabad Extn, New Mustafabad",
            "street": "Gali No 19, Gali Number 1",
            "city": "Delhi",
            "postal_code": "110094",
            "state": "Delhi",
            "country_code": "IN"
        },
        "images": [
            {
                "about": "All",
                "link": "https://streetviewpixels-pa.googleapis.com/v1/thumbnail?panoid=B1HCgNq18_ISEzHUJ5Rd2Q&cb_client=maps_sv.tactile.gps&w=224&h=298&yaw=59.28258&pitch=0&thumbfov=100"
            },
            {
                "about": "Street View & 360deg",
                "link": "https://streetviewpixels-pa.googleapis.com/v1/thumbnail?panoid=B1HCgNq18_ISEzHUJ5Rd2Q&cb_client=maps_sv.tactile.gps&w=224&h=298&yaw=59.28258&pitch=0&thumbfov=100"
            }
        ],
        "link": "https://www.google.com/maps/place/Masjid/data=!4m7!3m6!1s0x390cfc1b020b0e91:0xb48a3c3233e41cbd!8m2!3d28.711773!4d77.272563!16s%2Fg%2F12hpqnhjr!19sChIJkQ4LAhv8DDkRvRzkMzI8irQ?authuser=0&hl=en&rclk=1",
        "coordinates": {
            "latitude": 28.711772999999997,
            "longitude": 77.27256299999999
        }
    },
    {
        "name": "nazra Jama Masjid",
        "main_category": "Mosque",
        "address": "M644+2QH nazra Jama Masjid, Sarai Khalil, Sadar Bazaar, Delhi, 847102",
        "detailed_address": {
            "ward": "Sarai Khalil, Sadar Bazaar",
            "street": "M644+2QH",
            "city": "Delhi",
            "postal_code": "847102",
            "state": "Delhi",
            "country_code": "IN"
        },
        "images": [
            {
                "about": "All",
                "link": "https://streetviewpixels-pa.googleapis.com/v1/thumbnail?panoid=QGTFZqIrnURXKDsqzaTAhQ&cb_client=maps_sv.tactile.gps&w=224&h=298&yaw=296.97357&pitch=0&thumbfov=100"
            },
            {
                "about": "Street View & 360deg",
                "link": "https://streetviewpixels-pa.googleapis.com/v1/thumbnail?panoid=QGTFZqIrnURXKDsqzaTAhQ&cb_client=maps_sv.tactile.gps&w=224&h=298&yaw=296.97357&pitch=0&thumbfov=100"
            }
        ],
        "link": "https://www.google.com/maps/place/nazra+Jama+Masjid/data=!4m7!3m6!1s0x390cfd87a2b947df:0xc5eef572a3787906!8m2!3d28.6550711!4d77.2069937!16s%2Fg%2F11h03dscpw!19sChIJ30e5oof9DDkRBnl4o3L17sU?authuser=0&hl=en&rclk=1",
        "coordinates": {
            "latitude": 28.655071099999997,
            "longitude": 77.2069937
        }
    },
    {
        "name": "Masjid thele wali",
        "main_category": "Mosque",
        "address": "Masjid thele wali, 2368, Mithai Pul, Teliwara, Sadar Bazaar, New Delhi, Delhi, 110006",
        "detailed_address": {
            "ward": "Mithai Pul, Teliwara, Sadar Bazaar",
            "street": "2368",
            "city": "New Delhi, Delhi",
            "postal_code": "110006",
            "state": "Delhi",
            "country_code": "IN"
        },
        "images": [],
        "link": "https://www.google.com/maps/place/Masjid+thele+wali/data=!4m7!3m6!1s0x390cfdf491fa79e5:0x292287159b28d9f5!8m2!3d28.6609791!4d77.2150425!16s%2Fg%2F11tjffgg0_!19sChIJ5Xn6kfT9DDkR9dkomxWHIik?authuser=0&hl=en&rclk=1",
        "coordinates": {
            "latitude": 28.6609791,
            "longitude": 77.2150425
        }
    },
    {
        "name": "Masjid Takiya Mandal Shah",
        "main_category": "Mosque",
        "address": "M67G+92V Masjid Takiya Mandal Shah, Ganda Nala Bazar, Mori Gate, New Delhi, Delhi, 110006",
        "detailed_address": {
            "ward": "Ganda Nala Bazar, Mori Gate",
            "street": "M67G+92V",
            "city": "New Delhi, Delhi",
            "postal_code": "110006",
            "state": "Delhi",
            "country_code": "IN"
        },
        "images": [],
        "link": "https://www.google.com/maps/place/Masjid+Takiya+Mandal+Shah/data=!4m7!3m6!1s0x390cfd1bda0aca8d:0xbeac265651a56e0f!8m2!3d28.6634877!4d77.2250615!16s%2Fg%2F11fd4g34bx!19sChIJjcoK2hv9DDkRD26lUVYmrL4?authuser=0&hl=en&rclk=1",
        "coordinates": {
            "latitude": 28.663487699999997,
            "longitude": 77.2250615
        }
    },
    {
        "name": "Masjid",
        "main_category": "Mosque",
        "address": "M794+RG5 Masjid, Block A, Shastri Park, Shahdara, Delhi, 110053",
        "detailed_address": {
            "ward": "Block A, Shastri Park, Shahdara",
            "street": "M794+RG5",
            "city": "Delhi",
            "postal_code": null,
            "state": "Delhi",
            "country_code": "IN"
        },
        "images": [
            {
                "about": "All",
                "link": "https://streetviewpixels-pa.googleapis.com/v1/thumbnail?panoid=fli0P2nRBx0m6kXAqZDz5g&cb_client=maps_sv.tactile.gps&w=224&h=298&yaw=208.39459&pitch=0&thumbfov=100"
            },
            {
                "about": "Street View & 360deg",
                "link": "https://streetviewpixels-pa.googleapis.com/v1/thumbnail?panoid=fli0P2nRBx0m6kXAqZDz5g&cb_client=maps_sv.tactile.gps&w=224&h=298&yaw=208.39459&pitch=0&thumbfov=100"
            }
        ],
        "link": "https://www.google.com/maps/place/Masjid/data=!4m7!3m6!1s0x390cfd74b6378221:0x2da5c9212f831088!8m2!3d28.6695164!4d77.2563643!16s%2Fg%2F11tb42z9g0!19sChIJIYI3tnT9DDkRiBCDLyHJpS0?authuser=0&hl=en&rclk=1",
        "coordinates": {
            "latitude": 28.6695164,
            "longitude": 77.2563643
        }
    },
    {
        "name": "Masjid Ya Rasulullah",
        "main_category": "Mosque",
        "address": "Masjid Ya Rasulullah, Masjid Ya Rasulullah nai basti Gauri patti, Nithora Rd, near rashid ali gate, Loni, Ghaziabad, Uttar Pradesh 201102",
        "detailed_address": {
            "ward": "Loni",
            "street": "Masjid Ya Rasulullah nai basti Gauri patti, Nithora Rd, near rashid ali gate",
            "city": "Ghaziabad",
            "postal_code": "201102",
            "state": "Uttar Pradesh",
            "country_code": "IN"
        },
        "images": [],
        "link": "https://www.google.com/maps/place/Masjid+Ya+Rasulullah/data=!4m7!3m6!1s0x390cf9bb8dd690b1:0xc8f519f09e17bc26!8m2!3d28.7517452!4d77.2924957!16s%2Fg%2F11rtlkkxzm!19sChIJsZDWjbv5DDkRJrwXnvAZ9cg?authuser=0&hl=en&rclk=1",
        "coordinates": {
            "latitude": 28.7517452,
            "longitude": 77.2924957
        }
    },
    {
        "name": "saadil ttaakiyaavaalii msjid",
        "main_category": "Mosque",
        "address": "Q75R+HGV saadil ttaakiyaavaalii msjid, Ashok Vihar, Loni Dehat, Uttar Pradesh 201102",
        "detailed_address": {
            "ward": "Ashok Vihar, Loni Dehat",
            "street": "Q75R+HGV",
            "city": null,
            "postal_code": null,
            "state": "Uttar Pradesh",
            "country_code": "IN"
        },
        "images": [
            {
                "about": "All",
                "link": "https://streetviewpixels-pa.googleapis.com/v1/thumbnail?panoid=2wmltQDxywFBwJRJs25xIA&cb_client=maps_sv.tactile.gps&w=224&h=298&yaw=147.63544&pitch=0&thumbfov=100"
            },
            {
                "about": "Street View & 360deg",
                "link": "https://streetviewpixels-pa.googleapis.com/v1/thumbnail?panoid=2wmltQDxywFBwJRJs25xIA&cb_client=maps_sv.tactile.gps&w=224&h=298&yaw=147.63544&pitch=0&thumbfov=100"
            }
        ],
        "link": "https://www.google.com/maps/place/%E0%A4%B8%E0%A4%BE%E0%A4%A6%E0%A4%BF%E0%A4%B2+%E0%A4%9F%E0%A4%BE%E0%A4%95%E0%A4%BF%E0%A4%AF%E0%A4%BE%E0%A4%B5%E0%A4%BE%E0%A4%B2%E0%A5%80+%E0%A4%AE%E0%A4%B8%E0%A5%8D%E0%A4%9C%E0%A4%BF%E0%A4%A6/data=!4m7!3m6!1s0x390cf9fcd618cb27:0xcd23ca5aca08836b!8m2!3d28.7589781!4d77.2912911!16s%2Fg%2F11k4t__qlt!19sChIJJ8sY1vz5DDkRa4MIylrKI80?authuser=0&hl=en&rclk=1",
        "coordinates": {
            "latitude": 28.7589781,
            "longitude": 77.2912911
        }
    },
    {
        "name": "Kahaniyan masjid",
        "main_category": "Mosque",
        "address": "Kahaniyan masjid, B4/ 28, Inderlok, Delhi, 110035",
        "detailed_address": {
            "ward": "Inderlok",
            "street": "B4/ 28",
            "city": "Delhi",
            "postal_code": null,
            "state": "Delhi",
            "country_code": "IN"
        },
        "images": [
            {
                "about": "All",
                "link": "https://streetviewpixels-pa.googleapis.com/v1/thumbnail?panoid=Ux9R1DwdL3Da89wLjGE4nA&cb_client=maps_sv.tactile.gps&w=224&h=298&yaw=352.02423&pitch=0&thumbfov=100"
            },
            {
                "about": "Street View & 360deg",
                "link": "https://streetviewpixels-pa.googleapis.com/v1/thumbnail?panoid=Ux9R1DwdL3Da89wLjGE4nA&cb_client=maps_sv.tactile.gps&w=224&h=298&yaw=352.02423&pitch=0&thumbfov=100"
            }
        ],
        "link": "https://www.google.com/maps/place/Kahaniyan+masjid/data=!4m7!3m6!1s0x390d03ab56103ccb:0xf711afd42501f36e!8m2!3d28.6720745!4d77.1676902!16s%2Fg%2F11k99jw6f8!19sChIJyzwQVqsDDTkRbvMBJdSvEfc?authuser=0&hl=en&rclk=1",
        "coordinates": {
            "latitude": 28.672074499999997,
            "longitude": 77.1676902
        }
    },
    {
        "name": "Masjid Bodsawala Wali",
        "main_category": "Mosque",
        "address": "Masjid Bodsawala Wali, 2370,Chatta Shahji,Chawri Bazar, Dharam Pura Rd, Nai Wala, Chandni Chowk, New Delhi, Delhi 110006",
        "detailed_address": {
            "ward": "Nai Wala, Chandni Chowk",
            "street": "2370,Chatta Shahji,Chawri Bazar, Dharam Pura Rd",
            "city": "New Delhi, Delhi",
            "postal_code": "110006",
            "state": "Delhi",
            "country_code": "IN"
        },
        "images": [
            {
                "about": "All",
                "link": "https://streetviewpixels-pa.googleapis.com/v1/thumbnail?panoid=V7ypaw0J0fkCCyMxiE8fyw&cb_client=maps_sv.tactile.gps&w=224&h=298&yaw=358.73636&pitch=0&thumbfov=100"
            },
            {
                "about": "Street View & 360deg",
                "link": "https://streetviewpixels-pa.googleapis.com/v1/thumbnail?panoid=V7ypaw0J0fkCCyMxiE8fyw&cb_client=maps_sv.tactile.gps&w=224&h=298&yaw=358.73636&pitch=0&thumbfov=100"
            }
        ],
        "link": "https://www.google.com/maps/place/Masjid+Bodsawala+Wali/data=!4m7!3m6!1s0x390cfd19b6b59b81:0x1d0c8dba8ab5b549!8m2!3d28.6509214!4d77.2308029!16s%2Fg%2F1ptx9cfbw!19sChIJgZu1thn9DDkRSbW1irqNDB0?authuser=0&hl=en&rclk=1",
        "coordinates": {
            "latitude": 28.650921399999998,
            "longitude": 77.2308029
        }
    },
    {
        "name": "Masjid",
        "main_category": "Mosque",
        "address": "Shop No: 5035, Masjid, Netaji Subhash Marg, Daryaganj, New Delhi, Delhi, 110002",
        "detailed_address": {
            "ward": "Daryaganj",
            "street": "Shop No: 5035, Netaji Subhash Marg",
            "city": "New Delhi, Delhi",
            "postal_code": "110002",
            "state": "Delhi",
            "country_code": "IN"
        },
        "images": [
            {
                "about": "All",
                "link": "https://streetviewpixels-pa.googleapis.com/v1/thumbnail?panoid=YSwhlhzTck_MDCSAiGS2Aw&cb_client=maps_sv.tactile.gps&w=224&h=298&yaw=322.97766&pitch=0&thumbfov=100"
            },
            {
                "about": "Street View & 360deg",
                "link": "https://streetviewpixels-pa.googleapis.com/v1/thumbnail?panoid=YSwhlhzTck_MDCSAiGS2Aw&cb_client=maps_sv.tactile.gps&w=224&h=298&yaw=322.97766&pitch=0&thumbfov=100"
            }
        ],
        "link": "https://www.google.com/maps/place/Masjid/data=!4m7!3m6!1s0x390cfdf175041b95:0x8ef57a2bc9f92c1c!8m2!3d28.6480954!4d77.2403964!16s%2Fg%2F11s664lvxh!19sChIJlRsEdfH9DDkRHCz5ySt69Y4?authuser=0&hl=en&rclk=1",
        "coordinates": {
            "latitude": 28.6480954,
            "longitude": 77.2403964
        }
    },
    {
        "name": "Masjid",
        "main_category": "Mosque",
        "address": "Masjid, I116, DSIIDC Industrial Area, Sector 5, Bawana, New Delhi, Delhi, 110039",
        "detailed_address": {
            "ward": "DSIIDC Industrial Area, Sector 5, Bawana",
            "street": "I116",
            "city": "New Delhi, Delhi",
            "postal_code": "110039",
            "state": "Delhi",
            "country_code": "IN"
        },
        "images": [],
        "link": "https://www.google.com/maps/place/Masjid/data=!4m7!3m6!1s0x390da9cb278fea55:0x351e1b7ec09414c4!8m2!3d28.8011996!4d77.0752247!16s%2Fg%2F11vd9vydsd!19sChIJVeqPJ8upDTkRxBSUwH4bHjU?authuser=0&hl=en&rclk=1",
        "coordinates": {
            "latitude": 28.8011996,
            "longitude": 77.07522469999999
        }
    },
    {
        "name": "Masjid madarse wali",
        "main_category": "Mosque",
        "address": "Masjid madarse wali, A-304, Burari, New Delhi, Delhi, 110084",
        "detailed_address": {
            "ward": "Burari",
            "street": "A-304",
            "city": "New Delhi, Delhi",
            "postal_code": "110084",
            "state": "Delhi",
            "country_code": "IN"
        },
        "images": [],
        "link": "https://www.google.com/maps/place/Masjid+madarse+wali/data=!4m7!3m6!1s0x390cff3807730b4f:0x7bd188a37a0cd7ca!8m2!3d28.7262379!4d77.2250131!16s%2Fg%2F11r99r5x99!19sChIJTwtzBzj_DDkRytcMeqOI0Xs?authuser=0&hl=en&rclk=1",
        "coordinates": {
            "latitude": 28.726237899999997,
            "longitude": 77.2250131
        }
    },
    {
        "name": "Masjid",
        "main_category": "Mosque",
        "address": "J2WM+MXF Masjid, Sunni Masjid Rd, Deep Enclave, Hastsal, Delhi, 110059",
        "detailed_address": {
            "ward": "Deep Enclave, Hastsal",
            "street": "J2WM+MXF, Sunni Masjid Rd",
            "city": "Delhi",
            "postal_code": "110059",
            "state": "Delhi",
            "country_code": "IN"
        },
        "images": [
            {
                "about": "All",
                "link": "https://streetviewpixels-pa.googleapis.com/v1/thumbnail?panoid=nlgBb5RlpqHsCVPru-0y6A&cb_client=maps_sv.tactile.gps&w=224&h=298&yaw=352.28363&pitch=0&thumbfov=100"
            },
            {
                "about": "Street View & 360deg",
                "link": "https://streetviewpixels-pa.googleapis.com/v1/thumbnail?panoid=nlgBb5RlpqHsCVPru-0y6A&cb_client=maps_sv.tactile.gps&w=224&h=298&yaw=352.28363&pitch=0&thumbfov=100"
            }
        ],
        "link": "https://www.google.com/maps/place/Masjid/data=!4m7!3m6!1s0x390d05267bb46283:0xaef6f06f366d7113!8m2!3d28.6466834!4d77.0349292!16s%2Fg%2F11vl8tpxw1!19sChIJg2K0eyYFDTkRE3FtNm_w9q4?authuser=0&hl=en&rclk=1",
        "coordinates": {
            "latitude": 28.646683399999997,
            "longitude": 77.0349292
        }
    },
    {
        "name": "Masjid Sangailya",
        "main_category": "Mosque",
        "address": "MW49+G6G Masjid Sangailya, vill Shakarpuri post Doha teh.ferozepur jhiraka, Distt, Shakarpuri, Haryana 122104",
        "detailed_address": {
            "ward": null,
            "street": "MW49+G6G, vill Shakarpuri post Doha teh.ferozepur jhiraka, Distt",
            "city": "Shakarpuri",
            "postal_code": "122104",
            "state": "Haryana",
            "country_code": "IN"
        },
        "images": [
            {
                "about": "All",
                "link": "https://lh5.googleusercontent.com/p/AF1QipM5KGWvUy2tSjjZBHEQuyWgMKrqNQ_nMz6dFvTQ=w397-h298-k-no"
            },
            {
                "about": "By owner",
                "link": "https://lh5.googleusercontent.com/p/AF1QipMCZKgTq8fblOGz7JnOe_F-pUkfJ5sZnlg1FrBh=w224-h458-k-no"
            }
        ],
        "link": "https://www.google.com/maps/place/Masjid+Sangailya/data=!4m7!3m6!1s0x3972ebb322031291:0xf71622616d44e0dc!8m2!3d27.6561937!4d76.9179515!16s%2Fg%2F11srhgfsc0!19sChIJkRIDIrPrcjkR3OBEbWEiFvc?authuser=0&hl=en&rclk=1",
        "coordinates": {
            "latitude": 27.6561937,
            "longitude": 76.9179515
        }
    },
    {
        "name": "Garib nawaz Masjid Sayala",
        "main_category": "Mosque",
        "address": "89F3+6MX Garib nawaz Masjid Sayala, opp. Tehsil office, Sayla, Rajasthan 343022",
        "detailed_address": {
            "ward": null,
            "street": "89F3+6MX, opp. Tehsil office",
            "city": "Sayla",
            "postal_code": null,
            "state": "Rajasthan",
            "country_code": "IN"
        },
        "images": [
            {
                "about": "All",
                "link": "https://lh5.googleusercontent.com/p/AF1QipOH6Ms70kSHvlhEMDYX3fBkkoY-CEgWMvr3oH9U=w224-h497-k-no"
            },
            {
                "about": "Videos",
                "link": "https://lh5.googleusercontent.com/p/AF1QipOH6Ms70kSHvlhEMDYX3fBkkoY-CEgWMvr3oH9U=w224-h497-k-no"
            }
        ],
        "link": "https://www.google.com/maps/place/Garib+nawaz+Masjid+Sayala/data=!4m7!3m6!1s0x39430bc08d33be9d:0xf1b05a6992399011!8m2!3d25.3231228!4d72.3542249!16s%2Fg%2F11f6y0zrxt!19sChIJnb4zjcALQzkREZA5kmlasPE?authuser=0&hl=en&rclk=1",
        "coordinates": {
            "latitude": 25.3231228,
            "longitude": 72.35422489999999
        }
    },
    {
        "name": "Sayla mazar masjid",
        "main_category": "Mosque",
        "address": "Sayla mazar masjid, 13, Sayla, Gujarat 363430",
        "detailed_address": {
            "ward": null,
            "street": "13",
            "city": "Sayla",
            "postal_code": "363430",
            "state": "Gujarat",
            "country_code": "IN"
        },
        "images": [],
        "link": "https://www.google.com/maps/place/Sayla+mazar+masjid/data=!4m7!3m6!1s0x395917092a263f13:0xc80a90de9ab79231!8m2!3d22.5427697!4d71.4825567!16s%2Fg%2F11l59krchg!19sChIJEz8mKgkXWTkRMZK3mt6QCsg?authuser=0&hl=en&rclk=1",
        "coordinates": {
            "latitude": 22.542769699999997,
            "longitude": 71.4825567
        }
    }
]