[
    {
        "name": "Masjid - Ansarganj",
        "main_category": "Mosque",
        "address": "HRCG+2F9 Masjid - Ansarganj, Bar, Sherghati, Gopalpur, Bihar 824237",
        "detailed_address": {
            "ward": "Bar",
            "street": "HRCG+2F9",
            "city": "Sherghati, Gopalpur",
            "postal_code": "824237",
            "state": "Bihar",
            "country_code": "IN"
        },
        "images": [
            {
                "about": "All",
                "link": "https://lh5.googleusercontent.com/p/AF1QipNezdaaB5ActCSMvP4vNlD3_66qZ0qJBhSD97Zo=w224-h471-k-no"
            },
            {
                "about": "Dome",
                "link": "https://lh5.googleusercontent.com/p/AF1QipNogxIRmrn167LmoTB-L98T7JCub-NIWkPtXOEQ=w224-h398-k-no"
            }
        ],
        "link": "https://www.google.com/maps/place/Masjid+-+Ansarganj/data=!4m7!3m6!1s0x398ccef08ffda837:0xe5415c146b6f7428!8m2!3d24.5700262!4d84.8262367!16s%2Fg%2F11gd1s4qtk!19sChIJN6j9j_DOjDkRKHRvaxRcQeU?authuser=0&hl=en&rclk=1",
        "coordinates": {
            "latitude": 24.570026199999997,
            "longitude": 84.8262367
        }
    },
    {
        "name": "Jama Masjid",
        "main_category": "Mosque",
        "address": "HQ5Q+PJ9 Jama Masjid, Rousbaganj, Sherghati, Bihar 824211",
        "detailed_address": {
            "ward": "Rousbaganj",
            "street": "HQ5Q+PJ9",
            "city": "Sherghati",
            "postal_code": "824211",
            "state": "Bihar",
            "country_code": "IN"
        },
        "images": [
            {
                "about": "All",
                "link": "https://lh5.googleusercontent.com/p/AF1QipNejSXy6pSt_NYYbT-eXSYah7AVxTrAc3WHq2gS=w224-h448-k-no"
            }
        ],
        "link": "https://www.google.com/maps/place/Jama+Masjid/data=!4m7!3m6!1s0x398ccf6c03de2aff:0x9244b75bcaf304a3!8m2!3d24.5592907!4d84.789115!16s%2Fg%2F11bvv4wj3y!19sChIJ_yreA2zPjDkRowTzylu3RJI?authuser=0&hl=en&rclk=1",
        "coordinates": {
            "latitude": 24.5592907,
            "longitude": 84.789115
        }
    },
    {
        "name": "Lodi Shaheed Masjid",
        "main_category": "Mosque",
        "address": "Lodi Shaheed Masjid, 824211, Lodi Shaheed Mohalla, Rousbaganj, Sherghati, Bihar 824211",
        "detailed_address": {
            "ward": "Lodi Shaheed Mohalla, Rousbaganj",
            "street": "824211",
            "city": "Sherghati",
            "postal_code": "824211",
            "state": "Bihar",
            "country_code": "IN"
        },
        "images": [
            {
                "about": "All",
                "link": "https://lh5.googleusercontent.com/p/AF1QipMynseKKtBqsq7_7O-VBx0Fztd7wqej9c-K0rjp=w224-h298-k-no"
            }
        ],
        "link": "https://www.google.com/maps/place/Lodi+Shaheed+Masjid/data=!4m7!3m6!1s0x398ccf6b377decb7:0x7992d13ca2e6a48f!8m2!3d24.5576654!4d84.793323!16s%2Fg%2F11g8wddrfr!19sChIJt-x9N2vPjDkRj6TmojzRknk?authuser=0&hl=en&rclk=1",
        "coordinates": {
            "latitude": 24.557665399999998,
            "longitude": 84.793323
        }
    },
    {
        "name": "Shahi Mosque quazi Mohalla",
        "main_category": "Mosque",
        "address": "HQ5W+476 Shahi Mosque quazi Mohalla, Sherghati, Bihar 824211",
        "detailed_address": {
            "ward": null,
            "street": "HQ5W+476",
            "city": "Sherghati",
            "postal_code": "824211",
            "state": "Bihar",
            "country_code": "IN"
        },
        "images": [
            {
                "about": "All",
                "link": "https://lh5.googleusercontent.com/p/AF1QipOrvJMD1Zwxig3BLm-AlDRY4hlO8NyYCKl7xzgd=w397-h298-k-no"
            },
            {
                "about": "Videos",
                "link": "https://lh5.googleusercontent.com/p/AF1QipOJHzKYXXsFRBVkhjcw8i4hgZfZUECxOm6SYRk=w224-h448-k-no"
            }
        ],
        "link": "https://www.google.com/maps/place/Shahi+Mosque+quazi+Mohalla/data=!4m7!3m6!1s0x398ccf14eae59695:0xb939d30f159e49ef!8m2!3d24.5577791!4d84.7956401!16s%2Fg%2F11c61jhq2c!19sChIJlZbl6hTPjDkR70meFQ_TObk?authuser=0&hl=en&rclk=1",
        "coordinates": {
            "latitude": 24.557779099999998,
            "longitude": 84.7956401
        }
    },
    {
        "name": "Kormathu Masjidsajid",
        "main_category": "Mosque",
        "address": "HQVF+7HG Kormathu Masjidsajid, Kormathu, Sherghati, Shekh Bigha, Bihar 824211",
        "detailed_address": {
            "ward": "Kormathu",
            "street": "HQVF+7HG",
            "city": "Sherghati, Shekh Bigha",
            "postal_code": "824211",
            "state": "Bihar",
            "country_code": "IN"
        },
        "images": [
            {
                "about": "All",
                "link": "https://lh5.googleusercontent.com/p/AF1QipOlxxJI-2m3eAK79QzUlSwtsAOYDo3Uvzmxe8cp=w397-h298-k-no"
            },
            {
                "about": "Latest",
                "link": "https://streetviewpixels-pa.googleapis.com/v1/thumbnail?panoid=QPeKDX81Gei3uX8UvISRQg&cb_client=maps_sv.tactile.gps&w=224&h=298&yaw=190.3723&pitch=0&thumbfov=100"
            },
            {
                "about": "Videos",
                "link": "https://lh5.googleusercontent.com/p/AF1QipPA_2Vnxqgfg7YLBIIGNcx7KSFaNC9yPMBZ8jSm=w224-h398-k-no"
            },
            {
                "about": "Dome",
                "link": "https://lh5.googleusercontent.com/p/AF1QipN0249QbPTXquvEyZg8HMHXNq2qD-7jnj0LnycE=w224-h398-k-no"
            },
            {
                "about": "Street View & 360deg",
                "link": "https://streetviewpixels-pa.googleapis.com/v1/thumbnail?panoid=QPeKDX81Gei3uX8UvISRQg&cb_client=maps_sv.tactile.gps&w=224&h=298&yaw=190.3723&pitch=0&thumbfov=100"
            }
        ],
        "link": "https://www.google.com/maps/place/Kormathu+Masjidsajid/data=!4m7!3m6!1s0x398ccfd6128b7f47:0x4a9b30efb48243e6!8m2!3d24.5931966!4d84.7739528!16s%2Fg%2F11h4203wbv!19sChIJR3-LEtbPjDkR5kOCtO8wm0o?authuser=0&hl=en&rclk=1",
        "coordinates": {
            "latitude": 24.5931966,
            "longitude": 84.77395279999999
        }
    },
    {
        "name": "Jama Masjid Hamzapur",
        "main_category": "Mosque",
        "address": "HQCR+C99 Jama Masjid Hamzapur, Kurasin, Bihar 824219",
        "detailed_address": {
            "ward": null,
            "street": "HQCR+C99",
            "city": "Kurasin",
            "postal_code": "824219",
            "state": "Bihar",
            "country_code": "IN"
        },
        "images": [
            {
                "about": "All",
                "link": "https://lh5.googleusercontent.com/p/AF1QipMbE9zY6KIvg3uM04XaSoeZpc9bymcri_om67jm=w224-h298-k-no"
            },
            {
                "about": "Street View & 360deg",
                "link": "https://streetviewpixels-pa.googleapis.com/v1/thumbnail?panoid=0e2gZas9y1htoBuZVhzs7A&cb_client=maps_sv.tactile.gps&w=224&h=298&yaw=352.67026&pitch=0&thumbfov=100"
            }
        ],
        "link": "https://www.google.com/maps/place/Jama+Masjid+Hamzapur/data=!4m7!3m6!1s0x398ccf7478e7940d:0xe510ec2eccf7bb94!8m2!3d24.5710405!4d84.7909773!16s%2Fg%2F11cllyf6v0!19sChIJDZTneHTPjDkRlLv3zC7sEOU?authuser=0&hl=en&rclk=1",
        "coordinates": {
            "latitude": 24.5710405,
            "longitude": 84.7909773
        }
    },
    {
        "name": "Masjid-E-Umar Bhikhanpur",
        "main_category": "Mosque",
        "address": "GQF6+X4W Masjid-E-Umar Bhikhanpur, Sherghati, Baniadih, Bihar 824211",
        "detailed_address": {
            "ward": null,
            "street": "GQF6+X4W",
            "city": "Sherghati, Baniadih",
            "postal_code": "824211",
            "state": "Bihar",
            "country_code": "IN"
        },
        "images": [
            {
                "about": "All",
                "link": "https://lh5.googleusercontent.com/p/AF1QipNeqCiFhr0M-3V_NzrUdm15isbpjijgDFBVYqsY=w224-h398-k-no"
            }
        ],
        "link": "https://www.google.com/maps/place/Masjid-E-Umar+Bhikhanpur/data=!4m7!3m6!1s0x398cc767070bf80d:0x704f0de1592f657d!8m2!3d24.5249847!4d84.7603208!16s%2Fg%2F11kb2zssyn!19sChIJDfgLB2fHjDkRfWUvWeENT3A?authuser=0&hl=en&rclk=1",
        "coordinates": {
            "latitude": 24.524984699999997,
            "longitude": 84.7603208
        }
    },
    {
        "name": "Noori Masjid",
        "main_category": "Mosque",
        "address": "HQFW+52P Noori Masjid, Hamzapur, Bihar 824211",
        "detailed_address": {
            "ward": null,
            "street": "HQFW+52P",
            "city": "Hamzapur",
            "postal_code": "824211",
            "state": "Bihar",
            "country_code": "IN"
        },
        "images": [
            {
                "about": "All",
                "link": "https://lh5.googleusercontent.com/p/AF1QipPy09bYdJNYks46EAfkcAyWS9fz-1BTKs3z4cjU=w224-h403-k-no"
            },
            {
                "about": "Videos",
                "link": "https://lh5.googleusercontent.com/p/AF1QipP34PEMWTsK1VZsDMNZIphDxpj14RBhA029HR9G=w224-h403-k-no"
            }
        ],
        "link": "https://www.google.com/maps/place/Noori+Masjid/data=!4m7!3m6!1s0x398ccf0b3ef88f1d:0x8da23a80921354fb!8m2!3d24.5729713!4d84.7950827!16s%2Fg%2F11fxy1xzdd!19sChIJHY_4PgvPjDkR-1QTkoA6oo0?authuser=0&hl=en&rclk=1",
        "coordinates": {
            "latitude": 24.5729713,
            "longitude": 84.7950827
        }
    },
    {
        "name": "Hujra Masjid And Sarkari School",
        "main_category": "Mosque",
        "address": "HQ5W+86R Hujra Masjid And Sarkari School, Lodi Shaheed Mohalla, Rousbaganj, Sherghati, Bihar 824211",
        "detailed_address": {
            "ward": "Lodi Shaheed Mohalla",
            "street": "HQ5W+86R, Lodi Shaheed Mohalla, Rousbaganj",
            "city": "Sherghati",
            "postal_code": "824211",
            "state": "Bihar",
            "country_code": "IN"
        },
        "images": [],
        "link": "https://www.google.com/maps/place/Hujra+Masjid+And+Sarkari+School/data=!4m7!3m6!1s0x398ccf14bd8b7adb:0x5dc431cce7d360ad!8m2!3d24.5583676!4d84.7955117!16s%2Fg%2F11g8wj2_1n!19sChIJ23qLvRTPjDkRrWDT58wxxF0?authuser=0&hl=en&rclk=1",
        "coordinates": {
            "latitude": 24.5583676,
            "longitude": 84.79551169999999
        }
    },
    {
        "name": "Jamia Masjid. Manjhar Klan",
        "main_category": "Mosque",
        "address": "Jamia Masjid. Manjhar Klan, manjhar klan, Sherghati, Sondiha, Bihar 824211",
        "detailed_address": {
            "ward": null,
            "street": "manjhar klan",
            "city": "Sherghati, Sondiha",
            "postal_code": null,
            "state": "Bihar",
            "country_code": "IN"
        },
        "images": [],
        "link": "https://www.google.com/maps/place/Jamia+Masjid.+Manjhar+Klan/data=!4m7!3m6!1s0x398ccfe996a9256d:0xff49eca34062da2f!8m2!3d24.5347453!4d84.8195057!16s%2Fg%2F11qm3qf1h6!19sChIJbSWplunPjDkRL9piQKPsSf8?authuser=0&hl=en&rclk=1",
        "coordinates": {
            "latitude": 24.534745299999997,
            "longitude": 84.8195057
        }
    },
    {
        "name": "Masjid",
        "main_category": "Mosque",
        "address": "HQ8X+397 Masjid, Sherghati, Bihar 824211",
        "detailed_address": {
            "ward": null,
            "street": "HQ8X+397",
            "city": "Sherghati",
            "postal_code": "824211",
            "state": "Bihar",
            "country_code": "IN"
        },
        "images": [],
        "link": "https://www.google.com/maps/place/Masjid/data=!4m7!3m6!1s0x398ccf120bdacbe3:0x52c85639e935b75d!8m2!3d24.5651617!4d84.7984092!16s%2Fg%2F11g9qbyl4h!19sChIJ48vaCxLPjDkRXbc16TlWyFI?authuser=0&hl=en&rclk=1",
        "coordinates": {
            "latitude": 24.565161699999997,
            "longitude": 84.7984092
        }
    },
    {
        "name": "KHAN MASJID",
        "main_category": "Mosque",
        "address": "HQ6X+M2M KHAN MASJID, Hattia Mohalla, Sherghati, Bihar 824211",
        "detailed_address": {
            "ward": "Hattia Mohalla",
            "street": "HQ6X+M2M",
            "city": "Sherghati",
            "postal_code": "824211",
            "state": "Bihar",
            "country_code": "IN"
        },
        "images": [],
        "link": "https://www.google.com/maps/place/KHAN+MASJID/data=!4m7!3m6!1s0x398ccf13ba856f6d:0x41e78ac7e66c245c!8m2!3d24.5617039!4d84.797543!16s%2Fg%2F11fxy2jlxb!19sChIJbW-FuhPPjDkRXCRs5seK50E?authuser=0&hl=en&rclk=1",
        "coordinates": {
            "latitude": 24.561703899999998,
            "longitude": 84.79754299999999
        }
    },
    {
        "name": "Masjid E Hamja",
        "main_category": "Mosque",
        "address": "HQCR+FFP Masjid E Hamja, Sherghati, Kurasin, Bihar 824211",
        "detailed_address": {
            "ward": null,
            "street": "HQCR+FFP",
            "city": "Sherghati, Kurasin",
            "postal_code": null,
            "state": "Bihar",
            "country_code": "IN"
        },
        "images": [
            {
                "about": "All",
                "link": "https://lh5.googleusercontent.com/p/AF1QipMe-y5djUgC1W2iVQ5WPj5zrqJw3dZG2z3Y8k_1=w242-h298-k-no"
            }
        ],
        "link": "https://www.google.com/maps/place/Masjid+E+Hamja/data=!4m7!3m6!1s0x398ccf27f54c70a9:0xd3ecadd95eac3b7f!8m2!3d24.5712098!4d84.791217!16s%2Fg%2F11fhw18d72!19sChIJqXBM9SfPjDkRfzusXtmt7NM?authuser=0&hl=en&rclk=1",
        "coordinates": {
            "latitude": 24.5712098,
            "longitude": 84.791217
        }
    },
    {
        "name": "Noori Masjid",
        "main_category": "Mosque",
        "address": "HQFR+V8J Noori Masjid, Hamzapur, Bihar 824211",
        "detailed_address": {
            "ward": null,
            "street": "HQFR+V8J",
            "city": "Hamzapur",
            "postal_code": null,
            "state": "Bihar",
            "country_code": "IN"
        },
        "images": [
            {
                "about": "All",
                "link": "https://streetviewpixels-pa.googleapis.com/v1/thumbnail?panoid=6jVwJN9j1kmOHgl3LPdTtw&cb_client=maps_sv.tactile.gps&w=224&h=298&yaw=117.1862&pitch=0&thumbfov=100"
            },
            {
                "about": "Street View & 360deg",
                "link": "https://streetviewpixels-pa.googleapis.com/v1/thumbnail?panoid=6jVwJN9j1kmOHgl3LPdTtw&cb_client=maps_sv.tactile.gps&w=224&h=298&yaw=117.1862&pitch=0&thumbfov=100"
            }
        ],
        "link": "https://www.google.com/maps/place/Noori+Masjid/data=!4m7!3m6!1s0x398ccf113b4d1c75:0x9eaedc27e7d4ebc5!8m2!3d24.5747166!4d84.7907703!16s%2Fg%2F11h2q73s68!19sChIJdRxNOxHPjDkRxevU5yfcrp4?authuser=0&hl=en&rclk=1",
        "coordinates": {
            "latitude": 24.5747166,
            "longitude": 84.79077029999999
        }
    },
    {
        "name": "Madina Masjid Bhelwan",
        "main_category": "Mosque",
        "address": "HQ9P+XXF Madina Masjid Bhelwan, Bhelwa, Kurasin, Bihar 824211",
        "detailed_address": {
            "ward": null,
            "street": "HQ9P+XXF",
            "city": "Bhelwa, Kurasin",
            "postal_code": null,
            "state": "Bihar",
            "country_code": "IN"
        },
        "images": [
            {
                "about": "All",
                "link": "https://lh5.googleusercontent.com/p/AF1QipM0AQY-nzzjkxB7RrWku4SrZmpPo3QN08ANV2Jm=w224-h298-k-no"
            },
            {
                "about": "Latest",
                "link": "https://streetviewpixels-pa.googleapis.com/v1/thumbnail?panoid=45-TmZh77oyTjXkhSTe97w&cb_client=maps_sv.tactile.gps&w=224&h=298&yaw=178.0515&pitch=0&thumbfov=100"
            },
            {
                "about": "Street View & 360deg",
                "link": "https://streetviewpixels-pa.googleapis.com/v1/thumbnail?panoid=45-TmZh77oyTjXkhSTe97w&cb_client=maps_sv.tactile.gps&w=224&h=298&yaw=178.0515&pitch=0&thumbfov=100"
            }
        ],
        "link": "https://www.google.com/maps/place/Madina+Masjid+Bhelwan/data=!4m7!3m6!1s0x398ccff870680105:0xf874ef30b0e2e7bd!8m2!3d24.5699311!4d84.7874226!16s%2Fg%2F11j8xgdvkz!19sChIJBQFocPjPjDkRvefisDDvdPg?authuser=0&hl=en&rclk=1",
        "coordinates": {
            "latitude": 24.569931099999998,
            "longitude": 84.7874226
        }
    },
    {
        "name": "Badi Masjid Sherghati bdddhii msjid sherghaattii",
        "main_category": "Mosque",
        "address": "HQ4V+99F Badi Masjid Sherghati bdddhii msjid sherghaattii, Rahman Nagar Rd, Sherghati, Bihar 824211",
        "detailed_address": {
            "ward": null,
            "street": "HQ4V+99F, Rahman Nagar Rd",
            "city": "Sherghati",
            "postal_code": "824211",
            "state": "Bihar",
            "country_code": "IN"
        },
        "images": [
            {
                "about": "All",
                "link": "https://lh5.googleusercontent.com/p/AF1QipO6qKvpSBLJIXaltnC7voFnwjsdLy2zJd7yAcrf=w397-h298-k-no"
            }
        ],
        "link": "https://www.google.com/maps/place/Badi+Masjid+Sherghati+%E0%A4%AC%E0%A5%9C%E0%A5%80+%E0%A4%AE%E0%A4%B8%E0%A5%8D%E0%A4%9C%E0%A4%BF%E0%A4%A6+%E0%A4%B6%E0%A5%87%E0%A4%B0%E0%A4%98%E0%A4%BE%E0%A4%9F%E0%A5%80/data=!4m7!3m6!1s0x398ccf03d8887571:0x1f7e00d4eeb89f35!8m2!3d24.5559372!4d84.7934169!16s%2Fg%2F11qp894114!19sChIJcXWI2APPjDkRNZ-47tQAfh8?authuser=0&hl=en&rclk=1",
        "coordinates": {
            "latitude": 24.5559372,
            "longitude": 84.7934169
        }
    },
    {
        "name": "Madina masjid",
        "main_category": "Mosque",
        "address": "HR62+5M5 Madina masjid, Mohalla Lagan takiya, Sherghati",
        "detailed_address": {
            "ward": null,
            "street": "HR62+5M5, Mohalla Lagan takiya",
            "city": "Sherghati",
            "postal_code": null,
            "state": "Bihar",
            "country_code": "IN"
        },
        "images": [
            {
                "about": "All",
                "link": "https://streetviewpixels-pa.googleapis.com/v1/thumbnail?panoid=4Nzz_AlvURRyb_8mmG-JMw&cb_client=maps_sv.tactile.gps&w=224&h=298&yaw=147.80899&pitch=0&thumbfov=100"
            },
            {
                "about": "Street View & 360deg",
                "link": "https://streetviewpixels-pa.googleapis.com/v1/thumbnail?panoid=4Nzz_AlvURRyb_8mmG-JMw&cb_client=maps_sv.tactile.gps&w=224&h=298&yaw=147.80899&pitch=0&thumbfov=100"
            },
            {
                "about": "Videos",
                "link": "https://lh5.googleusercontent.com/p/AF1QipPFxGOjFcrCiDmUyj5p0B9pezf2mvw_jp3V1-3l=w224-h398-k-no"
            }
        ],
        "link": "https://www.google.com/maps/place/Madina+masjid/data=!4m7!3m6!1s0x398ccfc81566716d:0x612e9b503e87b2ac!8m2!3d24.5603972!4d84.801725!16s%2Fg%2F11p5s2lxvx!19sChIJbXFmFcjPjDkRrLKHPlCbLmE?authuser=0&hl=en&rclk=1",
        "coordinates": {
            "latitude": 24.5603972,
            "longitude": 84.80172499999999
        }
    },
    {
        "name": "Iqra Masjid, Sherghati",
        "main_category": "Mosque",
        "address": "HQ4W+PJ5 Iqra Masjid, Sherghati, Sherghati, Bihar 824211",
        "detailed_address": {
            "ward": null,
            "street": "HQ4W+PJ5",
            "city": "Sherghati",
            "postal_code": null,
            "state": "Bihar",
            "country_code": "IN"
        },
        "images": [],
        "link": "https://www.google.com/maps/place/Iqra+Masjid,+Sherghati/data=!4m7!3m6!1s0x398ccfaa42d3e8a9:0xf3f8bdcb365eb972!8m2!3d24.5567616!4d84.7966243!16s%2Fg%2F11hztb3wd2!19sChIJqejTQqrPjDkRcrleNsu9-PM?authuser=0&hl=en&rclk=1",
        "coordinates": {
            "latitude": 24.556761599999998,
            "longitude": 84.79662429999999
        }
    },
    {
        "name": "Masjid e Umar Ramna Sherghati",
        "main_category": "Mosque",
        "address": "HQ4Q+JMF Masjid e Umar Ramna Sherghati, Ramna Rd, Rousbaganj, Sherghati, Bihar 824211",
        "detailed_address": {
            "ward": "Rousbaganj",
            "street": "HQ4Q+JMF, Ramna Rd",
            "city": "Sherghati",
            "postal_code": "824211",
            "state": "Bihar",
            "country_code": "IN"
        },
        "images": [
            {
                "about": "All",
                "link": "https://lh5.googleusercontent.com/p/AF1QipOiqzpBj_FZguJicUVXApHxCSUC-Yh_QonKP2VH=w224-h482-k-no"
            }
        ],
        "link": "https://www.google.com/maps/place/Masjid+e+Umar+Ramna+Sherghati/data=!4m7!3m6!1s0x398ccff37986ac2b:0x5b41d064d5dcbbfa!8m2!3d24.5565607!4d84.7891774!16s%2Fg%2F11tg88j41f!19sChIJK6yGefPPjDkR-rvc1WTQQVs?authuser=0&hl=en&rclk=1",
        "coordinates": {
            "latitude": 24.5565607,
            "longitude": 84.7891774
        }
    },
    {
        "name": "QADIM MASJID HAMZAPUR",
        "main_category": "Mosque",
        "address": "HQCR+FFP QADIM MASJID HAMZAPUR, Grand Trunk Rd, Sherghati, Kurasin, Bihar 824219",
        "detailed_address": {
            "ward": null,
            "street": "HQCR+FFP, Grand Trunk Rd",
            "city": "Sherghati, Kurasin",
            "postal_code": "824219",
            "state": "Bihar",
            "country_code": "IN"
        },
        "images": [],
        "link": "https://www.google.com/maps/place/QADIM+MASJID+HAMZAPUR/data=!4m7!3m6!1s0x398ccf7478e7940d:0xeb521304d15425b8!8m2!3d24.5712068!4d84.7912145!16s%2Fg%2F11c6w05rtv!19sChIJDZTneHTPjDkRuCVU0QQTUus?authuser=0&hl=en&rclk=1",
        "coordinates": {
            "latitude": 24.5712068,
            "longitude": 84.7912145
        }
    }
]