[
    {
        "name": "Madina Masjid Khunti",
        "main_category": "Mosque",
        "address": "Madina Masjid Khunti, Jannat Road Nagar, Jannat Rd, Nagar, Khunti, Jharkhand 835210",
        "detailed_address": {
            "ward": "Nagar",
            "street": "Jannat Road Nagar, Jannat Rd",
            "city": "Khunti",
            "postal_code": "835210",
            "state": "Jharkhand",
            "country_code": "IN"
        },
        "images": [
            {
                "about": "All",
                "link": "https://lh5.googleusercontent.com/p/AF1QipMOKYOficczclq8VEQRq58S5yzbYPpFc-aHzdFV=w224-h298-k-no"
            },
            {
                "about": "Street View & 360deg",
                "link": "https://streetviewpixels-pa.googleapis.com/v1/thumbnail?panoid=1q2RASg4KHgwOv5Ut6I7hg&cb_client=maps_sv.tactile.gps&w=224&h=298&yaw=309.30127&pitch=0&thumbfov=100"
            },
            {
                "about": "Videos",
                "link": "https://lh5.googleusercontent.com/p/AF1QipNWGtMDgoavO_Q4VtAvUbdXXdWCoTJxKjZDBsoB=w224-h407-k-no"
            }
        ],
        "link": "https://www.google.com/maps/place/Madina+Masjid+Khunti/data=!4m7!3m6!1s0x39f517d67ac20cfd:0xec4ff5dd7c5e81f!8m2!3d23.0803183!4d85.2742929!16s%2Fg%2F11c2njsh0q!19sChIJ_QzCetYX9TkRH-jF113_xA4?authuser=0&hl=en&rclk=1",
        "coordinates": {
            "latitude": 23.0803183,
            "longitude": 85.27429289999999
        }
    },
    {
        "name": "Zohra Mosque",
        "main_category": "Mosque",
        "address": "37FG+HR8 Zohra Mosque, Pasha Colony, Khunti, Jharkhand 835210",
        "detailed_address": {
            "ward": "Pasha Colony",
            "street": "37FG+HR8",
            "city": "Khunti",
            "postal_code": "835210",
            "state": "Jharkhand",
            "country_code": "IN"
        },
        "images": [
            {
                "about": "All",
                "link": "https://lh5.googleusercontent.com/p/AF1QipMwmfafEtcuw6r2Ibtsm9AatE9-lCAXPUYln80=w224-h298-k-no"
            },
            {
                "about": "Dome",
                "link": "https://lh5.googleusercontent.com/p/AF1QipOv1dpX7xTDiKyVM6vzuSdfPV6B1NqFnBs4WF8=w224-h298-k-no"
            },
            {
                "about": "Street View & 360deg",
                "link": "https://streetviewpixels-pa.googleapis.com/v1/thumbnail?panoid=-UGfvkAtw5BowIdi60JSwg&cb_client=maps_sv.tactile.gps&w=224&h=298&yaw=4.56045&pitch=0&thumbfov=100"
            }
        ],
        "link": "https://www.google.com/maps/place/Zohra+Mosque/data=!4m7!3m6!1s0x39f517d4a944c691:0xb4fa803391e401ed!8m2!3d23.0739175!4d85.2770708!16s%2Fg%2F11g6qzgmmh!19sChIJkcZEqdQX9TkR7QHkkTOA-rQ?authuser=0&hl=en&rclk=1",
        "coordinates": {
            "latitude": 23.0739175,
            "longitude": 85.27707079999999
        }
    },
    {
        "name": "Jama Masjid Khunti",
        "main_category": "Mosque",
        "address": "37GG+QCF Jama Masjid Khunti, masjid gali, Khunti, Jharkhand",
        "detailed_address": {
            "ward": "Jannat Ganar",
            "street": "37GG+QCF, masjid gali",
            "city": "Khunti",
            "postal_code": null,
            "state": "Jharkhand",
            "country_code": "IN"
        },
        "images": [
            {
                "about": "All",
                "link": "https://lh5.googleusercontent.com/p/AF1QipOFsvNlRQn0Q94uB-OMR6PKyulxpInmVSyL24h9=w529-h298-k-no"
            },
            {
                "about": "Dome",
                "link": "https://lh5.googleusercontent.com/p/AF1QipOobui-GbfhBb6EO809zC7vg5vmoiWEaQrYWR1O=w224-h298-k-no"
            },
            {
                "about": "Videos",
                "link": "https://lh5.googleusercontent.com/p/AF1QipOcz7hA3rhPUWjLaaR7vBo-c3AT3O3M5ESNicDh=w224-h398-k-no"
            }
        ],
        "link": "https://www.google.com/maps/place/Jama+Masjid+Khunti/data=!4m7!3m6!1s0x39f517d45e4ab2f9:0xedb39e40719efdfd!8m2!3d23.0769339!4d85.2760435!16s%2Fg%2F11cs265hs8!19sChIJ-bJKXtQX9TkR_f2ecUCes-0?authuser=0&hl=en&rclk=1",
        "coordinates": {
            "latitude": 23.0769339,
            "longitude": 85.2760435
        }
    },
    {
        "name": "Masjid-e-Qauser",
        "main_category": "Mosque",
        "address": "37HG+M2J Masjid-e-Qauser, Jannat Ganar, Khunti, Jharkhand 835210",
        "detailed_address": {
            "ward": "Jannat Ganar",
            "street": "37HG+M2J",
            "city": "Khunti",
            "postal_code": "835210",
            "state": "Jharkhand",
            "country_code": "IN"
        },
        "images": [],
        "link": "https://www.google.com/maps/place/Masjid-e-Qauser/data=!4m7!3m6!1s0x39f5179cb40c33b5:0x5bcf5535fc0e502!8m2!3d23.0792209!4d85.2750304!16s%2Fg%2F11rj4w1sb9!19sChIJtTMMtJwX9TkRAuXAX1P1vAU?authuser=0&hl=en&rclk=1",
        "coordinates": {
            "latitude": 23.0792209,
            "longitude": 85.27503039999999
        }
    },
    {
        "name": "Maktab mazharul madina shakh madrasa madinaturrasool jannat nagar khunti",
        "main_category": "Mosque",
        "address": "37FH+M2J Maktab mazharul madina shakh madrasa madinaturrasool jannat nagar khunti, Azad Rd, Pasha Colony, Khunti, Jharkhand 835210",
        "detailed_address": {
            "ward": "Pasha Colony",
            "street": "37FH+M2J, Azad Rd",
            "city": "Khunti",
            "postal_code": "835210",
            "state": "Jharkhand",
            "country_code": "IN"
        },
        "images": [],
        "link": "https://www.google.com/maps/place/Maktab+mazharul+madina+shakh+madrasa+madinaturrasool+jannat+nagar+khunti/data=!4m7!3m6!1s0x39f5175e245c3b2d:0xc2d9329d5715caf7!8m2!3d23.0742106!4d85.2775124!16s%2Fg%2F11rtmdtjb9!19sChIJLTtcJF4X9TkR98oVV50y2cI?authuser=0&hl=en&rclk=1",
        "coordinates": {
            "latitude": 23.0742106,
            "longitude": 85.27751239999999
        }
    }
]