[
    {
        "name": "Eidgah (Pinjar Baydi)",
        "main_category": "Mosque",
        "address": "5CV5+RHW Eidgah (Pinjar Baydi), sundrel, Madhya Pradesh 454552",
        "detailed_address": {
            "ward": null,
            "street": "5CV5+RHW",
            "city": "sundrel",
            "postal_code": "454552",
            "state": "Madhya Pradesh",
            "country_code": "IN"
        },
        "images": [
            {
                "about": "All",
                "link": "https://lh5.googleusercontent.com/p/AF1QipNGmxh8D4oBPisvzZMZK_PPKLZT_u80xUTEqzz6=w397-h298-k-no"
            }
        ],
        "link": "https://www.google.com/maps/place/Eidgah+%28Pinjar+Baydi%29/data=!4m7!3m6!1s0x39626c4adb50277b:0x940b28f5a47bb788!8m2!3d22.1946178!4d75.4089412!16s%2Fg%2F11g9d21p8_!19sChIJeydQ20psYjkRiLd7pPUoC5Q?authuser=0&hl=en&rclk=1",
        "coordinates": {
            "latitude": 22.1946178,
            "longitude": 75.4089412
        }
    },
    {
        "name": "Shiv Mandir Mangal Nagar, Dhamnod",
        "main_category": "Hindu temple",
        "address": "6F9G+P2V Shiv Mandir Mangal Nagar, Dhamnod, Mangal Nagar, Dhamnod, Madhya Pradesh 454552",
        "detailed_address": {
            "ward": "Mangal Nagar",
            "street": "6F9G+P2V",
            "city": "Dhamnod",
            "postal_code": "454552",
            "state": "Madhya Pradesh",
            "country_code": "IN"
        },
        "images": [
            {
                "about": "All",
                "link": "https://streetviewpixels-pa.googleapis.com/v1/thumbnail?panoid=juDHqropa_LmQFQi_nWZOA&cb_client=maps_sv.tactile.gps&w=224&h=298&yaw=219.70607&pitch=0&thumbfov=100"
            },
            {
                "about": "Street View & 360deg",
                "link": "https://streetviewpixels-pa.googleapis.com/v1/thumbnail?panoid=juDHqropa_LmQFQi_nWZOA&cb_client=maps_sv.tactile.gps&w=224&h=298&yaw=219.70607&pitch=0&thumbfov=100"
            }
        ],
        "link": "https://www.google.com/maps/place/Shiv+Mandir+Mangal+Nagar,+Dhamnod/data=!4m7!3m6!1s0x39626ee6d25ab8d9:0xbd367c211900996!8m2!3d22.219359!4d75.4750365!16s%2Fg%2F11c52rwnjl!19sChIJ2bha0uZuYjkRlgmQEcJn0ws?authuser=0&hl=en&rclk=1",
        "coordinates": {
            "latitude": 22.219359,
            "longitude": 75.4750365
        }
    },
    {
        "name": "Ya Panjatan Kidmadgar Committee",
        "main_category": "Mosque",
        "address": "6FVH+QGF Ya Panjatan Kidmadgar Committee, dudhi, Dhamnod, Madhya Pradesh",
        "detailed_address": {
            "ward": null,
            "street": "6FVH+QGF, dudhi",
            "city": "Dhamnod, Dudhi",
            "postal_code": null,
            "state": "Madhya Pradesh",
            "country_code": "IN"
        },
        "images": [
            {
                "about": "All",
                "link": "https://lh5.googleusercontent.com/p/AF1QipOx623hzswINk0MLhXlk25QDZCirSY30lVDSV4z=w397-h298-k-no"
            },
            {
                "about": "Dome",
                "link": "https://lh5.googleusercontent.com/p/AF1QipO-oPcCvliv3E6PzACDqFRaqtNadoZO3mws7SVN=w397-h298-k-no"
            },
            {
                "about": "Videos",
                "link": "https://lh5.googleusercontent.com/p/AF1QipOZZFRK8ATt9pktDXGTD-ZVp5JEAApQIYGUiJ-e=w529-h298-k-no"
            },
            {
                "about": "Street View & 360deg",
                "link": "https://streetviewpixels-pa.googleapis.com/v1/thumbnail?panoid=pDa-FoaKF9o8ufDDK3QYrg&cb_client=maps_sv.tactile.gps&w=224&h=298&yaw=314.1607&pitch=0&thumbfov=100"
            }
        ],
        "link": "https://www.google.com/maps/place/Ya+Panjatan+Kidmadgar+Committee/data=!4m7!3m6!1s0x39626fbd9bb3f733:0x2e1c3d3475774357!8m2!3d22.2444261!4d75.4788032!16s%2Fg%2F11f7b3xj7w!19sChIJM_ezm71vYjkRV0N3dTQ9HC4?authuser=0&hl=en&rclk=1",
        "coordinates": {
            "latitude": 22.2444261,
            "longitude": 75.4788032
        }
    },
    {
        "name": "Madina Masjid & Madressah",
        "main_category": "Mosque",
        "address": "4FRQ+FG3 Madina Masjid & Madressah, Khargone - Indore Hwy, Panwa, Madhya Pradesh 451660",
        "detailed_address": {
            "ward": null,
            "street": "4FRQ+FG3, Khargone - Indore Hwy",
            "city": "Panwa",
            "postal_code": "451660",
            "state": "Madhya Pradesh",
            "country_code": "IN"
        },
        "images": [
            {
                "about": "All",
                "link": "https://lh5.googleusercontent.com/p/AF1QipN90iow3c1gFfXRhr32qrZMXH4WOaereXOcKJQg=w224-h298-k-no"
            }
        ],
        "link": "https://www.google.com/maps/place/Madina+Masjid+%26+Madressah/data=!4m7!3m6!1s0x3962714ef4486b85:0xb0899ae2a925c88e!8m2!3d22.1411347!4d75.488812!16s%2Fg%2F11fk1hx0gw!19sChIJhWtI9E5xYjkRjsglqeKaibA?authuser=0&hl=en&rclk=1",
        "coordinates": {
            "latitude": 22.1411347,
            "longitude": 75.488812
        }
    },
    {
        "name": "Purani Masjid",
        "main_category": "Mosque",
        "address": "6F9V+29X Purani Masjid, Dhamnod, Madhya Pradesh 454552",
        "detailed_address": {
            "ward": null,
            "street": "6F9V+29X",
            "city": "Dhamnod",
            "postal_code": "454552",
            "state": "Madhya Pradesh",
            "country_code": "IN"
        },
        "images": [],
        "link": "https://www.google.com/maps/place/Purani+Masjid/data=!4m7!3m6!1s0x39626f10bca84ef3:0xb344b264890cc5b9!8m2!3d22.2176175!4d75.4934918!16s%2Fg%2F11g9j3n3wt!19sChIJ806ovBBvYjkRucUMiWSyRLM?authuser=0&hl=en&rclk=1",
        "coordinates": {
            "latitude": 22.2176175,
            "longitude": 75.4934918
        }
    },
    {
        "name": "? MASJID ?",
        "main_category": "Restaurant",
        "address": "6F7C+HW4 ? MASJID ?, Dhamnod, Madhya Pradesh 454552",
        "detailed_address": {
            "ward": null,
            "street": "6F7C+HW4",
            "city": "Dhamnod",
            "postal_code": "454552",
            "state": "Madhya Pradesh",
            "country_code": "IN"
        },
        "images": [],
        "link": "https://www.google.com/maps/place/%3F+MASJID+%3F/data=!4m7!3m6!1s0x39626ee5aaaaaaab:0x817a35564dbf9c97!8m2!3d22.2138885!4d75.4723411!16s%2Fg%2F11fzf6tmfd!19sChIJq6qqquVuYjkRl5y_TVY1eoE?authuser=0&hl=en&rclk=1",
        "coordinates": {
            "latitude": 22.2138885,
            "longitude": 75.4723411
        }
    },
    {
        "name": "Jama Masjid",
        "main_category": "Museum",
        "address": "Jama Masjid, Madhiya, Dhamnod, Madhya Pradesh 454552",
        "detailed_address": {
            "ward": null,
            "street": "Madhiya",
            "city": "Dhamnod",
            "postal_code": null,
            "state": "Madhya Pradesh",
            "country_code": "IN"
        },
        "images": [],
        "link": "https://www.google.com/maps/place/Jama+Masjid/data=!4m7!3m6!1s0x39626f6017edeba5:0x6b364288f55138da!8m2!3d22.2138885!4d75.4723411!16s%2Fg%2F11s7d4l2x0!19sChIJpevtF2BvYjkR2jhR9YhCNms?authuser=0&hl=en&rclk=1",
        "coordinates": {
            "latitude": 22.2138885,
            "longitude": 75.4723411
        }
    }
]