[
    {
        "name": "Jama Masjid msjd",
        "main_category": "Mosque",
        "address": "C8HF+JMV Jama Masjid msjd, Millat Colony, Ranchi, Kanke, Jharkhand 834006",
        "detailed_address": {
            "ward": "Millat Colony",
            "street": "C8HF+JMV",
            "city": "Ranchi, Kanke",
            "postal_code": "834006",
            "state": "Jharkhand",
            "country_code": "IN"
        },
        "images": [
            {
                "about": "All",
                "link": "https://lh5.googleusercontent.com/p/AF1QipNAZ8DFA7Ky7HUm7EAFYmwvxS1htO6JNtoCyA0e=w224-h298-k-no"
            },
            {
                "about": "Dome",
                "link": "https://lh5.googleusercontent.com/p/AF1QipNgnvrtGOgDxW-RWqD8iitW-zjd5djf1jGzk4cT=w224-h298-k-no"
            },
            {
                "about": "Street View & 360deg",
                "link": "https://streetviewpixels-pa.googleapis.com/v1/thumbnail?panoid=N1FWHAxe68M83WxnkarrfA&cb_client=maps_sv.tactile.gps&w=224&h=298&yaw=246.16315&pitch=0&thumbfov=100"
            }
        ],
        "link": "https://www.google.com/maps/place/Jama+Masjid+%D9%85%D8%B3%D8%AC%D8%AF%E2%80%AD/data=!4m7!3m6!1s0x39f4e6c2d39060cd:0xb102b8fafd3d8ae3!8m2!3d23.4291102!4d85.3241838!16s%2Fg%2F1pyql4_y0!19sChIJzWCQ08Lm9DkR44o9_fq4ArE?authuser=0&hl=en&rclk=1",
        "coordinates": {
            "latitude": 23.4291102,
            "longitude": 85.3241838
        }
    },
    {
        "name": "Masjid-e-Masood msjd",
        "main_category": "Mosque",
        "address": "C8HH+F48 Masjid-e-Masood msjd, Millat Colony, Kanke, Jharkhand 834006",
        "detailed_address": {
            "ward": "Millat Colony",
            "street": "C8HH+F48, Millat Colony",
            "city": "Kanke",
            "postal_code": "834006",
            "state": "Jharkhand",
            "country_code": "IN"
        },
        "images": [
            {
                "about": "All",
                "link": "https://lh5.googleusercontent.com/p/AF1QipM03eMJ-VZ-978l6YwgvLSWw40mqdeg1-BfXJvT=w574-h298-k-no"
            }
        ],
        "link": "https://www.google.com/maps/place/Masjid-e-Masood+%D9%85%D8%B3%D8%AC%D8%AF%E2%80%AD/data=!4m7!3m6!1s0x39f4e6c3b5633f49:0xa078d2854267584b!8m2!3d23.4286555!4d85.3278222!16s%2Fg%2F11dxlg46f2!19sChIJST9jtcPm9DkRS1hnQoXSeKA?authuser=0&hl=en&rclk=1",
        "coordinates": {
            "latitude": 23.428655499999998,
            "longitude": 85.3278222
        }
    },
    {
        "name": "Markazi Masjid msjd",
        "main_category": "Mosque",
        "address": "C8JJ+446 Markazi Masjid msjd, Millat Colony, Ranchi, Kanke, Jharkhand 834006",
        "detailed_address": {
            "ward": "Millat Colony",
            "street": "C8JJ+446",
            "city": "Ranchi, Kanke",
            "postal_code": "834006",
            "state": "Jharkhand",
            "country_code": "IN"
        },
        "images": [
            {
                "about": "All",
                "link": "https://lh5.googleusercontent.com/p/AF1QipN6rTVm7UNiPZ1hmEu2TwrU509SWJqr92JkntXL=w629-h298-k-no"
            },
            {
                "about": "Street View & 360deg",
                "link": "https://streetviewpixels-pa.googleapis.com/v1/thumbnail?panoid=zbTAfEnd0CuAk-o7JsJVeQ&cb_client=maps_sv.tactile.gps&w=224&h=298&yaw=241.63184&pitch=0&thumbfov=100"
            }
        ],
        "link": "https://www.google.com/maps/place/Markazi+Masjid+%D9%85%D8%B3%D8%AC%D8%AF%E2%80%AD/data=!4m7!3m6!1s0x39f4e6c194d895ab:0x1a387be0e7f88f9f!8m2!3d23.4302845!4d85.3302553!16s%2Fg%2F12hpfnrn8!19sChIJq5XYlMHm9DkRn4_45-B7OBo?authuser=0&hl=en&rclk=1",
        "coordinates": {
            "latitude": 23.4302845,
            "longitude": 85.33025529999999
        }
    },
    {
        "name": "Masjid Eh Quasmi,Chandway",
        "main_category": "Mosque",
        "address": "C867+8CG Masjid Eh Quasmi,Chandway, Kanke Rd, Chandway, Jhirga Toli, Gandhi Nagar, Ranchi, Jharkhand 834008",
        "detailed_address": {
            "ward": "Chandway, Jhirga Toli, Gandhi Nagar",
            "street": "C867+8CG, Kanke Rd",
            "city": "Ranchi",
            "postal_code": "834008",
            "state": "Jharkhand",
            "country_code": "IN"
        },
        "images": [
            {
                "about": "All",
                "link": "https://lh5.googleusercontent.com/p/AF1QipPHyLMjLhVBgpU2gxyAvsubYUMiv0_PldwpiBQo=w224-h298-k-no"
            },
            {
                "about": "Street View & 360deg",
                "link": "https://streetviewpixels-pa.googleapis.com/v1/thumbnail?panoid=2qPYY421n4AlvI1srPkupg&cb_client=maps_sv.tactile.gps&w=224&h=298&yaw=220.7111&pitch=0&thumbfov=100"
            }
        ],
        "link": "https://www.google.com/maps/place/Masjid+Eh+Quasmi,Chandway/data=!4m7!3m6!1s0x39f4e72a7f5d9863:0x63b76e4ac279656d!8m2!3d23.4108004!4d85.313586!16s%2Fg%2F11g6mxn674!19sChIJY5hdfyrn9DkRbWV5wkput2M?authuser=0&hl=en&rclk=1",
        "coordinates": {
            "latitude": 23.4108004,
            "longitude": 85.313586
        }
    },
    {
        "name": "Jama Masjid, Patra Toli msjd",
        "main_category": "Mosque",
        "address": "Jama Masjid, Patra Toli msjd, Patra toli rvc, Patratoli, Kanke, Jharkhand 834006",
        "detailed_address": {
            "ward": "Patratoli",
            "street": "Patra toli rvc",
            "city": "Kanke",
            "postal_code": "834006",
            "state": "Jharkhand",
            "country_code": "IN"
        },
        "images": [
            {
                "about": "All",
                "link": "https://lh5.googleusercontent.com/p/AF1QipO8xn6h6x6rnpP4eqp7FDCgeULaoYUzUANv6T9F=w298-h298-k-no"
            },
            {
                "about": "Street View & 360deg",
                "link": "https://streetviewpixels-pa.googleapis.com/v1/thumbnail?panoid=ylwQ8Dy5_CqlCZAtlPXHLA&cb_client=maps_sv.tactile.gps&w=224&h=298&yaw=227.62141&pitch=0&thumbfov=100"
            }
        ],
        "link": "https://www.google.com/maps/place/Jama+Masjid,+Patra+Toli+%D9%85%D8%B3%D8%AC%D8%AF%E2%80%AD/data=!4m7!3m6!1s0x39f4da4ce999d02b:0x6080c49f6c5b55ef!8m2!3d23.4380305!4d85.3320481!16s%2Fg%2F1tfqzv69!19sChIJK9CZ6Uza9DkR71VbbJ_EgGA?authuser=0&hl=en&rclk=1",
        "coordinates": {
            "latitude": 23.4380305,
            "longitude": 85.3320481
        }
    },
    {
        "name": "Choti Masjid....and Madarsa Aliya Arabia",
        "main_category": "Mosque",
        "address": "C8QJ+Q6Q Choti Masjid....and Madarsa Aliya Arabia, Patratoli, Ranchi, Kanke, Jharkhand 834006",
        "detailed_address": {
            "ward": "Patratoli",
            "street": "C8QJ+Q6Q",
            "city": "Ranchi, Kanke",
            "postal_code": "834006",
            "state": "Jharkhand",
            "country_code": "IN"
        },
        "images": [
            {
                "about": "All",
                "link": "https://streetviewpixels-pa.googleapis.com/v1/thumbnail?panoid=uXjjRnZxEj94dIXgjpTPRQ&cb_client=maps_sv.tactile.gps&w=224&h=298&yaw=62.704254&pitch=0&thumbfov=100"
            },
            {
                "about": "Street View & 360deg",
                "link": "https://streetviewpixels-pa.googleapis.com/v1/thumbnail?panoid=uXjjRnZxEj94dIXgjpTPRQ&cb_client=maps_sv.tactile.gps&w=224&h=298&yaw=62.704254&pitch=0&thumbfov=100"
            }
        ],
        "link": "https://www.google.com/maps/place/Choti+Masjid....and+Madarsa+Aliya+Arabia/data=!4m7!3m6!1s0x39f4e6ec41066e9f:0xd419fa817d66591c!8m2!3d23.4394739!4d85.3306169!16s%2Fg%2F11fz9zx3hv!19sChIJn24GQezm9DkRHFlmfYH6GdQ?authuser=0&hl=en&rclk=1",
        "coordinates": {
            "latitude": 23.4394739,
            "longitude": 85.3306169
        }
    },
    {
        "name": "Juma Masjid",
        "main_category": "Mosque",
        "address": "Juma Masjid, 1, Kanke Rd, Bazar Tand, Ranchi, Kanke, Jharkhand 834006",
        "detailed_address": {
            "ward": "Bazar Tand",
            "street": "1, Kanke Rd",
            "city": "Ranchi, Kanke",
            "postal_code": "834006",
            "state": "Jharkhand",
            "country_code": "IN"
        },
        "images": [
            {
                "about": "All",
                "link": "https://lh5.googleusercontent.com/p/AF1QipPrAwnXbQ8cacI9W48s4q_ZkMpEv8RF_KYR3U3H=w397-h298-k-no"
            },
            {
                "about": "Street View & 360deg",
                "link": "https://streetviewpixels-pa.googleapis.com/v1/thumbnail?panoid=sMjjaNX601747QKnt1jjuA&cb_client=maps_sv.tactile.gps&w=224&h=298&yaw=147.25871&pitch=0&thumbfov=100"
            },
            {
                "about": "Videos",
                "link": "https://lh5.googleusercontent.com/p/AF1QipMMqwi1mAhBQseK12RAg65_Uw8_UZym8P21WNT0=w224-h398-k-no"
            }
        ],
        "link": "https://www.google.com/maps/place/Juma+Masjid/data=!4m7!3m6!1s0x39f4e6de45273bf7:0xae2c724b10c6424!8m2!3d23.4292751!4d85.3170079!16s%2Fg%2F11f3wcs8cz!19sChIJ9zsnRd7m9DkRJGQMsSTH4go?authuser=0&hl=en&rclk=1",
        "coordinates": {
            "latitude": 23.429275099999998,
            "longitude": 85.3170079
        }
    },
    {
        "name": "Masjid Minar",
        "main_category": "Mosque",
        "address": "C7VQ+22W Masjid Minar, Minar Chowk, Kanke, Sukurhutu, Ranchi, Jharkhand 834006",
        "detailed_address": {
            "ward": "Kanke, Sukurhutu",
            "street": "C7VQ+22W, Minar Chowk",
            "city": "Ranchi, Sukurhutu",
            "postal_code": "834006",
            "state": "Jharkhand",
            "country_code": "IN"
        },
        "images": [
            {
                "about": "All",
                "link": "https://lh3.googleusercontent.com/gps-proxy/AMy85WILrLmLb6PCX9IlPdU1OKak10Rh_APUpt21OtOwdEspDCzUU3fUQD-ZpUPwin1bso5pypGhA70DCjmN_kF1ziKEw-NOc6nzEt453uzOSMsAIttNQy4ByTmRiMdO4JTM7xGL9wsMX7gi0Z5FHFuaMD7TwIx2vgmFkLD2rjpswN-mI-bs7EaaOWcyVWAeZtg4DVqtwmI=w397-h298-k-no"
            },
            {
                "about": "Dome",
                "link": "https://lh5.googleusercontent.com/p/AF1QipNo5_KgTSqbLx-VJ6q8dJGfUEVy3ejvIKjELY5u=w224-h398-k-no"
            },
            {
                "about": "Street View & 360deg",
                "link": "https://streetviewpixels-pa.googleapis.com/v1/thumbnail?panoid=YcDeLk3O_f1ExKnE6s1N9Q&cb_client=maps_sv.tactile.gps&w=224&h=298&yaw=251.0898&pitch=0&thumbfov=100"
            }
        ],
        "link": "https://www.google.com/maps/place/Masjid+Minar/data=!4m7!3m6!1s0x39f4e771fef475ef:0x22557eeafc24fd7b!8m2!3d23.4426211!4d85.2875888!16s%2Fg%2F11bt_j96n0!19sChIJ73X0_nHn9DkRe_0k_Op-VSI?authuser=0&hl=en&rclk=1",
        "coordinates": {
            "latitude": 23.4426211,
            "longitude": 85.2875888
        }
    },
    {
        "name": "MASJID-E-BIBI MANIRAN",
        "main_category": "Mosque",
        "address": "C888+8GJ MASJID-E-BIBI MANIRAN, Khan Mahalla, Kanke Rd, Ranchi, Jharkhand 834008",
        "detailed_address": {
            "ward": "Jhirga Toli, Gandhi Nagar",
            "street": "C888+8GJ, Khan Mahalla, Kanke Rd",
            "city": "Ranchi",
            "postal_code": "834008",
            "state": "Jharkhand",
            "country_code": "IN"
        },
        "images": [
            {
                "about": "All",
                "link": "https://streetviewpixels-pa.googleapis.com/v1/thumbnail?panoid=WJFWxSmiGttMzpSGH55ctQ&cb_client=maps_sv.tactile.gps&w=224&h=298&yaw=268.30408&pitch=0&thumbfov=100"
            },
            {
                "about": "Street View & 360deg",
                "link": "https://streetviewpixels-pa.googleapis.com/v1/thumbnail?panoid=WJFWxSmiGttMzpSGH55ctQ&cb_client=maps_sv.tactile.gps&w=224&h=298&yaw=268.30408&pitch=0&thumbfov=100"
            }
        ],
        "link": "https://www.google.com/maps/place/MASJID-E-BIBI+MANIRAN/data=!4m7!3m6!1s0x39f4e6d6f86daabd:0xde2f8061b4560fd0!8m2!3d23.4158402!4d85.3162788!16s%2Fg%2F1ptwzl90q!19sChIJvapt-Nbm9DkR0A9WtGGAL94?authuser=0&hl=en&rclk=1",
        "coordinates": {
            "latitude": 23.415840199999998,
            "longitude": 85.31627879999999
        }
    },
    {
        "name": "Masjid E Ali Roshan Qamar msjd",
        "main_category": "Mosque",
        "address": "C8GJ+Q48 Masjid E Ali Roshan Qamar msjd, Millat Colony, Kanke, Jharkhand 834006",
        "detailed_address": {
            "ward": "Millat Colony",
            "street": "C8GJ+Q48",
            "city": "Kanke",
            "postal_code": "834006",
            "state": "Jharkhand",
            "country_code": "IN"
        },
        "images": [
            {
                "about": "All",
                "link": "https://lh5.googleusercontent.com/p/AF1QipMs1kJRcOFRsYL8DAn5GpGHiQab7P4O6Ip0o4xs=w645-h298-k-no"
            },
            {
                "about": "Dome",
                "link": "https://lh5.googleusercontent.com/p/AF1QipNpaEDJW228HfwoOZcX_4J62PMdi4a8VkX8v31m=w364-h298-k-no"
            },
            {
                "about": "Street View & 360deg",
                "link": "https://streetviewpixels-pa.googleapis.com/v1/thumbnail?panoid=JCMlhyLCeqNQrRkXYkXuQQ&cb_client=maps_sv.tactile.gps&w=224&h=298&yaw=279.36786&pitch=0&thumbfov=100"
            }
        ],
        "link": "https://www.google.com/maps/place/Masjid+E+Ali+Roshan+Qamar+%D9%85%D8%B3%D8%AC%D8%AF%E2%80%AD/data=!4m7!3m6!1s0x39f4e7f5d7a00f6f:0xa68effbeca129d3c!8m2!3d23.4269136!4d85.3303211!16s%2Fg%2F11gn1xcf6m!19sChIJbw-g1_Xn9DkRPJ0Syr7_jqY?authuser=0&hl=en&rclk=1",
        "coordinates": {
            "latitude": 23.4269136,
            "longitude": 85.33032109999999
        }
    },
    {
        "name": "Masjid E Imam",
        "main_category": "Mosque",
        "address": "C8QH+G24 Masjid E Imam, Patratoli, Ranchi, Kanke, Jharkhand 834006",
        "detailed_address": {
            "ward": "Patratoli",
            "street": "C8QH+G24",
            "city": "Ranchi, Kanke",
            "postal_code": "834006",
            "state": "Jharkhand",
            "country_code": "IN"
        },
        "images": [
            {
                "about": "All",
                "link": "https://lh5.googleusercontent.com/p/AF1QipNtAnf-_Yb1Q-v6Lw6t8Qqv05ZMWQatb6EGQ9Mu=w629-h298-k-no"
            }
        ],
        "link": "https://www.google.com/maps/place/Masjid+E+Imam/data=!4m7!3m6!1s0x39f4e6eec6ba80f5:0xa9cce417300c000a!8m2!3d23.4387578!4d85.3275641!16s%2Fg%2F11fy4zhlqs!19sChIJ9YC6xu7m9DkRCgAMMBfkzKk?authuser=0&hl=en&rclk=1",
        "coordinates": {
            "latitude": 23.438757799999998,
            "longitude": 85.32756409999999
        }
    },
    {
        "name": "Masjid Haji Chowk Kanke msjd",
        "main_category": "Mosque",
        "address": "C8V7+M68 Masjid Haji Chowk Kanke msjd, Kanke Patratu Rd, Ranchi, Jharkhand 834006",
        "detailed_address": {
            "ward": null,
            "street": "C8V7+M68, Kanke Patratu Rd",
            "city": "Ranchi",
            "postal_code": "834006",
            "state": "Jharkhand",
            "country_code": "IN"
        },
        "images": [
            {
                "about": "All",
                "link": "https://lh5.googleusercontent.com/p/AF1QipNpempaJPaZThsZ68aAv-jagcfYQ0GrvtGhdtc8=w291-h298-k-no"
            },
            {
                "about": "Street View & 360deg",
                "link": "https://streetviewpixels-pa.googleapis.com/v1/thumbnail?panoid=M2fBwwW4P3H86-amJ8zmlA&cb_client=maps_sv.tactile.gps&w=224&h=298&yaw=228.92299&pitch=0&thumbfov=100"
            },
            {
                "about": "Videos",
                "link": "https://lh5.googleusercontent.com/p/AF1QipPDjZAiFXPmJFd5iVRMeefxlEWBcYN0jZlSNUbH=w224-h398-k-no"
            }
        ],
        "link": "https://www.google.com/maps/place/Masjid+Haji+Chowk+Kanke+%D9%85%D8%B3%D8%AC%D8%AF%E2%80%AD/data=!4m7!3m6!1s0x39f4e7dacb1e2a21:0xf88d4bbc24d07411!8m2!3d23.4441613!4d85.313077!16s%2Fg%2F11gnrlllgp!19sChIJISoey9rn9DkREXTQJLxLjfg?authuser=0&hl=en&rclk=1",
        "coordinates": {
            "latitude": 23.444161299999998,
            "longitude": 85.31307699999999
        }
    },
    {
        "name": "Masjid e Aasma msjd ` asm",
        "main_category": "Mosque",
        "address": "C8RG+56C Masjid e Aasma msjd ` asm, Kanke, Jharkhand 834006",
        "detailed_address": {
            "ward": null,
            "street": "C8RG+56C",
            "city": "Kanke",
            "postal_code": "834006",
            "state": "Jharkhand",
            "country_code": "IN"
        },
        "images": [
            {
                "about": "All",
                "link": "https://lh5.googleusercontent.com/p/AF1QipOT7FqHRimVakmfM9o9iheEqtM4DypTcBzoIeQo=w224-h298-k-no"
            }
        ],
        "link": "https://www.google.com/maps/place/Masjid+e+Aasma+%D9%85%D8%B3%D8%AC%D8%AF+%D8%B9+%D8%A2%D8%B3%D9%85%D8%A7%E2%80%AD/data=!4m7!3m6!1s0x39f4e7130384b857:0x54752a76ae6e6814!8m2!3d23.4411206!4d85.3264573!16s%2Fg%2F11q429gc3x!19sChIJV7iEAxPn9DkRFGhurnYqdVQ?authuser=0&hl=en&rclk=1",
        "coordinates": {
            "latitude": 23.441120599999998,
            "longitude": 85.3264573
        }
    },
    {
        "name": "Warderline Masjid",
        "main_category": "Mosque",
        "address": "C8Q6+8XR Warderline Masjid, Kanke, Jharkhand 834006",
        "detailed_address": {
            "ward": null,
            "street": "C8Q6+8XR",
            "city": "Kanke",
            "postal_code": "834006",
            "state": "Jharkhand",
            "country_code": "IN"
        },
        "images": [],
        "link": "https://www.google.com/maps/place/Warderline+Masjid/data=!4m7!3m6!1s0x39f4e7dab56f524d:0x4918c71ff00c28e9!8m2!3d23.4383514!4d85.3123959!16s%2Fg%2F11kk64t_nj!19sChIJTVJvtdrn9DkR6SgM8B_HGEk?authuser=0&hl=en&rclk=1",
        "coordinates": {
            "latitude": 23.4383514,
            "longitude": 85.3123959
        }
    },
    {
        "name": "Masjid- E-Aayesha husir, kanke Road",
        "main_category": "Mosque",
        "address": "F85G+WFJ Masjid- E-Aayesha husir, kanke Road, Noor mohalla husir, kanke road, Jharkhand 834006",
        "detailed_address": {
            "ward": null,
            "street": "F85G+WFJ, Noor mohalla husir, kanke road",
            "city": "Hosir",
            "postal_code": "834006",
            "state": "Jharkhand",
            "country_code": "IN"
        },
        "images": [
            {
                "about": "All",
                "link": "https://lh5.googleusercontent.com/p/AF1QipOy6odMVRU7TEnk8gkBQjbeiN1MW-htImogJg8Q=w397-h298-k-no"
            },
            {
                "about": "Videos",
                "link": "https://lh5.googleusercontent.com/p/AF1QipNm6kvmb-aySwDHIZxS1vVLOBvi3vn3e3fautPj=w224-h398-k-no"
            }
        ],
        "link": "https://www.google.com/maps/place/Masjid-+E-Aayesha+husir,+kanke+Road/data=!4m7!3m6!1s0x39f4e71ea692b81d:0x8ee8317ef263573d!8m2!3d23.459826!4d85.326141!16s%2Fg%2F11q977ndsh!19sChIJHbiSph7n9DkRPVdj8n4x6I4?authuser=0&hl=en&rclk=1",
        "coordinates": {
            "latitude": 23.459826,
            "longitude": 85.32614099999999
        }
    },
    {
        "name": "Namazgah kanke new market",
        "main_category": "Mosque",
        "address": "C8P8+34G Namazgah kanke new market, Kanke, Jharkhand 834006",
        "detailed_address": {
            "ward": null,
            "street": "C8P8+34G",
            "city": "Kanke",
            "postal_code": "834006",
            "state": "Jharkhand",
            "country_code": "IN"
        },
        "images": [
            {
                "about": "All",
                "link": "https://lh5.googleusercontent.com/p/AF1QipPPgsNYgXzhmCHIcbJiXSv9Mp6VtcNShSd0Fsdd=w397-h298-k-no"
            },
            {
                "about": "Street View & 360deg",
                "link": "https://streetviewpixels-pa.googleapis.com/v1/thumbnail?panoid=QOjYxgUZqTjx2C96ciuGVw&cb_client=maps_sv.tactile.gps&w=224&h=298&yaw=19.735725&pitch=0&thumbfov=100"
            }
        ],
        "link": "https://www.google.com/maps/place/Namazgah+kanke+new+market/data=!4m7!3m6!1s0x39f4e71cbc1f4e5f:0x6f8790722505e01!8m2!3d23.4351946!4d85.3153231!16s%2Fg%2F11gv0wd3y5!19sChIJX04fvBzn9DkRAV5QIgd5-AY?authuser=0&hl=en&rclk=1",
        "coordinates": {
            "latitude": 23.4351946,
            "longitude": 85.3153231
        }
    }
]