[
    {
        "name": "Choti Masjid Azad Chowk",
        "main_category": "Mosque",
        "address": "F4Q3+CX8 Choti Masjid Azad Chowk, Sihora, Madhya Pradesh 483225",
        "detailed_address": {
            "ward": null,
            "street": "F4Q3+CX8",
            "city": "Sihora",
            "postal_code": "483225",
            "state": "Madhya Pradesh",
            "country_code": "IN"
        },
        "images": [
            {
                "about": "All",
                "link": "https://lh5.googleusercontent.com/p/AF1QipNCtlhttS7fX874h_snTYUnr0IvcpirNAmDfk1J=w224-h497-k-no"
            },
            {
                "about": "Street View & 360deg",
                "link": "https://streetviewpixels-pa.googleapis.com/v1/thumbnail?panoid=2H7XynRIabb_7CXTA1ESbA&cb_client=maps_sv.tactile.gps&w=224&h=298&yaw=252.10341&pitch=0&thumbfov=100"
            },
            {
                "about": "Videos",
                "link": "https://lh5.googleusercontent.com/p/AF1QipO8j6cHLs1t2IaiDyK1m8CgBRh8_RnDiSJ_SThB=w224-h398-k-no"
            }
        ],
        "link": "https://www.google.com/maps/place/Choti+Masjid+Azad+Chowk/data=!4m7!3m6!1s0x3981757be91952d7:0xbe81f19b3cc33411!8m2!3d23.4885398!4d80.1049675!16s%2Fg%2F11c2nk7lb2!19sChIJ11IZ6Xt1gTkRETTDPJvxgb4?authuser=0&hl=en&rclk=1",
        "coordinates": {
            "latitude": 23.488539799999998,
            "longitude": 80.1049675
        }
    },
    {
        "name": "Jama Masjid",
        "main_category": "Mosque",
        "address": "RX49+FR4 Jama Masjid, Khabariyan, Sihora Baz, Uttar Pradesh 244926",
        "detailed_address": {
            "ward": "Khabariyan",
            "street": "RX49+FR4",
            "city": "Sihora Baz",
            "postal_code": "244926",
            "state": "Uttar Pradesh",
            "country_code": "IN"
        },
        "images": [
            {
                "about": "All",
                "link": "https://lh5.googleusercontent.com/p/AF1QipOKVFvRwFSlLBkxLwjDx1Dxz64dcAkGtsrgExDj=w298-h298-k-no"
            },
            {
                "about": "Videos",
                "link": "https://lh5.googleusercontent.com/p/AF1QipOynRAqDu0Ak_ogAVzvZ1wYELwf4BWntgpm4JqJ=w298-h298-k-no"
            }
        ],
        "link": "https://www.google.com/maps/place/Jama+Masjid/data=!4m7!3m6!1s0x390af25e944eb9c3:0x4c6fcf9e2d8d5cd5!8m2!3d28.806132!4d78.96957!16s%2Fg%2F11fzf99_9b!19sChIJw7lOlF7yCjkR1VyNLZ7Pb0w?authuser=0&hl=en&rclk=1",
        "coordinates": {
            "latitude": 28.806131999999998,
            "longitude": 78.96956999999999
        }
    },
    {
        "name": "Jama Masjid Sihora",
        "main_category": "Mosque",
        "address": "F4P3+CMH Jama Masjid Sihora, Sihora, Madhya Pradesh 483225",
        "detailed_address": {
            "ward": null,
            "street": "F4P3+CMH",
            "city": "Sihora",
            "postal_code": "483225",
            "state": "Madhya Pradesh",
            "country_code": "IN"
        },
        "images": [
            {
                "about": "All",
                "link": "https://lh5.googleusercontent.com/p/AF1QipNiWV0w1PKyscPcWhKRcZSg3duckBUZLN06ST_d=w662-h298-k-no"
            },
            {
                "about": "Dome",
                "link": "https://lh5.googleusercontent.com/p/AF1QipNfSjzP0mIbUJV-yTEzVuhzuJ_aHLjr5Bwl9hob=w662-h298-k-no"
            },
            {
                "about": "Videos",
                "link": "https://lh5.googleusercontent.com/p/AF1QipNuzXXcGShSiL7lcZoaaJxcuTrbbelbqj-Z9qrd=w224-h398-k-no"
            },
            {
                "about": "Street View & 360deg",
                "link": "https://streetviewpixels-pa.googleapis.com/v1/thumbnail?panoid=XTV5OlQO-2M8lOa0-Gjorg&cb_client=maps_sv.tactile.gps&w=224&h=298&yaw=50.56909&pitch=0&thumbfov=100"
            }
        ],
        "link": "https://www.google.com/maps/place/Jama+Masjid+Sihora/data=!4m7!3m6!1s0x3981757b7bd8abb3:0x1d55aa060e987cf9!8m2!3d23.4860599!4d80.1042312!16s%2Fg%2F11c31q9k53!19sChIJs6vYe3t1gTkR-XyYDgaqVR0?authuser=0&hl=en&rclk=1",
        "coordinates": {
            "latitude": 23.486059899999997,
            "longitude": 80.1042312
        }
    },
    {
        "name": "Sehora Masjid",
        "main_category": "Mosque",
        "address": "336H+52W Sehora Masjid, Mandi Bamora, Sihora, Madhya Pradesh 464224",
        "detailed_address": {
            "ward": null,
            "street": "336H+52W",
            "city": "Mandi Bamora, Sihora",
            "postal_code": "464224",
            "state": "Madhya Pradesh",
            "country_code": "IN"
        },
        "images": [
            {
                "about": "All",
                "link": "https://lh5.googleusercontent.com/p/AF1QipPqC-giyZOUX2WLXA471apRzLT8RkETd5W7NDrC=w397-h298-k-no"
            },
            {
                "about": "Dome",
                "link": "https://lh5.googleusercontent.com/p/AF1QipMnIOQxP1L2b_C1kaFLkp8auvuv2MAT8IHiabpo=w397-h298-k-no"
            },
            {
                "about": "Street View & 360deg",
                "link": "https://streetviewpixels-pa.googleapis.com/v1/thumbnail?panoid=5xlS-tbUhmIkbX2gpS5Efw&cb_client=maps_sv.tactile.gps&w=224&h=298&yaw=92.19592&pitch=0&thumbfov=100"
            }
        ],
        "link": "https://www.google.com/maps/place/Sehora+Masjid/data=!4m7!3m6!1s0x39796788bc0a727b:0xae93fe672f4d5b81!8m2!3d24.0604788!4d78.0775932!16s%2Fg%2F11cs4_8ghw!19sChIJe3IKvIhneTkRgVtNL2f-k64?authuser=0&hl=en&rclk=1",
        "coordinates": {
            "latitude": 24.0604788,
            "longitude": 78.0775932
        }
    },
    {
        "name": "Noori Masjid",
        "main_category": "Mosque",
        "address": "F4P4+6M8 Noori Masjid, Sihora, Madhya Pradesh 483225",
        "detailed_address": {
            "ward": null,
            "street": "F4P4+6M8",
            "city": "Sihora",
            "postal_code": "483225",
            "state": "Madhya Pradesh",
            "country_code": "IN"
        },
        "images": [
            {
                "about": "All",
                "link": "https://lh5.googleusercontent.com/p/AF1QipOkzoprCnXfAyFzoaKY3Lo4ekzHwpW63s1YEqx0=w224-h298-k-no"
            },
            {
                "about": "Dome",
                "link": "https://lh5.googleusercontent.com/p/AF1QipNraLeknFyNaLyo_YHccNYOj8EmUy7h4DA6C2YR=w397-h298-k-no"
            },
            {
                "about": "Street View & 360deg",
                "link": "https://streetviewpixels-pa.googleapis.com/v1/thumbnail?panoid=8iHsnFKCRgUQvPr-j86UNQ&cb_client=maps_sv.tactile.gps&w=224&h=298&yaw=337.67072&pitch=0&thumbfov=100"
            }
        ],
        "link": "https://www.google.com/maps/place/Noori+Masjid/data=!4m7!3m6!1s0x398175d4899699b1:0xb07aa586882462b4!8m2!3d23.48553!4d80.1067075!16s%2Fg%2F11gjh925j0!19sChIJsZmWidR1gTkRtGIkiIalerA?authuser=0&hl=en&rclk=1",
        "coordinates": {
            "latitude": 23.48553,
            "longitude": 80.1067075
        }
    },
    {
        "name": "Jama Masjid",
        "main_category": "Housing complex",
        "address": "RX26+5Q9 Jama Masjid, Sihora Baz, Uttar Pradesh 244104",
        "detailed_address": {
            "ward": null,
            "street": "RX26+5Q9",
            "city": "Sihora Baz",
            "postal_code": "244104",
            "state": "Uttar Pradesh",
            "country_code": "IN"
        },
        "images": [
            {
                "about": "All",
                "link": "https://lh5.googleusercontent.com/p/AF1QipPujrplwFvtaB8CO3eqZ1nmIi7qM4jVITHyMU48=w224-h398-k-no"
            },
            {
                "about": "Exterior",
                "link": "https://lh5.googleusercontent.com/p/AF1QipPujrplwFvtaB8CO3eqZ1nmIi7qM4jVITHyMU48=w224-h398-k-no"
            },
            {
                "about": "From visitors",
                "link": "https://lh5.googleusercontent.com/p/AF1QipOlQ6oPYkm28viIaaatPU9QCsdIL4Kmkx4dWOXu=w224-h298-k-no"
            }
        ],
        "link": "https://www.google.com/maps/place/Jama+Masjid/data=!4m7!3m6!1s0x390af268119388f1:0xbb2e2f22204473df!8m2!3d28.8004244!4d78.9619719!16s%2Fg%2F11gbzb9dzl!19sChIJ8YiTEWjyCjkR33NEICIvLrs?authuser=0&hl=en&rclk=1",
        "coordinates": {
            "latitude": 28.800424399999997,
            "longitude": 78.9619719
        }
    },
    {
        "name": "Jama Masjid",
        "main_category": "Mosque",
        "address": "RX4C+XHJ Jama Masjid, Khabariyan, Sihora Baz, Barwara Khas Mustahkam, Uttar Pradesh 244104",
        "detailed_address": {
            "ward": "Khabariyan",
            "street": "RX4C+XHJ",
            "city": "Sihora Baz, Barwara Khas Mustahkam",
            "postal_code": "244104",
            "state": "Uttar Pradesh",
            "country_code": "IN"
        },
        "images": [
            {
                "about": "All",
                "link": "https://lh5.googleusercontent.com/p/AF1QipNkObSDPJjblChbd9KKZQflydGM3pC5YymKmvw=w224-h298-k-no"
            }
        ],
        "link": "https://www.google.com/maps/place/Jama+Masjid/data=!4m7!3m6!1s0x390af25f29a2ed7b:0x12086ef0632747ce!8m2!3d28.8074688!4d78.9713858!16s%2Fg%2F11fzfc2jn8!19sChIJe-2iKV_yCjkRzkcnY_BuCBI?authuser=0&hl=en&rclk=1",
        "coordinates": {
            "latitude": 28.8074688,
            "longitude": 78.9713858
        }
    },
    {
        "name": "Jama Masjid",
        "main_category": "Mosque",
        "address": "RX7F+FGQ Jama Masjid, Khabariyan, Sihora Baz, Khabariya Bhur Mustahkam, Uttar Pradesh 244902",
        "detailed_address": {
            "ward": "Khabariyan",
            "street": "RX7F+FGQ",
            "city": "Sihora Baz, Khabariya Bhur Mustahkam",
            "postal_code": "244902",
            "state": "Uttar Pradesh",
            "country_code": "IN"
        },
        "images": [
            {
                "about": "All",
                "link": "https://lh5.googleusercontent.com/p/AF1QipNSwugH5S5jS2qoNc0mPzfXWSaY4udfOMi5bdJD=w224-h304-k-no"
            }
        ],
        "link": "https://www.google.com/maps/place/Jama+Masjid/data=!4m7!3m6!1s0x390af3a1ecd0861b:0x3b3385ceff3f9bd3!8m2!3d28.8137129!4d78.9738621!16s%2Fg%2F11rmty58l3!19sChIJG4bQ7KHzCjkR05s__86FMzs?authuser=0&hl=en&rclk=1",
        "coordinates": {
            "latitude": 28.8137129,
            "longitude": 78.97386209999999
        }
    },
    {
        "name": "Masjid Sharif",
        "main_category": "Mosque",
        "address": "RX5C+458 Masjid Sharif, Khabariyan, Sihora Baz, Uttar Pradesh 244104",
        "detailed_address": {
            "ward": "Khabariyan",
            "street": "RX5C+458",
            "city": "Sihora Baz",
            "postal_code": "244104",
            "state": "Uttar Pradesh",
            "country_code": "IN"
        },
        "images": [],
        "link": "https://www.google.com/maps/place/Masjid+Sharif/data=!4m7!3m6!1s0x390af25ecd40ca33:0xaa899a9e5b47cd2b!8m2!3d28.8077793!4d78.9704561!16s%2Fg%2F11fzfbym0p!19sChIJM8pAzV7yCjkRK81HW56aiao?authuser=0&hl=en&rclk=1",
        "coordinates": {
            "latitude": 28.8077793,
            "longitude": 78.97045609999999
        }
    },
    {
        "name": "Masjid",
        "main_category": "Mosque",
        "address": "JP42+5R5 Masjid, Sihora, Madhya Pradesh 480886",
        "detailed_address": {
            "ward": null,
            "street": "JP42+5R5",
            "city": "Sihora",
            "postal_code": null,
            "state": "Madhya Pradesh",
            "country_code": "IN"
        },
        "images": [
            {
                "about": "All",
                "link": "https://lh5.googleusercontent.com/p/AF1QipM5e1B02Dhc8qBB-rt3JSjkE-wKzqIzI6evlYXs=w397-h298-k-no"
            },
            {
                "about": "Dome",
                "link": "https://lh5.googleusercontent.com/p/AF1QipM5e1B02Dhc8qBB-rt3JSjkE-wKzqIzI6evlYXs=w397-h298-k-no"
            }
        ],
        "link": "https://www.google.com/maps/place/Masjid/data=!4m7!3m6!1s0x398015e0e7b79e17:0xea93666fc1c273a5!8m2!3d22.6053973!4d79.7021!16s%2Fg%2F11qsv43pmw!19sChIJF5635-AVgDkRpXPCwW9mk-o?authuser=0&hl=en&rclk=1",
        "coordinates": {
            "latitude": 22.6053973,
            "longitude": 79.7021
        }
    },
    {
        "name": "Chisti masjid dr. Suhail house",
        "main_category": "Mosque",
        "address": "Chisti masjid dr. Suhail house, Khabriya Road, Barbara Khas Main Road, Khabariyan, Sihora Baz, Uttar Pradesh 244104",
        "detailed_address": {
            "ward": "Khabariyan",
            "street": "Khabriya Road, Barbara Khas Main Road",
            "city": "Sihora Baz",
            "postal_code": "244104",
            "state": "Uttar Pradesh",
            "country_code": "IN"
        },
        "images": [],
        "link": "https://www.google.com/maps/place/Chisti+masjid+dr.+Suhail+house/data=!4m7!3m6!1s0x390af3d8796246ff:0x13fdf0f4bd18feee!8m2!3d28.806029!4d78.9670968!16s%2Fg%2F11sf2c_2ls!19sChIJ_0ZiedjzCjkR7v4YvfTw_RM?authuser=0&hl=en&rclk=1",
        "coordinates": {
            "latitude": 28.806029,
            "longitude": 78.9670968
        }
    }
]