[
    {
        "name": "Jama masjid",
        "main_category": "Mosque",
        "address": "W7FJ+QV5 Jama masjid, Jama Masjid Road, Kushwah Mohalla, Rampura, Sangod, Rajasthan 325601",
        "detailed_address": {
            "ward": "Kushwah Mohalla",
            "street": "W7FJ+QV5, Jama Masjid Road",
            "city": "Rampura, Sangod",
            "postal_code": null,
            "state": "Rajasthan",
            "country_code": "IN"
        },
        "images": [
            {
                "about": "All",
                "link": "https://lh5.googleusercontent.com/p/AF1QipPNvnBK5mNCFnJFBm6nwro7erlrOlvxAKAh9uJs=w529-h298-k-no"
            },
            {
                "about": "Dome",
                "link": "https://lh5.googleusercontent.com/p/AF1QipNUEhEXgY5NWt0KdEN3ARa7LmxS1Fqc43nyMoZ5=w224-h398-k-no"
            },
            {
                "about": "Street View & 360deg",
                "link": "https://lh5.googleusercontent.com/p/AF1QipNQzZgKmTlxnaOv4TkWtz7St8znE9eBl_b9IpYE=w224-h298-k-no-pi-20-ya6.9999876-ro-0-fo100"
            }
        ],
        "link": "https://www.google.com/maps/place/Jama+masjid/data=!4m7!3m6!1s0x396551ce999a256f:0xac60f3734c3fda57!8m2!3d24.9243796!4d76.2822373!16s%2Fg%2F11t_rslxcd!19sChIJbyWamc5RZTkRV9o_THPzYKw?authuser=0&hl=en&rclk=1",
        "coordinates": {
            "latitude": 24.924379599999998,
            "longitude": 76.28223729999999
        }
    },
    {
        "name": "MADINA MASJID",
        "main_category": "Mosque",
        "address": "W7FF+VHW MADINA MASJID, Sangod, Dheeraheri, Rajasthan 325601",
        "detailed_address": {
            "ward": null,
            "street": "W7FF+VHW",
            "city": "Sangod, Dheeraheri",
            "postal_code": "325601",
            "state": "Rajasthan",
            "country_code": "IN"
        },
        "images": [
            {
                "about": "All",
                "link": "https://streetviewpixels-pa.googleapis.com/v1/thumbnail?panoid=jWIbHreOQvDYqgLHvCRxXw&cb_client=maps_sv.tactile.gps&w=224&h=298&yaw=337.54523&pitch=0&thumbfov=100"
            },
            {
                "about": "Street View & 360deg",
                "link": "https://streetviewpixels-pa.googleapis.com/v1/thumbnail?panoid=jWIbHreOQvDYqgLHvCRxXw&cb_client=maps_sv.tactile.gps&w=224&h=298&yaw=337.54523&pitch=0&thumbfov=100"
            }
        ],
        "link": "https://www.google.com/maps/place/MADINA+MASJID/data=!4m7!3m6!1s0x396550aa5551f525:0x7c305a8a5e4e8bf3!8m2!3d24.9247417!4d76.2739563!16s%2Fg%2F11c1q7s2v6!19sChIJJfVRVapQZTkR84tOXopaMHw?authuser=0&hl=en&rclk=1",
        "coordinates": {
            "latitude": 24.9247417,
            "longitude": 76.2739563
        }
    },
    {
        "name": "Kala Chabutra Masjid",
        "main_category": "Mosque",
        "address": "W7FP+JC4 Kala Chabutra Masjid, Jaal Para, Sangod, Rajasthan 325601",
        "detailed_address": {
            "ward": "Jaal Para",
            "street": "W7FP+JC4",
            "city": "Sangod",
            "postal_code": "325601",
            "state": "Rajasthan",
            "country_code": "IN"
        },
        "images": [
            {
                "about": "All",
                "link": "https://streetviewpixels-pa.googleapis.com/v1/thumbnail?panoid=zvd84u5ujgzxGd4pjxh9pQ&cb_client=maps_sv.tactile.gps&w=224&h=298&yaw=196.76634&pitch=0&thumbfov=100"
            },
            {
                "about": "Street View & 360deg",
                "link": "https://streetviewpixels-pa.googleapis.com/v1/thumbnail?panoid=zvd84u5ujgzxGd4pjxh9pQ&cb_client=maps_sv.tactile.gps&w=224&h=298&yaw=196.76634&pitch=0&thumbfov=100"
            }
        ],
        "link": "https://www.google.com/maps/place/Kala+Chabutra+Masjid/data=!4m7!3m6!1s0x396550b3cedd3baf:0x50b32cceef889129!8m2!3d24.9240117!4d76.2860648!16s%2Fg%2F11c5b1wvj0!19sChIJrzvdzrNQZTkRKZGI784ss1A?authuser=0&hl=en&rclk=1",
        "coordinates": {
            "latitude": 24.924011699999998,
            "longitude": 76.28606479999999
        }
    },
    {
        "name": "Patelia Pada Masjid",
        "main_category": "Mosque",
        "address": "W7GM+5W2 Patelia Pada Masjid, Sangod, Rajasthan 325601",
        "detailed_address": {
            "ward": null,
            "street": "W7GM+5W2",
            "city": "Sangod",
            "postal_code": "325601",
            "state": "Rajasthan",
            "country_code": "IN"
        },
        "images": [
            {
                "about": "All",
                "link": "https://lh5.googleusercontent.com/p/AF1QipP2B46NIXbhpDEQd0M9bh16M3J3rKlIlrjk7SO6=w298-h298-k-no"
            }
        ],
        "link": "https://www.google.com/maps/place/Patelia+Pada+Masjid/data=!4m7!3m6!1s0x396550b25a1876d1:0xc64f795d14a7a541!8m2!3d24.9253878!4d76.2847502!16s%2Fg%2F11c5b14f59!19sChIJ0XYYWrJQZTkRQaWnFF15T8Y?authuser=0&hl=en&rclk=1",
        "coordinates": {
            "latitude": 24.9253878,
            "longitude": 76.28475019999999
        }
    },
    {
        "name": "BABA MALANG SAAH",
        "main_category": "Mosque",
        "address": "W79P+7Q8 BABA MALANG SAAH, Sangod, Rajasthan 325601",
        "detailed_address": {
            "ward": null,
            "street": "W79P+7Q8",
            "city": "Sangod",
            "postal_code": "325601",
            "state": "Rajasthan",
            "country_code": "IN"
        },
        "images": [],
        "link": "https://www.google.com/maps/place/BABA+MALANG+SAAH/data=!4m7!3m6!1s0x39655143a7de7203:0x6cb9f54496f745dc!8m2!3d24.918157!4d76.2869399!16s%2Fg%2F11ft924lwr!19sChIJA3Lep0NRZTkR3EX3lkT1uWw?authuser=0&hl=en&rclk=1",
        "coordinates": {
            "latitude": 24.918156999999997,
            "longitude": 76.2869399
        }
    },
    {
        "name": "Kheldaro ki masjid",
        "main_category": "Mosque",
        "address": "W7FJ+QVH Kheldaro ki masjid, Kushwah Mohalla, Sangod, Rajasthan 325601",
        "detailed_address": {
            "ward": "Kushwah Mohalla",
            "street": "W7FJ+QVH",
            "city": "Sangod",
            "postal_code": "325601",
            "state": "Rajasthan",
            "country_code": "IN"
        },
        "images": [],
        "link": "https://www.google.com/maps/place/Kheldaro+ki+masjid/data=!4m7!3m6!1s0x3965512f36e26225:0x336e07b2933e600b!8m2!3d24.9244258!4d76.2822373!16s%2Fg%2F11stz91bz4!19sChIJJWLiNi9RZTkRC2A-k7IHbjM?authuser=0&hl=en&rclk=1",
        "coordinates": {
            "latitude": 24.924425799999998,
            "longitude": 76.28223729999999
        }
    },
    {
        "name": "tkiyaa msjid",
        "main_category": "Mosque",
        "address": "tkiyaa msjid, Kushwah Mohalla, Sangod, Rajasthan 325601",
        "detailed_address": {
            "ward": "Kushwah Mohalla",
            "street": null,
            "city": "Sangod",
            "postal_code": "325601",
            "state": "Rajasthan",
            "country_code": "IN"
        },
        "images": [],
        "link": "https://www.google.com/maps/place/%E0%A4%A4%E0%A4%95%E0%A4%BF%E0%A4%AF%E0%A4%BE+%E0%A4%AE%E0%A4%B8%E0%A5%8D%E0%A4%9C%E0%A4%BF%E0%A4%A6/data=!4m7!3m6!1s0x396551e506b6e2d3:0xbc13fe6b660d86b2!8m2!3d24.924223!4d76.2807118!16s%2Fg%2F11r9g_knzr!19sChIJ0-K2BuVRZTkRsoYNZmv-E7w?authuser=0&hl=en&rclk=1",
        "coordinates": {
            "latitude": 24.924222999999998,
            "longitude": 76.28071179999999
        }
    }
]