[
    {
        "name": "Sabri Masjid subhash nagar",
        "main_category": "Mosque",
        "address": "G224+HMV Sabri Masjid subhash nagar, MP SH 2, Banshidhar Colony, Shubash Nagar, Morena, Madhya Pradesh 476001",
        "detailed_address": {
            "ward": "Banshidhar Colony, Shubash Nagar",
            "street": "G224+HMV, MP SH 2",
            "city": "Morena",
            "postal_code": "476001",
            "state": "Madhya Pradesh",
            "country_code": "IN"
        },
        "images": [
            {
                "about": "All",
                "link": "https://streetviewpixels-pa.googleapis.com/v1/thumbnail?panoid=MwmGQBoPCU84_usZYfTwEA&cb_client=maps_sv.tactile.gps&w=224&h=298&yaw=319.93835&pitch=0&thumbfov=100"
            },
            {
                "about": "Street View & 360deg",
                "link": "https://streetviewpixels-pa.googleapis.com/v1/thumbnail?panoid=MwmGQBoPCU84_usZYfTwEA&cb_client=maps_sv.tactile.gps&w=224&h=298&yaw=319.93835&pitch=0&thumbfov=100"
            }
        ],
        "link": "https://www.google.com/maps/place/Sabri+Masjid+subhash+nagar/data=!4m7!3m6!1s0x3976adc29623c5cf:0xb9ac7d59c941eb64!8m2!3d26.5014791!4d78.0066748!16s%2Fg%2F11dx92yx9h!19sChIJz8UjlsKtdjkRZOtByVl9rLk?authuser=0&hl=en&rclk=1",
        "coordinates": {
            "latitude": 26.501479099999997,
            "longitude": 78.0066748
        }
    },
    {
        "name": "Jama Masjid Morena",
        "main_category": "Mosque",
        "address": "F2X2+HM2 Jama Masjid Morena, Jiwaji Ganj, Morena, Madhya Pradesh 476001",
        "detailed_address": {
            "ward": "Jiwaji Ganj",
            "street": "F2X2+HM2",
            "city": "Morena",
            "postal_code": "476001",
            "state": "Madhya Pradesh",
            "country_code": "IN"
        },
        "images": [
            {
                "about": "All",
                "link": "https://lh5.googleusercontent.com/p/AF1QipPV-Ct51krg-kdA6_KeJZKr_XUQCZl5ebMb2ZFj=w224-h298-k-no"
            },
            {
                "about": "Street View & 360deg",
                "link": "https://streetviewpixels-pa.googleapis.com/v1/thumbnail?panoid=rJHNFbGl75usw1pIfcO1fQ&cb_client=maps_sv.tactile.gps&w=224&h=298&yaw=24.223372&pitch=0&thumbfov=100"
            }
        ],
        "link": "https://www.google.com/maps/place/Jama+Masjid+Morena/data=!4m7!3m6!1s0x3976adea1768ee4f:0x98a012d1bb5ec093!8m2!3d26.4988751!4d78.0016476!16s%2Fg%2F11g6njlg5k!19sChIJT-5oF-qtdjkRk8Beu9ESoJg?authuser=0&hl=en&rclk=1",
        "coordinates": {
            "latitude": 26.4988751,
            "longitude": 78.0016476
        }
    },
    {
        "name": "Noorani Masjid",
        "main_category": "Mosque",
        "address": "F2W4+49Q Noorani Masjid, Ganeshpura, Morena, Madhya Pradesh 476001",
        "detailed_address": {
            "ward": "Ganeshpura",
            "street": "F2W4+49Q",
            "city": "Morena",
            "postal_code": "476001",
            "state": "Madhya Pradesh",
            "country_code": "IN"
        },
        "images": [
            {
                "about": "All",
                "link": "https://lh5.googleusercontent.com/p/AF1QipPMaKYljnbA_AaC0i9bG7AJa-I0mGGT3KYk2OkX=w529-h298-k-no"
            }
        ],
        "link": "https://www.google.com/maps/place/Noorani+Masjid/data=!4m7!3m6!1s0x3976ade8cffe8fcf:0xac0b49a71b630f40!8m2!3d26.4953362!4d78.0059926!16s%2Fg%2F11dztjyrr0!19sChIJz4_-z-itdjkRQA9jG6dJC6w?authuser=0&hl=en&rclk=1",
        "coordinates": {
            "latitude": 26.4953362,
            "longitude": 78.0059926
        }
    },
    {
        "name": "Madina Masjid (Imam BAKHTIYAR)",
        "main_category": "Mosque",
        "address": "F2Q2+3WW Madina Masjid (Imam BAKHTIYAR), Ahmad nagar, Morena, Madhya Pradesh 476001",
        "detailed_address": {
            "ward": "Ahmad nagar",
            "street": "F2Q2+3WW",
            "city": "Morena",
            "postal_code": null,
            "state": "Madhya Pradesh",
            "country_code": "IN"
        },
        "images": [
            {
                "about": "All",
                "link": "https://lh5.googleusercontent.com/p/AF1QipPtDH_lTW3ZBOx6xWNhcHZ5pGv4cGOH68ZSlA6q=w224-h298-k-no"
            },
            {
                "about": "Videos",
                "link": "https://lh5.googleusercontent.com/p/AF1QipM7Jw_PJoU25qTmjwvfSisz5FJd1LsKAq0DOMds=w529-h298-k-no"
            }
        ],
        "link": "https://www.google.com/maps/place/Madina+Masjid+%28Imam+BAKHTIYAR%29/data=!4m7!3m6!1s0x3976ad7f928de995:0x28877cead660817!8m2!3d26.4877442!4d78.0023323!16s%2Fg%2F11h8bkbr2y!19sChIJlemNkn-tdjkRFwhmrc53iAI?authuser=0&hl=en&rclk=1",
        "coordinates": {
            "latitude": 26.487744199999998,
            "longitude": 78.00233229999999
        }
    },
    {
        "name": "Madina Masjid Kailarash Morena",
        "main_category": "Mosque",
        "address": "8J48+V5C Madina Masjid Kailarash Morena, PURANI BASTI NEAR OLD POLICE STATION, Kailaras, Madhya Pradesh 476224",
        "detailed_address": {
            "ward": null,
            "street": "8J48+V5C, PURANI BASTI NEAR OLD POLICE STATION",
            "city": "Kailaras, Rajpura Jagir",
            "postal_code": "476224",
            "state": "Madhya Pradesh",
            "country_code": "IN"
        },
        "images": [
            {
                "about": "All",
                "link": "https://lh5.googleusercontent.com/p/AF1QipNsx8LF1Y_apRggsShNoBy1ZUaVZBhl_4W8noA=w224-h298-k-no"
            }
        ],
        "link": "https://www.google.com/maps/place/Madina+Masjid+Kailarash+Morena/data=!4m7!3m6!1s0x39714103b33fd9b1:0x8c9ac92cd3bc6f11!8m2!3d26.3071856!4d77.6154035!16s%2Fg%2F11gdrd92x4!19sChIJsdk_swNBcTkREW-80yzJmow?authuser=0&hl=en&rclk=1",
        "coordinates": {
            "latitude": 26.3071856,
            "longitude": 77.6154035
        }
    },
    {
        "name": "Gausiya Masjid",
        "main_category": "Mosque",
        "address": "F2V2+9HP Gausiya Masjid, Ganeshpura, Morena, Madhya Pradesh 476001",
        "detailed_address": {
            "ward": "Ganeshpura",
            "street": "F2V2+9HP",
            "city": "Morena",
            "postal_code": "476001",
            "state": "Madhya Pradesh",
            "country_code": "IN"
        },
        "images": [],
        "link": "https://www.google.com/maps/place/Gausiya+Masjid/data=!4m7!3m6!1s0x3976adaa99eb9ec9:0xf169c2ddf194b832!8m2!3d26.4934548!4d78.0014592!16s%2Fg%2F11flbrrv_g!19sChIJyZ7rmaqtdjkRMriU8d3CafE?authuser=0&hl=en&rclk=1",
        "coordinates": {
            "latitude": 26.4934548,
            "longitude": 78.0014592
        }
    },
    {
        "name": "Sultani Masjid",
        "main_category": "Mosque",
        "address": "FXMW+JMQ Sultani Masjid, peepripura road, masjid wali gali, Sanjay Colony, Morena, Madhya Pradesh 476001",
        "detailed_address": {
            "ward": "Sanjay Colony",
            "street": "FXMW+JMQ, peepripura road, masjid wali gali",
            "city": "Morena",
            "postal_code": "476001",
            "state": "Madhya Pradesh",
            "country_code": "IN"
        },
        "images": [
            {
                "about": "All",
                "link": "https://lh5.googleusercontent.com/p/AF1QipMl7M0EQ1Mjii7zQU2l0p3OAaitQ7tygyyOr7UA=w667-h298-k-no"
            },
            {
                "about": "Videos",
                "link": "https://lh5.googleusercontent.com/p/AF1QipNMFCMvHvnRvGH1BrOswQAreWPskMDKnK71aQaA=w224-h389-k-no"
            }
        ],
        "link": "https://www.google.com/maps/place/Sultani+Masjid/data=!4m7!3m6!1s0x3976adf3334f0b29:0x6cb2fb11e0a97caa!8m2!3d26.4840983!4d77.9967432!16s%2Fg%2F11g8j_glnz!19sChIJKQtPM_OtdjkRqnyp4BH7smw?authuser=0&hl=en&rclk=1",
        "coordinates": {
            "latitude": 26.4840983,
            "longitude": 77.9967432
        }
    },
    {
        "name": "Masjid fatima msjid phaatimaa",
        "main_category": "Mosque",
        "address": "Masjid fatima msjid phaatimaa, Umar nagar, Tranch Rd, Islampura, Mahavirpura, Morena, Madhya Pradesh 476001",
        "detailed_address": {
            "ward": "Islampura, Mahavirpura",
            "street": "Umar nagar, Tranch Rd",
            "city": "Morena",
            "postal_code": "476001",
            "state": "Madhya Pradesh",
            "country_code": "IN"
        },
        "images": [
            {
                "about": "All",
                "link": "https://lh5.googleusercontent.com/p/AF1QipNahlfbE10CkprHiS5nJt79tiDJze72CopF0Yo9=w396-h298-k-no"
            },
            {
                "about": "Dome",
                "link": "https://lh5.googleusercontent.com/p/AF1QipMycA5nOmbKQ5X5rlLxZthrw1JvnWABdmccUK_K=w224-h497-k-no"
            },
            {
                "about": "Videos",
                "link": "https://lh5.googleusercontent.com/p/AF1QipPtTTHilRzMQJCcVKfx0j0FCvUt6IiGQbZQ5YgT=w224-h398-k-no"
            }
        ],
        "link": "https://www.google.com/maps/place/Masjid+fatima+%E0%A4%AE%E0%A4%B8%E0%A5%8D%E0%A4%9C%E0%A4%BF%E0%A4%A6+%E0%A4%AB%E0%A4%BE%E0%A4%A4%E0%A4%BF%E0%A4%AE%E0%A4%BE/data=!4m7!3m6!1s0x3976ade8e8ff1c75:0x2b862c4ee6c26ccc!8m2!3d26.5084412!4d77.9912099!16s%2Fg%2F11h0jf9zhy!19sChIJdRz_6OitdjkRzGzC5k4shis?authuser=0&hl=en&rclk=1",
        "coordinates": {
            "latitude": 26.5084412,
            "longitude": 77.9912099
        }
    },
    {
        "name": "Masjid abu bakr islaampuraa",
        "main_category": "Mosque",
        "address": "GX4W+5RR Masjid abu bakr islaampuraa, Tranch Rd, Islampura, Singhal Basti, Morena, Madhya Pradesh 476001",
        "detailed_address": {
            "ward": "Islampura, Singhal Basti",
            "street": "GX4W+5RR, Tranch Rd",
            "city": "Morena",
            "postal_code": "476001",
            "state": "Madhya Pradesh",
            "country_code": "IN"
        },
        "images": [
            {
                "about": "All",
                "link": "https://lh5.googleusercontent.com/p/AF1QipP-0M_YiVJgztctVQ6mIVkSBontE29GS82X3wZE=w305-h298-k-no"
            }
        ],
        "link": "https://www.google.com/maps/place/Masjid+abu+bakr+%E0%A4%87%E0%A4%B8%E0%A5%8D%E0%A4%B2%E0%A4%BE%E0%A4%AE%E0%A4%AA%E0%A5%81%E0%A4%B0%E0%A4%BE/data=!4m7!3m6!1s0x3976ad578f19b057:0xe08704eddf7e14cf!8m2!3d26.505486!4d77.997029!16s%2Fg%2F11k25yk9ml!19sChIJV7AZj1etdjkRzxR-3-0Eh-A?authuser=0&hl=en&rclk=1",
        "coordinates": {
            "latitude": 26.505485999999998,
            "longitude": 77.997029
        }
    },
    {
        "name": "Sulemani Masjid Morena",
        "main_category": "Mosque",
        "address": "FXRG+R3J Sulemani Masjid Morena, Jouri Rd, Kirar Colony, Galetha, Morena, Madhya Pradesh 476001",
        "detailed_address": {
            "ward": "Kirar Colony, Galetha",
            "street": "FXRG+R3J, Jouri Rd",
            "city": "Morena",
            "postal_code": "476001",
            "state": "Madhya Pradesh",
            "country_code": "IN"
        },
        "images": [
            {
                "about": "All",
                "link": "https://lh5.googleusercontent.com/p/AF1QipO44ERg2sdI0utQ3Uk2FSVBzaaYIL1hdgo4v63M=w224-h298-k-no"
            }
        ],
        "link": "https://www.google.com/maps/place/Sulemani+Masjid+Morena/data=!4m7!3m6!1s0x3976ada122ecb3b5:0xbe102cf24035228!8m2!3d26.4920964!4d77.9751326!16s%2Fg%2F11sdns70nn!19sChIJtbPsIqGtdjkRKFIDJM8C4Qs?authuser=0&hl=en&rclk=1",
        "coordinates": {
            "latitude": 26.492096399999998,
            "longitude": 77.9751326
        }
    },
    {
        "name": "Al Qamar Masjid",
        "main_category": "Mosque",
        "address": "G234+9XR Al Qamar Masjid, over bridge road,subhash nagar, Madhya Pradesh 476001",
        "detailed_address": {
            "ward": "Ramnagar",
            "street": "G234+9XR, over bridge road,subhash nagar",
            "city": "Morena",
            "postal_code": "476001",
            "state": "Madhya Pradesh",
            "country_code": "IN"
        },
        "images": [
            {
                "about": "All",
                "link": "https://streetviewpixels-pa.googleapis.com/v1/thumbnail?panoid=ADV3nafp7w27rD-kTdQ9FA&cb_client=maps_sv.tactile.gps&w=224&h=298&yaw=247.48122&pitch=0&thumbfov=100"
            },
            {
                "about": "Street View & 360deg",
                "link": "https://streetviewpixels-pa.googleapis.com/v1/thumbnail?panoid=ADV3nafp7w27rD-kTdQ9FA&cb_client=maps_sv.tactile.gps&w=224&h=298&yaw=247.48122&pitch=0&thumbfov=100"
            }
        ],
        "link": "https://www.google.com/maps/place/Al+Qamar+Masjid/data=!4m7!3m6!1s0x3976add0467e4c2d:0x67f2e494833bb866!8m2!3d26.5034865!4d78.0073905!16s%2Fg%2F11gly2s53j!19sChIJLUx-RtCtdjkRZrg7g5Tk8mc?authuser=0&hl=en&rclk=1",
        "coordinates": {
            "latitude": 26.503486499999998,
            "longitude": 78.0073905
        }
    },
    {
        "name": "Usmani Masjid",
        "main_category": "Mosque",
        "address": "FXRR+H2M Usmani Masjid, Gayatri Colony, Gopal Pura, Morena, Madhya Pradesh 476001",
        "detailed_address": {
            "ward": "Gayatri Colony, Gopal Pura",
            "street": "FXRR+H2M",
            "city": "Morena",
            "postal_code": null,
            "state": "Madhya Pradesh",
            "country_code": "IN"
        },
        "images": [],
        "link": "https://www.google.com/maps/place/Usmani+Masjid/data=!4m7!3m6!1s0x3976adfb6446e32b:0x80d4b247bfb6a31!8m2!3d26.4914601!4d77.9900376!16s%2Fg%2F11sdr1s3fd!19sChIJK-NGZPutdjkRMWr7eyRLDQg?authuser=0&hl=en&rclk=1",
        "coordinates": {
            "latitude": 26.491460099999998,
            "longitude": 77.9900376
        }
    },
    {
        "name": "Galla mandi masjid",
        "main_category": "Mosque",
        "address": "GX2M+39X Galla mandi masjid, Sidhi Nagar, Morena, Madhya Pradesh 476001",
        "detailed_address": {
            "ward": "Sidhi Nagar",
            "street": "GX2M+39X",
            "city": "Morena",
            "postal_code": "476001",
            "state": "Madhya Pradesh",
            "country_code": "IN"
        },
        "images": [
            {
                "about": "All",
                "link": "https://streetviewpixels-pa.googleapis.com/v1/thumbnail?panoid=oMDdINpzg_tRovEnE8OmFQ&cb_client=maps_sv.tactile.gps&w=224&h=298&yaw=152.09087&pitch=0&thumbfov=100"
            },
            {
                "about": "Street View & 360deg",
                "link": "https://streetviewpixels-pa.googleapis.com/v1/thumbnail?panoid=oMDdINpzg_tRovEnE8OmFQ&cb_client=maps_sv.tactile.gps&w=224&h=298&yaw=152.09087&pitch=0&thumbfov=100"
            }
        ],
        "link": "https://www.google.com/maps/place/Galla+mandi+masjid/data=!4m7!3m6!1s0x3976ad951592268b:0xd0e32ebfb3ee301e!8m2!3d26.5003286!4d77.9835641!16s%2Fg%2F11v0nx2bvq!19sChIJiyaSFZWtdjkRHjDus78u49A?authuser=0&hl=en&rclk=1",
        "coordinates": {
            "latitude": 26.5003286,
            "longitude": 77.9835641
        }
    }
]