[
    {
        "name": "Rangamati Jame Masjid",
        "main_category": "Mosque",
        "address": "P9PC+C8G Rangamati Jame Masjid, Chandrakona Town - Ghatal Rd, Opposite Rangamati Bus Stand, Andharia, West Bengal 721253",
        "detailed_address": {
            "ward": null,
            "street": "P9PC+C8G, Chandrakona Town - Ghatal Rd, Opposite Rangamati Bus Stand",
            "city": "Andharia",
            "postal_code": "721253",
            "state": "West Bengal",
            "country_code": "IN"
        },
        "images": [
            {
                "about": "All",
                "link": "https://lh5.googleusercontent.com/p/AF1QipM3LRn4AoLaxk3MqUqQr2m57D_3eLX5SJn-1ptQ=w224-h495-k-no"
            },
            {
                "about": "Street View & 360deg",
                "link": "https://streetviewpixels-pa.googleapis.com/v1/thumbnail?panoid=7gfJ1H4OL28-ta5bb7KEsQ&cb_client=maps_sv.tactile.gps&w=224&h=298&yaw=170.49184&pitch=0&thumbfov=100"
            }
        ],
        "link": "https://www.google.com/maps/place/Rangamati+Jame+Masjid/data=!4m7!3m6!1s0x39f7e4d9f3aab6a3:0x508b11e58a150dc1!8m2!3d22.7360639!4d87.3708271!16s%2Fg%2F11cn6p6x7q!19sChIJo7aq89nk9zkRwQ0ViuURi1A?authuser=0&hl=en&rclk=1",
        "coordinates": {
            "latitude": 22.736063899999998,
            "longitude": 87.3708271
        }
    },
    {
        "name": "Masjid",
        "main_category": "Mosque",
        "address": "MP5Q+MGH Masjid, Konnagar, Kuspata, Ghatal, West Bengal 721212",
        "detailed_address": {
            "ward": "Konnagar, Kuspata",
            "street": "MP5Q+MGH",
            "city": "Ghatal",
            "postal_code": "721212",
            "state": "West Bengal",
            "country_code": "IN"
        },
        "images": [
            {
                "about": "All",
                "link": "https://lh5.googleusercontent.com/p/AF1QipMOWgweFWxkkem-636WPDxlF1Y8nZ0YeyEKe8wV=w529-h298-k-no"
            }
        ],
        "link": "https://www.google.com/maps/place/Masjid/data=!4m7!3m6!1s0x39f80902480a29af:0x70b4a2441a0f4df9!8m2!3d22.659185!4d87.7388486!16s%2Fg%2F11ggrr6sx7!19sChIJrykKSAIJ-DkR-U0PGkSitHA?authuser=0&hl=en&rclk=1",
        "coordinates": {
            "latitude": 22.659184999999997,
            "longitude": 87.7388486
        }
    },
    {
        "name": "Sundarpur Masjid",
        "main_category": "Mosque",
        "address": "HPCJ+4CR Sundarpur Masjid, Ghatal, West Bengal 721211",
        "detailed_address": {
            "ward": null,
            "street": "HPCJ+4CR",
            "city": "Ghatal",
            "postal_code": null,
            "state": "West Bengal",
            "country_code": "IN"
        },
        "images": [
            {
                "about": "All",
                "link": "https://lh5.googleusercontent.com/p/AF1QipOh96diGmCZlZvft9n-spiSOxDA4ORUycAtDxY9=w487-h298-k-no"
            }
        ],
        "link": "https://www.google.com/maps/place/Sundarpur+Masjid/data=!4m7!3m6!1s0x3a02a7a5c86e7419:0x281f1376afa07e91!8m2!3d22.5703711!4d87.7310305!16s%2Fg%2F11f53n15sy!19sChIJGXRuyKWnAjoRkX6gr3YTHyg?authuser=0&hl=en&rclk=1",
        "coordinates": {
            "latitude": 22.5703711,
            "longitude": 87.7310305
        }
    },
    {
        "name": "Masjid msjid",
        "main_category": "Mosque",
        "address": "MM47+JMQ Masjid msjid, Dharmmapur, West Bengal 721232",
        "detailed_address": {
            "ward": null,
            "street": "MM47+JMQ",
            "city": "Dharmmapur",
            "postal_code": "721232",
            "state": "West Bengal",
            "country_code": "IN"
        },
        "images": [
            {
                "about": "All",
                "link": "https://lh5.googleusercontent.com/p/AF1QipMdEX9qp69iKsKF-BL4c7SlTFLiEUrej3oFAZpl=w266-h298-k-no"
            }
        ],
        "link": "https://www.google.com/maps/place/Masjid+%E0%A6%AE%E0%A6%B8%E0%A6%9C%E0%A6%BF%E0%A6%A6/data=!4m7!3m6!1s0x39f8074aaeb9c7d9:0xb4f02084219b0a1c!8m2!3d22.6565981!4d87.6642238!16s%2Fg%2F11ff22l7n9!19sChIJ2ce5rkoH-DkRHAqbIYQg8LQ?authuser=0&hl=en&rclk=1",
        "coordinates": {
            "latitude": 22.6565981,
            "longitude": 87.6642238
        }
    },
    {
        "name": "Kotalpur Masjid",
        "main_category": "Mosque",
        "address": "JPHX+X58 Kotalpur Masjid, Kotalpur, West Bengal 721212",
        "detailed_address": {
            "ward": null,
            "street": "JPHX+X58",
            "city": "Kotalpur",
            "postal_code": "721212",
            "state": "West Bengal",
            "country_code": "IN"
        },
        "images": [],
        "link": "https://www.google.com/maps/place/Kotalpur+Masjid/data=!4m7!3m6!1s0x39f809df48318499:0xfb2807aeb6d27144!8m2!3d22.629924!4d87.747957!16s%2Fg%2F11ffltt1dj!19sChIJmYQxSN8J-DkRRHHStq4HKPs?authuser=0&hl=en&rclk=1",
        "coordinates": {
            "latitude": 22.629924,
            "longitude": 87.747957
        }
    },
    {
        "name": "Sri Ram Nagar Jame Masjid",
        "main_category": "Mosque",
        "address": "JQF8+H4Q Sri Ram Nagar Jame Masjid, Sri ram Nagar, Kamalpur, West Bengal 721212",
        "detailed_address": {
            "ward": null,
            "street": "JQF8+H4Q, Sri ram Nagar",
            "city": "Kamalpur, Kala Gechhya",
            "postal_code": "721212",
            "state": "West Bengal",
            "country_code": "IN"
        },
        "images": [
            {
                "about": "All",
                "link": "https://lh5.googleusercontent.com/p/AF1QipMHPiYP3z4hkJhq6cKOSveZlcrr8OD6NTF9EW7e=w362-h298-k-no"
            }
        ],
        "link": "https://www.google.com/maps/place/Sri+Ram+Nagar+Jame+Masjid/data=!4m7!3m6!1s0x39f809f2e2a90b59:0xdf3fc87863fa0acf!8m2!3d22.6239676!4d87.7653675!16s%2Fg%2F11fmzrt0yz!19sChIJWQup4vIJ-DkRzwr6Y3jIP98?authuser=0&hl=en&rclk=1",
        "coordinates": {
            "latitude": 22.6239676,
            "longitude": 87.7653675
        }
    },
    {
        "name": "jummaa msjid",
        "main_category": "Mosque",
        "address": "jummaa msjid, Jumma masjit street Alamganj, word no-4, Gombhir Nagar, Ghatal, West Bengal 721212",
        "detailed_address": {
            "ward": "Krishna Nagar, Gombhir Nagar",
            "street": "Jumma masjit street Alamganj, word no-4",
            "city": "Ghatal",
            "postal_code": "721212",
            "state": "West Bengal",
            "country_code": "IN"
        },
        "images": [
            {
                "about": "All",
                "link": "https://lh5.googleusercontent.com/p/AF1QipO8fcrB4THgGWbIuDfNxXlZa7mI8DW805oYHDUb=w646-h298-k-no"
            },
            {
                "about": "Street View & 360deg",
                "link": "https://streetviewpixels-pa.googleapis.com/v1/thumbnail?panoid=XsXDgVghG9j__n-6Wf-rXA&cb_client=maps_sv.tactile.gps&w=224&h=298&yaw=282.59396&pitch=0&thumbfov=100"
            }
        ],
        "link": "https://www.google.com/maps/place/%E0%A6%9C%E0%A7%81%E0%A6%AE%E0%A7%8D%E0%A6%AE%E0%A6%BE+%E0%A6%AE%E0%A6%B8%E0%A6%9C%E0%A6%BF%E0%A6%A6/data=!4m7!3m6!1s0x39f8090454a1103d:0x61b5ef8976d8832a!8m2!3d22.6661926!4d87.7306254!16s%2Fg%2F11h_4_4g2l!19sChIJPRChVAQJ-DkRKoPYdonvtWE?authuser=0&hl=en&rclk=1",
        "coordinates": {
            "latitude": 22.6661926,
            "longitude": 87.7306254
        }
    },
    {
        "name": "Ahlehadees Jumma Mosque",
        "main_category": "Mosque",
        "address": "HPW9+6FR Ahlehadees Jumma Mosque, Ghatal - Panskura Rd, near Jio tower, Rasulpur, West Bengal 721211",
        "detailed_address": {
            "ward": null,
            "street": "HPW9+6FR, Ghatal - Panskura Rd, near Jio tower",
            "city": "Rasulpur",
            "postal_code": null,
            "state": "West Bengal",
            "country_code": "IN"
        },
        "images": [
            {
                "about": "All",
                "link": "https://streetviewpixels-pa.googleapis.com/v1/thumbnail?panoid=eTwJ6OCQKeSX4P0qNceLUg&cb_client=maps_sv.tactile.gps&w=224&h=298&yaw=287.6103&pitch=0&thumbfov=100"
            },
            {
                "about": "Street View & 360deg",
                "link": "https://streetviewpixels-pa.googleapis.com/v1/thumbnail?panoid=eTwJ6OCQKeSX4P0qNceLUg&cb_client=maps_sv.tactile.gps&w=224&h=298&yaw=287.6103&pitch=0&thumbfov=100"
            },
            {
                "about": "Videos",
                "link": "https://lh5.googleusercontent.com/p/AF1QipO3WA0o-V1UR6hL9kcbpxdGudNR6mF0gNInSmp-=w224-h407-k-no"
            }
        ],
        "link": "https://www.google.com/maps/place/Ahlehadees+Jumma+Mosque/data=!4m7!3m6!1s0x3a02a771472da4c9:0x11f75b1ef64d20de!8m2!3d22.5956112!4d87.7186461!16s%2Fg%2F11rfwhgsgv!19sChIJyaQtR3GnAjoR3iBN9h5b9xE?authuser=0&hl=en&rclk=1",
        "coordinates": {
            "latitude": 22.5956112,
            "longitude": 87.7186461
        }
    },
    {
        "name": "SAHACHAK UTTARPARA MASJID",
        "main_category": "Religious destination",
        "address": "HQC8+HF6 SAHACHAK UTTARPARA MASJID, Ghatal, West Bengal 721211",
        "detailed_address": {
            "ward": null,
            "street": "HQC8+HF6",
            "city": "Ghatal",
            "postal_code": null,
            "state": "West Bengal",
            "country_code": "IN"
        },
        "images": [],
        "link": "https://www.google.com/maps/place/SAHACHAK+UTTARPARA+MASJID/data=!4m7!3m6!1s0x3a02a74d6d26bd1d:0x4808e11385c92ecf!8m2!3d22.5714011!4d87.7661415!16s%2Fg%2F11j0hwz5y8!19sChIJHb0mbU2nAjoRzy7JhRPhCEg?authuser=0&hl=en&rclk=1",
        "coordinates": {
            "latitude": 22.5714011,
            "longitude": 87.76614149999999
        }
    }
]