[
    {
        "name": "Jama Masjid (kazipet)",
        "main_category": "Mosque",
        "address": "Jama Masjid (kazipet), h no . 1-5-100, Hyderabad - Warangal Hwy, Jubilee Market, Rahamatnagar, Kazipet, Telangana 506003",
        "detailed_address": {
            "ward": "Jubilee Market, Rahamatnagar",
            "street": "h no . 1-5-100, Hyderabad - Warangal Hwy",
            "city": "Kazipet",
            "postal_code": "506003",
            "state": "Telangana",
            "country_code": "IN"
        },
        "images": [
            {
                "about": "All",
                "link": "https://lh5.googleusercontent.com/p/AF1QipOXVYD5fs-Z3JbtNh3mPWdDSZCHVUbjKfJuF7yF=w224-h298-k-no"
            },
            {
                "about": "Dome",
                "link": "https://lh5.googleusercontent.com/p/AF1QipPooJP4vrEHfPmuLMC3IePLCHotjoZBwocUUiaW=w529-h298-k-no"
            },
            {
                "about": "Videos",
                "link": "https://lh5.googleusercontent.com/p/AF1QipMZNufYNkh8UZNkIr_osSMr4RFhFOW2o3Fc0u7i=w224-h398-k-no"
            },
            {
                "about": "Street View & 360deg",
                "link": "https://streetviewpixels-pa.googleapis.com/v1/thumbnail?panoid=f3dcShscK_tvXkBKljafCA&cb_client=maps_sv.tactile.gps&w=224&h=298&yaw=308.18365&pitch=0&thumbfov=100"
            }
        ],
        "link": "https://www.google.com/maps/place/Jama+Masjid+%28kazipet%29/data=!4m7!3m6!1s0x3a334e362398dd07:0x43f24eee0e47dfe7!8m2!3d17.9754888!4d79.5080604!16s%2Fg%2F1tdxtfnq!19sChIJB92YIzZOMzoR599HDu5O8kM?authuser=0&hl=en&rclk=1",
        "coordinates": {
            "latitude": 17.9754888,
            "longitude": 79.50806039999999
        }
    },
    {
        "name": "Masjid-e-Rehmatiya",
        "main_category": "Mosque",
        "address": "XG84+JHH Masjid-e-Rehmatiya, Kadipikonda, Kazipet, Telangana 506003",
        "detailed_address": {
            "ward": "Kadipikonda",
            "street": "XG84+JHH",
            "city": "Kazipet",
            "postal_code": "506003",
            "state": "Telangana",
            "country_code": "IN"
        },
        "images": [
            {
                "about": "All",
                "link": "https://lh5.googleusercontent.com/p/AF1QipNsuETBN-wKMdj7XNMY6zvz9OXxKWu9PCg3c0QX=w298-h298-k-no"
            },
            {
                "about": "Street View & 360deg",
                "link": "https://streetviewpixels-pa.googleapis.com/v1/thumbnail?panoid=yO8RWYat1oInev4CviS1Eg&cb_client=maps_sv.tactile.gps&w=224&h=298&yaw=85.47746&pitch=0&thumbfov=100"
            },
            {
                "about": "Videos",
                "link": "https://lh5.googleusercontent.com/p/AF1QipP6Tt1rXu0ae9AKe-G6QI9za8WxRnOADih80k3p=w224-h400-k-no"
            }
        ],
        "link": "https://www.google.com/maps/place/Masjid-e-Rehmatiya/data=!4m7!3m6!1s0x3a334e30517421e3:0xb7cee3b7253d4e78!8m2!3d17.966563!4d79.5064756!16s%2Fg%2F1tks4rgr!19sChIJ4yF0UTBOMzoReE49Jbfjzrc?authuser=0&hl=en&rclk=1",
        "coordinates": {
            "latitude": 17.966563,
            "longitude": 79.5064756
        }
    },
    {
        "name": "Masjid Syed Nagar",
        "main_category": "Mosque",
        "address": "W9RG+RJM Masjid Syed Nagar, Warangal, Telangana 506002",
        "detailed_address": {
            "ward": null,
            "street": "W9RG+RJM",
            "city": "Warangal",
            "postal_code": "506002",
            "state": "Telangana",
            "country_code": "IN"
        },
        "images": [
            {
                "about": "All",
                "link": "https://lh5.googleusercontent.com/p/AF1QipOVYWZ7Zh8qMIfyUDGoKAHEgFysq7y03X5SMJ4k=w224-h298-k-no"
            },
            {
                "about": "Videos",
                "link": "https://lh5.googleusercontent.com/p/AF1QipMP2x82NmSWAPjtqkS5VN5ZfgAP_iTzvf1RR2ba=w224-h398-k-no"
            }
        ],
        "link": "https://www.google.com/maps/place/Masjid+Syed+Nagar/data=!4m7!3m6!1s0x3bccad544c1968ef:0xd04ef27d10f1ee7!8m2!3d17.9420813!4d79.3765441!16s%2Fg%2F11c4c1b71h!19sChIJ72gZTFStzDsR5x4P0SfvBA0?authuser=0&hl=en&rclk=1",
        "coordinates": {
            "latitude": 17.942081299999998,
            "longitude": 79.37654409999999
        }
    },
    {
        "name": "Masjid Ali Akbar",
        "main_category": "Mosque",
        "address": "W9RF+2M5 Masjid Ali Akbar, Warangal, Telangana 506002",
        "detailed_address": {
            "ward": null,
            "street": "W9RF+2M5",
            "city": "Warangal",
            "postal_code": "506002",
            "state": "Telangana",
            "country_code": "IN"
        },
        "images": [
            {
                "about": "All",
                "link": "https://lh5.googleusercontent.com/p/AF1QipOw486uYjBMak1Qcziq7MChxIQuFDT7OP_fuIt9=w529-h298-k-no"
            },
            {
                "about": "Street View & 360deg",
                "link": "https://streetviewpixels-pa.googleapis.com/v1/thumbnail?panoid=MxNVeROoTsQsMt-fgSWnrg&cb_client=maps_sv.tactile.gps&w=224&h=298&yaw=104.05807&pitch=0&thumbfov=100"
            },
            {
                "about": "Videos",
                "link": "https://lh5.googleusercontent.com/p/AF1QipNK-ROEec5uOgG-quG-qzGyDux5AMi3mMDfLz55=w224-h398-k-no"
            }
        ],
        "link": "https://www.google.com/maps/place/Masjid+Ali+Akbar/data=!4m7!3m6!1s0x3bccad56af6d905d:0x106ae1925ce8d397!8m2!3d17.9400033!4d79.3742299!16s%2Fg%2F11cmsz1sp2!19sChIJXZBtr1atzDsRl9PoXJLhahA?authuser=0&hl=en&rclk=1",
        "coordinates": {
            "latitude": 17.9400033,
            "longitude": 79.3742299
        }
    },
    {
        "name": "Mosque",
        "main_category": "Mosque",
        "address": "Mosque, Mandal, Kothapally, Telangana 506301",
        "detailed_address": {
            "ward": null,
            "street": "Mandal",
            "city": "Kothapally",
            "postal_code": "506301",
            "state": "Telangana",
            "country_code": "IN"
        },
        "images": [
            {
                "about": "All",
                "link": "https://lh5.googleusercontent.com/p/AF1QipPvgO_nHzlUonz1kSaK9__ksPzBvw8v4LsfSXO_=w529-h298-k-no"
            },
            {
                "about": "Dome",
                "link": "https://lh5.googleusercontent.com/p/AF1QipPAAbmaQFlG4SPqF6CEOfVdjCGrLjV4IkIShUPY=w529-h298-k-no"
            },
            {
                "about": "Street View & 360deg",
                "link": "https://streetviewpixels-pa.googleapis.com/v1/thumbnail?panoid=3z7WZgQMKicxtLA_j59zwg&cb_client=maps_sv.tactile.gps&w=224&h=298&yaw=359.86096&pitch=0&thumbfov=100"
            }
        ],
        "link": "https://www.google.com/maps/place/Mosque/data=!4m7!3m6!1s0x3bccac77811aa145:0x99cc55cad58f001!8m2!3d17.8516065!4d79.3236644!16s%2Fg%2F1pp2tw79c!19sChIJRaEagXeszDsRAfBYrVzFnAk?authuser=0&hl=en&rclk=1",
        "coordinates": {
            "latitude": 17.8516065,
            "longitude": 79.3236644
        }
    },
    {
        "name": "Masjid",
        "main_category": "Mosque",
        "address": "V9WF+69V Masjid, Quarters-Kotha indlu, Rajaram, Telangana 506144",
        "detailed_address": {
            "ward": "Quarters-Kotha indlu",
            "street": "V9WF+69V",
            "city": "Rajaram",
            "postal_code": "506144",
            "state": "Telangana",
            "country_code": "IN"
        },
        "images": [
            {
                "about": "All",
                "link": "https://lh5.googleusercontent.com/p/AF1QipNs_83T0vn4dz4Pp_SZY7aaugAAHqWmtGEmCTg3=w529-h298-k-no"
            },
            {
                "about": "Street View & 360deg",
                "link": "https://streetviewpixels-pa.googleapis.com/v1/thumbnail?panoid=8STA2QzmSAYLaV6EEr070A&cb_client=maps_sv.tactile.gps&w=224&h=298&yaw=241.21619&pitch=0&thumbfov=100"
            }
        ],
        "link": "https://www.google.com/maps/place/Masjid/data=!4m7!3m6!1s0x3bccad2ab834cf33:0x7613a58cd842fef6!8m2!3d17.8956061!4d79.3734309!16s%2Fg%2F11qnghqkpl!19sChIJM880uCqtzDsR9v5C2IylE3Y?authuser=0&hl=en&rclk=1",
        "coordinates": {
            "latitude": 17.8956061,
            "longitude": 79.3734309
        }
    },
    {
        "name": "Kothapet Ki Masjid",
        "main_category": "Mosque",
        "address": "W8M9+VMR Kothapet Ki Masjid, Venkatadri Peta, Venkatadripet, Telangana 506145",
        "detailed_address": {
            "ward": null,
            "street": "W8M9+VMR, Venkatadri Peta",
            "city": "Venkatadripet",
            "postal_code": "506145",
            "state": "Telangana",
            "country_code": "IN"
        },
        "images": [],
        "link": "https://www.google.com/maps/place/Kothapet+Ki+Masjid/data=!4m7!3m6!1s0x3bccad8e9786f2b1:0xf7118d3b88eefa55!8m2!3d17.9347328!4d79.319132!16s%2Fg%2F11g9vls8qp!19sChIJsfKGl46tzDsRVfruiDuNEfc?authuser=0&hl=en&rclk=1",
        "coordinates": {
            "latitude": 17.9347328,
            "longitude": 79.319132
        }
    },
    {
        "name": "JAMIYA MASJID KOTHAPALLY",
        "main_category": "Mosque",
        "address": "JAMIYA MASJID KOTHAPALLY, Ghanpur stn, Kothapally, Jangaon, Telangana 506301",
        "detailed_address": {
            "ward": null,
            "street": "Ghanpur stn, Kothapally",
            "city": "Jangaon, Kothapally",
            "postal_code": "506301",
            "state": "Telangana",
            "country_code": "IN"
        },
        "images": [
            {
                "about": "All",
                "link": "https://lh5.googleusercontent.com/p/AF1QipNnyrM9-MJecZW2aQXD3mb4nK2f8guvzipl1J-Z=w224-h298-k-no"
            },
            {
                "about": "Street View & 360deg",
                "link": "https://streetviewpixels-pa.googleapis.com/v1/thumbnail?panoid=3z7WZgQMKicxtLA_j59zwg&cb_client=maps_sv.tactile.gps&w=224&h=298&yaw=359.6279&pitch=0&thumbfov=100"
            },
            {
                "about": "Videos",
                "link": "https://lh5.googleusercontent.com/p/AF1QipP4CxpHdNNmkrJDgy2lX4zfpK0kFz6IdfgxGy8W=w224-h470-k-no"
            }
        ],
        "link": "https://www.google.com/maps/place/JAMIYA+MASJID+KOTHAPALLY/data=!4m7!3m6!1s0x3bccadff011d2801:0x1de5aae4d7ba3e97!8m2!3d17.8516055!4d79.323663!16s%2Fg%2F11fp32m55d!19sChIJASgdAf-tzDsRlz661-Sq5R0?authuser=0&hl=en&rclk=1",
        "coordinates": {
            "latitude": 17.851605499999998,
            "longitude": 79.323663
        }
    },
    {
        "name": "Masjid",
        "main_category": "Mosque",
        "address": "WC95+G7V Masjid, Pedda Pendyala, Telangana 506151",
        "detailed_address": {
            "ward": null,
            "street": "WC95+G7V",
            "city": "Pedda Pendyala",
            "postal_code": "506151",
            "state": "Telangana",
            "country_code": "IN"
        },
        "images": [
            {
                "about": "All",
                "link": "https://lh5.googleusercontent.com/p/AF1QipMVpy5Mu4hrkLF5xu-GNxgFoOCsfqZO_5V0-A_W=w529-h298-k-no"
            }
        ],
        "link": "https://www.google.com/maps/place/Masjid/data=!4m7!3m6!1s0x3a33532c35eb0b8b:0xaf3b9eedee7b25bc!8m2!3d17.9188616!4d79.4081698!16s%2Fg%2F11skxy0pw7!19sChIJiwvrNSxTMzoRvCV77u2eO68?authuser=0&hl=en&rclk=1",
        "coordinates": {
            "latitude": 17.9188616,
            "longitude": 79.4081698
        }
    },
    {
        "name": "Masjid e seydna Ali RA",
        "main_category": "Mosque",
        "address": "WFW7+Q7G Masjid e seydna Ali RA, Unnamed Road, Dharmasagar, Telangana 506142",
        "detailed_address": {
            "ward": null,
            "street": "WFW7+Q7G, Unnamed Road",
            "city": "Dharmasagar",
            "postal_code": "506142",
            "state": "Telangana",
            "country_code": "IN"
        },
        "images": [
            {
                "about": "All",
                "link": "https://lh5.googleusercontent.com/p/AF1QipOzq1bjnb-oRrFIAGMzMRI4CRKHHWug21RB2wDZ=w529-h298-k-no"
            }
        ],
        "link": "https://www.google.com/maps/place/Masjid+e+seydna+Ali+RA/data=!4m7!3m6!1s0x3a33536da72657b1:0xc608dfbbfae178ac!8m2!3d17.9469305!4d79.4632127!16s%2Fg%2F11qqm5x94h!19sChIJsVcmp21TMzoRrHjh-rvfCMY?authuser=0&hl=en&rclk=1",
        "coordinates": {
            "latitude": 17.9469305,
            "longitude": 79.4632127
        }
    },
    {
        "name": "Masjid",
        "main_category": "Mosque",
        "address": "WG3W+V85 Masjid, Mulukalagudem, Telangana 506003",
        "detailed_address": {
            "ward": null,
            "street": "WG3W+V85",
            "city": "Mulukalagudem",
            "postal_code": "506003",
            "state": "Telangana",
            "country_code": "IN"
        },
        "images": [
            {
                "about": "All",
                "link": "https://streetviewpixels-pa.googleapis.com/v1/thumbnail?panoid=VC756gqHQ737G9YtJS5RiA&cb_client=maps_sv.tactile.gps&w=224&h=298&yaw=259.39737&pitch=0&thumbfov=100"
            },
            {
                "about": "Street View & 360deg",
                "link": "https://streetviewpixels-pa.googleapis.com/v1/thumbnail?panoid=VC756gqHQ737G9YtJS5RiA&cb_client=maps_sv.tactile.gps&w=224&h=298&yaw=259.39737&pitch=0&thumbfov=100"
            }
        ],
        "link": "https://www.google.com/maps/place/Masjid/data=!4m7!3m6!1s0x3a33516e96ba8011:0x4421eef78b804261!8m2!3d17.904643!4d79.545862!16s%2Fg%2F11n5j54f8z!19sChIJEYC6lm5RMzoRYUKAi_fuIUQ?authuser=0&hl=en&rclk=1",
        "coordinates": {
            "latitude": 17.904643,
            "longitude": 79.545862
        }
    },
    {
        "name": "Mosque",
        "main_category": "Mosque",
        "address": "X92M+XFQ Mosque, Kyathampally, Telangana 506151",
        "detailed_address": {
            "ward": null,
            "street": "X92M+XFQ",
            "city": "Kyathampally",
            "postal_code": "506151",
            "state": "Telangana",
            "country_code": "IN"
        },
        "images": [
            {
                "about": "All",
                "link": "https://streetviewpixels-pa.googleapis.com/v1/thumbnail?panoid=GGk348-4oAovzhF3dnN1uQ&cb_client=maps_sv.tactile.gps&w=224&h=298&yaw=69.98711&pitch=0&thumbfov=100"
            },
            {
                "about": "Street View & 360deg",
                "link": "https://streetviewpixels-pa.googleapis.com/v1/thumbnail?panoid=GGk348-4oAovzhF3dnN1uQ&cb_client=maps_sv.tactile.gps&w=224&h=298&yaw=69.98711&pitch=0&thumbfov=100"
            }
        ],
        "link": "https://www.google.com/maps/place/Mosque/data=!4m7!3m6!1s0x3a334d539afaaaab:0x73eeb11686f6d368!8m2!3d17.9524714!4d79.3837317!16s%2Fg%2F11kj3f3ky8!19sChIJq6r6mlNNMzoRaNP2hhax7nM?authuser=0&hl=en&rclk=1",
        "coordinates": {
            "latitude": 17.9524714,
            "longitude": 79.3837317
        }
    },
    {
        "name": "Aalamgeer Masjid",
        "main_category": "Mosque",
        "address": "X9WQ+V8W Aalamgeer Masjid, Mupparam, Telangana 506142",
        "detailed_address": {
            "ward": null,
            "street": "X9WQ+V8W",
            "city": "Mupparam",
            "postal_code": "506142",
            "state": "Telangana",
            "country_code": "IN"
        },
        "images": [
            {
                "about": "All",
                "link": "https://streetviewpixels-pa.googleapis.com/v1/thumbnail?panoid=d4rJ2qQZE42sRKLr3a2cAg&cb_client=maps_sv.tactile.gps&w=224&h=298&yaw=76.82836&pitch=0&thumbfov=100"
            },
            {
                "about": "Street View & 360deg",
                "link": "https://streetviewpixels-pa.googleapis.com/v1/thumbnail?panoid=d4rJ2qQZE42sRKLr3a2cAg&cb_client=maps_sv.tactile.gps&w=224&h=298&yaw=76.82836&pitch=0&thumbfov=100"
            }
        ],
        "link": "https://www.google.com/maps/place/Aalamgeer+Masjid/data=!4m7!3m6!1s0x3a334d0a46c07671:0xe50c44b23842a238!8m2!3d17.9972106!4d79.3884326!16s%2Fg%2F11rjvxrh3z!19sChIJcXbARgpNMzoROKJCOLJEDOU?authuser=0&hl=en&rclk=1",
        "coordinates": {
            "latitude": 17.9972106,
            "longitude": 79.3884326
        }
    },
    {
        "name": "Masjid",
        "main_category": "Mosque",
        "address": "X952+QQ2 Masjid, Mallikudurla, Telangana 506145",
        "detailed_address": {
            "ward": null,
            "street": "X952+QQ2",
            "city": "Mallikudurla",
            "postal_code": "506145",
            "state": "Telangana",
            "country_code": "IN"
        },
        "images": [],
        "link": "https://www.google.com/maps/place/Masjid/data=!4m7!3m6!1s0x3bccb291320f7a81:0x5640221ba28a0dbc!8m2!3d17.9593845!4d79.3518967!16s%2Fg%2F11hc2zv1nl!19sChIJgXoPMpGyzDsRvA2KohsiQFY?authuser=0&hl=en&rclk=1",
        "coordinates": {
            "latitude": 17.9593845,
            "longitude": 79.3518967
        }
    }
]