[
    {
        "name": "Madeena Masjid",
        "main_category": "Mosque",
        "address": "CFRW+7GF Madeena Masjid, Kartarpur, Punjab 144801",
        "detailed_address": {
            "ward": null,
            "street": "CFRW+7GF",
            "city": "Kartarpur",
            "postal_code": "144801",
            "state": "Punjab",
            "country_code": "IN"
        },
        "images": [
            {
                "about": "All",
                "link": "https://lh5.googleusercontent.com/p/AF1QipMok8MTyBq67Zj1dfvM8LTG42vxjxbEJoLTYwOo=w224-h298-k-no"
            },
            {
                "about": "Street View & 360deg",
                "link": "https://streetviewpixels-pa.googleapis.com/v1/thumbnail?panoid=GMYOf9XO4tatlAwnznpDJQ&cb_client=maps_sv.tactile.gps&w=224&h=298&yaw=13.209699&pitch=0&thumbfov=100"
            }
        ],
        "link": "https://www.google.com/maps/place/Madeena+Masjid/data=!4m7!3m6!1s0x391a4ddbb7efaa0b:0x5955507c550bd3be!8m2!3d31.4406949!4d75.4963112!16s%2Fg%2F11d_7txq2n!19sChIJC6rvt9tNGjkRvtMLVXxQVVk?authuser=0&hl=en&rclk=1",
        "coordinates": {
            "latitude": 31.440694899999997,
            "longitude": 75.4963112
        }
    },
    {
        "name": "Choti Masjid",
        "main_category": "Mosque",
        "address": "CGV2+XJ4 Choti Masjid, Kartarpur, Punjab 144801",
        "detailed_address": {
            "ward": null,
            "street": "CGV2+XJ4",
            "city": "Kartarpur",
            "postal_code": "144801",
            "state": "Punjab",
            "country_code": "IN"
        },
        "images": [
            {
                "about": "All",
                "link": "https://streetviewpixels-pa.googleapis.com/v1/thumbnail?panoid=5JkReP0I0brIRfP8QuDN5Q&cb_client=maps_sv.tactile.gps&w=224&h=298&yaw=224.11548&pitch=0&thumbfov=100"
            },
            {
                "about": "Street View & 360deg",
                "link": "https://streetviewpixels-pa.googleapis.com/v1/thumbnail?panoid=5JkReP0I0brIRfP8QuDN5Q&cb_client=maps_sv.tactile.gps&w=224&h=298&yaw=224.11548&pitch=0&thumbfov=100"
            }
        ],
        "link": "https://www.google.com/maps/place/Choti+Masjid/data=!4m7!3m6!1s0x391a4ddd284f965f:0xb212f63a394f5ac!8m2!3d31.4448792!4d75.5015931!16s%2Fg%2F11hcsd1brn!19sChIJX5ZPKN1NGjkRrPWUo2MvIQs?authuser=0&hl=en&rclk=1",
        "coordinates": {
            "latitude": 31.4448792,
            "longitude": 75.5015931
        }
    },
    {
        "name": "Jamia Masjid Mohammadi",
        "main_category": "Mosque",
        "address": "Jamia Masjid Mohammadi, Unnamed Road, Chak 275 RB Kartarpur, Pakistan",
        "detailed_address": {
            "ward": null,
            "street": "Unnamed Road, Chak 275 RB Kartarpur",
            "city": "Chak 275 RB Kartarpur",
            "postal_code": null,
            "state": "Faisalabad, Punjab",
            "country_code": "PK"
        },
        "images": [],
        "link": "https://www.google.com/maps/place/Jamia+Masjid+Mohammadi/data=!4m7!3m6!1s0x3922f8bbc8224e17:0xfa4ec79a1ee94087!8m2!3d31.170217!4d72.8196293!16s%2Fg%2F11g6jr11ch!19sChIJF04iyLv4IjkRh0DpHprHTvo?authuser=0&hl=en&rclk=1",
        "coordinates": {
            "latitude": 31.170216999999997,
            "longitude": 72.8196293
        }
    },
    {
        "name": "Jamia Masjid Ghausia",
        "main_category": "Mosque",
        "address": "HJ48+73R Jamia Masjid Ghausia, Kartarpur-Panwan Rd, Kartarpur, Nankana Sahib, Punjab, Pakistan",
        "detailed_address": {
            "ward": null,
            "street": "HJ48+73R, Kartarpur-Panwan Rd",
            "city": "Kartarpur",
            "postal_code": null,
            "state": "Nankana Sahib, Punjab",
            "country_code": "PK"
        },
        "images": [],
        "link": "https://www.google.com/maps/place/Jamia+Masjid+Ghausia/data=!4m7!3m6!1s0x39189a2900fb33d3:0xe85f7a4fab227fe!8m2!3d31.5557325!4d73.6151361!16s%2Fg%2F11g6hyz4c2!19sChIJ0zP7ACmaGDkR_iey-qT3hQ4?authuser=0&hl=en&rclk=1",
        "coordinates": {
            "latitude": 31.555732499999998,
            "longitude": 73.6151361
        }
    },
    {
        "name": "Jamia Masjid Darul Quran",
        "main_category": "Mosque",
        "address": "HJ38+4C9 Jamia Masjid Darul Quran, Kartarpur, Nankana Sahib, Punjab, Pakistan",
        "detailed_address": {
            "ward": null,
            "street": "HJ38+4C9",
            "city": "Kartarpur",
            "postal_code": null,
            "state": "Nankana Sahib, Punjab",
            "country_code": "PK"
        },
        "images": [],
        "link": "https://www.google.com/maps/place/Jamia+Masjid+Darul+Quran/data=!4m7!3m6!1s0x39189bae0ec3bc8d:0xa94535a94df76624!8m2!3d31.5527957!4d73.6160941!16s%2Fg%2F11j1mf6tj6!19sChIJjbzDDq6bGDkRJGb3Tak1Rak?authuser=0&hl=en&rclk=1",
        "coordinates": {
            "latitude": 31.552795699999997,
            "longitude": 73.6160941
        }
    },
    {
        "name": "Jamia Masjid Anwar-E-Madina",
        "main_category": "Mosque",
        "address": "GJX8+P47 Jamia Masjid Anwar-E-Madina, Kartarpur-Panwan Rd, Kartarpur, Nankana Sahib, Punjab, Pakistan",
        "detailed_address": {
            "ward": null,
            "street": "GJX8+P47, Kartarpur-Panwan Rd",
            "city": "Kartarpur",
            "postal_code": null,
            "state": "Nankana Sahib, Punjab",
            "country_code": "PK"
        },
        "images": [
            {
                "about": "All",
                "link": "https://lh5.googleusercontent.com/p/AF1QipOGFvyG_KDv2czj8V6apXcett0h0RoV-3bSpmzH=w298-h298-k-no"
            },
            {
                "about": "Videos",
                "link": "https://lh5.googleusercontent.com/p/AF1QipNQPzD_HfVEIDPUp5UQQ24yRAiKjQdFrmSNqmDm=w224-h398-k-no"
            }
        ],
        "link": "https://www.google.com/maps/place/Jamia+Masjid+Anwar-E-Madina/data=!4m7!3m6!1s0x39189a2e4cb806b7:0x905dadd9cc265945!8m2!3d31.5492882!4d73.6152918!16s%2Fg%2F11cjhrp0cy!19sChIJtwa4TC6aGDkRRVkmzNmtXZA?authuser=0&hl=en&rclk=1",
        "coordinates": {
            "latitude": 31.5492882,
            "longitude": 73.6152918
        }
    },
    {
        "name": "Jamia Masjid Noor",
        "main_category": "Mosque",
        "address": "5R88+MVV Jamia Masjid Noor, Chak 275 RB Kartarpur, Faisalabad, Punjab, Pakistan",
        "detailed_address": {
            "ward": null,
            "street": "5R88+MVV",
            "city": "Chak 275 RB Kartarpur",
            "postal_code": null,
            "state": "Faisalabad, Punjab",
            "country_code": "PK"
        },
        "images": [],
        "link": "https://www.google.com/maps/place/Jamia+Masjid+Noor/data=!4m7!3m6!1s0x3922f97cc6c89fe7:0x50ec4e9386ed08f5!8m2!3d31.1667267!4d72.8171584!16s%2Fg%2F11h3kzfj_g!19sChIJ55_Ixnz5IjkR9QjthpNO7FA?authuser=0&hl=en&rclk=1",
        "coordinates": {
            "latitude": 31.166726699999998,
            "longitude": 72.8171584
        }
    }
]