[
    {
        "name": "Jama Masjid",
        "main_category": "Mosque",
        "address": "C48J+M7R Jama Masjid, Vasant Vihar, Makhsaspur, Begusarai, Bihar 851101",
        "detailed_address": {
            "ward": "Vasant Vihar",
            "street": "C48J+M7R",
            "city": "Makhsaspur, Begusarai",
            "postal_code": "851101",
            "state": "Bihar",
            "country_code": "IN"
        },
        "images": [
            {
                "about": "All",
                "link": "https://lh5.googleusercontent.com/p/AF1QipPyk0hsYgizvX49AZI8_b-UvZkTjBgdlTebo9Nv=w224-h298-k-no"
            },
            {
                "about": "Street View & 360deg",
                "link": "https://streetviewpixels-pa.googleapis.com/v1/thumbnail?panoid=HDk5ZFkWT7B0fVL_O4vsng&cb_client=maps_sv.tactile.gps&w=224&h=298&yaw=34.949726&pitch=0&thumbfov=100"
            }
        ],
        "link": "https://www.google.com/maps/place/Jama+Masjid/data=!4m7!3m6!1s0x39f21ad41ff6fb7d:0x361d39ee26ef7342!8m2!3d25.4167307!4d86.1306291!16s%2Fg%2F11c44dpb28!19sChIJffv2H9Qa8jkRQnPvJu45HTY?authuser=0&hl=en&rclk=1",
        "coordinates": {
            "latitude": 25.4167307,
            "longitude": 86.1306291
        }
    },
    {
        "name": "Pokharia Masjid",
        "main_category": "Mosque",
        "address": "C48Q+QHH Pokharia Masjid, Pokharia Rd, Ward 35, Chitragupta Nagar, Begusarai, Bihar 851101",
        "detailed_address": {
            "ward": "Ward 35, Chitragupta Nagar",
            "street": "C48Q+QHH, Pokharia Rd",
            "city": "Begusarai",
            "postal_code": "851101",
            "state": "Bihar",
            "country_code": "IN"
        },
        "images": [
            {
                "about": "All",
                "link": "https://lh5.googleusercontent.com/p/AF1QipM8BXkNwACpjn9bECtMJje5N2Bu_9yhYYRlamhD=w397-h298-k-no"
            }
        ],
        "link": "https://www.google.com/maps/place/Pokharia+Masjid/data=!4m7!3m6!1s0x39f21b2955ee6c6d:0xc284c56fff779333!8m2!3d25.4169455!4d86.1389708!16s%2Fg%2F11cn9z5544!19sChIJbWzuVSkb8jkRM5N3_2_FhMI?authuser=0&hl=en&rclk=1",
        "coordinates": {
            "latitude": 25.416945499999997,
            "longitude": 86.1389708
        }
    },
    {
        "name": "Kachehri Masjid",
        "main_category": "Mosque",
        "address": "C48M+WQ8 Kachehri Masjid, Vishnupur, Sarvodaya Nagar, Begusarai, Bihar 851101",
        "detailed_address": {
            "ward": "Vishnupur, Sarvodaya Nagar",
            "street": "C48M+WQ8",
            "city": "Begusarai",
            "postal_code": "851101",
            "state": "Bihar",
            "country_code": "IN"
        },
        "images": [
            {
                "about": "All",
                "link": "https://lh5.googleusercontent.com/p/AF1QipMAjoBw7xVJ6mlIlUpt2wYYjIGgfxSa34kIqMFh=w224-h403-k-no"
            },
            {
                "about": "Videos",
                "link": "https://lh5.googleusercontent.com/p/AF1QipNo-qFuRlg77DRx6iWwKzX5R2l90zi1FX0wblE=w662-h298-k-no"
            }
        ],
        "link": "https://www.google.com/maps/place/Kachehri+Masjid/data=!4m7!3m6!1s0x39f21ad5f93b714f:0xc5d45553b0f7986d!8m2!3d25.4172897!4d86.1344557!16s%2Fg%2F1tf34c8v!19sChIJT3E7-dUa8jkRbZj3sFNV1MU?authuser=0&hl=en&rclk=1",
        "coordinates": {
            "latitude": 25.417289699999998,
            "longitude": 86.13445569999999
        }
    },
    {
        "name": "Nagdah Madina Masjid",
        "main_category": "Mosque",
        "address": "C4H7+73Q Nagdah Madina Masjid, Kapasiya, Begusarai, Bihar 851101",
        "detailed_address": {
            "ward": "Kapasiya",
            "street": "C4H7+73Q",
            "city": "Begusarai",
            "postal_code": "851101",
            "state": "Bihar",
            "country_code": "IN"
        },
        "images": [
            {
                "about": "All",
                "link": "https://lh5.googleusercontent.com/p/AF1QipPJqihdq3NpjYs6_4fCnEgxL3dkgia6GN6FhQu6=w224-h298-k-no"
            },
            {
                "about": "Latest",
                "link": "https://lh5.googleusercontent.com/p/AF1QipMskDu2sOF6HCazUqJxmNilXFFxgLNyM9ys1-KG=w224-h395-k-no"
            },
            {
                "about": "Videos",
                "link": "https://lh5.googleusercontent.com/p/AF1QipPOXfNKx-5pY3CLCdj_tFtPtXln7OabkWLngBFt=w529-h298-k-no"
            },
            {
                "about": "Street View & 360deg",
                "link": "https://streetviewpixels-pa.googleapis.com/v1/thumbnail?panoid=4U9Tlhh21ZzjdH0y7Qu9LQ&cb_client=maps_sv.tactile.gps&w=224&h=298&yaw=284.54047&pitch=0&thumbfov=100"
            }
        ],
        "link": "https://www.google.com/maps/place/Nagdah+Madina+Masjid/data=!4m7!3m6!1s0x39f20549f51572ad:0xf455e0abfc299e97!8m2!3d25.4282201!4d86.1127191!16s%2Fg%2F11dybfxwjj!19sChIJrXIV9UkF8jkRl54p_KvgVfQ?authuser=0&hl=en&rclk=1",
        "coordinates": {
            "latitude": 25.428220099999997,
            "longitude": 86.11271909999999
        }
    },
    {
        "name": "Karichak Chowk Masjid",
        "main_category": "Mosque",
        "address": "F497+2FP Karichak Chowk Masjid, Begusarai, Bihar 851101",
        "detailed_address": {
            "ward": null,
            "street": "F497+2FP",
            "city": "Begusarai",
            "postal_code": "851101",
            "state": "Bihar",
            "country_code": "IN"
        },
        "images": [
            {
                "about": "All",
                "link": "https://lh5.googleusercontent.com/p/AF1QipOOALBoF32Dk0hMMzfMU1qZFDXzJFod8_DkNvfo=w224-h298-k-no"
            },
            {
                "about": "Street View & 360deg",
                "link": "https://streetviewpixels-pa.googleapis.com/v1/thumbnail?panoid=gK3imcSzkXGdas1s2MaEsA&cb_client=maps_sv.tactile.gps&w=224&h=298&yaw=303.82553&pitch=0&thumbfov=100"
            },
            {
                "about": "Videos",
                "link": "https://lh5.googleusercontent.com/p/AF1QipPyLPYNLE9f-ddW1xrNYs1jbDCeZPcGJ6T38Odm=w224-h398-k-no"
            }
        ],
        "link": "https://www.google.com/maps/place/Karichak+Chowk+Masjid/data=!4m7!3m6!1s0x39f2057531486d05:0x48f4273888c4d020!8m2!3d25.4675988!4d86.1137122!16s%2Fg%2F11crzxnd_8!19sChIJBW1IMXUF8jkRINDEiDgn9Eg?authuser=0&hl=en&rclk=1",
        "coordinates": {
            "latitude": 25.467598799999998,
            "longitude": 86.1137122
        }
    },
    {
        "name": "Masjid Taqwa,miya Chak",
        "main_category": "Mosque",
        "address": "C47J+36C Masjid Taqwa,miya Chak, Ratanpur, Alaudipur, Begusarai, Bihar 851101",
        "detailed_address": {
            "ward": "Ratanpur",
            "street": "C47J+36C",
            "city": "Alaudipur, Begusarai",
            "postal_code": "851101",
            "state": "Bihar",
            "country_code": "IN"
        },
        "images": [
            {
                "about": "All",
                "link": "https://lh5.googleusercontent.com/p/AF1QipMVwek9Fq8LCniGgdK5SQefbqrMHCMi5UTCqX4V=w224-h298-k-no"
            }
        ],
        "link": "https://www.google.com/maps/place/Masjid+Taqwa,miya+Chak/data=!4m7!3m6!1s0x39f21ad73e749011:0x8d4c6be00c6bb592!8m2!3d25.4126791!4d86.1305225!16s%2Fg%2F11g6w_vb3m!19sChIJEZB0Ptca8jkRkrVrDOBrTI0?authuser=0&hl=en&rclk=1",
        "coordinates": {
            "latitude": 25.4126791,
            "longitude": 86.1305225
        }
    },
    {
        "name": "Jama Masjid Hardia",
        "main_category": "Mosque",
        "address": "F43R+355 Jama Masjid Hardia, Begusarai, Sikardarpur, Bihar 851101",
        "detailed_address": {
            "ward": null,
            "street": "F43R+355",
            "city": "Begusarai, Sikardarpur",
            "postal_code": "851101",
            "state": "Bihar",
            "country_code": "IN"
        },
        "images": [
            {
                "about": "All",
                "link": "https://lh5.googleusercontent.com/p/AF1QipOhVw6fyQ5MhkDoQXUqTmMt9LyQTigREXfLci-D=w224-h497-k-no"
            },
            {
                "about": "Videos",
                "link": "https://lh5.googleusercontent.com/p/AF1QipNJZGshSiV6p1HvUlolpES-7Rj4IWHZOhQbVabo=w224-h398-k-no"
            }
        ],
        "link": "https://www.google.com/maps/place/Jama+Masjid+Hardia/data=!4m7!3m6!1s0x39f204e41dd30d23:0xe4f6197703e2029d!8m2!3d25.4526274!4d86.140489!16s%2Fg%2F11fyx96h60!19sChIJIw3THeQE8jkRnQLiA3cZ9uQ?authuser=0&hl=en&rclk=1",
        "coordinates": {
            "latitude": 25.452627399999997,
            "longitude": 86.140489
        }
    },
    {
        "name": "Madina Masjid",
        "main_category": "Mosque",
        "address": "C3MX+38V Madina Masjid, Singhaul Dih, Begusarai, Bihar 851101",
        "detailed_address": {
            "ward": "Singhaul Dih",
            "street": "C3MX+38V",
            "city": "Begusarai",
            "postal_code": "851101",
            "state": "Bihar",
            "country_code": "IN"
        },
        "images": [
            {
                "about": "All",
                "link": "https://lh5.googleusercontent.com/p/AF1QipOfDczoHVYskTf4mefj6SomC6YbX6rNZ04kSAW4=w484-h298-k-no"
            },
            {
                "about": "Street View & 360deg",
                "link": "https://streetviewpixels-pa.googleapis.com/v1/thumbnail?panoid=Ja-FVG8nkbXyqchaJtl2jQ&cb_client=maps_sv.tactile.gps&w=224&h=298&yaw=46.62724&pitch=0&thumbfov=100"
            },
            {
                "about": "Videos",
                "link": "https://lh5.googleusercontent.com/p/AF1QipN3CQ6XOd96LK3yMvqtXEn4nK-C39PlosjKVPni=w529-h298-k-no"
            }
        ],
        "link": "https://www.google.com/maps/place/Madina+Masjid/data=!4m7!3m6!1s0x39f205574fabeaed:0x23d235163353e605!8m2!3d25.4327339!4d86.0982975!16s%2Fg%2F11by_wmc4w!19sChIJ7eqrT1cF8jkRBeZTMxY10iM?authuser=0&hl=en&rclk=1",
        "coordinates": {
            "latitude": 25.4327339,
            "longitude": 86.0982975
        }
    },
    {
        "name": "Miyanchak Masjid",
        "main_category": "Mosque",
        "address": "C46M+H9C Miyanchak Masjid, Sanichra Asthan, Ratanpur, Begusarai, Bihar 851101",
        "detailed_address": {
            "ward": "Sanichra Asthan, Ratanpur",
            "street": "C46M+H9C",
            "city": "Begusarai",
            "postal_code": "851101",
            "state": "Bihar",
            "country_code": "IN"
        },
        "images": [],
        "link": "https://www.google.com/maps/place/Miyanchak+Masjid/data=!4m7!3m6!1s0x39f21ad7f25aa215:0xfb65040046edf499!8m2!3d25.4114444!4d86.133403!16s%2Fg%2F11gdkx20tz!19sChIJFaJa8tca8jkRmfTtRgAEZfs?authuser=0&hl=en&rclk=1",
        "coordinates": {
            "latitude": 25.4114444,
            "longitude": 86.133403
        }
    },
    {
        "name": "Refinery Masjid",
        "main_category": "Mosque",
        "address": "C476+693 Refinery Masjid, Refinery Twp, Begusarai, Bihar 851117",
        "detailed_address": {
            "ward": "Refinery Township",
            "street": "C476+693",
            "city": "Begusarai",
            "postal_code": "851117",
            "state": "Bihar",
            "country_code": "IN"
        },
        "images": [
            {
                "about": "All",
                "link": "https://lh5.googleusercontent.com/p/AF1QipN7oFmqX6pqX-YI5xcdrSJHnyqhovYh0NHjTyUH=w397-h298-k-no"
            }
        ],
        "link": "https://www.google.com/maps/place/Refinery+Masjid/data=!4m7!3m6!1s0x39f21ab71cb7bc79:0x50a6b343c7de5f26!8m2!3d25.4130092!4d86.1109068!16s%2Fg%2F1hm5c1pqz!19sChIJeby3HLca8jkRJl_ex0OzplA?authuser=0&hl=en&rclk=1",
        "coordinates": {
            "latitude": 25.413009199999998,
            "longitude": 86.1109068
        }
    },
    {
        "name": "Dumri Jama Masjid",
        "main_category": "Mosque",
        "address": "Dumri Jama Masjid, Dumri, Ratanpur Rd, Pattapur, Dumri, Begusarai, Bihar 851117",
        "detailed_address": {
            "ward": "Pattapur, Dumri",
            "street": "Dumri, Ratanpur Rd",
            "city": "Begusarai",
            "postal_code": "851117",
            "state": "Bihar",
            "country_code": "IN"
        },
        "images": [
            {
                "about": "All",
                "link": "https://lh5.googleusercontent.com/p/AF1QipP1wC_ccibQ3iyOGoF-FruIxIlAbKTGWhE4hBsd=w224-h398-k-no"
            },
            {
                "about": "Dome",
                "link": "https://lh5.googleusercontent.com/p/AF1QipM2eRe-V6VvTNNA-U2_DPJW0FE8oaAI6TYUOtJj=w397-h298-k-no"
            },
            {
                "about": "Videos",
                "link": "https://lh5.googleusercontent.com/p/AF1QipPb7RGqt-5AlczJdYEWDzdtxrBuQ-7-J29snboF=w224-h398-k-no"
            },
            {
                "about": "Street View & 360deg",
                "link": "https://streetviewpixels-pa.googleapis.com/v1/thumbnail?panoid=FiYhKsFkbTMzqmJJTRgl7A&cb_client=maps_sv.tactile.gps&w=224&h=298&yaw=19.20456&pitch=0&thumbfov=100"
            }
        ],
        "link": "https://www.google.com/maps/place/Dumri+Jama+Masjid/data=!4m7!3m6!1s0x39f21ac10ded67a5:0x8153f43b4b3513e6!8m2!3d25.4023144!4d86.1174717!16s%2Fg%2F11g6qrz1m3!19sChIJpWftDcEa8jkR5hM1Szv0U4E?authuser=0&hl=en&rclk=1",
        "coordinates": {
            "latitude": 25.402314399999998,
            "longitude": 86.1174717
        }
    },
    {
        "name": "Harrakh Old Masjid",
        "main_category": "Mosque",
        "address": "Harrakh Old Masjid, teen pai, Ward No.12, harag, near Shivalay Road, Kaushal Colony, Begusarai, Bihar 851101",
        "detailed_address": {
            "ward": "Kaushal Colony, Kapasiya",
            "street": "teen pai, Ward No.12, harag, near Shivalay Road",
            "city": "Begusarai",
            "postal_code": "851101",
            "state": "Bihar",
            "country_code": "IN"
        },
        "images": [
            {
                "about": "All",
                "link": "https://lh5.googleusercontent.com/p/AF1QipOWiLJ6CiR95VsLafN7u_k3qLgOBI85OQdS6vvI=w529-h298-k-no"
            }
        ],
        "link": "https://www.google.com/maps/place/Harrakh+Old+Masjid/data=!4m7!3m6!1s0x39f20533667b9de3:0xa8a18b897b3fdff9!8m2!3d25.4241205!4d86.1196628!16s%2Fg%2F11bw473t_x!19sChIJ4517ZjMF8jkR-d8_e4mLoag?authuser=0&hl=en&rclk=1",
        "coordinates": {
            "latitude": 25.424120499999997,
            "longitude": 86.1196628
        }
    },
    {
        "name": "Jama Masjid",
        "main_category": "Mosque",
        "address": "C57R+5W7 Jama Masjid, Begusarai, Bihar 851126",
        "detailed_address": {
            "ward": null,
            "street": "C57R+5W7",
            "city": "Begusarai",
            "postal_code": "851126",
            "state": "Bihar",
            "country_code": "IN"
        },
        "images": [
            {
                "about": "All",
                "link": "https://streetviewpixels-pa.googleapis.com/v1/thumbnail?panoid=_n3Y2unUrt-Ahyxscbgd9g&cb_client=maps_sv.tactile.gps&w=224&h=298&yaw=140.42548&pitch=0&thumbfov=100"
            },
            {
                "about": "Street View & 360deg",
                "link": "https://streetviewpixels-pa.googleapis.com/v1/thumbnail?panoid=_n3Y2unUrt-Ahyxscbgd9g&cb_client=maps_sv.tactile.gps&w=224&h=298&yaw=140.42548&pitch=0&thumbfov=100"
            }
        ],
        "link": "https://www.google.com/maps/place/Jama+Masjid/data=!4m7!3m6!1s0x39f21cb764db5c1d:0xaf5a2f947507c34b!8m2!3d25.4129026!4d86.1923111!16s%2Fg%2F11g8pdnp8q!19sChIJHVzbZLcc8jkRS8MHdZQvWq8?authuser=0&hl=en&rclk=1",
        "coordinates": {
            "latitude": 25.4129026,
            "longitude": 86.1923111
        }
    },
    {
        "name": "New Masjid Harrakh",
        "main_category": "Mosque",
        "address": "New Masjid Harrakh, S.I.Rahman New Muslim Colony Ward No- 13, Kaushal Colony, Kapasiya, Harrakh, Bihar 851101",
        "detailed_address": {
            "ward": "Kaushal Colony, Kapasiya",
            "street": "S.I.Rahman New Muslim Colony Ward No- 13",
            "city": "Harrakh, Begusarai",
            "postal_code": "851101",
            "state": "Bihar",
            "country_code": "IN"
        },
        "images": [
            {
                "about": "All",
                "link": "https://lh5.googleusercontent.com/p/AF1QipMiw5buG3_7kSP4flSi2cPS4739F1-KUNUa34E1=w224-h298-k-no"
            },
            {
                "about": "Videos",
                "link": "https://lh5.googleusercontent.com/p/AF1QipM2YyCPDoK-kzbzUwXN7gBepbXHgQTMA1O86NsL=w224-h398-k-no"
            }
        ],
        "link": "https://www.google.com/maps/place/New+Masjid+Harrakh/data=!4m7!3m6!1s0x39f20557f26c699b:0xefe92a3ef74001b2!8m2!3d25.4227398!4d86.1186831!16s%2Fg%2F11r9ljhqdb!19sChIJm2ls8lcF8jkRsgFA9z4q6e8?authuser=0&hl=en&rclk=1",
        "coordinates": {
            "latitude": 25.4227398,
            "longitude": 86.1186831
        }
    },
    {
        "name": "Qadri masjid Bado tola Dumri",
        "main_category": "Mosque",
        "address": "94X8+499 Qadri masjid Bado tola Dumri, Dumri, Begusarai, Bihar 851101",
        "detailed_address": {
            "ward": "Dumri",
            "street": "94X8+499",
            "city": "Begusarai",
            "postal_code": "851101",
            "state": "Bihar",
            "country_code": "IN"
        },
        "images": [
            {
                "about": "All",
                "link": "https://lh5.googleusercontent.com/p/AF1QipPCb-2lA8aK7i893PbNuzmtrr83LPRs6RCUo4cQ=w224-h298-k-no"
            }
        ],
        "link": "https://www.google.com/maps/place/Qadri+masjid+Bado+tola+Dumri/data=!4m7!3m6!1s0x39f21b6cee0323d1:0x4e6b14face6d53c7!8m2!3d25.3977754!4d86.1159826!16s%2Fg%2F11j51wfqtv!19sChIJ0SMD7mwb8jkRx1NtzvoUa04?authuser=0&hl=en&rclk=1",
        "coordinates": {
            "latitude": 25.3977754,
            "longitude": 86.1159826
        }
    },
    {
        "name": "Bajidpur jama masjid. Ward no. 44\"",
        "main_category": "Mosque",
        "address": "C544+9XC Bajidpur jama masjid. Ward no. 44\", Bajidpur masjid. Amirabad school, Begusarai",
        "detailed_address": {
            "ward": "Bishanpur",
            "street": "C544+9XC, Bajidpur masjid. Amirabad school",
            "city": "Begusarai, Mohan Eghu",
            "postal_code": null,
            "state": "Bihar",
            "country_code": "IN"
        },
        "images": [
            {
                "about": "All",
                "link": "https://lh5.googleusercontent.com/p/AF1QipP7ntf-7QdrACY9NCwWNARiIC2MusBusaJZZNFd=w224-h398-k-no"
            },
            {
                "about": "Street View & 360deg",
                "link": "https://streetviewpixels-pa.googleapis.com/v1/thumbnail?panoid=OgXhmFTWM6r_cBf5Fb7SLw&cb_client=maps_sv.tactile.gps&w=224&h=298&yaw=13.253515&pitch=0&thumbfov=100"
            }
        ],
        "link": "https://www.google.com/maps/place/Bajidpur+jama+masjid.+Ward+no.+44%22/data=!4m7!3m6!1s0x39f21bf859ecfe09:0xd57906f08a1badb0!8m2!3d25.4059433!4d86.1573893!16s%2Fg%2F11np1y_404!19sChIJCf7sWfgb8jkRsK0bivAGedU?authuser=0&hl=en&rclk=1",
        "coordinates": {
            "latitude": 25.4059433,
            "longitude": 86.15738929999999
        }
    },
    {
        "name": "Khatopur masjid, Begusarai 851129 Bihar",
        "main_category": "Mosque",
        "address": "C556+RCP Khatopur masjid, Begusarai 851129 Bihar, Masjid Rd, Khatopur, Begusarai, Mohan Eghu, Bihar 851129",
        "detailed_address": {
            "ward": "Khatopur",
            "street": "C556+RCP, Masjid Rd",
            "city": "Begusarai, Mohan Eghu",
            "postal_code": "851129",
            "state": "Bihar",
            "country_code": "IN"
        },
        "images": [
            {
                "about": "All",
                "link": "https://streetviewpixels-pa.googleapis.com/v1/thumbnail?panoid=NVGiRqyAak3WMgsyLhgwzA&cb_client=maps_sv.tactile.gps&w=224&h=298&yaw=128.82558&pitch=0&thumbfov=100"
            },
            {
                "about": "Street View & 360deg",
                "link": "https://streetviewpixels-pa.googleapis.com/v1/thumbnail?panoid=NVGiRqyAak3WMgsyLhgwzA&cb_client=maps_sv.tactile.gps&w=224&h=298&yaw=128.82558&pitch=0&thumbfov=100"
            }
        ],
        "link": "https://www.google.com/maps/place/Khatopur+masjid,+Begusarai+851129+Bihar/data=!4m7!3m6!1s0x39f21bc59074abd3:0xb95108efad44b8f5!8m2!3d25.4095766!4d86.1610699!16s%2Fg%2F11rmq0d1pc!19sChIJ06t0kMUb8jkR9bhEre8IUbk?authuser=0&hl=en&rclk=1",
        "coordinates": {
            "latitude": 25.409576599999998,
            "longitude": 86.1610699
        }
    },
    {
        "name": "Rajapur Masjid",
        "main_category": "Mosque",
        "address": "Rajapur Masjid, Masjid E Ummar Farooq, Rajapur, Begusarai, Bihar 851117",
        "detailed_address": {
            "ward": "Rajapur",
            "street": "Masjid E Ummar Farooq",
            "city": "Begusarai",
            "postal_code": "851117",
            "state": "Bihar",
            "country_code": "IN"
        },
        "images": [
            {
                "about": "All",
                "link": "https://streetviewpixels-pa.googleapis.com/v1/thumbnail?panoid=onWQSgelNVvQxHXjhrnT_A&cb_client=maps_sv.tactile.gps&w=224&h=298&yaw=280.88586&pitch=0&thumbfov=100"
            },
            {
                "about": "Street View & 360deg",
                "link": "https://streetviewpixels-pa.googleapis.com/v1/thumbnail?panoid=onWQSgelNVvQxHXjhrnT_A&cb_client=maps_sv.tactile.gps&w=224&h=298&yaw=280.88586&pitch=0&thumbfov=100"
            }
        ],
        "link": "https://www.google.com/maps/place/Rajapur+Masjid/data=!4m7!3m6!1s0x39f21bb7f15a6885:0x51830b99c3479f0b!8m2!3d25.4059837!4d86.1061597!16s%2Fg%2F11t40tzlw0!19sChIJhWha8bcb8jkRC59Hw5kLg1E?authuser=0&hl=en&rclk=1",
        "coordinates": {
            "latitude": 25.4059837,
            "longitude": 86.10615969999999
        }
    },
    {
        "name": "MASJID E SHAD",
        "main_category": "Mosque",
        "address": "MASJID E SHAD, Naokothi, Begusarai, Bihar 851101",
        "detailed_address": {
            "ward": "Naokothi",
            "street": null,
            "city": "Begusarai",
            "postal_code": "851101",
            "state": "Bihar",
            "country_code": "IN"
        },
        "images": [
            {
                "about": "All",
                "link": "https://lh5.googleusercontent.com/p/AF1QipORzQ7gaI2Lk-EWsuIeNfAC_8PHqW7WtN-AHIcF=w646-h298-k-no"
            }
        ],
        "link": "https://www.google.com/maps/place/MASJID+E+SHAD/data=!4m7!3m6!1s0x39f2052d9faed559:0xc9edfb9316c0dd29!8m2!3d25.4530802!4d86.1222935!16s%2Fg%2F11j5lgw223!19sChIJWdWuny0F8jkRKd3AFpP77ck?authuser=0&hl=en&rclk=1",
        "coordinates": {
            "latitude": 25.4530802,
            "longitude": 86.1222935
        }
    },
    {
        "name": "Nagdah masjid",
        "main_category": "Mosque",
        "address": "C4J8+HRG Nagdah masjid, Nagdah, Begusarai, Bihar 851117",
        "detailed_address": {
            "ward": "Nagdah",
            "street": "C4J8+HRG",
            "city": "Begusarai",
            "postal_code": "851117",
            "state": "Bihar",
            "country_code": "IN"
        },
        "images": [
            {
                "about": "All",
                "link": "https://streetviewpixels-pa.googleapis.com/v1/thumbnail?panoid=yWXB8vFxDOqfbvwSDaPbmA&cb_client=maps_sv.tactile.gps&w=224&h=298&yaw=185.75897&pitch=0&thumbfov=100"
            },
            {
                "about": "Street View & 360deg",
                "link": "https://streetviewpixels-pa.googleapis.com/v1/thumbnail?panoid=yWXB8vFxDOqfbvwSDaPbmA&cb_client=maps_sv.tactile.gps&w=224&h=298&yaw=185.75897&pitch=0&thumbfov=100"
            }
        ],
        "link": "https://www.google.com/maps/place/Nagdah+masjid/data=!4m7!3m6!1s0x39f205b79e5b822f:0xb3f24da04e73b523!8m2!3d25.4314432!4d86.1170782!16s%2Fg%2F11ftw7vbjs!19sChIJL4JbnrcF8jkRI7VzTqBN8rM?authuser=0&hl=en&rclk=1",
        "coordinates": {
            "latitude": 25.4314432,
            "longitude": 86.1170782
        }
    },
    {
        "name": "Bagha Zama masjid begusarai",
        "main_category": "Mosque",
        "address": "C4MM+627 Bagha Zama masjid begusarai, Begusarai, Bihar 851101",
        "detailed_address": {
            "ward": null,
            "street": "C4MM+627",
            "city": "Begusarai",
            "postal_code": "851101",
            "state": "Bihar",
            "country_code": "IN"
        },
        "images": [],
        "link": "https://www.google.com/maps/place/Bagha+Zama+masjid+begusarai/data=!4m7!3m6!1s0x39f20565d1f4109d:0x69d9999b2c2c9d2f!8m2!3d25.4330256!4d86.1325519!16s%2Fg%2F11vb50j3pb!19sChIJnRD00WUF8jkRL50sLJuZ2Wk?authuser=0&hl=en&rclk=1",
        "coordinates": {
            "latitude": 25.4330256,
            "longitude": 86.1325519
        }
    },
    {
        "name": "Bagha Masjid",
        "main_category": "Religious destination",
        "address": "C4GH+XWM Bagha Masjid, Bagha Rd, ward 29, Begusarai, Bihar 851101",
        "detailed_address": {
            "ward": "ward 29",
            "street": "C4GH+XWM, Bagha Rd",
            "city": "Begusarai",
            "postal_code": "851101",
            "state": "Bihar",
            "country_code": "IN"
        },
        "images": [
            {
                "about": "All",
                "link": "https://lh5.googleusercontent.com/p/AF1QipORgy3zyDCjYVQi_SoYjccd-JeekfTJbCeXnfM=w224-h398-k-no"
            },
            {
                "about": "Street View & 360deg",
                "link": "https://streetviewpixels-pa.googleapis.com/v1/thumbnail?panoid=IS_OHz7MK63VZp5DFAiCDQ&cb_client=maps_sv.tactile.gps&w=224&h=298&yaw=292.74677&pitch=0&thumbfov=100"
            }
        ],
        "link": "https://www.google.com/maps/place/Bagha+Masjid/data=!4m7!3m6!1s0x39f2056544136b2d:0x189aec1a651d28df!8m2!3d25.4274691!4d86.1297911!16s%2Fg%2F11sq20rpx1!19sChIJLWsTRGUF8jkR3ygdZRrsmhg?authuser=0&hl=en&rclk=1",
        "coordinates": {
            "latitude": 25.4274691,
            "longitude": 86.12979109999999
        }
    },
    {
        "name": "Ulao mosque",
        "main_category": "Mosque",
        "address": "C38R+PQW Ulao mosque, NT Nagar, Ulao, Begusarai, Bihar 851134",
        "detailed_address": {
            "ward": "NT Nagar, Ulao",
            "street": "C38R+PQW",
            "city": "Begusarai",
            "postal_code": "851134",
            "state": "Bihar",
            "country_code": "IN"
        },
        "images": [
            {
                "about": "All",
                "link": "https://lh5.googleusercontent.com/p/AF1QipOhUEtP6svFy9rYHGlzpIRhtEV_lOztpUTKZ_5U=w224-h473-k-no"
            }
        ],
        "link": "https://www.google.com/maps/place/Ulao+mosque/data=!4m7!3m6!1s0x39f21137d079b031:0x456d71ee84651a!8m2!3d25.4168688!4d86.0919641!16s%2Fg%2F11rw7jd93d!19sChIJMbB50DcR8jkRGmWE7nFtRQA?authuser=0&hl=en&rclk=1",
        "coordinates": {
            "latitude": 25.4168688,
            "longitude": 86.0919641
        }
    },
    {
        "name": "jmaa ,msjid Jama, masjid (Singhaul word no--01)",
        "main_category": "Mosque",
        "address": "C4P2+J26 jmaa ,msjid Jama, masjid (Singhaul word no--01), Singhaul Dih, Begusarai, Bihar 851101",
        "detailed_address": {
            "ward": "Singhaul Dih",
            "street": "C4P2+J26",
            "city": "Begusarai",
            "postal_code": "851101",
            "state": "Bihar",
            "country_code": "IN"
        },
        "images": [
            {
                "about": "All",
                "link": "https://lh5.googleusercontent.com/p/AF1QipMYmvJMiaKXAYwDg28LT7WzBtLPcrc3ZmwuUJbC=w224-h333-k-no"
            },
            {
                "about": "Dome",
                "link": "https://lh5.googleusercontent.com/p/AF1QipMYmvJMiaKXAYwDg28LT7WzBtLPcrc3ZmwuUJbC=w224-h333-k-no"
            }
        ],
        "link": "https://www.google.com/maps/place/%E0%A4%9C%E0%A4%AE%E0%A4%BE+,%E0%A4%AE%E0%A4%B8%E0%A5%8D%E0%A4%9C%E0%A4%BF%E0%A4%A6+Jama,+masjid+%28Singhaul+word+no%E2%80%9401%29/data=!4m7!3m6!1s0x39f205e8cc111e2f:0x2e970e37ac50386!8m2!3d25.4365384!4d86.1000124!16s%2Fg%2F11jzp08ssv!19sChIJLx4RzOgF8jkRhgPFeuNw6QI?authuser=0&hl=en&rclk=1",
        "coordinates": {
            "latitude": 25.4365384,
            "longitude": 86.1000124
        }
    },
    {
        "name": "Masjid-e-Aqsa Sawant",
        "main_category": "Mosque",
        "address": "Masjid-e-Aqsa Sawant, Ward No.-12 Sawant ,Chhaurahi ,Via :-Meghaul, Begusarai, Bihar",
        "detailed_address": {
            "ward": "Vasant Vihar",
            "street": "Ward No.-12 Sawant ,Chhaurahi ,Via :-Meghaul",
            "city": "Begusarai",
            "postal_code": null,
            "state": "Bihar",
            "country_code": "IN"
        },
        "images": [
            {
                "about": "All",
                "link": "https://streetviewpixels-pa.googleapis.com/v1/thumbnail?panoid=SavXogw4D3lajfQflvpa3A&cb_client=maps_sv.tactile.gps&w=224&h=298&yaw=220.7606&pitch=0&thumbfov=100"
            },
            {
                "about": "Street View & 360deg",
                "link": "https://streetviewpixels-pa.googleapis.com/v1/thumbnail?panoid=SavXogw4D3lajfQflvpa3A&cb_client=maps_sv.tactile.gps&w=224&h=298&yaw=220.7606&pitch=0&thumbfov=100"
            }
        ],
        "link": "https://www.google.com/maps/place/Masjid-e-Aqsa+Sawant/data=!4m7!3m6!1s0x39f21bd7beb620bf:0x8de3ac7cef67fbf3!8m2!3d25.4181163!4d86.1271353!16s%2Fg%2F11v0j51k38!19sChIJvyC2vtcb8jkR8_tn73ys440?authuser=0&hl=en&rclk=1",
        "coordinates": {
            "latitude": 25.418116299999998,
            "longitude": 86.12713529999999
        }
    },
    {
        "name": "JAMA MASJID, SINGHAUL",
        "main_category": "Place of worship",
        "address": "C4P2+22J JAMA MASJID, SINGHAUL, Singhaul Dih, Begusarai, Bihar 851101",
        "detailed_address": {
            "ward": "Singhaul Dih",
            "street": "C4P2+22J",
            "city": "Begusarai",
            "postal_code": "851101",
            "state": "Bihar",
            "country_code": "IN"
        },
        "images": [],
        "link": "https://www.google.com/maps/place/JAMA+MASJID,+SINGHAUL/data=!4m7!3m6!1s0x39f20558d34832ad:0x88cf0b30418264c4!8m2!3d25.435086!4d86.1000111!16s%2Fg%2F11tmk2ccv9!19sChIJrTJI01gF8jkRxGSCQTALz4g?authuser=0&hl=en&rclk=1",
        "coordinates": {
            "latitude": 25.435086,
            "longitude": 86.10001109999999
        }
    },
    {
        "name": "Huzoor Baba peer rahmatullah alaih",
        "main_category": "Mosque",
        "address": "Huzoor Baba peer rahmatullah alaih, Baba peer, dargag, Dumri, Begusarai, Bihar 851101",
        "detailed_address": {
            "ward": "Dumri",
            "street": "Baba peer, dargag",
            "city": "Begusarai",
            "postal_code": "851101",
            "state": "Bihar",
            "country_code": "IN"
        },
        "images": [],
        "link": "https://www.google.com/maps/place/Huzoor+Baba+peer+rahmatullah+alaih/data=!4m7!3m6!1s0x39f21b6fea7be0a3:0xb5a482c071649452!8m2!3d25.3999964!4d86.1159645!16s%2Fg%2F11ht7zbtxn!19sChIJo-B76m8b8jkRUpRkccCCpLU?authuser=0&hl=en&rclk=1",
        "coordinates": {
            "latitude": 25.3999964,
            "longitude": 86.11596449999999
        }
    }
]