[
    {
        "name": "Masjid Mangal Khan_Tehsil Tilhar",
        "main_category": "Mosque",
        "address": "Masjid Mangal Khan_Tehsil Tilhar, inside Tehsil Road, near North Gate, Mansoorpur, Tilhar, Uttar Pradesh 242307",
        "detailed_address": {
            "ward": "Mansoorpur",
            "street": "inside Tehsil Road, near North Gate",
            "city": "Tilhar",
            "postal_code": "242307",
            "state": "Uttar Pradesh",
            "country_code": "IN"
        },
        "images": [
            {
                "about": "All",
                "link": "https://lh5.googleusercontent.com/p/AF1QipMP24TGiXrZPNRy2DFo4-Ve54xE5JOOA_S05PII=w240-h298-k-no"
            },
            {
                "about": "By owner",
                "link": "https://lh5.googleusercontent.com/p/AF1QipMP24TGiXrZPNRy2DFo4-Ve54xE5JOOA_S05PII=w240-h298-k-no"
            }
        ],
        "link": "https://www.google.com/maps/place/Masjid+Mangal+Khan_Tehsil+Tilhar/data=!4m7!3m6!1s0x399febaf6b0d5167:0xaf4b4a62b9631d90!8m2!3d27.9673246!4d79.7303877!16s%2Fg%2F11q9brv09n!19sChIJZ1ENa6_rnzkRkB1juWJKS68?authuser=0&hl=en&rclk=1",
        "coordinates": {
            "latitude": 27.967324599999998,
            "longitude": 79.7303877
        }
    },
    {
        "name": "Badi Masjid",
        "main_category": "Mosque",
        "address": "XP5W+2F5 Badi Masjid, Tilhar, Uttar Pradesh 242307",
        "detailed_address": {
            "ward": null,
            "street": "XP5W+2F5",
            "city": "Tilhar",
            "postal_code": "242307",
            "state": "Uttar Pradesh",
            "country_code": "IN"
        },
        "images": [
            {
                "about": "All",
                "link": "https://lh5.googleusercontent.com/p/AF1QipNee2PhOiAoDcfJmus-6dUbf1-ygKAPyHpeV3Lw=w397-h298-k-no"
            },
            {
                "about": "Dome",
                "link": "https://lh5.googleusercontent.com/p/AF1QipMgSvahPvVydm4X_wmoK7bxNhXVX-2VOVtGbI16=w224-h298-k-no"
            },
            {
                "about": "Videos",
                "link": "https://lh5.googleusercontent.com/p/AF1QipMwUgMGnrz53kLeJEZPSkp6v7dwKa0MaAaLCDF4=w224-h398-k-no"
            },
            {
                "about": "Street View & 360deg",
                "link": "https://streetviewpixels-pa.googleapis.com/v1/thumbnail?panoid=P_83Z-EZc_e4h7UOHr_ziQ&cb_client=maps_sv.tactile.gps&w=224&h=298&yaw=229.4733&pitch=0&thumbfov=100"
            }
        ],
        "link": "https://www.google.com/maps/place/Badi+Masjid/data=!4m7!3m6!1s0x399f95295ae70389:0x625d90d36073518a!8m2!3d27.9575186!4d79.7462275!16s%2Fg%2F11cssnl3nz!19sChIJiQPnWimVnzkRilFzYNOQXWI?authuser=0&hl=en&rclk=1",
        "coordinates": {
            "latitude": 27.9575186,
            "longitude": 79.7462275
        }
    },
    {
        "name": "HUSAINI MASJID",
        "main_category": "Mosque",
        "address": "XP2X+9JW HUSAINI MASJID, Kaswa Tilhar, Tilhar, Uttar Pradesh 242307",
        "detailed_address": {
            "ward": "Kaswa Tilhar",
            "street": "XP2X+9JW",
            "city": "Tilhar",
            "postal_code": "242307",
            "state": "Uttar Pradesh",
            "country_code": "IN"
        },
        "images": [
            {
                "about": "All",
                "link": "https://streetviewpixels-pa.googleapis.com/v1/thumbnail?panoid=5RTFtw70HIEDJCeRgfKe0A&cb_client=maps_sv.tactile.gps&w=224&h=298&yaw=139.13206&pitch=0&thumbfov=100"
            },
            {
                "about": "Dome",
                "link": "https://lh5.googleusercontent.com/p/AF1QipNot9jLhFrkPFO1yr7ByvwvIWOw9u-sqm5XMOvr=w301-h298-k-no"
            },
            {
                "about": "Street View & 360deg",
                "link": "https://streetviewpixels-pa.googleapis.com/v1/thumbnail?panoid=5RTFtw70HIEDJCeRgfKe0A&cb_client=maps_sv.tactile.gps&w=224&h=298&yaw=139.13206&pitch=0&thumbfov=100"
            }
        ],
        "link": "https://www.google.com/maps/place/HUSAINI+MASJID/data=!4m7!3m6!1s0x399f95b57b7a92e1:0x824110894a279af8!8m2!3d27.9509816!4d79.74909!16s%2Fg%2F11mnkfg_rr!19sChIJ4ZJ6e7WVnzkR-JonSokQQYI?authuser=0&hl=en&rclk=1",
        "coordinates": {
            "latitude": 27.9509816,
            "longitude": 79.74909
        }
    },
    {
        "name": "jama masjid tilhar",
        "main_category": "Mosque",
        "address": "XP3W+8C6 jama masjid tilhar, Kaswa Tilhar, Tilhar, Uttar Pradesh 242307",
        "detailed_address": {
            "ward": "Kaswa Tilhar",
            "street": "XP3W+8C6",
            "city": "Tilhar",
            "postal_code": "242307",
            "state": "Uttar Pradesh",
            "country_code": "IN"
        },
        "images": [],
        "link": "https://www.google.com/maps/place/jama+masjid+tilhar/data=!4m7!3m6!1s0x399f952e7ba00493:0xdf26d4d7dbd8304f!8m2!3d27.9532903!4d79.7460133!16s%2Fg%2F11bwkzj4__!19sChIJkwSgey6VnzkRTzDY29fUJt8?authuser=0&hl=en&rclk=1",
        "coordinates": {
            "latitude": 27.9532903,
            "longitude": 79.7460133
        }
    },
    {
        "name": "Masjid Imam E Azam Abu Haneefa (R. A.)",
        "main_category": "Mosque",
        "address": "Masjid Imam E Azam Abu Haneefa (R. A.), near Nadira Boutique, Mohalla Nitganja, Tilhar, Uttar Pradesh 242307",
        "detailed_address": {
            "ward": "Mohalla Nitganja",
            "street": "near Nadira Boutique",
            "city": "Tilhar",
            "postal_code": "242307",
            "state": "Uttar Pradesh",
            "country_code": "IN"
        },
        "images": [
            {
                "about": "All",
                "link": "https://lh5.googleusercontent.com/p/AF1QipPnrgmBAtS9Z4lb_muCCHS8HRc7eFmpqffOY3eQ=w224-h298-k-no"
            },
            {
                "about": "By owner",
                "link": "https://lh5.googleusercontent.com/p/AF1QipO2X-xWgWIrEFq2x5ZXGaeIIKwhMjnFofiw2Bd9=w224-h398-k-no"
            },
            {
                "about": "Street View & 360deg",
                "link": "https://streetviewpixels-pa.googleapis.com/v1/thumbnail?panoid=1hvFL1-6ci5V6DYRqgJusQ&cb_client=maps_sv.tactile.gps&w=224&h=298&yaw=280.1307&pitch=0&thumbfov=100"
            }
        ],
        "link": "https://www.google.com/maps/place/Masjid+Imam+E+Azam+Abu+Haneefa+%28R.+A.%29/data=!4m7!3m6!1s0x399f9562e38f200b:0x43e96500571325e2!8m2!3d27.9509613!4d79.7473982!16s%2Fg%2F11h7jxtlwk!19sChIJCyCP42KVnzkR4iUTVwBl6UM?authuser=0&hl=en&rclk=1",
        "coordinates": {
            "latitude": 27.9509613,
            "longitude": 79.74739819999999
        }
    },
    {
        "name": "Masjid Idashah",
        "main_category": "Mosque",
        "address": "XP3V+2QG Masjid Idashah, National Highway 24, Kaswa Tilhar, Tilhar, Uttar Pradesh 242307",
        "detailed_address": {
            "ward": "Kaswa Tilhar",
            "street": "XP3V+2QG, National Highway 24",
            "city": "Tilhar",
            "postal_code": "242307",
            "state": "Uttar Pradesh",
            "country_code": "IN"
        },
        "images": [
            {
                "about": "All",
                "link": "https://lh5.googleusercontent.com/p/AF1QipOtTCMB9tOudUQe2VwtKJlG4ZRxd9bGpQRTxbbt=w224-h298-k-no"
            },
            {
                "about": "Street View & 360deg",
                "link": "https://streetviewpixels-pa.googleapis.com/v1/thumbnail?panoid=nAz2jGcIHb0_kqWX3JsKcQ&cb_client=maps_sv.tactile.gps&w=224&h=298&yaw=212.42668&pitch=0&thumbfov=100"
            }
        ],
        "link": "https://www.google.com/maps/place/Masjid+Idashah/data=!4m7!3m6!1s0x399f952dc6c9cfa7:0xdf1a76c8a2cd0826!8m2!3d27.952564!4d79.7444556!16s%2Fg%2F11bzt5s42m!19sChIJp8_Jxi2VnzkRJgjNosh2Gt8?authuser=0&hl=en&rclk=1",
        "coordinates": {
            "latitude": 27.952564,
            "longitude": 79.7444556
        }
    },
    {
        "name": "NOORI MASJID NAZARPUR GOUNTIYA",
        "main_category": "Mosque",
        "address": "NOORI MASJID NAZARPUR GOUNTIYA, Noori Masjid, Tehsil Rd, Tilhar, Uttar Pradesh 242307",
        "detailed_address": {
            "ward": null,
            "street": "Noori Masjid, Tehsil Rd",
            "city": "Tilhar",
            "postal_code": "242307",
            "state": "Uttar Pradesh",
            "country_code": "IN"
        },
        "images": [
            {
                "about": "All",
                "link": "https://lh5.googleusercontent.com/p/AF1QipPIBQeJS42S3AUZmHxajR1fwXSbSkm4H3Iun-7F=w224-h298-k-no"
            },
            {
                "about": "Videos",
                "link": "https://lh5.googleusercontent.com/p/AF1QipPD1vygcYaPvlJK6g0Kq-6OkyVMk5Zmy6BTAMO_=w224-h398-k-no"
            }
        ],
        "link": "https://www.google.com/maps/place/NOORI+MASJID+NAZARPUR+GOUNTIYA/data=!4m7!3m6!1s0x399febc54b6d4c3f:0x9a0b9cb5c0ca4c59!8m2!3d27.9699937!4d79.7325349!16s%2Fg%2F11j4s94_76!19sChIJP0xtS8XrnzkRWUzKwLWcC5o?authuser=0&hl=en&rclk=1",
        "coordinates": {
            "latitude": 27.9699937,
            "longitude": 79.73253489999999
        }
    },
    {
        "name": "Qadri Masjid",
        "main_category": "Mosque",
        "address": "XP5Q+6V4 Qadri Masjid, Mauzampur, Tilhar, Uttar Pradesh 242307",
        "detailed_address": {
            "ward": "Mauzampur",
            "street": "XP5Q+6V4",
            "city": "Tilhar",
            "postal_code": "242307",
            "state": "Uttar Pradesh",
            "country_code": "IN"
        },
        "images": [
            {
                "about": "All",
                "link": "https://streetviewpixels-pa.googleapis.com/v1/thumbnail?panoid=pXCGZmZqsrHz4Ln6X91t5Q&cb_client=maps_sv.tactile.gps&w=224&h=298&yaw=157.64699&pitch=0&thumbfov=100"
            },
            {
                "about": "Street View & 360deg",
                "link": "https://streetviewpixels-pa.googleapis.com/v1/thumbnail?panoid=pXCGZmZqsrHz4Ln6X91t5Q&cb_client=maps_sv.tactile.gps&w=224&h=298&yaw=157.64699&pitch=0&thumbfov=100"
            }
        ],
        "link": "https://www.google.com/maps/place/Qadri+Masjid/data=!4m7!3m6!1s0x399feb431b25b213:0xca9ee336a7317551!8m2!3d27.9580015!4d79.7397163!16s%2Fg%2F11fjstrxng!19sChIJE7IlG0PrnzkRUXUxpzbjnso?authuser=0&hl=en&rclk=1",
        "coordinates": {
            "latitude": 27.958001499999998,
            "longitude": 79.7397163
        }
    },
    {
        "name": "Masjid Chouhtiyaan Wali",
        "main_category": "Mosque",
        "address": "XP3W+94R Masjid Chouhtiyaan Wali, mohalla chouhtiyaan, Tilhar, Uttar Pradesh 242307",
        "detailed_address": {
            "ward": "mohalla chouhtiyaan",
            "street": "XP3W+94R",
            "city": "Tilhar",
            "postal_code": null,
            "state": "Uttar Pradesh",
            "country_code": "IN"
        },
        "images": [
            {
                "about": "All",
                "link": "https://lh5.googleusercontent.com/p/AF1QipPj6lB0OGRg6g_ixXkTq3fHO9J1d7zdUOD5r5Fy=w529-h298-k-no"
            },
            {
                "about": "Street View & 360deg",
                "link": "https://streetviewpixels-pa.googleapis.com/v1/thumbnail?panoid=hWupGpTi0m-YZ_fS8HbV4w&cb_client=maps_sv.tactile.gps&w=224&h=298&yaw=73.7631&pitch=0&thumbfov=100"
            },
            {
                "about": "Videos",
                "link": "https://lh5.googleusercontent.com/p/AF1QipMhvJFJxmAtERLsdofyHvsQHHwnIPRUBREpBRo_=w529-h298-k-no"
            }
        ],
        "link": "https://www.google.com/maps/place/Masjid+Chouhtiyaan+Wali/data=!4m7!3m6!1s0x399f95f83d9e7053:0xb367d3d04e34bb7e!8m2!3d27.9534979!4d79.7452505!16s%2Fg%2F11g_ycrkr0!19sChIJU3CePfiVnzkRfrs0TtDTZ7M?authuser=0&hl=en&rclk=1",
        "coordinates": {
            "latitude": 27.9534979,
            "longitude": 79.7452505
        }
    },
    {
        "name": "Purani juma masjid",
        "main_category": "Mosque",
        "address": "XP8J+GRG Purani juma masjid, Ummarpur, Tilhar, Uttar Pradesh 242307",
        "detailed_address": {
            "ward": "Ummarpur",
            "street": "XP8J+GRG",
            "city": "Tilhar",
            "postal_code": "242307",
            "state": "Uttar Pradesh",
            "country_code": "IN"
        },
        "images": [],
        "link": "https://www.google.com/maps/place/Purani+juma+masjid/data=!4m7!3m6!1s0x399febf70505da89:0xfaf593d216dcdf85!8m2!3d27.9663101!4d79.732065!16s%2Fg%2F11fvgxyz85!19sChIJidoFBffrnzkRhd_cFtKT9fo?authuser=0&hl=en&rclk=1",
        "coordinates": {
            "latitude": 27.966310099999998,
            "longitude": 79.73206499999999
        }
    },
    {
        "name": "Noori Masjid",
        "main_category": "Mosque",
        "address": "XP8J+2M4 Noori Masjid, Tilhar, Uttar Pradesh 242307",
        "detailed_address": {
            "ward": null,
            "street": "XP8J+2M4",
            "city": "Tilhar",
            "postal_code": "242307",
            "state": "Uttar Pradesh",
            "country_code": "IN"
        },
        "images": [
            {
                "about": "All",
                "link": "https://streetviewpixels-pa.googleapis.com/v1/thumbnail?panoid=DhGsu-sKfxlzK3j4LiOP0g&cb_client=maps_sv.tactile.gps&w=224&h=298&yaw=52.09012&pitch=0&thumbfov=100"
            },
            {
                "about": "Street View & 360deg",
                "link": "https://streetviewpixels-pa.googleapis.com/v1/thumbnail?panoid=DhGsu-sKfxlzK3j4LiOP0g&cb_client=maps_sv.tactile.gps&w=224&h=298&yaw=52.09012&pitch=0&thumbfov=100"
            }
        ],
        "link": "https://www.google.com/maps/place/Noori+Masjid/data=!4m7!3m6!1s0x399febb7f45fe26f:0x3095190cb61193cc!8m2!3d27.9650127!4d79.731709!16s%2Fg%2F11fjty599t!19sChIJb-Jf9LfrnzkRzJMRtgwZlTA?authuser=0&hl=en&rclk=1",
        "coordinates": {
            "latitude": 27.9650127,
            "longitude": 79.731709
        }
    },
    {
        "name": "Husaini Masjid Qarbala bali",
        "main_category": "Mosque",
        "address": "XP3P+QWV Husaini Masjid Qarbala bali, Unnamed Road, Meer Meerapur, Tilhar, Uttar Pradesh 242307",
        "detailed_address": {
            "ward": "Meer Meerapur",
            "street": "XP3P+QWV, Unnamed Road",
            "city": "Tilhar",
            "postal_code": "242307",
            "state": "Uttar Pradesh",
            "country_code": "IN"
        },
        "images": [],
        "link": "https://www.google.com/maps/place/Husaini+Masjid+Qarbala+bali/data=!4m7!3m6!1s0x399febcf8d101d1d:0x25e355f6e2b307e4!8m2!3d27.9544852!4d79.7373004!16s%2Fg%2F11jvdq0wl6!19sChIJHR0Qjc_rnzkR5Aez4vZV4yU?authuser=0&hl=en&rclk=1",
        "coordinates": {
            "latitude": 27.954485199999997,
            "longitude": 79.7373004
        }
    },
    {
        "name": "Mustafabad Masjid",
        "main_category": "Mosque",
        "address": "XP2X+RJ9 Mustafabad Masjid, Kaswa Tilhar, Tilhar, Uttar Pradesh 242307",
        "detailed_address": {
            "ward": "Kaswa Tilhar",
            "street": "XP2X+RJ9",
            "city": "Tilhar",
            "postal_code": "242307",
            "state": "Uttar Pradesh",
            "country_code": "IN"
        },
        "images": [
            {
                "about": "All",
                "link": "https://streetviewpixels-pa.googleapis.com/v1/thumbnail?panoid=uQvkzt49GA5ja-pXu_PhkQ&cb_client=maps_sv.tactile.gps&w=224&h=298&yaw=322.57016&pitch=0&thumbfov=100"
            },
            {
                "about": "Street View & 360deg",
                "link": "https://streetviewpixels-pa.googleapis.com/v1/thumbnail?panoid=uQvkzt49GA5ja-pXu_PhkQ&cb_client=maps_sv.tactile.gps&w=224&h=298&yaw=322.57016&pitch=0&thumbfov=100"
            }
        ],
        "link": "https://www.google.com/maps/place/Mustafabad+Masjid/data=!4m7!3m6!1s0x399f959ac5ea37d3:0xec17bfffa4c0654c!8m2!3d27.9520262!4d79.749099!16s%2Fg%2F11sx28n5x2!19sChIJ0zfqxZqVnzkRTGXApP-_F-w?authuser=0&hl=en&rclk=1",
        "coordinates": {
            "latitude": 27.9520262,
            "longitude": 79.749099
        }
    },
    {
        "name": "Masjid Mahmoodiya",
        "main_category": "Mosque",
        "address": "XPFV+J6X Masjid Mahmoodiya, Dabhaura, Tilhar, Uttar Pradesh 242307",
        "detailed_address": {
            "ward": "Dabhaura",
            "street": "XPFV+J6X",
            "city": "Tilhar",
            "postal_code": "242307",
            "state": "Uttar Pradesh",
            "country_code": "IN"
        },
        "images": [
            {
                "about": "All",
                "link": "https://lh5.googleusercontent.com/p/AF1QipPuYt66yEzOm2GLS0QxzleQ3PNb98t_sAlluPdf=w224-h398-k-no"
            }
        ],
        "link": "https://www.google.com/maps/place/Masjid+Mahmoodiya/data=!4m7!3m6!1s0x399f95532d5da16d:0x3a1b1d194d643f51!8m2!3d27.9741222!4d79.743111!16s%2Fg%2F11kbz6j0xp!19sChIJbaFdLVOVnzkRUT9kTRkdGzo?authuser=0&hl=en&rclk=1",
        "coordinates": {
            "latitude": 27.9741222,
            "longitude": 79.743111
        }
    },
    {
        "name": "Tajjan khan Masjid",
        "main_category": "Religious destination",
        "address": "Tajjan khan Masjid, Kaswa Tilhar, Tilhar, Uttar Pradesh 242307",
        "detailed_address": {
            "ward": "Kaswa Tilhar",
            "street": null,
            "city": "Tilhar",
            "postal_code": "242307",
            "state": "Uttar Pradesh",
            "country_code": "IN"
        },
        "images": [
            {
                "about": "All",
                "link": "https://lh5.googleusercontent.com/p/AF1QipP5tsN8qzih4WrKSOpa0D_gz9P93p_SJM2vRiSz=w529-h298-k-no"
            },
            {
                "about": "By owner",
                "link": "https://lh5.googleusercontent.com/p/AF1QipMTaaMmY1YkWzmJO7wZ8Lio9P3y9JQWYt-wlPon=w529-h298-k-no"
            }
        ],
        "link": "https://www.google.com/maps/place/Tajjan+khan+Masjid/data=!4m7!3m6!1s0x399f953fb8ccaf8b:0x6dde9d681d5c63ff!8m2!3d27.9548714!4d79.7483902!16s%2Fg%2F11mvhfvlgp!19sChIJi6_MuD-VnzkR_2NcHWid3m0?authuser=0&hl=en&rclk=1",
        "coordinates": {
            "latitude": 27.9548714,
            "longitude": 79.7483902
        }
    },
    {
        "name": "Husaini Masjid",
        "main_category": "Mosque",
        "address": "XP7Q+997 Husaini Masjid, Mustafabad, Tilhar, Uttar Pradesh 242307",
        "detailed_address": {
            "ward": "Mustafabad",
            "street": "XP7Q+997",
            "city": "Tilhar",
            "postal_code": null,
            "state": "Uttar Pradesh",
            "country_code": "IN"
        },
        "images": [
            {
                "about": "All",
                "link": "https://lh5.googleusercontent.com/p/AF1QipMgD6fXtFM47Tcy75awg0wjeQE6KoXwl0wlnNz3=w224-h298-k-no"
            }
        ],
        "link": "https://www.google.com/maps/place/Husaini+Masjid/data=!4m7!3m6!1s0x399feb26152eeac5:0x58d1c5881ba8545e!8m2!3d27.9634032!4d79.738424!16s%2Fg%2F11fg58wgk8!19sChIJxeouFSbrnzkRXlSoG4jF0Vg?authuser=0&hl=en&rclk=1",
        "coordinates": {
            "latitude": 27.9634032,
            "longitude": 79.738424
        }
    },
    {
        "name": "Masjid Jungle wali",
        "main_category": "Mosque",
        "address": "XP6R+XQ7 Masjid Jungle wali, Unnamed Road, Tilhar, Uttar Pradesh 242307",
        "detailed_address": {
            "ward": null,
            "street": "XP6R+XQ7, Unnamed Road",
            "city": "Tilhar",
            "postal_code": "242307",
            "state": "Uttar Pradesh",
            "country_code": "IN"
        },
        "images": [
            {
                "about": "All",
                "link": "https://streetviewpixels-pa.googleapis.com/v1/thumbnail?panoid=Ze57a01PI_ON7CprMRjJTw&cb_client=maps_sv.tactile.gps&w=224&h=298&yaw=264.30197&pitch=0&thumbfov=100"
            },
            {
                "about": "Street View & 360deg",
                "link": "https://streetviewpixels-pa.googleapis.com/v1/thumbnail?panoid=Ze57a01PI_ON7CprMRjJTw&cb_client=maps_sv.tactile.gps&w=224&h=298&yaw=264.30197&pitch=0&thumbfov=100"
            }
        ],
        "link": "https://www.google.com/maps/place/Masjid+Jungle+wali/data=!4m7!3m6!1s0x399f950a01991b05:0x30b1caefc5d2862b!8m2!3d27.9624167!4d79.741932!16s%2Fg%2F11h02k7ck3!19sChIJBRuZAQqVnzkRK4bSxe_KsTA?authuser=0&hl=en&rclk=1",
        "coordinates": {
            "latitude": 27.9624167,
            "longitude": 79.74193199999999
        }
    },
    {
        "name": "RazaKhan,,Kachchi Masjid.",
        "main_category": "Mosque",
        "address": "XP8Q+VG8 RazaKhan,,Kachchi Masjid., Main Market Rd, Tilhar, Uttar Pradesh 242307",
        "detailed_address": {
            "ward": null,
            "street": "XP8Q+VG8, Main Market Rd",
            "city": "Tilhar",
            "postal_code": "242307",
            "state": "Uttar Pradesh",
            "country_code": "IN"
        },
        "images": [
            {
                "about": "All",
                "link": "https://lh5.googleusercontent.com/p/AF1QipMRZmbn2dkK5hNFKGJW9pNcAciL6F0py2cCO_4X=w295-h298-k-no"
            }
        ],
        "link": "https://www.google.com/maps/place/RazaKhan,,Kachchi+Masjid./data=!4m7!3m6!1s0x399feb08270cbc75:0xc5c1cdd38bfd21e1!8m2!3d27.9671625!4d79.7388412!16s%2Fg%2F11h57xhj47!19sChIJdbwMJwjrnzkR4SH9i9PNwcU?authuser=0&hl=en&rclk=1",
        "coordinates": {
            "latitude": 27.967162499999997,
            "longitude": 79.7388412
        }
    },
    {
        "name": "Noori Masjid (Mohalla dilazaak)",
        "main_category": "Mosque",
        "address": "XP2P+CM7 Noori Masjid (Mohalla dilazaak), Meer Meerapur, Tilhar, Uttar Pradesh 242307",
        "detailed_address": {
            "ward": "Meer Meerapur",
            "street": "XP2P+CM7",
            "city": "Tilhar",
            "postal_code": "242307",
            "state": "Uttar Pradesh",
            "country_code": "IN"
        },
        "images": [],
        "link": "https://www.google.com/maps/place/Noori+Masjid+%28Mohalla+dilazaak%29/data=!4m7!3m6!1s0x399feba1137224b7:0x107cf7d93fbab283!8m2!3d27.9510435!4d79.7366576!16s%2Fg%2F11v5fwbcq7!19sChIJtyRyE6HrnzkRg7K6P9n3fBA?authuser=0&hl=en&rclk=1",
        "coordinates": {
            "latitude": 27.951043499999997,
            "longitude": 79.7366576
        }
    }
]