[
    {
        "name": "Lumding Eidgah",
        "main_category": "Mosque",
        "address": "Q549+P3M Lumding Eidgah, Krishna Nagar Rd, Shastri Gaon No.1, Assam 782447",
        "detailed_address": {
            "ward": null,
            "street": "Q549+P3M, Krishna Nagar Rd",
            "city": "Shastri Gaon No.1",
            "postal_code": "782447",
            "state": "Assam",
            "country_code": "IN"
        },
        "images": [
            {
                "about": "All",
                "link": "https://lh5.googleusercontent.com/p/AF1QipOVOzdDAy_9NXotK_sNYD1afl8VRLb5nXk96PRu=w224-h486-k-no"
            }
        ],
        "link": "https://www.google.com/maps/place/Lumding+Eidgah/data=!4m7!3m6!1s0x3745839026b6a24d:0x8d2b36b6213ffbf1!8m2!3d25.7568412!4d93.1676751!16s%2Fg%2F11g9r1svzv!19sChIJTaK2JpCDRTcR8fs_IbY2K40?authuser=0&hl=en&rclk=1",
        "coordinates": {
            "latitude": 25.7568412,
            "longitude": 93.1676751
        }
    },
    {
        "name": "Mosque",
        "main_category": "Mosque",
        "address": "Mosque, Lumding, Assam 782447",
        "detailed_address": {
            "ward": null,
            "street": null,
            "city": "Lumding",
            "postal_code": "782447",
            "state": "Assam",
            "country_code": "IN"
        },
        "images": [
            {
                "about": "All",
                "link": "https://lh5.googleusercontent.com/p/AF1QipMCyPrtJcBa05Z18FfNVptxZjYBoR5IR8MScsXc=w397-h298-k-no"
            }
        ],
        "link": "https://www.google.com/maps/place/Mosque/data=!4m7!3m6!1s0x374583895db5dfb7:0xca637ae3c49b5b30!8m2!3d25.7532332!4d93.1741949!16s%2Fg%2F11g8_0dmpl!19sChIJt9-1XYmDRTcRMFubxON6Y8o?authuser=0&hl=en&rclk=1",
        "coordinates": {
            "latitude": 25.7532332,
            "longitude": 93.17419489999999
        }
    },
    {
        "name": "Lumding Town Masjid",
        "main_category": "Mosque",
        "address": "Q53F+7HR Lumding Town Masjid, Thakurbari Rd, Lumding, Assam 782447",
        "detailed_address": {
            "ward": null,
            "street": "Q53F+7HR, Thakurbari Rd",
            "city": "Lumding",
            "postal_code": "782447",
            "state": "Assam",
            "country_code": "IN"
        },
        "images": [
            {
                "about": "All",
                "link": "https://lh5.googleusercontent.com/p/AF1QipNDhm_9DSfmaPhemaUFUTcdRyr9GQ5g32cL5uwj=w224-h298-k-no"
            }
        ],
        "link": "https://www.google.com/maps/place/Lumding+Town+Masjid/data=!4m7!3m6!1s0x3745837a1f90fbbb:0xf5ae78a084ffa90d!8m2!3d25.7532268!4d93.1738899!16s%2Fg%2F11qpqklw5s!19sChIJu_uQH3qDRTcRDan_hKB4rvU?authuser=0&hl=en&rclk=1",
        "coordinates": {
            "latitude": 25.7532268,
            "longitude": 93.17388989999999
        }
    }
]