[
    {
        "name": "Chengam Masjid",
        "main_category": "Mosque",
        "address": "8Q6V+974 Chengam Masjid, Rajaji St, Maruthi Nagar, Chengam, Tamil Nadu 606701",
        "detailed_address": {
            "ward": "Maruthi Nagar",
            "street": "8Q6V+974, Rajaji St",
            "city": "Chengam",
            "postal_code": "606701",
            "state": "Tamil Nadu",
            "country_code": "IN"
        },
        "images": [
            {
                "about": "All",
                "link": "https://lh5.googleusercontent.com/p/AF1QipPh3fUQxyjLivWP2269hRBJFNFPFaofCB5VzaPD=w224-h298-k-no"
            },
            {
                "about": "Street View & 360deg",
                "link": "https://streetviewpixels-pa.googleapis.com/v1/thumbnail?panoid=QZzXPMaBa85Eh2jetkGr8Q&cb_client=maps_sv.tactile.gps&w=224&h=298&yaw=138.72049&pitch=0&thumbfov=100"
            }
        ],
        "link": "https://www.google.com/maps/place/Chengam+Masjid/data=!4m7!3m6!1s0x3bacf19d5e22054b:0x34ce3c02cecc562d!8m2!3d12.3108841!4d78.7932158!16s%2Fg%2F1tg9r3m5!19sChIJSwUiXp3xrDsRLVbMzgI8zjQ?authuser=0&hl=en&rclk=1",
        "coordinates": {
            "latitude": 12.310884099999999,
            "longitude": 78.7932158
        }
    },
    {
        "name": "Millath Nagar Masjid",
        "main_category": "Religious destination",
        "address": "8Q8W+F27 Millath Nagar Masjid, Chengam, Tamil Nadu 606701",
        "detailed_address": {
            "ward": null,
            "street": "8Q8W+F27",
            "city": "Chengam",
            "postal_code": "606701",
            "state": "Tamil Nadu",
            "country_code": "IN"
        },
        "images": [
            {
                "about": "All",
                "link": "https://lh5.googleusercontent.com/p/AF1QipMtWZPNgR5ktooe6wsux3cRy1-vevPc22k0mKZT=w224-h398-k-no"
            },
            {
                "about": "Street View & 360deg",
                "link": "https://streetviewpixels-pa.googleapis.com/v1/thumbnail?panoid=gpKdurSTr5UsFcq89rNHWw&cb_client=maps_sv.tactile.gps&w=224&h=298&yaw=1.8217036&pitch=0&thumbfov=100"
            },
            {
                "about": "Videos",
                "link": "https://lh5.googleusercontent.com/p/AF1QipO8aUTUw_vfTqFpBTzSMJTOCAF1BN3aVaQ3JQGm=w224-h398-k-no"
            }
        ],
        "link": "https://www.google.com/maps/place/Millath+Nagar+Masjid/data=!4m7!3m6!1s0x3bacf19e6f658e0d:0x740e74f549448f3e!8m2!3d12.316152!4d78.7950356!16s%2Fg%2F11bzyytpjp!19sChIJDY5lb57xrDsRPo9ESfV0DnQ?authuser=0&hl=en&rclk=1",
        "coordinates": {
            "latitude": 12.316151999999999,
            "longitude": 78.79503559999999
        }
    },
    {
        "name": "Masjid e Muneera Ahle Hadees Khadakpur",
        "main_category": "Mosque",
        "address": "8Q6W+WVR Masjid e Muneera Ahle Hadees Khadakpur, Chengam, Tamil Nadu 606701",
        "detailed_address": {
            "ward": null,
            "street": "8Q6W+WVR",
            "city": "Chengam",
            "postal_code": "606701",
            "state": "Tamil Nadu",
            "country_code": "IN"
        },
        "images": [
            {
                "about": "All",
                "link": "https://lh5.googleusercontent.com/p/AF1QipMLcnprgY0sB2Yr-SD-6PhiRh_Hq1TfOC_1IMxe=w529-h298-k-no"
            }
        ],
        "link": "https://www.google.com/maps/place/Masjid+e+Muneera+Ahle+Hadees+Khadakpur/data=!4m7!3m6!1s0x3bacf19cf53a1c8d:0x932e48b2f4e9467a!8m2!3d12.3123693!4d78.7971542!16s%2Fg%2F11bzyy8plb!19sChIJjRw69ZzxrDsRekbp9LJILpM?authuser=0&hl=en&rclk=1",
        "coordinates": {
            "latitude": 12.3123693,
            "longitude": 78.7971542
        }
    },
    {
        "name": "AL - AMIN MASJID",
        "main_category": "Mosque",
        "address": "8Q4V+2J6 AL - AMIN MASJID, Maruthi Nagar, Chengam, Tamil Nadu 606701",
        "detailed_address": {
            "ward": "Maruthi Nagar",
            "street": "8Q4V+2J6",
            "city": "Chengam",
            "postal_code": "606701",
            "state": "Tamil Nadu",
            "country_code": "IN"
        },
        "images": [],
        "link": "https://www.google.com/maps/place/AL+-+AMIN+MASJID/data=!4m7!3m6!1s0x3bacf169b51407ab:0xeb4aba8973d91f78!8m2!3d12.3050366!4d78.7940124!16s%2Fg%2F11h245mjcf!19sChIJqwcUtWnxrDsReB_Zc4m6Sus?authuser=0&hl=en&rclk=1",
        "coordinates": {
            "latitude": 12.3050366,
            "longitude": 78.7940124
        }
    },
    {
        "name": "Masjid",
        "main_category": "Mosque",
        "address": "8Q4W+P87 Masjid, Maruthi Nagar, Chengam, Tamil Nadu 606701",
        "detailed_address": {
            "ward": "Maruthi Nagar",
            "street": "8Q4W+P87",
            "city": "Chengam",
            "postal_code": null,
            "state": "Tamil Nadu",
            "country_code": "IN"
        },
        "images": [],
        "link": "https://www.google.com/maps/place/Masjid/data=!4m7!3m6!1s0x3bacf128031a5743:0xc5d2568878fc839e!8m2!3d12.3067864!4d78.7957856!16s%2Fg%2F11krgjvp7m!19sChIJQ1caAyjxrDsRnoP8eIhW0sU?authuser=0&hl=en&rclk=1",
        "coordinates": {
            "latitude": 12.3067864,
            "longitude": 78.7957856
        }
    }
]