[
    {
        "name": "Jamia Mosque",
        "main_category": "Mosque",
        "address": "4C8C+433 Jamia Mosque, Post Office St, Sholinghur, Tamil Nadu 631102",
        "detailed_address": {
            "ward": null,
            "street": "4C8C+433, Post Office St",
            "city": "Sholinghur",
            "postal_code": "631102",
            "state": "Tamil Nadu",
            "country_code": "IN"
        },
        "images": [
            {
                "about": "All",
                "link": "https://streetviewpixels-pa.googleapis.com/v1/thumbnail?panoid=_89ENpWJkEd-tCUUUNoXkw&cb_client=maps_sv.tactile.gps&w=224&h=298&yaw=12.927355&pitch=0&thumbfov=100"
            },
            {
                "about": "Street View & 360deg",
                "link": "https://streetviewpixels-pa.googleapis.com/v1/thumbnail?panoid=_89ENpWJkEd-tCUUUNoXkw&cb_client=maps_sv.tactile.gps&w=224&h=298&yaw=12.927355&pitch=0&thumbfov=100"
            }
        ],
        "link": "https://www.google.com/maps/place/Jamia+Mosque/data=!4m7!3m6!1s0x3a52b2f498dd03a3:0xa4f09f6e790d1048!8m2!3d13.1152608!4d79.4201794!16s%2Fg%2F12vts7mn3!19sChIJowPdmPSyUjoRSBANeW6f8KQ?authuser=0&hl=en&rclk=1",
        "coordinates": {
            "latitude": 13.1152608,
            "longitude": 79.4201794
        }
    },
    {
        "name": "Jamia Big Mosque",
        "main_category": "Mosque",
        "address": "4C6C+65W Jamia Big Mosque, Shankar Nagar, Sholinghur, Tamil Nadu 631102",
        "detailed_address": {
            "ward": "Shankar Nagar",
            "street": "4C6C+65W",
            "city": "Sholinghur",
            "postal_code": "631102",
            "state": "Tamil Nadu",
            "country_code": "IN"
        },
        "images": [
            {
                "about": "All",
                "link": "https://streetviewpixels-pa.googleapis.com/v1/thumbnail?panoid=fdynDyP9IC-Pl3rWi85wPQ&cb_client=maps_sv.tactile.gps&w=224&h=298&yaw=276.0204&pitch=0&thumbfov=100"
            },
            {
                "about": "Street View & 360deg",
                "link": "https://streetviewpixels-pa.googleapis.com/v1/thumbnail?panoid=fdynDyP9IC-Pl3rWi85wPQ&cb_client=maps_sv.tactile.gps&w=224&h=298&yaw=276.0204&pitch=0&thumbfov=100"
            }
        ],
        "link": "https://www.google.com/maps/place/Jamia+Big+Mosque/data=!4m7!3m6!1s0x3a52b3025f3255cf:0xb999808854dd7a6d!8m2!3d13.1106137!4d79.4204435!16s%2Fg%2F11fln27x81!19sChIJz1UyXwKzUjoRbXrdVIiAmbk?authuser=0&hl=en&rclk=1",
        "coordinates": {
            "latitude": 13.1106137,
            "longitude": 79.42044349999999
        }
    },
    {
        "name": "Masjid",
        "main_category": "Religious organization",
        "address": "Masjid, suresh house, Sholinghur, Tamil Nadu 631102",
        "detailed_address": {
            "ward": null,
            "street": "suresh house",
            "city": "Sholinghur",
            "postal_code": "631102",
            "state": "Tamil Nadu",
            "country_code": "IN"
        },
        "images": [
            {
                "about": "All",
                "link": "https://streetviewpixels-pa.googleapis.com/v1/thumbnail?panoid=9YKRhO4Dr1dAYh6VTRNLaA&cb_client=maps_sv.tactile.gps&w=224&h=298&yaw=48.367447&pitch=0&thumbfov=100"
            },
            {
                "about": "Street View & 360deg",
                "link": "https://streetviewpixels-pa.googleapis.com/v1/thumbnail?panoid=9YKRhO4Dr1dAYh6VTRNLaA&cb_client=maps_sv.tactile.gps&w=224&h=298&yaw=48.367447&pitch=0&thumbfov=100"
            }
        ],
        "link": "https://www.google.com/maps/place/Masjid/data=!4m7!3m6!1s0x3a52b36fbc1e1c3f:0xe29de9ac7bc5b93!8m2!3d13.1153284!4d79.4201828!16s%2Fg%2F11j3m8q66k!19sChIJPxwevG-zUjoRk1u8x5reKQ4?authuser=0&hl=en&rclk=1",
        "coordinates": {
            "latitude": 13.1153284,
            "longitude": 79.42018279999999
        }
    },
    {
        "name": "AL-ameen masque & Madharsha",
        "main_category": "Mosque",
        "address": "4C86+WPR AL-ameen masque & Madharsha, Anna St, Sholinghur, Tamil Nadu 631102",
        "detailed_address": {
            "ward": null,
            "street": "4C86+WPR, Anna St",
            "city": "Sholinghur",
            "postal_code": "631102",
            "state": "Tamil Nadu",
            "country_code": "IN"
        },
        "images": [],
        "link": "https://www.google.com/maps/place/AL-ameen+masque+%26+Madharsha/data=!4m7!3m6!1s0x3a52b30324923da7:0x86fa94200b834af8!8m2!3d13.1173627!4d79.4117653!16s%2Fg%2F11h_4p2rj2!19sChIJpz2SJAOzUjoR-EqDCyCU-oY?authuser=0&hl=en&rclk=1",
        "coordinates": {
            "latitude": 13.1173627,
            "longitude": 79.4117653
        }
    },
    {
        "name": "Maszid",
        "main_category": "Mosque",
        "address": "4C88+G8H Maszid, Sholinghur, Tamil Nadu 631102",
        "detailed_address": {
            "ward": null,
            "street": "4C88+G8H",
            "city": "Sholinghur",
            "postal_code": "631102",
            "state": "Tamil Nadu",
            "country_code": "IN"
        },
        "images": [],
        "link": "https://www.google.com/maps/place/Maszid/data=!4m7!3m6!1s0x3a52b39b22d25455:0x9391f2990a10b275!8m2!3d13.1163056!4d79.4158479!16s%2Fg%2F11v4m__dxy!19sChIJVVTSIpuzUjoRdbIQCpnykZM?authuser=0&hl=en&rclk=1",
        "coordinates": {
            "latitude": 13.116305599999999,
            "longitude": 79.4158479
        }
    }
]