[
    {
        "name": "Hajrath Syed Qutubuddin Sha Khakhai Maatanvali Avuliya Dargah",
        "main_category": "Mosque",
        "address": "WF8J+8RH Hajrath Syed Qutubuddin Sha Khakhai Maatanvali Avuliya Dargah, near gate, Bapatla, Andhra Pradesh",
        "detailed_address": {
            "ward": "Railpeta",
            "street": "WF8J+8RH, near gate",
            "city": "Bapatla",
            "postal_code": null,
            "state": "Andhra Pradesh",
            "country_code": "IN"
        },
        "images": [
            {
                "about": "All",
                "link": "https://lh5.googleusercontent.com/p/AF1QipNaPnS6Lv482buGLhw-5c-IuDUHq7Vt9PKRNn-I=w529-h298-k-no"
            },
            {
                "about": "Dome",
                "link": "https://lh5.googleusercontent.com/p/AF1QipNGyccHUe_ek33dr-2QZNTUgmNBQHKfKZGBtyZJ=w397-h298-k-no"
            },
            {
                "about": "Videos",
                "link": "https://lh5.googleusercontent.com/p/AF1QipPa_5HRsALUZeE-cCKkqDGhXJdangFy9Q-GSeIi=w529-h298-k-no"
            }
        ],
        "link": "https://www.google.com/maps/place/Hajrath+Syed+Qutubuddin+Sha+Khakhai+Maatanvali+Avuliya+Dargah/data=!4m7!3m6!1s0x3a4a3fbc7009f1cd:0x9ec5f3da7c9eed73!8m2!3d15.9158052!4d80.4821207!16s%2Fg%2F11cmzj9h98!19sChIJzfEJcLw_SjoRc-2efNrzxZ4?authuser=0&hl=en&rclk=1",
        "coordinates": {
            "latitude": 15.9158052,
            "longitude": 80.4821207
        }
    },
    {
        "name": "Ahlehadees masjid",
        "main_category": "Mosque",
        "address": "WF38+7J8 Ahlehadees masjid, Islam Pet, road, Bapatla, Andhra Pradesh 522101",
        "detailed_address": {
            "ward": "Islam Pet, road",
            "street": "WF38+7J8",
            "city": "Bapatla",
            "postal_code": "522101",
            "state": "Andhra Pradesh",
            "country_code": "IN"
        },
        "images": [
            {
                "about": "All",
                "link": "https://lh5.googleusercontent.com/p/AF1QipNbdKCBvZVGOz2nUM7cB6T4BWJLH0KhiCFZnyPA=w397-h298-k-no"
            }
        ],
        "link": "https://www.google.com/maps/place/Ahlehadees+masjid/data=!4m7!3m6!1s0x3a4a3f70676f2b45:0xb07b3c212c231282!8m2!3d15.9031603!4d80.4665634!16s%2Fg%2F11qsm2kyr0!19sChIJRStvZ3A_SjoRghIjLCE8e7A?authuser=0&hl=en&rclk=1",
        "coordinates": {
            "latitude": 15.9031603,
            "longitude": 80.4665634
        }
    },
    {
        "name": "Bilal Masjid",
        "main_category": "Mosque",
        "address": "Bilal Masjid, Maddiboinavaripalem, Bapatla, Andhra Pradesh 522101",
        "detailed_address": {
            "ward": "Maddiboinavaripalem",
            "street": null,
            "city": "Bapatla",
            "postal_code": "522101",
            "state": "Andhra Pradesh",
            "country_code": "IN"
        },
        "images": [],
        "link": "https://www.google.com/maps/place/Bilal+Masjid/data=!4m7!3m6!1s0x3a4a3f715031b713:0xbfbbbfdf2dd6ef6!8m2!3d15.8937207!4d80.4709684!16s%2Fg%2F11f3rf7smq!19sChIJE7cxUHE_SjoR9m7d8v27-ws?authuser=0&hl=en&rclk=1",
        "coordinates": {
            "latitude": 15.8937207,
            "longitude": 80.47096839999999
        }
    },
    {
        "name": "Masjid",
        "main_category": "Mosque",
        "address": "VCG9+9PM Masjid, Vedullapalli, Chirala, Andhra Pradesh 522317",
        "detailed_address": {
            "ward": "Vedullapalli",
            "street": "VCG9+9PM",
            "city": "Chirala",
            "postal_code": "522317",
            "state": "Andhra Pradesh",
            "country_code": "IN"
        },
        "images": [
            {
                "about": "All",
                "link": "https://streetviewpixels-pa.googleapis.com/v1/thumbnail?panoid=MITuS9bLMjDFntmxwS05LA&cb_client=maps_sv.tactile.gps&w=224&h=298&yaw=67.59107&pitch=0&thumbfov=100"
            },
            {
                "about": "Street View & 360deg",
                "link": "https://streetviewpixels-pa.googleapis.com/v1/thumbnail?panoid=MITuS9bLMjDFntmxwS05LA&cb_client=maps_sv.tactile.gps&w=224&h=298&yaw=67.59107&pitch=0&thumbfov=100"
            }
        ],
        "link": "https://www.google.com/maps/place/Masjid/data=!4m7!3m6!1s0x3a4a40e79878fed1:0xab16286b610a7237!8m2!3d15.87597!4d80.419296!16s%2Fg%2F1pyqgd057!19sChIJ0f54mOdASjoRN3IKYWsoFqs?authuser=0&hl=en&rclk=1",
        "coordinates": {
            "latitude": 15.875969999999999,
            "longitude": 80.419296
        }
    },
    {
        "name": "Aman Masjid",
        "main_category": "Mosque",
        "address": "VFR9+JV2 Aman Masjid, Maddiboinavaripalem, Bapatla, Andhra Pradesh 522101",
        "detailed_address": {
            "ward": "Maddiboinavaripalem",
            "street": "VFR9+JV2",
            "city": "Bapatla",
            "postal_code": "522101",
            "state": "Andhra Pradesh",
            "country_code": "IN"
        },
        "images": [],
        "link": "https://www.google.com/maps/place/Aman+Masjid/data=!4m7!3m6!1s0x3a4a3f7108fec191:0x399209b1d7c7b29c!8m2!3d15.891501!4d80.4696526!16s%2Fg%2F11f0946b29!19sChIJkcH-CHE_SjoRnLLH17EJkjk?authuser=0&hl=en&rclk=1",
        "coordinates": {
            "latitude": 15.891501,
            "longitude": 80.4696526
        }
    },
    {
        "name": "Masjid-e-Anjuman",
        "main_category": "Mosque",
        "address": "Masjid-e-Anjuman, Old Bus Stand, Srungarapuram, Bapatla, Andhra Pradesh 522101",
        "detailed_address": {
            "ward": "Srungarapuram",
            "street": "Old Bus Stand",
            "city": "Bapatla",
            "postal_code": "522101",
            "state": "Andhra Pradesh",
            "country_code": "IN"
        },
        "images": [
            {
                "about": "All",
                "link": "https://lh5.googleusercontent.com/p/AF1QipPG-u4xcZHgmtGZdt72t1tNekjER30dSdoGdlNm=w397-h298-k-no"
            },
            {
                "about": "Street View & 360deg",
                "link": "https://streetviewpixels-pa.googleapis.com/v1/thumbnail?panoid=XdBKMOF67Cn5v4d5q72Ecw&cb_client=maps_sv.tactile.gps&w=224&h=298&yaw=5.334832&pitch=0&thumbfov=100"
            }
        ],
        "link": "https://www.google.com/maps/place/Masjid-e-Anjuman/data=!4m7!3m6!1s0x3a4a3f9ea14158c9:0xd7c62652571d1bad!8m2!3d15.9045313!4d80.4713723!16s%2Fg%2F11g7z0lbnl!19sChIJyVhBoZ4_SjoRrRsdV1Imxtc?authuser=0&hl=en&rclk=1",
        "coordinates": {
            "latitude": 15.904531299999999,
            "longitude": 80.4713723
        }
    },
    {
        "name": "Mosque",
        "main_category": "Mosque",
        "address": "WF39+QWR Mosque, 13th Ward, Satyannarayana Puram, Bapatla, Andhra Pradesh 522101",
        "detailed_address": {
            "ward": "13th Ward, Satyannarayana Puram",
            "street": "WF39+QWR",
            "city": "Bapatla",
            "postal_code": "522101",
            "state": "Andhra Pradesh",
            "country_code": "IN"
        },
        "images": [
            {
                "about": "All",
                "link": "https://lh5.googleusercontent.com/p/AF1QipPGOCepBJc6sP1_b-ZP4buuwUxF-FjODzGGaZfN=w397-h298-k-no"
            },
            {
                "about": "Street View & 360deg",
                "link": "https://streetviewpixels-pa.googleapis.com/v1/thumbnail?panoid=9WYpa5MAPRHzdnDdDVnceA&cb_client=maps_sv.tactile.gps&w=224&h=298&yaw=344.7016&pitch=0&thumbfov=100"
            },
            {
                "about": "Videos",
                "link": "https://lh5.googleusercontent.com/p/AF1QipNkIrtJxnuhiK7qNwW-y-lnPufm-reb3xLA1G2b=w529-h298-k-no"
            }
        ],
        "link": "https://www.google.com/maps/place/Mosque/data=!4m7!3m6!1s0x3a4a3f9c69942bff:0xee14aab66ffc56e8!8m2!3d15.9044758!4d80.4697741!16s%2Fg%2F11f29xtv5m!19sChIJ_yuUaZw_SjoR6Fb8b7aqFO4?authuser=0&hl=en&rclk=1",
        "coordinates": {
            "latitude": 15.9044758,
            "longitude": 80.4697741
        }
    },
    {
        "name": "Masjid e Khuba",
        "main_category": "Mosque",
        "address": "WF89+RXP Masjid e Khuba, Railpeta, Bapatla, Andhra Pradesh 522101",
        "detailed_address": {
            "ward": "Railpeta",
            "street": "WF89+RXP",
            "city": "Bapatla",
            "postal_code": "522101",
            "state": "Andhra Pradesh",
            "country_code": "IN"
        },
        "images": [],
        "link": "https://www.google.com/maps/place/Masjid+e+Khuba/data=!4m7!3m6!1s0x3a4a3f92c17b4ff1:0x203fafcd6f64a304!8m2!3d15.9170751!4d80.469957!16s%2Fg%2F11j2mlsj3_!19sChIJ8U97wZI_SjoRBKNkb82vPyA?authuser=0&hl=en&rclk=1",
        "coordinates": {
            "latitude": 15.9170751,
            "longitude": 80.469957
        }
    },
    {
        "name": "Madina Masjid,Jamedarpeta",
        "main_category": "Mosque",
        "address": "Madina Masjid,Jamedarpeta, Madina Masjid,Jamedarpeta,8Ward, Bapatla, Andhra Pradesh",
        "detailed_address": {
            "ward": "Railpeta",
            "street": "Madina Masjid,Jamedarpeta,8Ward",
            "city": "Bapatla",
            "postal_code": null,
            "state": "Andhra Pradesh",
            "country_code": "IN"
        },
        "images": [
            {
                "about": "All",
                "link": "https://lh5.googleusercontent.com/p/AF1QipPKFOCMGnRMj5JWnx6S3HiRypK9hlyn4VZtZ7uH=w224-h485-k-no"
            },
            {
                "about": "Street View & 360deg",
                "link": "https://streetviewpixels-pa.googleapis.com/v1/thumbnail?panoid=FX0Gl1VJ0vC7qbyI-C6-XQ&cb_client=maps_sv.tactile.gps&w=224&h=298&yaw=153.30666&pitch=0&thumbfov=100"
            }
        ],
        "link": "https://www.google.com/maps/place/Madina+Masjid,Jamedarpeta/data=!4m7!3m6!1s0x3a4a3fcf35b2ce23:0x1f035cd2990456e9!8m2!3d15.9135154!4d80.4725504!16s%2Fg%2F11j4y6dcmv!19sChIJI86yNc8_SjoR6VYEmdJcAx8?authuser=0&hl=en&rclk=1",
        "coordinates": {
            "latitude": 15.9135154,
            "longitude": 80.4725504
        }
    },
    {
        "name": "MAKKAH Masjid",
        "main_category": "Mosque",
        "address": "WF7C+CGH MAKKAH Masjid, Jamedarpeta, Railpeta, Bapatla, Andhra Pradesh 522101",
        "detailed_address": {
            "ward": "Railpeta",
            "street": "WF7C+CGH Jamedarpeta",
            "city": "Bapatla",
            "postal_code": "522101",
            "state": "Andhra Pradesh",
            "country_code": "IN"
        },
        "images": [
            {
                "about": "All",
                "link": "https://streetviewpixels-pa.googleapis.com/v1/thumbnail?panoid=T02iC_LoV8X-RVQtF2IIlQ&cb_client=maps_sv.tactile.gps&w=224&h=298&yaw=205.91695&pitch=0&thumbfov=100"
            },
            {
                "about": "Street View & 360deg",
                "link": "https://streetviewpixels-pa.googleapis.com/v1/thumbnail?panoid=T02iC_LoV8X-RVQtF2IIlQ&cb_client=maps_sv.tactile.gps&w=224&h=298&yaw=205.91695&pitch=0&thumbfov=100"
            }
        ],
        "link": "https://www.google.com/maps/place/MAKKAH+Masjid/data=!4m7!3m6!1s0x3a4a3faba2f4cb33:0x8d3e026db2c117d5!8m2!3d15.9128925!4d80.4714029!16s%2Fg%2F11j0z_77sf!19sChIJM8v0oqs_SjoR1RfBsm0CPo0?authuser=0&hl=en&rclk=1",
        "coordinates": {
            "latitude": 15.9128925,
            "longitude": 80.4714029
        }
    },
    {
        "name": "Jamiya Masjid, lslam Pet",
        "main_category": "Mosque",
        "address": "Jamiya Masjid, lslam Pet, Islampet Masjid, Islam Pet, Maddiboinavaripalem, Bapatla, Andhra Pradesh 522101",
        "detailed_address": {
            "ward": "Islam Pet, Maddiboinavaripalem",
            "street": "Islampet Masjid",
            "city": "Bapatla",
            "postal_code": "522101",
            "state": "Andhra Pradesh",
            "country_code": "IN"
        },
        "images": [
            {
                "about": "All",
                "link": "https://lh5.googleusercontent.com/p/AF1QipMrej_lodKusvE2jEksQqVizUS-GRKIt0Z4R2bZ=w645-h298-k-no"
            }
        ],
        "link": "https://www.google.com/maps/place/Jamiya+Masjid,+lslam+Pet/data=!4m7!3m6!1s0x3a4a3f6e9c4df6fb:0x5dcd1ac8bc2d59c0!8m2!3d15.9012488!4d80.4660691!16s%2Fg%2F11tmrr50rp!19sChIJ-_ZNnG4_SjoRwFktvMgazV0?authuser=0&hl=en&rclk=1",
        "coordinates": {
            "latitude": 15.9012488,
            "longitude": 80.4660691
        }
    },
    {
        "name": "Masjid e axea",
        "main_category": "Mosque",
        "address": "WF55+MC8 Masjid e axea, Chakali Palem, Christ Nagar, Bapatla, Andhra Pradesh 522317",
        "detailed_address": {
            "ward": "Chakali Palem, Christ Nagar",
            "street": "WF55+MC8",
            "city": "Bapatla",
            "postal_code": "522317",
            "state": "Andhra Pradesh",
            "country_code": "IN"
        },
        "images": [
            {
                "about": "All",
                "link": "https://lh5.googleusercontent.com/p/AF1QipPU0q82MGepXuz4NPeZlT-aOWJ1CFV1mdCXWXVS=w397-h298-k-no"
            }
        ],
        "link": "https://www.google.com/maps/place/Masjid+e+axea/data=!4m7!3m6!1s0x3a4a3f9c2eb0867b:0x5c44b2bd068fe5a6!8m2!3d15.9090841!4d80.4590888!16s%2Fg%2F11smw0dn2y!19sChIJe4awLpw_SjoRpuWPBr2yRFw?authuser=0&hl=en&rclk=1",
        "coordinates": {
            "latitude": 15.9090841,
            "longitude": 80.45908879999999
        }
    },
    {
        "name": "MACCA MASJID",
        "main_category": "Mosque",
        "address": "WF7C+4HQ MACCA MASJID, Railpeta, Bapatla, Andhra Pradesh 522101",
        "detailed_address": {
            "ward": "Railpeta",
            "street": "WF7C+4HQ",
            "city": "Bapatla",
            "postal_code": "522101",
            "state": "Andhra Pradesh",
            "country_code": "IN"
        },
        "images": [
            {
                "about": "All",
                "link": "https://lh5.googleusercontent.com/p/AF1QipNDR1pmU7_o2uAeefIpIpXw2V4l4Szewdl0Rv0F=w529-h298-k-no"
            },
            {
                "about": "Street View & 360deg",
                "link": "https://streetviewpixels-pa.googleapis.com/v1/thumbnail?panoid=WWF19z6iakeKWUtCQf8YPw&cb_client=maps_sv.tactile.gps&w=224&h=298&yaw=204.74332&pitch=0&thumbfov=100"
            }
        ],
        "link": "https://www.google.com/maps/place/MACCA+MASJID/data=!4m7!3m6!1s0x3a4a3f2bd3d48919:0xa61c83729ffa86c4!8m2!3d15.9128415!4d80.4714791!16s%2Fg%2F11lfbggfds!19sChIJGYnU0ys_SjoRxIb6n3KDHKY?authuser=0&hl=en&rclk=1",
        "coordinates": {
            "latitude": 15.912841499999999,
            "longitude": 80.4714791
        }
    },
    {
        "name": "MASJID-E- UMAR",
        "main_category": "Mosque",
        "address": "VFW6+5PC MASJID-E- UMAR, Maddiboinavaripalem, Bapatla, Andhra Pradesh 522101",
        "detailed_address": {
            "ward": "Maddiboinavaripalem",
            "street": "VFW6+5PC",
            "city": "Bapatla",
            "postal_code": "522101",
            "state": "Andhra Pradesh",
            "country_code": "IN"
        },
        "images": [],
        "link": "https://www.google.com/maps/place/MASJID-E-+UMAR/data=!4m7!3m6!1s0x3a4a3fe975107531:0x9cb9bbe0483cbf6c!8m2!3d15.8954273!4d80.4617628!16s%2Fg%2F11h8n2lq9p!19sChIJMXUQdek_SjoRbL88SOC7uZw?authuser=0&hl=en&rclk=1",
        "coordinates": {
            "latitude": 15.8954273,
            "longitude": 80.4617628
        }
    },
    {
        "name": "Mosque",
        "main_category": "Mosque",
        "address": "WF47+RXM Mosque, Nallamada Road(Pedanandipadu Road), Jagannadhapuram, Bapatla, Andhra Pradesh 522101",
        "detailed_address": {
            "ward": "Jagannadhapuram",
            "street": "WF47+RXM, Nallamada Road(Pedanandipadu Road)",
            "city": "Bapatla",
            "postal_code": "522101",
            "state": "Andhra Pradesh",
            "country_code": "IN"
        },
        "images": [
            {
                "about": "All",
                "link": "https://streetviewpixels-pa.googleapis.com/v1/thumbnail?panoid=UYOOmpyPFDz72oMH4KSu-w&cb_client=maps_sv.tactile.gps&w=224&h=298&yaw=308.4472&pitch=0&thumbfov=100"
            },
            {
                "about": "Street View & 360deg",
                "link": "https://streetviewpixels-pa.googleapis.com/v1/thumbnail?panoid=UYOOmpyPFDz72oMH4KSu-w&cb_client=maps_sv.tactile.gps&w=224&h=298&yaw=308.4472&pitch=0&thumbfov=100"
            }
        ],
        "link": "https://www.google.com/maps/place/Mosque/data=!4m7!3m6!1s0x3a4a3ffd89ad5053:0xf715d327458189ef!8m2!3d15.9070911!4d80.4649085!16s%2Fg%2F11h2mqx7j8!19sChIJU1Ctif0_SjoR74mBRSfTFfc?authuser=0&hl=en&rclk=1",
        "coordinates": {
            "latitude": 15.907091099999999,
            "longitude": 80.46490849999999
        }
    },
    {
        "name": "Masjid E Huda",
        "main_category": "Mosque",
        "address": "WF6G+X8P Masjid E Huda, Railpeta, Bapatla, Andhra Pradesh 522101",
        "detailed_address": {
            "ward": "Railpeta",
            "street": "WF6G+X8P",
            "city": "Bapatla",
            "postal_code": null,
            "state": "Andhra Pradesh",
            "country_code": "IN"
        },
        "images": [],
        "link": "https://www.google.com/maps/place/Masjid+E+Huda/data=!4m7!3m6!1s0x3a4a3f761acb20dd:0x9f582373531f03a1!8m2!3d15.9124725!4d80.4758255!16s%2Fg%2F11fqq9f08b!19sChIJ3SDLGnY_SjoRoQMfU3MjWJ8?authuser=0&hl=en&rclk=1",
        "coordinates": {
            "latitude": 15.9124725,
            "longitude": 80.4758255
        }
    },
    {
        "name": "Jamedarpeta Muslim Burial Ground",
        "main_category": "Mosque",
        "address": "Jamedarpeta Muslim Burial Ground, Railpeta, Bapatla, Andhra Pradesh 522101",
        "detailed_address": {
            "ward": "Railpeta",
            "street": null,
            "city": "Bapatla",
            "postal_code": "522101",
            "state": "Andhra Pradesh",
            "country_code": "IN"
        },
        "images": [
            {
                "about": "All",
                "link": "https://lh5.googleusercontent.com/p/AF1QipMNGiPY3_-EaT9XyHutZ0ADqRfTxl0WbUI5HZ33=w529-h298-k-no"
            }
        ],
        "link": "https://www.google.com/maps/place/Jamedarpeta+Muslim+Burial+Ground/data=!4m7!3m6!1s0x3a4a3f4e55e271e3:0x8d29e1bd1e309f3b!8m2!3d15.9143239!4d80.4688477!16s%2Fg%2F11n0fzy5gb!19sChIJ43HiVU4_SjoRO58wHr3hKY0?authuser=0&hl=en&rclk=1",
        "coordinates": {
            "latitude": 15.9143239,
            "longitude": 80.4688477
        }
    }
]