[
    {
        "name": "Chotti Masjid",
        "main_category": "Mosque",
        "address": "Chotti Masjid, Chotti masjid, Jogbani, Bihar 854328",
        "detailed_address": {
            "ward": null,
            "street": "Chotti masjid",
            "city": "Jogbani",
            "postal_code": "854328",
            "state": "Bihar",
            "country_code": "IN"
        },
        "images": [
            {
                "about": "All",
                "link": "https://lh5.googleusercontent.com/p/AF1QipPN032LcQmFK2uDG1Q-UmZoKTyQ1orHZ372Jmqa=w224-h496-k-no"
            },
            {
                "about": "Videos",
                "link": "https://lh5.googleusercontent.com/p/AF1QipNlYax44ui-4hOqoRw8H-y4ryF0GmnoQRcN1O7b=w224-h440-k-no"
            }
        ],
        "link": "https://www.google.com/maps/place/Chotti+Masjid/data=!4m7!3m6!1s0x39ef7581dcb9ec2b:0x12d4c53d9dd57eb7!8m2!3d26.3974551!4d87.2624121!16s%2Fg%2F11bwqfqql9!19sChIJK-y53IF17zkRt37VnT3F1BI?authuser=0&hl=en&rclk=1",
        "coordinates": {
            "latitude": 26.3974551,
            "longitude": 87.26241209999999
        }
    },
    {
        "name": "Bari Masjid jogbani",
        "main_category": "Mosque",
        "address": "97X6+FCR Bari Masjid jogbani, Road, Jogbani, Bihar 854328",
        "detailed_address": {
            "ward": null,
            "street": "97X6+FCR, Road",
            "city": "Jogbani",
            "postal_code": "854328",
            "state": "Bihar",
            "country_code": "IN"
        },
        "images": [
            {
                "about": "All",
                "link": "https://lh5.googleusercontent.com/p/AF1QipNksw3iHlpGSpcSU0ZXLURWKqjer9ypljT70YLs=w224-h497-k-no"
            }
        ],
        "link": "https://www.google.com/maps/place/Bari+Masjid+jogbani/data=!4m7!3m6!1s0x39ef757f494bbe27:0x53532af47dc28968!8m2!3d26.3987276!4d87.2610223!16s%2Fg%2F11c57sgw6v!19sChIJJ75LSX917zkRaInCffQqU1M?authuser=0&hl=en&rclk=1",
        "coordinates": {
            "latitude": 26.398727599999997,
            "longitude": 87.2610223
        }
    },
    {
        "name": "Jama Masjid, Haji Mohalla",
        "main_category": "Mosque",
        "address": "97X6+QHX Jama Masjid, Haji Mohalla, Jogbani, Bihar 56613",
        "detailed_address": {
            "ward": null,
            "street": "97X6+QHX",
            "city": "Jogbani",
            "postal_code": null,
            "state": "Bihar",
            "country_code": "IN"
        },
        "images": [
            {
                "about": "All",
                "link": "https://lh5.googleusercontent.com/p/AF1QipPgGt4Nnx_G0AOHcr6bzomiWq97C84im12C_Lys=w541-h298-k-no"
            },
            {
                "about": "Videos",
                "link": "https://lh5.googleusercontent.com/p/AF1QipNPgIKbJznxTlSFL5l3iP0j5JX7ZiNFvDv2OvVa=w224-h398-k-no"
            }
        ],
        "link": "https://www.google.com/maps/place/Jama+Masjid,+Haji+Mohalla/data=!4m7!3m6!1s0x39ef750488ef5331:0x7a522e041aa21b58!8m2!3d26.3994803!4d87.2614999!16s%2Fg%2F11gxmg6bl7!19sChIJMVPviAR17zkRWBuiGgQuUno?authuser=0&hl=en&rclk=1",
        "coordinates": {
            "latitude": 26.3994803,
            "longitude": 87.26149989999999
        }
    },
    {
        "name": "Jama masjid Hajiganj jogbani Araria Bihar",
        "main_category": "Mosque",
        "address": "96PX+H7W Jama masjid Hajiganj jogbani Araria Bihar, Jama masjid Hajiganj jogbani ward, Jogbani, Bihar no 03",
        "detailed_address": {
            "ward": null,
            "street": "96PX+H7W, Jama masjid Hajiganj jogbani ward",
            "city": "Jogbani",
            "postal_code": "no 03",
            "state": "Bihar",
            "country_code": "IN"
        },
        "images": [
            {
                "about": "All",
                "link": "https://lh5.googleusercontent.com/p/AF1QipN-SK_cCUZBT6Eq_gb7g5sdVBfzMU9DLi1e9LvJ=w397-h298-k-no"
            },
            {
                "about": "Videos",
                "link": "https://lh5.googleusercontent.com/p/AF1QipNmqNhtwc9DhiYuZp-bRCkgm93-FNoQZYv8F996=w224-h398-k-no"
            }
        ],
        "link": "https://www.google.com/maps/place/Jama+masjid+Hajiganj+jogbani+Araria+Bihar/data=!4m7!3m6!1s0x39ef9f1cc0280bf7:0xe9434affbcb3b602!8m2!3d26.3863624!4d87.2480775!16s%2Fg%2F11h79r6jk7!19sChIJ9wsowByf7zkRArazvP9KQ-k?authuser=0&hl=en&rclk=1",
        "coordinates": {
            "latitude": 26.3863624,
            "longitude": 87.2480775
        }
    },
    {
        "name": "Noorani Masjid Shahpur",
        "main_category": "Mosque",
        "address": "Noorani Masjid Shahpur, Shah pur ward no 12, Jogbani, Bihar 854328",
        "detailed_address": {
            "ward": null,
            "street": "Shah pur ward no 12",
            "city": "Jogbani",
            "postal_code": "854328",
            "state": "Bihar",
            "country_code": "IN"
        },
        "images": [
            {
                "about": "All",
                "link": "https://lh5.googleusercontent.com/p/AF1QipN5KccfksqWQjyL77g6u-eLZr2fBI_H11XBuCrS=w224-h398-k-no"
            }
        ],
        "link": "https://www.google.com/maps/place/Noorani+Masjid+Shahpur/data=!4m7!3m6!1s0x39ef9f959694ab15:0x4728d3159ef44ba1!8m2!3d26.3912444!4d87.2622746!16s%2Fg%2F11kynbk3lk!19sChIJFauUlpWf7zkRoUv0nhXTKEc?authuser=0&hl=en&rclk=1",
        "coordinates": {
            "latitude": 26.391244399999998,
            "longitude": 87.2622746
        }
    },
    {
        "name": "Masjid Nayatola",
        "main_category": "Mosque",
        "address": "97Q2+C3R Masjid Nayatola, Jogbani, Bihar 854328",
        "detailed_address": {
            "ward": null,
            "street": "97Q2+C3R",
            "city": "Jogbani",
            "postal_code": null,
            "state": "Bihar",
            "country_code": "IN"
        },
        "images": [
            {
                "about": "All",
                "link": "https://lh5.googleusercontent.com/p/AF1QipOhbzflesFgHeRwGLN1oN3k89wAKcRYl4Kgso2x=w596-h298-k-no"
            },
            {
                "about": "Videos",
                "link": "https://lh5.googleusercontent.com/p/AF1QipPXDylKfZ40bA4YhaoJ0dHNYFZUZh2HpkLVZ_Ah=w224-h398-k-no"
            }
        ],
        "link": "https://www.google.com/maps/place/Masjid+Nayatola/data=!4m7!3m6!1s0x39ef9f6cd5316e5f:0x7ef88a7f51ae4325!8m2!3d26.388619!4d87.2501475!16s%2Fg%2F11gxxgvwtx!19sChIJX24x1Wyf7zkRJUOuUX-K-H4?authuser=0&hl=en&rclk=1",
        "coordinates": {
            "latitude": 26.388619,
            "longitude": 87.2501475
        }
    },
    {
        "name": "badi masjid",
        "main_category": "Mosque",
        "address": "97X6+564 badi masjid, Jogbani, Bihar 854328",
        "detailed_address": {
            "ward": null,
            "street": "97X6+564",
            "city": "Jogbani",
            "postal_code": null,
            "state": "Bihar",
            "country_code": "IN"
        },
        "images": [
            {
                "about": "All",
                "link": "https://lh5.googleusercontent.com/p/AF1QipOOAXZdUJuiu8INF45lfmmFdHhPRD3i9HnjOmXS=w529-h298-k-no"
            },
            {
                "about": "Videos",
                "link": "https://lh5.googleusercontent.com/p/AF1QipPoYAVqH7cdw1JFp0gS1KBapK7xpbXztOXA56KB=w224-h407-k-no"
            }
        ],
        "link": "https://www.google.com/maps/place/badi+masjid/data=!4m7!3m6!1s0x39ef75b77cb80f25:0x28c919a05ccf115d!8m2!3d26.3978885!4d87.2605924!16s%2Fg%2F11j10tbrq6!19sChIJJQ-4fLd17zkRXRHPXKAZySg?authuser=0&hl=en&rclk=1",
        "coordinates": {
            "latitude": 26.3978885,
            "longitude": 87.2605924
        }
    },
    {
        "name": "Jama masjid",
        "main_category": "Mosque",
        "address": "C735+PX6 Jama masjid, Jogbani, Bihar 56613",
        "detailed_address": {
            "ward": null,
            "street": "C735+PX6",
            "city": "Jogbani",
            "postal_code": "56613",
            "state": "Bihar",
            "country_code": "IN"
        },
        "images": [],
        "link": "https://www.google.com/maps/place/Jama+masjid/data=!4m7!3m6!1s0x39ef7524fea8596b:0x9d526008ed69116e!8m2!3d26.4042832!4d87.2598878!16s%2Fg%2F11rxw1q0tb!19sChIJa1mo_iR17zkRbhFp7QhgUp0?authuser=0&hl=en&rclk=1",
        "coordinates": {
            "latitude": 26.4042832,
            "longitude": 87.2598878
        }
    },
    {
        "name": "Masjid",
        "main_category": "Mosque",
        "address": "Masjid, Jogbani, Bihar 854328",
        "detailed_address": {
            "ward": null,
            "street": null,
            "city": "Jogbani",
            "postal_code": null,
            "state": "Bihar",
            "country_code": "IN"
        },
        "images": [],
        "link": "https://www.google.com/maps/place/Masjid/data=!4m7!3m6!1s0x39ef756cf1d9f105:0xb5f475aff1ceca3a!8m2!3d26.3997588!4d87.2586011!16s%2Fg%2F11jzrk3jgw!19sChIJBfHZ8Wx17zkROsrO8a919LU?authuser=0&hl=en&rclk=1",
        "coordinates": {
            "latitude": 26.399758799999997,
            "longitude": 87.25860109999999
        }
    },
    {
        "name": "KHAJURBARI MASJID",
        "main_category": "Mosque",
        "address": "97X2+VRH KHAJURBARI MASJID, Jogbani, Bihar 854328",
        "detailed_address": {
            "ward": null,
            "street": "97X2+VRH",
            "city": "Jogbani",
            "postal_code": "854328",
            "state": "Bihar",
            "country_code": "IN"
        },
        "images": [],
        "link": "https://www.google.com/maps/place/KHAJURBARI+MASJID/data=!4m7!3m6!1s0x39ef75ad413644d9:0x942e951ada2b0068!8m2!3d26.3988462!4d87.2516607!16s%2Fg%2F11l2t_j9_j!19sChIJ2UQ2Qa117zkRaAAr2hqVLpQ?authuser=0&hl=en&rclk=1",
        "coordinates": {
            "latitude": 26.398846199999998,
            "longitude": 87.2516607
        }
    }
]