[
    {
        "name": "Deoria Jama Masjid",
        "main_category": "Mosque",
        "address": "GQ4J+HRC Deoria Jama Masjid, Gari Bazar, Kailashpuri, Deoria, Uttar Pradesh 274806",
        "detailed_address": {
            "ward": "Gari Bazar, Kailashpuri",
            "street": "GQ4J+HRC",
            "city": "Deoria",
            "postal_code": "274806",
            "state": "Uttar Pradesh",
            "country_code": "IN"
        },
        "images": [
            {
                "about": "All",
                "link": "https://lh5.googleusercontent.com/p/AF1QipNF5I-C-_3eP1lb8HRno9ziB-rfm-PbdvaoZxQO=w224-h484-k-no"
            },
            {
                "about": "Street View & 360deg",
                "link": "https://streetviewpixels-pa.googleapis.com/v1/thumbnail?panoid=LEE5kPDoeFdW3DqC0URQEQ&cb_client=maps_sv.tactile.gps&w=224&h=298&yaw=39.364395&pitch=0&thumbfov=100"
            },
            {
                "about": "Videos",
                "link": "https://lh5.googleusercontent.com/p/AF1QipMMyadbTW1BsMkEMGOq2xz0VzxJJEh7RQqyJ0c=w529-h298-k-no"
            }
        ],
        "link": "https://www.google.com/maps/place/Deoria+Jama+Masjid/data=!4m7!3m6!1s0x3993c53d146a674b:0xb3f542bb2933c34a!8m2!3d26.5064351!4d83.7820157!16s%2Fg%2F1tvm1538!19sChIJS2dqFD3FkzkRSsMzKbtC9bM?authuser=0&hl=en&rclk=1",
        "coordinates": {
            "latitude": 26.506435099999997,
            "longitude": 83.7820157
        }
    },
    {
        "name": "Shaheed baba dargah",
        "main_category": "Mosque",
        "address": "GQ8G+25X Shaheed baba dargah, Gorakhpur - Deoria Rd, Deoria, Mehra, Uttar Pradesh 274001",
        "detailed_address": {
            "ward": null,
            "street": "GQ8G+25X, Gorakhpur - Deoria Rd",
            "city": "Deoria, Mehra",
            "postal_code": "274001",
            "state": "Uttar Pradesh",
            "country_code": "IN"
        },
        "images": [
            {
                "about": "All",
                "link": "https://lh5.googleusercontent.com/p/AF1QipOTUHa17elAX2IGuIzXsmJM_KdLAhy_LiN0YCdQ=w529-h298-k-no"
            },
            {
                "about": "Dome",
                "link": "https://lh5.googleusercontent.com/p/AF1QipMonlDxvjsMuT5y9l3BIuhYMuC7G_CRyOCHMf4P=w529-h298-k-no"
            },
            {
                "about": "Videos",
                "link": "https://lh5.googleusercontent.com/p/AF1QipP4ekrqaoB4eozzt09J2mTJEGuuSFBtBMhqPll8=w529-h298-k-no"
            },
            {
                "about": "Street View & 360deg",
                "link": "https://streetviewpixels-pa.googleapis.com/v1/thumbnail?panoid=Ypm--Vk6lL2at2SWiol8DA&cb_client=maps_sv.tactile.gps&w=224&h=298&yaw=4.088941&pitch=0&thumbfov=100"
            }
        ],
        "link": "https://www.google.com/maps/place/Shaheed+baba+dargah/data=!4m7!3m6!1s0x3993c52661747375:0x6fac32770c73212f!8m2!3d26.5151038!4d83.7754964!16s%2Fg%2F11d_8gd_f2!19sChIJdXN0YSbFkzkRLyFzDHcyrG8?authuser=0&hl=en&rclk=1",
        "coordinates": {
            "latitude": 26.5151038,
            "longitude": 83.7754964
        }
    },
    {
        "name": "Lakdi Hatta. Hazrat Bilal Masjid",
        "main_category": "Mosque",
        "address": "GQ3P+JQV Lakdi Hatta. Hazrat Bilal Masjid, Lakdi Hatta, Saket Nagar, Deoria, Uttar Pradesh 274001",
        "detailed_address": {
            "ward": "Lakdi Hatta, Saket Nagar",
            "street": "GQ3P+JQV",
            "city": "Deoria",
            "postal_code": "274001",
            "state": "Uttar Pradesh",
            "country_code": "IN"
        },
        "images": [
            {
                "about": "All",
                "link": "https://lh5.googleusercontent.com/p/AF1QipMVpQX9Ay03PfoAUG9l-0FZSqOiSKz2qrQSzOU0=w224-h298-k-no"
            }
        ],
        "link": "https://www.google.com/maps/place/Lakdi+Hatta.+Hazrat+Bilal+Masjid/data=!4m7!3m6!1s0x3993c5df910865b7:0x778bff22429fd0e!8m2!3d26.5041187!4d83.786911!16s%2Fg%2F11h0v8xsf0!19sChIJt2UIkd_FkzkRDv0pJPK_eAc?authuser=0&hl=en&rclk=1",
        "coordinates": {
            "latitude": 26.5041187,
            "longitude": 83.78691099999999
        }
    },
    {
        "name": "Jama Masjid Ahle Hadees (Chhoti Masjid)",
        "main_category": "Mosque",
        "address": "GQ4J+RCR Jama Masjid Ahle Hadees (Chhoti Masjid), Kailashpuri, Deoria, Uttar Pradesh 274806",
        "detailed_address": {
            "ward": "Kailashpuri",
            "street": "GQ4J+RCR",
            "city": "Deoria",
            "postal_code": null,
            "state": "Uttar Pradesh",
            "country_code": "IN"
        },
        "images": [
            {
                "about": "All",
                "link": "https://lh5.googleusercontent.com/p/AF1QipMCHRybm0pPqe2dux6dfxvGpuE5p0UxkiM5ItMW=w397-h298-k-no"
            },
            {
                "about": "Dome",
                "link": "https://lh5.googleusercontent.com/p/AF1QipO8OOzPXFgqfzqjNUszcj313uA2_wK5dw6LwmPx=w224-h298-k-no"
            }
        ],
        "link": "https://www.google.com/maps/place/Jama+Masjid+Ahle+Hadees+%28Chhoti+Masjid%29/data=!4m7!3m6!1s0x3993c5374dd5f8ef:0xd37532f65fc2f314!8m2!3d26.5071179!4d83.7810041!16s%2Fg%2F11g0bxf2v9!19sChIJ7_jVTTfFkzkRFPPCX_YyddM?authuser=0&hl=en&rclk=1",
        "coordinates": {
            "latitude": 26.507117899999997,
            "longitude": 83.78100409999999
        }
    },
    {
        "name": "Sakrapar Masjid",
        "main_category": "Mosque",
        "address": "FRQ2+9WX Sakrapar Masjid, Sakrapar, Nunkhar, Uttar Pradesh 274001",
        "detailed_address": {
            "ward": null,
            "street": "FRQ2+9WX",
            "city": "Sakrapar, Nunkhar",
            "postal_code": "274001",
            "state": "Uttar Pradesh",
            "country_code": "IN"
        },
        "images": [
            {
                "about": "All",
                "link": "https://lh5.googleusercontent.com/p/AF1QipPcETzF5yFSbv9tHP1IPvC0NAhpGgruu9zyazwA=w224-h373-k-no"
            },
            {
                "about": "Videos",
                "link": "https://lh5.googleusercontent.com/p/AF1QipMEFI_69tZ7Fr4Sfl4p1EkTgupLzCBQW1gKaA92=w541-h298-k-no"
            }
        ],
        "link": "https://www.google.com/maps/place/Sakrapar+Masjid/data=!4m7!3m6!1s0x3993c5d10162352b:0x8e01af379979828!8m2!3d26.4884823!4d83.8023494!16s%2Fg%2F11ft_0jw10!19sChIJKzViAdHFkzkRKJiXefMa4Ag?authuser=0&hl=en&rclk=1",
        "coordinates": {
            "latitude": 26.488482299999998,
            "longitude": 83.8023494
        }
    },
    {
        "name": "Maktab Deeniyat Mashzid Ahmadnager",
        "main_category": "Mosque",
        "address": "GQ6G+F97 Maktab Deeniyat Mashzid Ahmadnager, Kailashpuri, Deoria, Uttar Pradesh 274001",
        "detailed_address": {
            "ward": "Kailashpuri",
            "street": "GQ6G+F97",
            "city": "Deoria",
            "postal_code": "274001",
            "state": "Uttar Pradesh",
            "country_code": "IN"
        },
        "images": [
            {
                "about": "All",
                "link": "https://lh5.googleusercontent.com/p/AF1QipOnbZMPoV0hC3UCxDynya4uBT7QjYb3f1B1UPzi=w224-h298-k-no"
            }
        ],
        "link": "https://www.google.com/maps/place/Maktab+Deeniyat+Mashzid+Ahmadnager/data=!4m7!3m6!1s0x3993c5337381960f:0x7b95ae9df408dce5!8m2!3d26.511168!4d83.7759248!16s%2Fg%2F11g0w3ylnv!19sChIJD5aBczPFkzkR5dwI9J2ulXs?authuser=0&hl=en&rclk=1",
        "coordinates": {
            "latitude": 26.511167999999998,
            "longitude": 83.7759248
        }
    },
    {
        "name": "Piparpati Masjid",
        "main_category": "Mosque",
        "address": "FRX2+69Q Piparpati Masjid, Piparpati, Uttar Pradesh 274001",
        "detailed_address": {
            "ward": null,
            "street": "FRX2+69Q",
            "city": "Piparpati",
            "postal_code": "274001",
            "state": "Uttar Pradesh",
            "country_code": "IN"
        },
        "images": [
            {
                "about": "All",
                "link": "https://lh5.googleusercontent.com/p/AF1QipNK5Pu0h1ChZWVbhSdC2aOrWKvj1hiIGiFbTCGs=w224-h398-k-no"
            },
            {
                "about": "Videos",
                "link": "https://lh5.googleusercontent.com/p/AF1QipNK5Pu0h1ChZWVbhSdC2aOrWKvj1hiIGiFbTCGs=w224-h398-k-no"
            }
        ],
        "link": "https://www.google.com/maps/place/Piparpati+Masjid/data=!4m7!3m6!1s0x3993c50b37ef79cf:0x3cf2719b9163214!8m2!3d26.4980884!4d83.8009995!16s%2Fg%2F11ggs4h7x4!19sChIJz3nvNwvFkzkRFDIWuRknzwM?authuser=0&hl=en&rclk=1",
        "coordinates": {
            "latitude": 26.4980884,
            "longitude": 83.8009995
        }
    },
    {
        "name": "Madni masjid",
        "main_category": "Mosque",
        "address": "FQVF+CHF Madni masjid, Ram Naath Nagar, Deoria, Uttar Pradesh 274001",
        "detailed_address": {
            "ward": "Ram Naath Nagar",
            "street": "FQVF+CHF",
            "city": "Deoria",
            "postal_code": "274001",
            "state": "Uttar Pradesh",
            "country_code": "IN"
        },
        "images": [
            {
                "about": "All",
                "link": "https://lh5.googleusercontent.com/p/AF1QipNAyl9u1yRl9cbUZfZS3dHE16NP_FeN57Y3sYiJ=w224-h398-k-no"
            },
            {
                "about": "Street View & 360deg",
                "link": "https://streetviewpixels-pa.googleapis.com/v1/thumbnail?panoid=gm_hfWf334tD9nOnivw6pA&cb_client=maps_sv.tactile.gps&w=224&h=298&yaw=166.66862&pitch=0&thumbfov=100"
            }
        ],
        "link": "https://www.google.com/maps/place/Madni+masjid/data=!4m7!3m6!1s0x3993c5f0f966d749:0xbb0b8c7aeea8acfa!8m2!3d26.4935566!4d83.7739372!16s%2Fg%2F11qz3zbszm!19sChIJSddm-fDFkzkR-qyo7nqMC7s?authuser=0&hl=en&rclk=1",
        "coordinates": {
            "latitude": 26.493556599999998,
            "longitude": 83.77393719999999
        }
    },
    {
        "name": "Ali Nagar Masjid",
        "main_category": "Mosque",
        "address": "GQ7F+5FC Ali Nagar Masjid, Unnamed Road, Ali Nagar, Deoria, Uttar Pradesh 274001",
        "detailed_address": {
            "ward": "Ali Nagar",
            "street": "GQ7F+5FC, Unnamed Road",
            "city": "Deoria",
            "postal_code": "274001",
            "state": "Uttar Pradesh",
            "country_code": "IN"
        },
        "images": [
            {
                "about": "All",
                "link": "https://streetviewpixels-pa.googleapis.com/v1/thumbnail?panoid=-5WMWmW-due4te9G1JEoyg&cb_client=maps_sv.tactile.gps&w=224&h=298&yaw=40.686752&pitch=0&thumbfov=100"
            },
            {
                "about": "Street View & 360deg",
                "link": "https://streetviewpixels-pa.googleapis.com/v1/thumbnail?panoid=-5WMWmW-due4te9G1JEoyg&cb_client=maps_sv.tactile.gps&w=224&h=298&yaw=40.686752&pitch=0&thumbfov=100"
            },
            {
                "about": "Videos",
                "link": "https://lh5.googleusercontent.com/p/AF1QipMfXyCl5j8rdRFdclast7GnvpjIM2G8DLO-VzxG=w224-h389-k-no"
            }
        ],
        "link": "https://www.google.com/maps/place/Ali+Nagar+Masjid/data=!4m7!3m6!1s0x3993c5b45f0f9427:0x7483b962a517de9d!8m2!3d26.512932!4d83.7736484!16s%2Fg%2F11h4nb3xxy!19sChIJJ5QPX7TFkzkRnd4XpWK5g3Q?authuser=0&hl=en&rclk=1",
        "coordinates": {
            "latitude": 26.512932,
            "longitude": 83.7736484
        }
    },
    {
        "name": "Purani Masjid",
        "main_category": "Mosque",
        "address": "GQ9J+WCG Purani Masjid, Shanti Nagar, Mehra, Uttar Pradesh 274001",
        "detailed_address": {
            "ward": null,
            "street": "GQ9J+WCG",
            "city": "Shanti Nagar, Mehra",
            "postal_code": "274001",
            "state": "Uttar Pradesh",
            "country_code": "IN"
        },
        "images": [],
        "link": "https://www.google.com/maps/place/Purani+Masjid/data=!4m7!3m6!1s0x3993c5207e59c165:0xdedf85b33292b3c0!8m2!3d26.519801!4d83.781067!16s%2Fg%2F11f01t8d7t!19sChIJZcFZfiDFkzkRwLOSMrOF394?authuser=0&hl=en&rclk=1",
        "coordinates": {
            "latitude": 26.519800999999998,
            "longitude": 83.781067
        }
    },
    {
        "name": "New colony masjid",
        "main_category": "Mosque",
        "address": "FQVQ+RPQ New colony masjid, New Colony, Saket Nagar, Deoria, Uttar Pradesh 274807",
        "detailed_address": {
            "ward": "New Colony, Saket Nagar",
            "street": "FQVQ+RPQ",
            "city": "Deoria",
            "postal_code": "274807",
            "state": "Uttar Pradesh",
            "country_code": "IN"
        },
        "images": [],
        "link": "https://www.google.com/maps/place/New+colony+masjid/data=!4m7!3m6!1s0x3993c5e9e673575f:0x194dfb9c9b1ddcbf!8m2!3d26.49459!4d83.7893591!16s%2Fg%2F11lrg_dz8m!19sChIJX1dz5unFkzkRv9wdm5z7TRk?authuser=0&hl=en&rclk=1",
        "coordinates": {
            "latitude": 26.49459,
            "longitude": 83.7893591
        }
    },
    {
        "name": "Masjid Ali Nagar Deoria",
        "main_category": "Mosque",
        "address": "GQ7C+C2W Masjid Ali Nagar Deoria, Unnamed Road, Uma Nagar, Deoria, Uttar Pradesh 274001",
        "detailed_address": {
            "ward": "Uma Nagar",
            "street": "GQ7C+C2W, Unnamed Road",
            "city": "Deoria",
            "postal_code": "274001",
            "state": "Uttar Pradesh",
            "country_code": "IN"
        },
        "images": [
            {
                "about": "All",
                "link": "https://lh5.googleusercontent.com/p/AF1QipPh6-_Pz_n_s4Pl38lu4J_UfLvPwXNQIyFsh2Tr=w397-h298-k-no"
            }
        ],
        "link": "https://www.google.com/maps/place/Masjid+Ali+Nagar+Deoria/data=!4m7!3m6!1s0x3993c57355b5e481:0x6153c1b0896b4a79!8m2!3d26.5136053!4d83.7700797!16s%2Fg%2F11fl4680jk!19sChIJgeS1VXPFkzkReUpribDBU2E?authuser=0&hl=en&rclk=1",
        "coordinates": {
            "latitude": 26.5136053,
            "longitude": 83.7700797
        }
    },
    {
        "name": "MASJID-E-AAYESHA / PIDRA MASJID",
        "main_category": "Mosque",
        "address": "GQ6V+G75 MASJID-E-AAYESHA / PIDRA MASJID, Ramgulam Tola, Deoria, Uttar Pradesh 274001",
        "detailed_address": {
            "ward": "Ramgulam Tola",
            "street": "GQ6V+G75",
            "city": "Deoria",
            "postal_code": "274001",
            "state": "Uttar Pradesh",
            "country_code": "IN"
        },
        "images": [
            {
                "about": "All",
                "link": "https://lh5.googleusercontent.com/p/AF1QipOPhHZtBh-XKXwAV71ag3pBd0FCz4mZAVI49xiY=w529-h298-k-no"
            },
            {
                "about": "By owner",
                "link": "https://lh5.googleusercontent.com/p/AF1QipOlu1q0Ql_2UsUzbXNAzY8CYn3ldTUaF7A7D9Yc=w396-h298-k-no"
            }
        ],
        "link": "https://www.google.com/maps/place/MASJID-E-AAYESHA+%2F+PIDRA+MASJID/data=!4m7!3m6!1s0x3993c55ad15e68e3:0xa361f6c22200e57b!8m2!3d26.5111685!4d83.7940738!16s%2Fg%2F11ptw19pmn!19sChIJ42he0VrFkzkRe-UAIsL2YaM?authuser=0&hl=en&rclk=1",
        "coordinates": {
            "latitude": 26.5111685,
            "longitude": 83.79407379999999
        }
    },
    {
        "name": "Asgarabaad masjid",
        "main_category": "Mosque",
        "address": "GQ6M+H69 Asgarabaad masjid, Deoria Sadar, Deoria, Uttar Pradesh 274001",
        "detailed_address": {
            "ward": "Deoria Sadar",
            "street": "GQ6M+H69",
            "city": "Deoria",
            "postal_code": "274001",
            "state": "Uttar Pradesh",
            "country_code": "IN"
        },
        "images": [
            {
                "about": "All",
                "link": "https://streetviewpixels-pa.googleapis.com/v1/thumbnail?panoid=YIEVlflGFzPvUZIsvCGWMQ&cb_client=maps_sv.tactile.gps&w=224&h=298&yaw=320.9908&pitch=0&thumbfov=100"
            },
            {
                "about": "Street View & 360deg",
                "link": "https://streetviewpixels-pa.googleapis.com/v1/thumbnail?panoid=YIEVlflGFzPvUZIsvCGWMQ&cb_client=maps_sv.tactile.gps&w=224&h=298&yaw=320.9908&pitch=0&thumbfov=100"
            }
        ],
        "link": "https://www.google.com/maps/place/Asgarabaad+masjid/data=!4m7!3m6!1s0x3993c560852cf2a7:0x7515f7b56ef43300!8m2!3d26.5114091!4d83.7831246!16s%2Fg%2F11s11qhx84!19sChIJp_IshWDFkzkRADP0brX3FXU?authuser=0&hl=en&rclk=1",
        "coordinates": {
            "latitude": 26.511409099999998,
            "longitude": 83.7831246
        }
    },
    {
        "name": "Masjid Umar bin katthab",
        "main_category": "Mosque",
        "address": "GQ74+672 Masjid Umar bin katthab, Deoria, Uttar Pradesh 274001",
        "detailed_address": {
            "ward": null,
            "street": "GQ74+672",
            "city": "Deoria",
            "postal_code": null,
            "state": "Uttar Pradesh",
            "country_code": "IN"
        },
        "images": [
            {
                "about": "All",
                "link": "https://streetviewpixels-pa.googleapis.com/v1/thumbnail?panoid=YRFymfEUQGV7ke61eyQFIw&cb_client=maps_sv.tactile.gps&w=224&h=298&yaw=124.53496&pitch=0&thumbfov=100"
            },
            {
                "about": "Street View & 360deg",
                "link": "https://streetviewpixels-pa.googleapis.com/v1/thumbnail?panoid=YRFymfEUQGV7ke61eyQFIw&cb_client=maps_sv.tactile.gps&w=224&h=298&yaw=124.53496&pitch=0&thumbfov=100"
            }
        ],
        "link": "https://www.google.com/maps/place/Masjid+Umar+bin+katthab/data=!4m7!3m6!1s0x3993db4be85b9273:0x3c742bcf737c7251!8m2!3d26.513022!4d83.7556421!16s%2Fg%2F11j8kjdgj_!19sChIJc5Jb6EvbkzkRUXJ8c88rdDw?authuser=0&hl=en&rclk=1",
        "coordinates": {
            "latitude": 26.513022,
            "longitude": 83.7556421
        }
    },
    {
        "name": "Raghwapur Masjid 2",
        "main_category": "Mosque",
        "address": "GQ8Q+XRW Raghwapur Masjid 2, Babhani, Uttar Pradesh 274001",
        "detailed_address": {
            "ward": null,
            "street": "GQ8Q+XRW",
            "city": "Babhani",
            "postal_code": "274001",
            "state": "Uttar Pradesh",
            "country_code": "IN"
        },
        "images": [],
        "link": "https://www.google.com/maps/place/Raghwapur+Masjid+2/data=!4m7!3m6!1s0x3993c53a47356041:0x2155301b74e9f9d1!8m2!3d26.5174784!4d83.7895723!16s%2Fg%2F11hl9plg3g!19sChIJQWA1RzrFkzkR0fnpdBswVSE?authuser=0&hl=en&rclk=1",
        "coordinates": {
            "latitude": 26.517478399999998,
            "longitude": 83.7895723
        }
    },
    {
        "name": "Ilahi Tola Masjid",
        "main_category": "Mosque",
        "address": "Ilahi Tola Masjid, Kasia - Deoria Rd, Deoria Sadar, Deoria, Uttar Pradesh 274001",
        "detailed_address": {
            "ward": "Deoria Sadar",
            "street": "Ilahi Tola Masjid, Kasia - Deoria Rd",
            "city": "Deoria",
            "postal_code": null,
            "state": "Uttar Pradesh",
            "country_code": "IN"
        },
        "images": [
            {
                "about": "All",
                "link": "https://streetviewpixels-pa.googleapis.com/v1/thumbnail?panoid=v_js8D6Vc1W7tdev5Ukbpw&cb_client=maps_sv.tactile.gps&w=224&h=298&yaw=64.507744&pitch=0&thumbfov=100"
            },
            {
                "about": "Street View & 360deg",
                "link": "https://streetviewpixels-pa.googleapis.com/v1/thumbnail?panoid=v_js8D6Vc1W7tdev5Ukbpw&cb_client=maps_sv.tactile.gps&w=224&h=298&yaw=64.507744&pitch=0&thumbfov=100"
            }
        ],
        "link": "https://www.google.com/maps/place/Ilahi+Tola+Masjid/data=!4m7!3m6!1s0x3993c5655939ae85:0x28ca52d545ac9904!8m2!3d26.5085146!4d83.7857118!16s%2Fg%2F11t2wh1t23!19sChIJha45WWXFkzkRBJmsRdVSyig?authuser=0&hl=en&rclk=1",
        "coordinates": {
            "latitude": 26.508514599999998,
            "longitude": 83.7857118
        }
    },
    {
        "name": "Saheed Nagar Masjid",
        "main_category": "Mosque",
        "address": "GQ7F+WH5 Saheed Nagar Masjid, saheed nagar, Deoria, Mehra, Uttar Pradesh 274001",
        "detailed_address": {
            "ward": "saheed nagar",
            "street": "GQ7F+WH5",
            "city": "Deoria, Mehra",
            "postal_code": "274001",
            "state": "Uttar Pradesh",
            "country_code": "IN"
        },
        "images": [
            {
                "about": "All",
                "link": "https://lh5.googleusercontent.com/p/AF1QipNU_9MKZl6XwZnFaDUnvDe8BIkTaENY7ErV4feI=w397-h298-k-no"
            }
        ],
        "link": "https://www.google.com/maps/place/Saheed+Nagar+Masjid/data=!4m7!3m6!1s0x3993c58406dd3a89:0xc26cd10493e8fce3!8m2!3d26.5147647!4d83.77399!16s%2Fg%2F11mmd5pqk8!19sChIJiTrdBoTFkzkR4_zokwTRbMI?authuser=0&hl=en&rclk=1",
        "coordinates": {
            "latitude": 26.514764699999997,
            "longitude": 83.77399
        }
    },
    {
        "name": "Islamiya masjid",
        "main_category": "Mosque",
        "address": "FRM7+QFW Islamiya masjid, Deoria Vaikunthpur Road, Bagaha, Mathia, Sakrapar, Uttar Pradesh 274001",
        "detailed_address": {
            "ward": "Bagaha",
            "street": "FRM7+QFW, Deoria Vaikunthpur Road",
            "city": "Mathia, Sakrapar",
            "postal_code": "274001",
            "state": "Uttar Pradesh",
            "country_code": "IN"
        },
        "images": [
            {
                "about": "All",
                "link": "https://streetviewpixels-pa.googleapis.com/v1/thumbnail?panoid=8XrjPe56hGYdaPAm8Ml7GQ&cb_client=maps_sv.tactile.gps&w=224&h=298&yaw=296.3681&pitch=0&thumbfov=100"
            },
            {
                "about": "Street View & 360deg",
                "link": "https://streetviewpixels-pa.googleapis.com/v1/thumbnail?panoid=8XrjPe56hGYdaPAm8Ml7GQ&cb_client=maps_sv.tactile.gps&w=224&h=298&yaw=296.3681&pitch=0&thumbfov=100"
            }
        ],
        "link": "https://www.google.com/maps/place/Islamiya+masjid/data=!4m7!3m6!1s0x3993c5ab2251546f:0x3a32c9c46cba18a0!8m2!3d26.4844884!4d83.8136983!16s%2Fg%2F11rssvt7wm!19sChIJb1RRIqvFkzkRoBi6bMTJMjo?authuser=0&hl=en&rclk=1",
        "coordinates": {
            "latitude": 26.4844884,
            "longitude": 83.8136983
        }
    },
    {
        "name": "Purvi Saket Nagar Masjid",
        "main_category": "Mosque",
        "address": "Purvi Saket Nagar Masjid, Saket Nagar Main Rd 4 B Saket Nagar, Saket Nagar, Habib Ganj, Saket Nagar, Deoria, Uttar Pradesh 274001",
        "detailed_address": {
            "ward": "Saket Nagar",
            "street": "Saket Nagar Main Rd 4 B Saket Nagar, Saket Nagar, Habib Ganj",
            "city": "Deoria",
            "postal_code": "274001",
            "state": "Uttar Pradesh",
            "country_code": "IN"
        },
        "images": [
            {
                "about": "All",
                "link": "https://lh5.googleusercontent.com/p/AF1QipP2tdcYLr8MsDTSXVljuBxv92YVFMtTIOGcat-W=w224-h299-k-no"
            },
            {
                "about": "Dome",
                "link": "https://lh5.googleusercontent.com/p/AF1QipP2tdcYLr8MsDTSXVljuBxv92YVFMtTIOGcat-W=w224-h299-k-no"
            }
        ],
        "link": "https://www.google.com/maps/place/Purvi+Saket+Nagar+Masjid/data=!4m7!3m6!1s0x3993c51946ebf387:0x67fc12644d4635de!8m2!3d26.4898414!4d83.796753!16s%2Fg%2F11rf7r66ph!19sChIJh_PrRhnFkzkR3jVGTWQS_Gc?authuser=0&hl=en&rclk=1",
        "coordinates": {
            "latitude": 26.4898414,
            "longitude": 83.796753
        }
    }
]