[
    {
        "name": "ICL Majid, Colony Mosque",
        "main_category": "Mosque",
        "address": "JGQH+4XQ ICL Majid, Colony Mosque, ICL Colony, Yerraguntla, Andhra Pradesh 516309",
        "detailed_address": {
            "ward": "ICL Colony",
            "street": "JGQH+4XQ",
            "city": "Yerraguntla",
            "postal_code": "516309",
            "state": "Andhra Pradesh",
            "country_code": "IN"
        },
        "images": [
            {
                "about": "All",
                "link": "https://lh5.googleusercontent.com/p/AF1QipO8lT5bpipNzhq0E5YfMu3DZTAkkVYf6FjYpYDB=w496-h298-k-no"
            },
            {
                "about": "Videos",
                "link": "https://lh5.googleusercontent.com/p/AF1QipPI8PUkYceCmIlC4MRuFDA6QAh9yCn-tOYu-y2Y=w224-h398-k-no"
            }
        ],
        "link": "https://www.google.com/maps/place/ICL+Majid,+Colony+Mosque/data=!4m7!3m6!1s0x3bb38430ea8ba279:0xd0433feff063ca48!8m2!3d14.6378439!4d78.5299696!16s%2Fg%2F11dx8n1g67!19sChIJeaKL6jCEszsRSMpj8O8_Q9A?authuser=0&hl=en&rclk=1",
        "coordinates": {
            "latitude": 14.6378439,
            "longitude": 78.5299696
        }
    },
    {
        "name": "Madeena Masjid",
        "main_category": "Mosque",
        "address": "JGVP+HVW Madeena Masjid, Yerraguntla, Andhra Pradesh 516309",
        "detailed_address": {
            "ward": null,
            "street": "JGVP+HVW",
            "city": "Yerraguntla",
            "postal_code": null,
            "state": "Andhra Pradesh",
            "country_code": "IN"
        },
        "images": [
            {
                "about": "All",
                "link": "https://lh5.googleusercontent.com/p/AF1QipNX1mXVrZZd0Q3mPEDAijgJ7DuEKunLnd3uVMGq=w397-h298-k-no"
            },
            {
                "about": "Street View & 360deg",
                "link": "https://streetviewpixels-pa.googleapis.com/v1/thumbnail?panoid=LhUqHdie_8WNSnlbVlEOCQ&cb_client=maps_sv.tactile.gps&w=224&h=298&yaw=16.674047&pitch=0&thumbfov=100"
            }
        ],
        "link": "https://www.google.com/maps/place/Madeena+Masjid/data=!4m7!3m6!1s0x3bb385737f46d839:0xad02567a292f54e4!8m2!3d14.6439906!4d78.5372044!16s%2Fg%2F11gk8qd9g4!19sChIJOdhGf3OFszsR5FQvKXpWAq0?authuser=0&hl=en&rclk=1",
        "coordinates": {
            "latitude": 14.643990599999999,
            "longitude": 78.5372044
        }
    },
    {
        "name": "Fatima Maszid",
        "main_category": "Mosque",
        "address": "JGVV+5FX Fatima Maszid, Yerraguntla, Andhra Pradesh 516309",
        "detailed_address": {
            "ward": null,
            "street": "JGVV+5FX",
            "city": "Yerraguntla",
            "postal_code": "516309",
            "state": "Andhra Pradesh",
            "country_code": "IN"
        },
        "images": [
            {
                "about": "All",
                "link": "https://lh5.googleusercontent.com/p/AF1QipPx3qSuE0K2en0PaiBVNWxiW8QpdEHDoA0XkyqJ=w397-h298-k-no"
            },
            {
                "about": "Street View & 360deg",
                "link": "https://streetviewpixels-pa.googleapis.com/v1/thumbnail?panoid=ZM-Xm-ZuI6aqk6H-W9yq2A&cb_client=maps_sv.tactile.gps&w=224&h=298&yaw=94.74888&pitch=0&thumbfov=100"
            }
        ],
        "link": "https://www.google.com/maps/place/Fatima+Maszid/data=!4m7!3m6!1s0x3bb3841803ded1dd:0xdea4bda6f57fb36e!8m2!3d14.642981!4d78.5437363!16s%2Fg%2F11gb40tjvx!19sChIJ3dHeAxiEszsRbrN_9aa9pN4?authuser=0&hl=en&rclk=1",
        "coordinates": {
            "latitude": 14.642980999999999,
            "longitude": 78.54373629999999
        }
    },
    {
        "name": "Masjid e Ahle hadees",
        "main_category": "Mosque",
        "address": "JGRR+Q27 Masjid e Ahle hadees, Yerraguntla, Andhra Pradesh 516309",
        "detailed_address": {
            "ward": null,
            "street": "JGRR+Q27",
            "city": "Yerraguntla",
            "postal_code": "516309",
            "state": "Andhra Pradesh",
            "country_code": "IN"
        },
        "images": [],
        "link": "https://www.google.com/maps/place/Masjid+e+Ahle+hadees/data=!4m7!3m6!1s0x3bb3843cd0f2f20d:0x4892515bd19487a4!8m2!3d14.6419034!4d78.5400357!16s%2Fg%2F11c707zgzr!19sChIJDfLy0DyEszsRpIeU0VtRkkg?authuser=0&hl=en&rclk=1",
        "coordinates": {
            "latitude": 14.641903399999999,
            "longitude": 78.54003569999999
        }
    },
    {
        "name": "Jamia Masjid",
        "main_category": "Mosque",
        "address": "JGQQ+6CP Jamia Masjid, Muddanur - Kadapa - Renigunta Hwy, Yerraguntla, Andhra Pradesh 516309",
        "detailed_address": {
            "ward": null,
            "street": "JGQQ+6CP, Muddanur - Kadapa - Renigunta Hwy",
            "city": "Yerraguntla",
            "postal_code": "516309",
            "state": "Andhra Pradesh",
            "country_code": "IN"
        },
        "images": [
            {
                "about": "All",
                "link": "https://streetviewpixels-pa.googleapis.com/v1/thumbnail?panoid=1qdxDPoKrvm5pxWN-0eZXA&cb_client=maps_sv.tactile.gps&w=224&h=298&yaw=233.02817&pitch=0&thumbfov=100"
            },
            {
                "about": "Street View & 360deg",
                "link": "https://streetviewpixels-pa.googleapis.com/v1/thumbnail?panoid=1qdxDPoKrvm5pxWN-0eZXA&cb_client=maps_sv.tactile.gps&w=224&h=298&yaw=233.02817&pitch=0&thumbfov=100"
            }
        ],
        "link": "https://www.google.com/maps/place/Jamia+Masjid/data=!4m7!3m6!1s0x3bb3843c6b90cddb:0xbf3c59e161845356!8m2!3d14.638087!4d78.538563!16s%2Fg%2F11gfh_wsg0!19sChIJ282QazyEszsRVlOEYeFZPL8?authuser=0&hl=en&rclk=1",
        "coordinates": {
            "latitude": 14.638086999999999,
            "longitude": 78.538563
        }
    },
    {
        "name": "ZAMIYA MASJID",
        "main_category": "Mosque",
        "address": "JGQP+QF9 ZAMIYA MASJID, Yerraguntla, Andhra Pradesh 516309",
        "detailed_address": {
            "ward": null,
            "street": "JGQP+QF9",
            "city": "Yerraguntla",
            "postal_code": "516309",
            "state": "Andhra Pradesh",
            "country_code": "IN"
        },
        "images": [
            {
                "about": "All",
                "link": "https://lh5.googleusercontent.com/p/AF1QipOvRQ90m_5f9oe6ZyCtfbiXVMeyW5XztObzJSnl=w529-h298-k-no"
            },
            {
                "about": "Dome",
                "link": "https://lh5.googleusercontent.com/p/AF1QipOGLbkc2SQCIhGCSWVBheIvJnEYTgMhKTSPV9gR=w529-h298-k-no"
            },
            {
                "about": "Street View & 360deg",
                "link": "https://streetviewpixels-pa.googleapis.com/v1/thumbnail?panoid=dWk5LzZ8EyhdZZJJOfv0iw&cb_client=maps_sv.tactile.gps&w=224&h=298&yaw=161.99968&pitch=0&thumbfov=100"
            }
        ],
        "link": "https://www.google.com/maps/place/ZAMIYA+MASJID/data=!4m7!3m6!1s0x3bb3843b9f88550d:0x93d9b1de8a8c461!8m2!3d14.6394144!4d78.5362289!16s%2Fg%2F11fylz47ch!19sChIJDVWInzuEszsRYcSo6B2bPQk?authuser=0&hl=en&rclk=1",
        "coordinates": {
            "latitude": 14.6394144,
            "longitude": 78.5362289
        }
    },
    {
        "name": "MASJID-E-IMAMIYA MARKAZ.",
        "main_category": "Mosque",
        "address": "JGQQ+3HR MASJID-E-IMAMIYA MARKAZ., Yerraguntla, Andhra Pradesh 516309",
        "detailed_address": {
            "ward": null,
            "street": "JGQQ+3HR",
            "city": "Yerraguntla",
            "postal_code": "516309",
            "state": "Andhra Pradesh",
            "country_code": "IN"
        },
        "images": [
            {
                "about": "All",
                "link": "https://streetviewpixels-pa.googleapis.com/v1/thumbnail?panoid=vhXPVgLQTzHpLkcKuBunhA&cb_client=maps_sv.tactile.gps&w=224&h=298&yaw=149.02055&pitch=0&thumbfov=100"
            },
            {
                "about": "Street View & 360deg",
                "link": "https://streetviewpixels-pa.googleapis.com/v1/thumbnail?panoid=vhXPVgLQTzHpLkcKuBunhA&cb_client=maps_sv.tactile.gps&w=224&h=298&yaw=149.02055&pitch=0&thumbfov=100"
            }
        ],
        "link": "https://www.google.com/maps/place/MASJID-E-IMAMIYA+MARKAZ./data=!4m7!3m6!1s0x3bb3859c23ddad91:0xf7d11c96301df905!8m2!3d14.6377396!4d78.5389014!16s%2Fg%2F11h3m8qr6b!19sChIJka3dI5yFszsRBfkdMJYc0fc?authuser=0&hl=en&rclk=1",
        "coordinates": {
            "latitude": 14.6377396,
            "longitude": 78.5389014
        }
    },
    {
        "name": "Masjid E Abraar",
        "main_category": "Mosque",
        "address": "JGPQ+QHG Masjid E Abraar, Sri Ramula St, Yerraguntla, Andhra Pradesh 516309",
        "detailed_address": {
            "ward": null,
            "street": "JGPQ+QHG, Sri Ramula St",
            "city": "Yerraguntla",
            "postal_code": "516309",
            "state": "Andhra Pradesh",
            "country_code": "IN"
        },
        "images": [
            {
                "about": "All",
                "link": "https://lh5.googleusercontent.com/p/AF1QipOOb1sC16rvq5rMGuM-75K1hBiAvoxtAXXcpJTN=w645-h298-k-no"
            },
            {
                "about": "Dome",
                "link": "https://lh5.googleusercontent.com/p/AF1QipM0k3im63e0V8em2Jrz-Gt72v_yEe5_rrGnHvEF=w354-h298-k-no"
            }
        ],
        "link": "https://www.google.com/maps/place/Masjid+E+Abraar/data=!4m7!3m6!1s0x3bb38561355c569f:0x120f2ee37b6fa567!8m2!3d14.636944!4d78.538964!16s%2Fg%2F11pwwyl4qm!19sChIJn1ZcNWGFszsRZ6Vve-MuDxI?authuser=0&hl=en&rclk=1",
        "coordinates": {
            "latitude": 14.636944,
            "longitude": 78.53896399999999
        }
    },
    {
        "name": "Mosque",
        "main_category": "Mosque",
        "address": "JGQM+QW5 Mosque, Yerraguntla, Andhra Pradesh 516309",
        "detailed_address": {
            "ward": null,
            "street": "JGQM+QW5",
            "city": "Yerraguntla",
            "postal_code": null,
            "state": "Andhra Pradesh",
            "country_code": "IN"
        },
        "images": [
            {
                "about": "All",
                "link": "https://lh5.googleusercontent.com/p/AF1QipPYF2Kk9QA9W3pSuCrRTkF7jWlAZJdbswWF3S4a=w529-h298-k-no"
            }
        ],
        "link": "https://www.google.com/maps/place/Mosque/data=!4m7!3m6!1s0x3bb385bd36203521:0x8dea411663c1d794!8m2!3d14.639396!4d78.5348507!16s%2Fg%2F11s39gt2r8!19sChIJITUgNr2FszsRlNfBYxZB6o0?authuser=0&hl=en&rclk=1",
        "coordinates": {
            "latitude": 14.639396,
            "longitude": 78.53485069999999
        }
    }
]