[
    {
        "name": "Gulzar Masjid",
        "main_category": "Mosque",
        "address": "PRRV+47X Gulzar Masjid, Patiana mohalla, Kulti, West Bengal 713343",
        "detailed_address": {
            "ward": "Patiana mohalla",
            "street": "PRRV+47X",
            "city": "Kulti",
            "postal_code": "713343",
            "state": "West Bengal",
            "country_code": "IN"
        },
        "images": [
            {
                "about": "All",
                "link": "https://lh5.googleusercontent.com/p/AF1QipOdPSTNSOxSG35ZXp9MrpujdnvzrKdKZNEDNipD=w529-h298-k-no"
            },
            {
                "about": "Dome",
                "link": "https://lh5.googleusercontent.com/p/AF1QipMpDkGsD6K4mDrL7NAf5KSzVuf9U02IzeLdbs1-=w397-h298-k-no"
            }
        ],
        "link": "https://www.google.com/maps/place/Gulzar+Masjid/data=!4m7!3m6!1s0x39f6de228b0fbb81:0x2502e97b868d2bcd!8m2!3d23.7403571!4d86.8432429!16s%2Fg%2F11bz0y_1mv!19sChIJgbsPiyLe9jkRzSuNhnvpAiU?authuser=0&hl=en&rclk=1",
        "coordinates": {
            "latitude": 23.7403571,
            "longitude": 86.84324289999999
        }
    },
    {
        "name": "Masjid-e-Quba, Kulti, Bardhaman msjd qb, khltty, brdwn",
        "main_category": "Mosque",
        "address": "PRRW+593 Masjid-e-Quba, Kulti, Bardhaman msjd qb, khltty, brdwn, Kulti, West Bengal 713343",
        "detailed_address": {
            "ward": null,
            "street": "PRRW+593",
            "city": "Kulti",
            "postal_code": "713343",
            "state": "West Bengal",
            "country_code": "IN"
        },
        "images": [
            {
                "about": "All",
                "link": "https://lh5.googleusercontent.com/p/AF1QipPY07hApr2DPMs53bTjjYBQbfBpMpjkonn6SyOa=w224-h298-k-no"
            }
        ],
        "link": "https://www.google.com/maps/place/Masjid-e-Quba,+Kulti,+Bardhaman+%D9%85%D8%B3%D8%AC%D8%AF+%D9%82%D8%A8%D8%A7%D8%A1%D8%8C+%DA%A9%D9%84%D9%B9%DB%8C%D8%8C+%D8%A8%D8%B1%D8%AF%D9%88%D8%A7%D9%86%E2%80%AD/data=!4m7!3m6!1s0x39f6de23752671c1:0xadc687036bcde1e0!8m2!3d23.7403769!4d86.8459173!16s%2Fg%2F11c3w89558!19sChIJwXEmdSPe9jkR4OHNawOHxq0?authuser=0&hl=en&rclk=1",
        "coordinates": {
            "latitude": 23.740376899999998,
            "longitude": 86.8459173
        }
    },
    {
        "name": "Makki Masjid",
        "main_category": "Mosque",
        "address": "PRVW+QGQ Makki Masjid, Kulti, West Bengal 713343",
        "detailed_address": {
            "ward": null,
            "street": "PRVW+QGQ",
            "city": "Kulti",
            "postal_code": "713343",
            "state": "West Bengal",
            "country_code": "IN"
        },
        "images": [
            {
                "about": "All",
                "link": "https://lh5.googleusercontent.com/p/AF1QipNs_wQPKUiJT4kSubfb9b4x4Y3AllgqfG0CR_pJ=w529-h298-k-no"
            },
            {
                "about": "Dome",
                "link": "https://lh5.googleusercontent.com/p/AF1QipNs_wQPKUiJT4kSubfb9b4x4Y3AllgqfG0CR_pJ=w529-h298-k-no"
            }
        ],
        "link": "https://www.google.com/maps/place/Makki+Masjid/data=!4m7!3m6!1s0x39f6de3cbd1ae221:0x66c0a85949b4b0ae!8m2!3d23.7444693!4d86.8463628!16s%2Fg%2F11dymnmwm4!19sChIJIeIavTze9jkRrrC0SVmowGY?authuser=0&hl=en&rclk=1",
        "coordinates": {
            "latitude": 23.7444693,
            "longitude": 86.8463628
        }
    },
    {
        "name": "Khan service point",
        "main_category": "Mosque",
        "address": "Khan service point, po., Nichugram, Kulti, West Bengal",
        "detailed_address": {
            "ward": "Nichugram",
            "street": "po.",
            "city": "Kulti",
            "postal_code": null,
            "state": "West Bengal",
            "country_code": "IN"
        },
        "images": [
            {
                "about": "All",
                "link": "https://lh5.googleusercontent.com/p/AF1QipORWAMg-1aGLugCyZ-7jR9jf_YryQ_k4Hn7Swur=w224-h398-k-no"
            },
            {
                "about": "Dome",
                "link": "https://lh5.googleusercontent.com/p/AF1QipOG3xCtxfsm0IlV0Tsm5FNvokzWLt-JZ4xIKlwm=w224-h398-k-no"
            }
        ],
        "link": "https://www.google.com/maps/place/Khan+service+point/data=!4m7!3m6!1s0x39f6de19d41e3dcb:0xc23087288ee57ecc!8m2!3d23.7427892!4d86.8393285!16s%2Fg%2F11c2psv8fy!19sChIJyz0e1Bne9jkRzH7ljiiHMMI?authuser=0&hl=en&rclk=1",
        "coordinates": {
            "latitude": 23.742789199999997,
            "longitude": 86.8393285
        }
    },
    {
        "name": "Kulti Road Masjid",
        "main_category": "Mosque",
        "address": "37MR+3CV Kulti Road Masjid, Sarai, West Bengal 712149",
        "detailed_address": {
            "ward": null,
            "street": "37MR+3CV",
            "city": "Sarai",
            "postal_code": "712149",
            "state": "West Bengal",
            "country_code": "IN"
        },
        "images": [
            {
                "about": "All",
                "link": "https://lh5.googleusercontent.com/p/AF1QipN5x0D4dklTwEJ7oVllj2vd_yBAK2TldDRZmi6v=w397-h298-k-no"
            },
            {
                "about": "Dome",
                "link": "https://lh5.googleusercontent.com/p/AF1QipPPBidBdu1ArHD7LhN2QwDgqzrdrX-5htlEv-Q6=w224-h398-k-no"
            },
            {
                "about": "Videos",
                "link": "https://lh5.googleusercontent.com/p/AF1QipNtIMlRQawTblXcUU3hvMph0A6IgaI8e2JlUBPH=w224-h398-k-no"
            },
            {
                "about": "Street View & 360deg",
                "link": "https://streetviewpixels-pa.googleapis.com/v1/thumbnail?panoid=hE4E6vkwGwDtW64Svl5m-w&cb_client=maps_sv.tactile.gps&w=224&h=298&yaw=64.52267&pitch=0&thumbfov=100"
            }
        ],
        "link": "https://www.google.com/maps/place/Kulti+Road+Masjid/data=!4m7!3m6!1s0x39f8f33c8d926af5:0x846d33fb9961b225!8m2!3d23.0827402!4d88.2910513!16s%2Fg%2F11gl23y5qf!19sChIJ9WqSjTzz-DkRJbJhmfszbYQ?authuser=0&hl=en&rclk=1",
        "coordinates": {
            "latitude": 23.0827402,
            "longitude": 88.29105129999999
        }
    },
    {
        "name": "Jama Masjid",
        "main_category": "Mosque",
        "address": "Jama Masjid, Simul Gram, Kulti, West Bengal 713343",
        "detailed_address": {
            "ward": null,
            "street": "Simul Gram",
            "city": "Kulti",
            "postal_code": "713343",
            "state": "West Bengal",
            "country_code": "IN"
        },
        "images": [
            {
                "about": "All",
                "link": "https://lh5.googleusercontent.com/p/AF1QipMIK1xvrELyzrj9xLHBDDw2yuKTXGn6LU9UIH-k=w397-h298-k-no"
            },
            {
                "about": "Dome",
                "link": "https://lh5.googleusercontent.com/p/AF1QipNBxol1JMAXnkG9w_VnHraXFwIah-GuWnyAWUFd=w224-h397-k-no"
            },
            {
                "about": "Videos",
                "link": "https://lh5.googleusercontent.com/p/AF1QipNu4ZZX0CXrwk3BtNrk9bWp6ES4x3SMuSI3gxUR=w224-h398-k-no"
            }
        ],
        "link": "https://www.google.com/maps/place/Jama+Masjid/data=!4m7!3m6!1s0x39f6de1e6eac376b:0xadbca06c23d6267c!8m2!3d23.7329953!4d86.8380192!16s%2Fg%2F11g6_6pmt6!19sChIJazesbh7e9jkRfCbWI2ygvK0?authuser=0&hl=en&rclk=1",
        "coordinates": {
            "latitude": 23.7329953,
            "longitude": 86.83801919999999
        }
    },
    {
        "name": "Ahle_sunnat_DILDAAR MASJID",
        "main_category": "Mosque",
        "address": "PRVR+VJ4 Ahle_sunnat_DILDAAR MASJID, Hasanpur, Kulti, West Bengal 713343",
        "detailed_address": {
            "ward": "Hasanpur",
            "street": "PRVR+VJ4",
            "city": "Kulti",
            "postal_code": "713343",
            "state": "West Bengal",
            "country_code": "IN"
        },
        "images": [
            {
                "about": "All",
                "link": "https://lh5.googleusercontent.com/p/AF1QipNrlprbwb48loJvsnPyunKO-7hCovWDqRQVaQRT=w361-h298-k-no"
            }
        ],
        "link": "https://www.google.com/maps/place/Ahle_sunnat_DILDAAR+MASJID/data=!4m7!3m6!1s0x39f6de17dd528145:0x7e9e4af35931c04!8m2!3d23.7446447!4d86.8415862!16s%2Fg%2F11g6htvp4z!19sChIJRYFS3Rfe9jkRBByTNa_k6Qc?authuser=0&hl=en&rclk=1",
        "coordinates": {
            "latitude": 23.7446447,
            "longitude": 86.8415862
        }
    },
    {
        "name": "Islamia Masjid",
        "main_category": "Mosque",
        "address": "PRVW+426 Islamia Masjid, Kulti, West Bengal 713343",
        "detailed_address": {
            "ward": null,
            "street": "PRVW+426",
            "city": "Kulti",
            "postal_code": "713343",
            "state": "West Bengal",
            "country_code": "IN"
        },
        "images": [
            {
                "about": "All",
                "link": "https://lh5.googleusercontent.com/p/AF1QipMxrHz-_04pgwtqD4j7Ae4OQcRNGm24sUseGZBE=w224-h398-k-no"
            }
        ],
        "link": "https://www.google.com/maps/place/Islamia+Masjid/data=!4m7!3m6!1s0x39f6de232e829e5b:0x9924d1363d75f84e!8m2!3d23.742788!4d86.8450052!16s%2Fg%2F11c6v8rkbb!19sChIJW56CLiPe9jkRTvh1PTbRJJk?authuser=0&hl=en&rclk=1",
        "coordinates": {
            "latitude": 23.742787999999997,
            "longitude": 86.8450052
        }
    },
    {
        "name": "Jama Masjid",
        "main_category": "Mosque",
        "address": "PRHR+9CH Jama Masjid, Kulti, West Bengal 713343",
        "detailed_address": {
            "ward": null,
            "street": "PRHR+9CH",
            "city": "Kulti",
            "postal_code": "713343",
            "state": "West Bengal",
            "country_code": "IN"
        },
        "images": [
            {
                "about": "All",
                "link": "https://lh5.googleusercontent.com/p/AF1QipPtOr8QQQMCkIA8LqnN4Q0HJtWJZRFsqCh8bKk=w662-h298-k-no"
            }
        ],
        "link": "https://www.google.com/maps/place/Jama+Masjid/data=!4m7!3m6!1s0x39f6e0a03444fd93:0xc661d805e45dba97!8m2!3d23.7284311!4d86.8411045!16s%2Fg%2F11g8xk1p41!19sChIJk_1ENKDg9jkRl7pd5AXYYcY?authuser=0&hl=en&rclk=1",
        "coordinates": {
            "latitude": 23.728431099999998,
            "longitude": 86.8411045
        }
    },
    {
        "name": "Ahle Sunnat AL-HODA MASJI D",
        "main_category": "Mosque",
        "address": "Ahle Sunnat AL-HODA MASJI D, Bodra Qabristan, Road, Azad Nagar Rd, N), Paschim, Kulti, West Bengal 713343",
        "detailed_address": {
            "ward": "N), Paschim",
            "street": "Bodra Qabristan, Road, Azad Nagar Rd",
            "city": "Kulti",
            "postal_code": "713343",
            "state": "West Bengal",
            "country_code": "IN"
        },
        "images": [
            {
                "about": "All",
                "link": "https://lh5.googleusercontent.com/p/AF1QipP1AZsjPBD8d9C3Z0CXLdTVgtoMg4Qowcn8-VKN=w224-h398-k-no"
            }
        ],
        "link": "https://www.google.com/maps/place/Ahle+Sunnat+AL-HODA+MASJI+D/data=!4m7!3m6!1s0x39f6de3b694041f7:0xcafd15a965b965c3!8m2!3d23.7449678!4d86.8479984!16s%2Fg%2F11d_8rfxtk!19sChIJ90FAaTve9jkRw2W5ZakV_co?authuser=0&hl=en&rclk=1",
        "coordinates": {
            "latitude": 23.744967799999998,
            "longitude": 86.8479984
        }
    },
    {
        "name": "Gaosia Masjid",
        "main_category": "Mosque",
        "address": "PRRP+CG3 Gaosia Masjid, Nichugram, Kulti, West Bengal 713343",
        "detailed_address": {
            "ward": "Nichugram",
            "street": "PRRP+CG3",
            "city": "Kulti",
            "postal_code": "713343",
            "state": "West Bengal",
            "country_code": "IN"
        },
        "images": [
            {
                "about": "All",
                "link": "https://lh5.googleusercontent.com/p/AF1QipPGPAdVq-E910AolZLiKVgERB1p1_AOYZCY_Ji9=w224-h298-k-no"
            }
        ],
        "link": "https://www.google.com/maps/place/Gaosia+Masjid/data=!4m7!3m6!1s0x39f6de1a3b9f6a7b:0x6fc711862f9781b3!8m2!3d23.7410022!4d86.8363115!16s%2Fg%2F11cn169w2_!19sChIJe2qfOxre9jkRs4GXL4YRx28?authuser=0&hl=en&rclk=1",
        "coordinates": {
            "latitude": 23.7410022,
            "longitude": 86.8363115
        }
    },
    {
        "name": "Angoori Masjid",
        "main_category": "Mosque",
        "address": "PRHP+74R Angoori Masjid, Kulti, West Bengal 713343",
        "detailed_address": {
            "ward": null,
            "street": "PRHP+74R",
            "city": "Kulti",
            "postal_code": "713343",
            "state": "West Bengal",
            "country_code": "IN"
        },
        "images": [
            {
                "about": "All",
                "link": "https://lh5.googleusercontent.com/p/AF1QipPVPzoXz_0FWyTB1izo3ykU3-jZl2UfnoXmT17f=w529-h298-k-no"
            }
        ],
        "link": "https://www.google.com/maps/place/Angoori+Masjid/data=!4m7!3m6!1s0x39f6e0a71d2657b7:0xa89f5a5842646563!8m2!3d23.728248!4d86.8352511!16s%2Fg%2F11df1qgbjf!19sChIJt1cmHafg9jkRY2VkQlhan6g?authuser=0&hl=en&rclk=1",
        "coordinates": {
            "latitude": 23.728248,
            "longitude": 86.8352511
        }
    },
    {
        "name": "12 NUMBER MASJID",
        "main_category": "Mosque",
        "address": "PRQP+H68 12 NUMBER MASJID, Kulti, West Bengal 713343",
        "detailed_address": {
            "ward": null,
            "street": "PRQP+H68",
            "city": "Kulti",
            "postal_code": "713343",
            "state": "West Bengal",
            "country_code": "IN"
        },
        "images": [
            {
                "about": "All",
                "link": "https://lh5.googleusercontent.com/p/AF1QipOT42xGcV0jUFkW7qLpDDmW1vGSRaLIF6ahu7-W=w529-h298-k-no"
            },
            {
                "about": "Videos",
                "link": "https://lh5.googleusercontent.com/p/AF1QipMLQe5kUrIbqgVmeouLULSMfb9FjVOGNV-xnCHP=w224-h398-k-no"
            }
        ],
        "link": "https://www.google.com/maps/place/12+NUMBER+MASJID/data=!4m7!3m6!1s0x39f6de1bb944f3d9:0x1ffbd63897bc103!8m2!3d23.7389195!4d86.8355726!16s%2Fg%2F11g69yprhy!19sChIJ2fNEuRve9jkRA8F7iWO9_wE?authuser=0&hl=en&rclk=1",
        "coordinates": {
            "latitude": 23.738919499999998,
            "longitude": 86.83557259999999
        }
    },
    {
        "name": "Ahle Sunnat Raza Masjid",
        "main_category": "Mosque",
        "address": "PRRV+WFM Ahle Sunnat Raza Masjid, Patiana Rd, near TB Hospital Ground, Mohalla, Kulti, West Bengal 713343",
        "detailed_address": {
            "ward": "Mohalla",
            "street": "PRRV+WFM, Patiana Rd, near TB Hospital Ground",
            "city": "Kulti",
            "postal_code": "713343",
            "state": "West Bengal",
            "country_code": "IN"
        },
        "images": [
            {
                "about": "All",
                "link": "https://lh5.googleusercontent.com/p/AF1QipMVZ9njxU03GSotId9xwuMhZq5rquguXy0ci3Zu=w224-h299-k-no"
            },
            {
                "about": "Videos",
                "link": "https://lh5.googleusercontent.com/p/AF1QipMJoGUzkynLsEgAuf0R9FUML4R_0XEFTA28TCwi=w529-h298-k-no"
            }
        ],
        "link": "https://www.google.com/maps/place/Ahle+Sunnat+Raza+Masjid/data=!4m7!3m6!1s0x39f6de22c61ed3ad:0x77d712b409b747c7!8m2!3d23.7423265!4d86.8436663!16s%2Fg%2F11c0w0l32d!19sChIJrdMexiLe9jkRx0e3CbQS13c?authuser=0&hl=en&rclk=1",
        "coordinates": {
            "latitude": 23.742326499999997,
            "longitude": 86.8436663
        }
    },
    {
        "name": "Quadri Masjid",
        "main_category": "Mosque",
        "address": "Quadri Masjid, Qadri Nagar, I G New Colony, Kulti, West Bengal 713343",
        "detailed_address": {
            "ward": "I G New Colony",
            "street": "Qadri Nagar",
            "city": "Kulti",
            "postal_code": null,
            "state": "West Bengal",
            "country_code": "IN"
        },
        "images": [],
        "link": "https://www.google.com/maps/place/Quadri+Masjid/data=!4m7!3m6!1s0x39f6df1ef2f15f1f:0xa6b995242b478e38!8m2!3d23.7406376!4d86.851637!16s%2Fg%2F11k4wwfyb8!19sChIJH1_x8h7f9jkROI5HKySVuaY?authuser=0&hl=en&rclk=1",
        "coordinates": {
            "latitude": 23.7406376,
            "longitude": 86.851637
        }
    },
    {
        "name": "UTTAR KULTI JAME MOSJID",
        "main_category": "Mosque",
        "address": "GMFP+WC UTTAR KULTI JAME MOSJID, Kulti, West Bengal 743425",
        "detailed_address": {
            "ward": null,
            "street": "GMFP+WC",
            "city": "Kulti",
            "postal_code": "743425",
            "state": "West Bengal",
            "country_code": "IN"
        },
        "images": [
            {
                "about": "All",
                "link": "https://lh5.googleusercontent.com/p/AF1QipNqBq9EzX_brU2_gWdWOTKuYu-f1JT5VgqI7Jq-=w397-h298-k-no"
            }
        ],
        "link": "https://www.google.com/maps/place/UTTAR+KULTI+JAME+MOSJID/data=!4m7!3m6!1s0x3a020783e8a22d8f:0x40d097c627e96697!8m2!3d22.5247296!4d88.6866017!16s%2Fg%2F11s7nvwjmp!19sChIJjy2i6IMHAjoRl2bpJ8aX0EA?authuser=0&hl=en&rclk=1",
        "coordinates": {
            "latitude": 22.5247296,
            "longitude": 88.6866017
        }
    }
]