[
    {
        "name": "Jama Masjid Nawabganj",
        "main_category": "Mosque",
        "address": "F8W7+F3J Jama Masjid Nawabganj, Nawabganj, Kanpur, Uttar Pradesh 208002",
        "detailed_address": {
            "ward": "Nawabganj",
            "street": "F8W7+F3J",
            "city": "Kanpur",
            "postal_code": "208002",
            "state": "Uttar Pradesh",
            "country_code": "IN"
        },
        "images": [
            {
                "about": "All",
                "link": "https://streetviewpixels-pa.googleapis.com/v1/thumbnail?panoid=15jbX3le1CQgQ3D7rcLNCA&cb_client=maps_sv.tactile.gps&w=224&h=298&yaw=354.5627&pitch=0&thumbfov=100"
            },
            {
                "about": "Latest",
                "link": "https://lh5.googleusercontent.com/p/AF1QipNevTKqIzrZz_nmd4zYiAgfFmGhhNmnHdd5KWHi=w224-h484-k-no"
            },
            {
                "about": "Street View & 360deg",
                "link": "https://streetviewpixels-pa.googleapis.com/v1/thumbnail?panoid=15jbX3le1CQgQ3D7rcLNCA&cb_client=maps_sv.tactile.gps&w=224&h=298&yaw=354.5627&pitch=0&thumbfov=100"
            }
        ],
        "link": "https://www.google.com/maps/place/Jama+Masjid+Nawabganj/data=!4m7!3m6!1s0x399c385c82753579:0xe69f3efbf97ca61!8m2!3d26.4962138!4d80.312649!16s%2Fg%2F1hhjsm1sk!19sChIJeTV1glw4nDkRYcqXv-_zaQ4?authuser=0&hl=en&rclk=1",
        "coordinates": {
            "latitude": 26.4962138,
            "longitude": 80.312649
        }
    },
    {
        "name": "Gulam Nabi Masjid",
        "main_category": "Mosque",
        "address": "Gulam Nabi Masjid, 2851-52, Sitaram Bazar Road, Shanker gali, Asaf Ali Rd, Old Delhi, New Delhi, Delhi 110006",
        "detailed_address": {
            "ward": "Bazar Sirkiwalan, Sita Ram Bazar, Old Delhi",
            "street": "2851-52, Sitaram Bazar Road, Shanker gali, Asaf Ali Rd",
            "city": "New Delhi, Delhi",
            "postal_code": "110006",
            "state": "Delhi",
            "country_code": "IN"
        },
        "images": [
            {
                "about": "All",
                "link": "https://lh5.googleusercontent.com/p/AF1QipNYaUqZYbqxJo3W3OrMJP0uOWxesav6CNf1gbtb=w224-h298-k-no"
            }
        ],
        "link": "https://www.google.com/maps/place/Gulam+Nabi+Masjid/data=!4m7!3m6!1s0x390cfd22df889cab:0x4d6f70c56e899829!8m2!3d28.6466912!4d77.2298392!16s%2Fg%2F11c5ssnxdy!19sChIJq5yI3yL9DDkRKZiJbsVwb00?authuser=0&hl=en&rclk=1",
        "coordinates": {
            "latitude": 28.6466912,
            "longitude": 77.2298392
        }
    },
    {
        "name": "Jama masjid",
        "main_category": "School",
        "address": "GJVM+F6H Jama masjid, Nawabganj, Uttar Pradesh 262406",
        "detailed_address": {
            "ward": null,
            "street": "GJVM+F6H",
            "city": "Nawabganj",
            "postal_code": "262406",
            "state": "Uttar Pradesh",
            "country_code": "IN"
        },
        "images": [
            {
                "about": "All",
                "link": "https://lh5.googleusercontent.com/p/AF1QipPMYMQs3J3yPO0Na8uzbNVYIWieWqEUyX61crAV=w224-h298-k-no"
            },
            {
                "about": "Videos",
                "link": "https://lh5.googleusercontent.com/p/AF1QipNJ_KWe7hp72FUMoRDT5AemrhQk5Ro1sSaXqs9G=w224-h407-k-no"
            }
        ],
        "link": "https://www.google.com/maps/place/Jama+masjid/data=!4m7!3m6!1s0x39a0115caad0ed7b:0x53184915bdadf3f1!8m2!3d28.5436885!4d79.6331207!16s%2Fg%2F11c30qm901!19sChIJe-3QqlwRoDkR8fOtvRVJGFM?authuser=0&hl=en&rclk=1",
        "coordinates": {
            "latitude": 28.5436885,
            "longitude": 79.63312069999999
        }
    },
    {
        "name": "Jama Masjid Nawabganj",
        "main_category": "Mosque",
        "address": "Jama Masjid Nawabganj, Nawab Gang, Chaugorwa, Uttar Pradesh 271865",
        "detailed_address": {
            "ward": null,
            "street": "Nawab Gang",
            "city": "Chaugorwa",
            "postal_code": "271865",
            "state": "Uttar Pradesh",
            "country_code": "IN"
        },
        "images": [
            {
                "about": "All",
                "link": "https://lh5.googleusercontent.com/p/AF1QipO01LFnaC8KdbPHJpHtzCMIpk4o2-M0xLjZ64YL=w224-h473-k-no"
            }
        ],
        "link": "https://www.google.com/maps/place/Jama+Masjid+Nawabganj/data=!4m7!3m6!1s0x39985af791f70e61:0x6e39bf9a3d8fae44!8m2!3d27.8933071!4d81.6490347!16s%2Fg%2F11gcwtyvmh!19sChIJYQ73kfdamDkRRK6PPZq_OW4?authuser=0&hl=en&rclk=1",
        "coordinates": {
            "latitude": 27.893307099999998,
            "longitude": 81.6490347
        }
    },
    {
        "name": "Shahi Masjid Nawotganj",
        "main_category": "Mosque",
        "address": "CCM4+4GC Shahi Masjid Nawotganj, Nawabganj, Ganipur Jogpur, Uttar Pradesh 209501",
        "detailed_address": {
            "ward": "Nawabganj",
            "street": "CCM4+4GC",
            "city": "Ganipur Jogpur",
            "postal_code": "209501",
            "state": "Uttar Pradesh",
            "country_code": "IN"
        },
        "images": [
            {
                "about": "All",
                "link": "https://lh5.googleusercontent.com/p/AF1QipP1XB-N8Ox0wuZTbNgxAcX8wZ70fMZSf1NH519X=w397-h298-k-no"
            },
            {
                "about": "Dome",
                "link": "https://lh5.googleusercontent.com/p/AF1QipM685Dpz_THNMY5I4Rjvyry1HZVQ0zFHSgT_M9o=w397-h298-k-no"
            },
            {
                "about": "Videos",
                "link": "https://lh5.googleusercontent.com/p/AF1QipPOIxDG2bMGEr_X4NPLKTlJ-j3idXUOjQ1SLYD1=w224-h407-k-no"
            },
            {
                "about": "Street View & 360deg",
                "link": "https://streetviewpixels-pa.googleapis.com/v1/thumbnail?panoid=lIi2Y_qeWXalKVNI8voSSw&cb_client=maps_sv.tactile.gps&w=224&h=298&yaw=211.74046&pitch=0&thumbfov=100"
            }
        ],
        "link": "https://www.google.com/maps/place/Shahi+Masjid+Nawotganj/data=!4m7!3m6!1s0x399e2a18dafc4f15:0xf65832209f7ed12b!8m2!3d27.4328236!4d79.4062698!16s%2Fg%2F11hcj7h5fc!19sChIJFU_82hgqnjkRK9F-nyAyWPY?authuser=0&hl=en&rclk=1",
        "coordinates": {
            "latitude": 27.4328236,
            "longitude": 79.40626979999999
        }
    },
    {
        "name": "Sabri Masjid",
        "main_category": "Mosque",
        "address": "GJQH+WRG Sabri Masjid, Nawabganj, Uttar Pradesh 262406",
        "detailed_address": {
            "ward": null,
            "street": "GJQH+WRG",
            "city": "Nawabganj",
            "postal_code": "262406",
            "state": "Uttar Pradesh",
            "country_code": "IN"
        },
        "images": [
            {
                "about": "All",
                "link": "https://lh5.googleusercontent.com/p/AF1QipPU6L_Ov9i9cmFzfC5h8zGm9JgMkFjaf15x9-el=w596-h298-k-no"
            },
            {
                "about": "Videos",
                "link": "https://lh5.googleusercontent.com/p/AF1QipORxtxRFZ4zLfPOaOk5FvXrSSRbrHqdmBgoyGhQ=w529-h298-k-no"
            }
        ],
        "link": "https://www.google.com/maps/place/Sabri+Masjid/data=!4m7!3m6!1s0x39a011425b417a5b:0x5a3b648adf7be94b!8m2!3d28.5398164!4d79.6295751!16s%2Fg%2F11g9gs6q1p!19sChIJW3pBW0IRoDkRS-l734pkO1o?authuser=0&hl=en&rclk=1",
        "coordinates": {
            "latitude": 28.5398164,
            "longitude": 79.6295751
        }
    },
    {
        "name": "Chhoti masjid",
        "main_category": "Religious destination",
        "address": "GJVM+4J5 Chhoti masjid, Cement Road mohalla banjaran, Nawabganj",
        "detailed_address": {
            "ward": null,
            "street": "GJVM+4J5, Cement Road mohalla banjaran",
            "city": "Nawabganj",
            "postal_code": null,
            "state": "Uttar Pradesh",
            "country_code": "IN"
        },
        "images": [],
        "link": "https://www.google.com/maps/place/Chhoti+masjid/data=!4m7!3m6!1s0x39a01167198ec5e9:0x6e2e95af8d5828bd!8m2!3d28.5427536!4d79.6341245!16s%2Fg%2F11jgxw6ppq!19sChIJ6cWOGWcRoDkRvShYja-VLm4?authuser=0&hl=en&rclk=1",
        "coordinates": {
            "latitude": 28.542753599999998,
            "longitude": 79.6341245
        }
    },
    {
        "name": "Masjid Haji Fakhruddin",
        "main_category": "Mosque",
        "address": "M675+W9G Masjid Haji Fakhruddin, Nawabganj, Tis Hazari, New Delhi, Delhi, 110006",
        "detailed_address": {
            "ward": "Nawabganj, Tis Hazari",
            "street": "M675+W9G",
            "city": "New Delhi, Delhi",
            "postal_code": "110006",
            "state": "Delhi",
            "country_code": "IN"
        },
        "images": [
            {
                "about": "All",
                "link": "https://streetviewpixels-pa.googleapis.com/v1/thumbnail?panoid=nNcLTl0qbOb75paJq7pOZg&cb_client=maps_sv.tactile.gps&w=224&h=298&yaw=80.018654&pitch=0&thumbfov=100"
            },
            {
                "about": "Street View & 360deg",
                "link": "https://streetviewpixels-pa.googleapis.com/v1/thumbnail?panoid=nNcLTl0qbOb75paJq7pOZg&cb_client=maps_sv.tactile.gps&w=224&h=298&yaw=80.018654&pitch=0&thumbfov=100"
            }
        ],
        "link": "https://www.google.com/maps/place/Masjid+Haji+Fakhruddin/data=!4m7!3m6!1s0x390cfd3828bdce11:0x33cd8ff3b7a4fedb!8m2!3d28.6648087!4d77.20846!16s%2Fg%2F11fmz5xjh3!19sChIJEc69KDj9DDkR2_6kt_OPzTM?authuser=0&hl=en&rclk=1",
        "coordinates": {
            "latitude": 28.6648087,
            "longitude": 77.20846
        }
    },
    {
        "name": "Sabeel Wali Masjid",
        "main_category": "Mosque",
        "address": "M676+PJQ Sabeel Wali Masjid, Gali Zameer Wali, Nawabganj, Tis Hazari, New Delhi, Delhi, 110055",
        "detailed_address": {
            "ward": "Nawabganj, Tis Hazari",
            "street": "M676+PJQ, Gali Zameer Wali",
            "city": "New Delhi, Delhi",
            "postal_code": "110055",
            "state": "Delhi",
            "country_code": "IN"
        },
        "images": [],
        "link": "https://www.google.com/maps/place/Sabeel+Wali+Masjid/data=!4m7!3m6!1s0x390cfda2f2270c4d:0x9587bec3bb500c1f!8m2!3d28.6643348!4d77.2116016!16s%2Fg%2F11fpd01gx9!19sChIJTQwn8qL9DDkRHwxQu8O-h5U?authuser=0&hl=en&rclk=1",
        "coordinates": {
            "latitude": 28.6643348,
            "longitude": 77.2116016
        }
    },
    {
        "name": "Aam Wali Masjid",
        "main_category": "Mosque",
        "address": "M685+79C Aam Wali Masjid, Naya Mohalla, Nawabganj, Tis Hazari, New Delhi, Delhi, 110006",
        "detailed_address": {
            "ward": "Naya Mohalla, Nawabganj, Tis Hazari",
            "street": "M685+79C",
            "city": "New Delhi, Delhi",
            "postal_code": "110006",
            "state": "Delhi",
            "country_code": "IN"
        },
        "images": [
            {
                "about": "All",
                "link": "https://streetviewpixels-pa.googleapis.com/v1/thumbnail?panoid=ruJh7OvEkOWlaT-8RpSW-g&cb_client=maps_sv.tactile.gps&w=224&h=298&yaw=311.31464&pitch=0&thumbfov=100"
            },
            {
                "about": "Street View & 360deg",
                "link": "https://streetviewpixels-pa.googleapis.com/v1/thumbnail?panoid=ruJh7OvEkOWlaT-8RpSW-g&cb_client=maps_sv.tactile.gps&w=224&h=298&yaw=311.31464&pitch=0&thumbfov=100"
            }
        ],
        "link": "https://www.google.com/maps/place/Aam+Wali+Masjid/data=!4m7!3m6!1s0x390cfd45dddc5949:0xc1926a04e5dd1b6e!8m2!3d28.665686!4d77.2083977!16s%2Fg%2F11h8705k2v!19sChIJSVnc3UX9DDkRbhvd5QRqksE?authuser=0&hl=en&rclk=1",
        "coordinates": {
            "latitude": 28.665685999999997,
            "longitude": 77.20839769999999
        }
    },
    {
        "name": "Jungle wali masjid Masjid e ahle hadees nawabganj",
        "main_category": "Mosque",
        "address": "GJVM+JJ9 Jungle wali masjid Masjid e ahle hadees nawabganj, Nawabganj, Uttar Pradesh 262406",
        "detailed_address": {
            "ward": null,
            "street": "GJVM+JJ9",
            "city": "Nawabganj",
            "postal_code": "262406",
            "state": "Uttar Pradesh",
            "country_code": "IN"
        },
        "images": [],
        "link": "https://www.google.com/maps/place/Jungle+wali+masjid+Masjid+e+ahle+hadees+nawabganj/data=!4m7!3m6!1s0x39a01160cb986533:0x95a72177bd6ea3e5!8m2!3d28.5440521!4d79.6341632!16s%2Fg%2F11l5gkbpcy!19sChIJM2WYy2ARoDkR5aNuvXchp5U?authuser=0&hl=en&rclk=1",
        "coordinates": {
            "latitude": 28.5440521,
            "longitude": 79.6341632
        }
    },
    {
        "name": "Madeena masjid",
        "main_category": "Mosque",
        "address": "GJRH+M8R Madeena masjid, Bijauria, Nawabganj, Uttar Pradesh 262406",
        "detailed_address": {
            "ward": null,
            "street": "GJRH+M8R",
            "city": "Bijauria, Nawabganj",
            "postal_code": "262406",
            "state": "Uttar Pradesh",
            "country_code": "IN"
        },
        "images": [],
        "link": "https://www.google.com/maps/place/Madeena+masjid/data=!4m7!3m6!1s0x39a011a1a19cc6cd:0x45bf599289a356a2!8m2!3d28.5417364!4d79.6281987!16s%2Fg%2F11t7gyb30k!19sChIJzcacoaERoDkRolajiZJZv0U?authuser=0&hl=en&rclk=1",
        "coordinates": {
            "latitude": 28.541736399999998,
            "longitude": 79.6281987
        }
    },
    {
        "name": "Masjid pul bangash",
        "main_category": "Mosque",
        "address": "Masjid pul bangash, Police Station Bara Hindu Rao, 4951, near Nayi Basti, Nai Basti, Naya Mohalla, Nawabganj, Tis Hazari, Delhi, 110006",
        "detailed_address": {
            "ward": "Nai Basti, Naya Mohalla, Nawabganj, Tis Hazari",
            "street": "Police Station Bara Hindu Rao, 4951, near Nayi Basti",
            "city": "Delhi",
            "postal_code": "110006",
            "state": "Delhi",
            "country_code": "IN"
        },
        "images": [
            {
                "about": "All",
                "link": "https://streetviewpixels-pa.googleapis.com/v1/thumbnail?panoid=ruJh7OvEkOWlaT-8RpSW-g&cb_client=maps_sv.tactile.gps&w=224&h=298&yaw=303.2616&pitch=0&thumbfov=100"
            },
            {
                "about": "Street View & 360deg",
                "link": "https://streetviewpixels-pa.googleapis.com/v1/thumbnail?panoid=ruJh7OvEkOWlaT-8RpSW-g&cb_client=maps_sv.tactile.gps&w=224&h=298&yaw=303.2616&pitch=0&thumbfov=100"
            }
        ],
        "link": "https://www.google.com/maps/place/Masjid+pul+bangash/data=!4m7!3m6!1s0x390cfd7ebad62561:0x5758e770ee620c3d!8m2!3d28.6656841!4d77.2083449!16s%2Fg%2F11tjff72qy!19sChIJYSXWun79DDkRPQxi7nDnWFc?authuser=0&hl=en&rclk=1",
        "coordinates": {
            "latitude": 28.6656841,
            "longitude": 77.2083449
        }
    },
    {
        "name": "Noori Masjid",
        "main_category": "Housing society",
        "address": "GJRJ+667 Noori Masjid, Nawabganj khodiyar, Nawabganj",
        "detailed_address": {
            "ward": null,
            "street": "GJRJ+667, Nawabganj khodiyar",
            "city": "Nawabganj",
            "postal_code": null,
            "state": "Uttar Pradesh",
            "country_code": "IN"
        },
        "images": [],
        "link": "https://www.google.com/maps/place/Noori+Masjid/data=!4m7!3m6!1s0x39a01143242c9973:0xcbe537352164c750!8m2!3d28.5405253!4d79.6305519!16s%2Fg%2F11kzwc7zrr!19sChIJc5ksJEMRoDkRUMdkITU35cs?authuser=0&hl=en&rclk=1",
        "coordinates": {
            "latitude": 28.5405253,
            "longitude": 79.6305519
        }
    },
    {
        "name": "Masjid batla",
        "main_category": "Mosque",
        "address": "M676+7J8 Masjid batla, Azad Market Rd, opp. Shri Ram mandir, Azad Market, Nawabganj, Sadar Bazaar, Delhi, 110006",
        "detailed_address": {
            "ward": "Azad Market, Nawabganj, Sadar Bazaar",
            "street": "M676+7J8, Azad Market Rd, opp. Shri Ram mandir",
            "city": "Delhi",
            "postal_code": "110006",
            "state": "Delhi",
            "country_code": "IN"
        },
        "images": [
            {
                "about": "All",
                "link": "https://streetviewpixels-pa.googleapis.com/v1/thumbnail?panoid=Oj28jBVo8ZXBsMoSpqctsQ&cb_client=maps_sv.tactile.gps&w=224&h=298&yaw=0.6935531&pitch=0&thumbfov=100"
            },
            {
                "about": "Street View & 360deg",
                "link": "https://streetviewpixels-pa.googleapis.com/v1/thumbnail?panoid=Oj28jBVo8ZXBsMoSpqctsQ&cb_client=maps_sv.tactile.gps&w=224&h=298&yaw=0.6935531&pitch=0&thumbfov=100"
            }
        ],
        "link": "https://www.google.com/maps/place/Masjid+batla/data=!4m7!3m6!1s0x390cfdf1a4411da1:0xd88530ec864e8499!8m2!3d28.6631649!4d77.2115789!16s%2Fg%2F11schg2zx3!19sChIJoR1BpPH9DDkRmYROhuwwhdg?authuser=0&hl=en&rclk=1",
        "coordinates": {
            "latitude": 28.663164899999998,
            "longitude": 77.21157889999999
        }
    },
    {
        "name": "Sadak Wali Masjid",
        "main_category": "Mosque",
        "address": "GJRM+2QH Sadak Wali Masjid, Main Rd, Nawabganj, Uttar Pradesh 262406",
        "detailed_address": {
            "ward": null,
            "street": "GJRM+2QH, Main Rd",
            "city": "Nawabganj",
            "postal_code": "262406",
            "state": "Uttar Pradesh",
            "country_code": "IN"
        },
        "images": [
            {
                "about": "All",
                "link": "https://streetviewpixels-pa.googleapis.com/v1/thumbnail?panoid=EJ9qWwkG6wsKszjhUeHSkg&cb_client=maps_sv.tactile.gps&w=224&h=298&yaw=123.51546&pitch=0&thumbfov=100"
            },
            {
                "about": "Street View & 360deg",
                "link": "https://streetviewpixels-pa.googleapis.com/v1/thumbnail?panoid=EJ9qWwkG6wsKszjhUeHSkg&cb_client=maps_sv.tactile.gps&w=224&h=298&yaw=123.51546&pitch=0&thumbfov=100"
            }
        ],
        "link": "https://www.google.com/maps/place/Sadak+Wali+Masjid/data=!4m7!3m6!1s0x39a0119abb650a99:0xdeab484f5b72680e!8m2!3d28.5400651!4d79.6344764!16s%2Fg%2F11v5_31cmg!19sChIJmQplu5oRoDkRDmhyW09Iq94?authuser=0&hl=en&rclk=1",
        "coordinates": {
            "latitude": 28.5400651,
            "longitude": 79.6344764
        }
    },
    {
        "name": "Ashraf miyaan masjid",
        "main_category": "Mosque",
        "address": "GJVH+7V5 Ashraf miyaan masjid, Ashraf Miya Masjid Rd, Nawabganj, Uttar Pradesh 262406",
        "detailed_address": {
            "ward": null,
            "street": "GJVH+7V5, Ashraf Miya Masjid Rd",
            "city": "Nawabganj",
            "postal_code": "262406",
            "state": "Uttar Pradesh",
            "country_code": "IN"
        },
        "images": [],
        "link": "https://www.google.com/maps/place/Ashraf+miyaan+masjid/data=!4m7!3m6!1s0x39a011a24f62825d:0x8ae2a769463ffb70!8m2!3d28.5431319!4d79.6297283!16s%2Fg%2F11m_zqzf51!19sChIJXYJiT6IRoDkRcPs_Rmmn4oo?authuser=0&hl=en&rclk=1",
        "coordinates": {
            "latitude": 28.5431319,
            "longitude": 79.6297283
        }
    },
    {
        "name": "Sarai Wali Masjid",
        "main_category": "Mosque",
        "address": "GJRM+4QC Sarai Wali Masjid, Main Rd, Banjaran Mohalla, Nawabganj, Uttar Pradesh 262406",
        "detailed_address": {
            "ward": "Banjaran Mohalla",
            "street": "GJRM+4QC, Main Rd",
            "city": "Nawabganj",
            "postal_code": "262406",
            "state": "Uttar Pradesh",
            "country_code": "IN"
        },
        "images": [
            {
                "about": "All",
                "link": "https://streetviewpixels-pa.googleapis.com/v1/thumbnail?panoid=uXq5k7dJpu-YY65Iaf9f_Q&cb_client=maps_sv.tactile.gps&w=224&h=298&yaw=350.33694&pitch=0&thumbfov=100"
            },
            {
                "about": "Street View & 360deg",
                "link": "https://streetviewpixels-pa.googleapis.com/v1/thumbnail?panoid=uXq5k7dJpu-YY65Iaf9f_Q&cb_client=maps_sv.tactile.gps&w=224&h=298&yaw=350.33694&pitch=0&thumbfov=100"
            }
        ],
        "link": "https://www.google.com/maps/place/Sarai+Wali+Masjid/data=!4m7!3m6!1s0x39a0110db8b7d595:0x2c86d49893d8bf2c!8m2!3d28.540381!4d79.6343793!16s%2Fg%2F11l6t2nn5j!19sChIJldW3uA0RoDkRLL_Yk5jUhiw?authuser=0&hl=en&rclk=1",
        "coordinates": {
            "latitude": 28.540381,
            "longitude": 79.63437929999999
        }
    }
]