[
    {
        "name": "Masjid",
        "main_category": "Mosque",
        "address": "GP8J+QPM Masjid, Valluru - Palakollu Rd, Palakollu, Andhra Pradesh 534260",
        "detailed_address": {
            "ward": null,
            "street": "GP8J+QPM, Valluru - Palakollu Rd",
            "city": "Palakollu",
            "postal_code": "534260",
            "state": "Andhra Pradesh",
            "country_code": "IN"
        },
        "images": [
            {
                "about": "All",
                "link": "https://lh5.googleusercontent.com/p/AF1QipPwm12lGfwFfRM-jS-icl7snvc4TMlu1OB16lWI=w397-h298-k-no"
            },
            {
                "about": "Street View & 360deg",
                "link": "https://streetviewpixels-pa.googleapis.com/v1/thumbnail?panoid=JUYYlnwWr_rsZQs0EJ7-ug&cb_client=maps_sv.tactile.gps&w=224&h=298&yaw=158.45016&pitch=0&thumbfov=100"
            }
        ],
        "link": "https://www.google.com/maps/place/Masjid/data=!4m7!3m6!1s0x3a37dafe8c65b877:0x5645111d9b443ec!8m2!3d16.5169667!4d81.7317846!16s%2Fg%2F11g65g20cf!19sChIJd7hljP7aNzoR7EO02RFRZAU?authuser=0&hl=en&rclk=1",
        "coordinates": {
            "latitude": 16.516966699999998,
            "longitude": 81.7317846
        }
    },
    {
        "name": "Masjid e abubakr",
        "main_category": "Mosque",
        "address": "GPHG+476 Masjid e abubakr, Brodipet Rd, Brodipet, Palakollu, Andhra Pradesh 534260",
        "detailed_address": {
            "ward": "Brodipet",
            "street": "GPHG+476, Brodipet Rd",
            "city": "Palakollu",
            "postal_code": "534260",
            "state": "Andhra Pradesh",
            "country_code": "IN"
        },
        "images": [
            {
                "about": "All",
                "link": "https://lh5.googleusercontent.com/p/AF1QipNEr0yYWyBhJTAGDuyNNaPjzGBXb5wb_23Ul2gJ=w224-h298-k-no"
            },
            {
                "about": "Street View & 360deg",
                "link": "https://streetviewpixels-pa.googleapis.com/v1/thumbnail?panoid=oioWJCy1hMetWbZUYFfiUw&cb_client=maps_sv.tactile.gps&w=224&h=298&yaw=114.02773&pitch=0&thumbfov=100"
            }
        ],
        "link": "https://www.google.com/maps/place/Masjid+e+abubakr/data=!4m7!3m6!1s0x3a37dbd2cb9544d5:0x2bf027824a205ca1!8m2!3d16.5277995!4d81.725638!16s%2Fg%2F11h1p020_p!19sChIJ1USVy9LbNzoRoVwgSoIn8Cs?authuser=0&hl=en&rclk=1",
        "coordinates": {
            "latitude": 16.5277995,
            "longitude": 81.72563799999999
        }
    },
    {
        "name": "Sunni masjid",
        "main_category": "Mosque",
        "address": "GPC4+JMR Sunni masjid, Poolapalli, Palakollu, Andhra Pradesh 534250",
        "detailed_address": {
            "ward": "Poolapalli",
            "street": "GPC4+JMR",
            "city": "Palakollu",
            "postal_code": "534250",
            "state": "Andhra Pradesh",
            "country_code": "IN"
        },
        "images": [],
        "link": "https://www.google.com/maps/place/Sunni+masjid/data=!4m7!3m6!1s0x3a37dba8c06358ad:0x1fbf40c94730bbc!8m2!3d16.522859!4d81.7064102!16s%2Fg%2F11sq1cysz7!19sChIJrVhjwKjbNzoRvAtzlAz0-wE?authuser=0&hl=en&rclk=1",
        "coordinates": {
            "latitude": 16.522859,
            "longitude": 81.7064102
        }
    },
    {
        "name": "Masjid ayesha",
        "main_category": "Mosque",
        "address": "GP89+894 Masjid ayesha, Kotta Colony, Ramarao Peta, Palakollu, Andhra Pradesh 534260",
        "detailed_address": {
            "ward": "Kotta Colony, Ramarao Peta",
            "street": "GP89+894",
            "city": "Palakollu",
            "postal_code": "534260",
            "state": "Andhra Pradesh",
            "country_code": "IN"
        },
        "images": [],
        "link": "https://www.google.com/maps/place/Masjid+ayesha/data=!4m7!3m6!1s0x3a37db0d6fdb1361:0x55d5254c7bed7e2a!8m2!3d16.5157581!4d81.7184591!16s%2Fg%2F11j34h7x8m!19sChIJYRPbbw3bNzoRKn7te0wl1VU?authuser=0&hl=en&rclk=1",
        "coordinates": {
            "latitude": 16.5157581,
            "longitude": 81.71845909999999
        }
    }
]