[
    {
        "name": "Madina Masjid Kailarash Morena",
        "main_category": "Mosque",
        "address": "8J48+V5C Madina Masjid Kailarash Morena, PURANI BASTI NEAR OLD POLICE STATION, Kailaras, Madhya Pradesh 476224",
        "detailed_address": {
            "ward": null,
            "street": "8J48+V5C, PURANI BASTI NEAR OLD POLICE STATION",
            "city": "Kailaras, Rajpura Jagir",
            "postal_code": "476224",
            "state": "Madhya Pradesh",
            "country_code": "IN"
        },
        "images": [
            {
                "about": "All",
                "link": "https://lh5.googleusercontent.com/p/AF1QipNsx8LF1Y_apRggsShNoBy1ZUaVZBhl_4W8noA=w224-h298-k-no"
            }
        ],
        "link": "https://www.google.com/maps/place/Madina+Masjid+Kailarash+Morena/data=!4m7!3m6!1s0x39714103b33fd9b1:0x8c9ac92cd3bc6f11!8m2!3d26.3071856!4d77.6154035!16s%2Fg%2F11gdrd92x4!19sChIJsdk_swNBcTkREW-80yzJmow?authuser=0&hl=en&rclk=1",
        "coordinates": {
            "latitude": 26.3071856,
            "longitude": 77.6154035
        }
    },
    {
        "name": "Tabligi Zama Masjid",
        "main_category": "Mosque",
        "address": "8J29+6HJ Tabligi Zama Masjid, Kailaras, Antari, Madhya Pradesh 476224",
        "detailed_address": {
            "ward": null,
            "street": "8J29+6HJ",
            "city": "Kailaras, Antari",
            "postal_code": "476224",
            "state": "Madhya Pradesh",
            "country_code": "IN"
        },
        "images": [
            {
                "about": "All",
                "link": "https://lh5.googleusercontent.com/p/AF1QipP69W-kb1bOfM4WJ0D3-qbDWdmy6BPTNdkndcfY=w529-h298-k-no"
            },
            {
                "about": "Videos",
                "link": "https://lh5.googleusercontent.com/p/AF1QipOoGqt__7cTrddoRUn4YNmgv_FwJ6zSK10WlTrh=w529-h298-k-no"
            }
        ],
        "link": "https://www.google.com/maps/place/Tabligi+Zama+Masjid/data=!4m7!3m6!1s0x397140fcd248780d:0xa615c0ddba4d2350!8m2!3d26.3005775!4d77.6188796!16s%2Fg%2F11g9vr30dc!19sChIJDXhI0vxAcTkRUCNNut3AFaY?authuser=0&hl=en&rclk=1",
        "coordinates": {
            "latitude": 26.3005775,
            "longitude": 77.6188796
        }
    },
    {
        "name": "NOORANI MASJID ( NURANI MOSQUE )",
        "main_category": "Mosque",
        "address": "NOORANI MASJID ( NURANI MOSQUE ), Purani Basti or Old Police station, Kailaras, Antari, Madhya Pradesh 476224",
        "detailed_address": {
            "ward": null,
            "street": "Purani Basti or Old Police station",
            "city": "Kailaras, Antari",
            "postal_code": "476224",
            "state": "Madhya Pradesh",
            "country_code": "IN"
        },
        "images": [
            {
                "about": "All",
                "link": "https://lh5.googleusercontent.com/p/AF1QipP_kcIUt7igwjkvtdnRFhZPynJJ4gjsXzgmMuhm=w224-h298-k-no"
            },
            {
                "about": "Videos",
                "link": "https://lh5.googleusercontent.com/p/AF1QipNB6ZpJHntsuy6pijDEL1TBAPkezlL3agyz-EmJ=w224-h398-k-no"
            }
        ],
        "link": "https://www.google.com/maps/place/NOORANI+MASJID+%28+NURANI+MOSQUE+%29/data=!4m7!3m6!1s0x39714102461d2b4d:0x7a2f8834ec884547!8m2!3d26.3063569!4d77.6152824!16s%2Fg%2F11h9x2n1_1!19sChIJTSsdRgJBcTkRR0WI7DSIL3o?authuser=0&hl=en&rclk=1",
        "coordinates": {
            "latitude": 26.306356899999997,
            "longitude": 77.6152824
        }
    },
    {
        "name": "Shahi Jama Masjid kailaras",
        "main_category": "Mosque",
        "address": "8J48+MMV Shahi Jama Masjid kailaras, Kailaras, Rajpura Jagir, Madhya Pradesh 476224",
        "detailed_address": {
            "ward": null,
            "street": "8J48+MMV",
            "city": "Kailaras, Rajpura Jagir",
            "postal_code": "476224",
            "state": "Madhya Pradesh",
            "country_code": "IN"
        },
        "images": [],
        "link": "https://www.google.com/maps/place/Shahi+Jama+Masjid+kailaras/data=!4m7!3m6!1s0x3971414be24f1505:0xb8968910cf255b9f!8m2!3d26.3075899!4d77.6167729!16s%2Fg%2F11tjdw_1hy!19sChIJBRVP4ktBcTkRn1slzxCJlrg?authuser=0&hl=en&rclk=1",
        "coordinates": {
            "latitude": 26.3075899,
            "longitude": 77.6167729
        }
    },
    {
        "name": "msjid glii",
        "main_category": "Mosque",
        "address": "8J48+MMV msjid glii, Kailaras, Rajpura Jagir, Madhya Pradesh 476224",
        "detailed_address": {
            "ward": null,
            "street": "8J48+MMV",
            "city": "Kailaras, Rajpura Jagir",
            "postal_code": "476224",
            "state": "Madhya Pradesh",
            "country_code": "IN"
        },
        "images": [],
        "link": "https://www.google.com/maps/place/%E0%A4%AE%E0%A4%B8%E0%A5%8D%E0%A4%9C%E0%A4%BF%E0%A4%A6+%E0%A4%97%E0%A4%B2%E0%A5%80/data=!4m7!3m6!1s0x39714196da47d98f:0xc203e0e9e0c3ec0f!8m2!3d26.3067344!4d77.6166737!16s%2Fg%2F11frr_bg5g!19sChIJj9lH2pZBcTkRD-zD4OngA8I?authuser=0&hl=en&rclk=1",
        "coordinates": {
            "latitude": 26.3067344,
            "longitude": 77.61667369999999
        }
    }
]