[
    {
        "name": "Madeena Masjid",
        "main_category": "Mosque",
        "address": "4786+F62 Madeena Masjid, Madhava Nagar, Pithapuram, Andhra Pradesh 533450",
        "detailed_address": {
            "ward": "Madhava Nagar",
            "street": "4786+F62",
            "city": "Pithapuram",
            "postal_code": "533450",
            "state": "Andhra Pradesh",
            "country_code": "IN"
        },
        "images": [
            {
                "about": "All",
                "link": "https://lh5.googleusercontent.com/p/AF1QipP_KmdiiiaFScvWrYok8oaSKGjMn1tCTSGYEONT=w397-h298-k-no"
            }
        ],
        "link": "https://www.google.com/maps/place/Madeena+Masjid/data=!4m7!3m6!1s0x3a382bc2dd10ab83:0xff4ba9e324374e23!8m2!3d17.1161322!4d82.260518!16s%2Fg%2F11ghsglv6b!19sChIJg6sQ3cIrODoRI043JOOpS_8?authuser=0&hl=en&rclk=1",
        "coordinates": {
            "latitude": 17.1161322,
            "longitude": 82.26051799999999
        }
    },
    {
        "name": "B Kothuru Masjid",
        "main_category": "Mosque",
        "address": "55GX+G82 B Kothuru Masjid, B.Kothuru,Pithapuram Mandal, Kolanka - Pithapuram Rd, Padala Kondagari Rd, Andhra Pradesh 533431",
        "detailed_address": {
            "ward": null,
            "street": "55GX+G82, B.Kothuru,Pithapuram Mandal, Kolanka - Pithapuram Rd, Padala Kondagari Rd",
            "city": null,
            "postal_code": "533431",
            "state": "Andhra Pradesh",
            "country_code": "IN"
        },
        "images": [
            {
                "about": "All",
                "link": "https://lh5.googleusercontent.com/p/AF1QipNNbf4mWP4BiAWtlRzjAdbHM1nt8DRGk2ltCTty=w397-h298-k-no"
            },
            {
                "about": "Street View & 360deg",
                "link": "https://streetviewpixels-pa.googleapis.com/v1/thumbnail?panoid=xJhJDeEqvX-xT7kfRxLf2g&cb_client=maps_sv.tactile.gps&w=224&h=298&yaw=312.3593&pitch=0&thumbfov=100"
            },
            {
                "about": "Videos",
                "link": "https://lh5.googleusercontent.com/p/AF1QipOUXQLdL9IgKlJGGzw0Vs7ChcKShyHfBawClL01=w224-h398-k-no"
            }
        ],
        "link": "https://www.google.com/maps/place/B+Kothuru+Masjid/data=!4m7!3m6!1s0x3a377fc8b5ee333b:0x6c86403432e8e818!8m2!3d17.176264!4d82.1982641!16s%2Fg%2F11bx9cc1dz!19sChIJOzPutch_NzoRGOjoMjRAhmw?authuser=0&hl=en&rclk=1",
        "coordinates": {
            "latitude": 17.176264,
            "longitude": 82.1982641
        }
    },
    {
        "name": "Chinna Maszid",
        "main_category": "Mosque",
        "address": "Chinna Maszid, Gandhi Bomma Centre, Bandula Doddi Street, Pithapuram, Andhra Pradesh",
        "detailed_address": {
            "ward": "Kalyanamandapm",
            "street": "Gandhi Bomma Centre, Bandula Doddi Street",
            "city": "Pithapuram",
            "postal_code": null,
            "state": "Andhra Pradesh",
            "country_code": "IN"
        },
        "images": [
            {
                "about": "All",
                "link": "https://lh5.googleusercontent.com/p/AF1QipMLihb8rXIiPUnArDCaHCTxiJLPIy-AdRnGP8Pw=w647-h298-k-no"
            },
            {
                "about": "Street View & 360deg",
                "link": "https://streetviewpixels-pa.googleapis.com/v1/thumbnail?panoid=jlVrI4cxA0IEJ9HWpHmQkA&cb_client=maps_sv.tactile.gps&w=224&h=298&yaw=326.4342&pitch=0&thumbfov=100"
            }
        ],
        "link": "https://www.google.com/maps/place/Chinna+Maszid/data=!4m7!3m6!1s0x3a382ae5c665d221:0x1360794820ccb032!8m2!3d17.1111304!4d82.2493523!16s%2Fg%2F11_rfl4qq!19sChIJIdJlxuUqODoRMrDMIEh5YBM?authuser=0&hl=en&rclk=1",
        "coordinates": {
            "latitude": 17.1111304,
            "longitude": 82.2493523
        }
    },
    {
        "name": "Mosque",
        "main_category": "Mosque",
        "address": "4772+46Q Mosque, Kalyanamandapm, Pithapuram, Andhra Pradesh 533450",
        "detailed_address": {
            "ward": "Kalyanamandapm",
            "street": "4772+46Q",
            "city": "Pithapuram",
            "postal_code": "533450",
            "state": "Andhra Pradesh",
            "country_code": "IN"
        },
        "images": [
            {
                "about": "All",
                "link": "https://lh5.googleusercontent.com/p/AF1QipMDpsTc__wWtqvjjoIMavlYjs8XAMBvznMEKR73=w529-h298-k-no"
            },
            {
                "about": "Street View & 360deg",
                "link": "https://streetviewpixels-pa.googleapis.com/v1/thumbnail?panoid=Bgpr6MiGvozp3XACz_xt4Q&cb_client=maps_sv.tactile.gps&w=224&h=298&yaw=29.5349&pitch=0&thumbfov=100"
            }
        ],
        "link": "https://www.google.com/maps/place/Mosque/data=!4m7!3m6!1s0x3a382ae684466965:0xdf69a424203d3647!8m2!3d17.1128275!4d82.2506198!16s%2Fg%2F11f1kf778b!19sChIJZWlGhOYqODoRRzY9ICSkad8?authuser=0&hl=en&rclk=1",
        "coordinates": {
            "latitude": 17.112827499999998,
            "longitude": 82.2506198
        }
    },
    {
        "name": "Mosque",
        "main_category": "Mosque",
        "address": "4752+GMR Mosque, Kalyanamandapm, Pithapuram, Andhra Pradesh 533450",
        "detailed_address": {
            "ward": "Kalyanamandapm",
            "street": "4752+GMR",
            "city": "Pithapuram",
            "postal_code": "533450",
            "state": "Andhra Pradesh",
            "country_code": "IN"
        },
        "images": [
            {
                "about": "All",
                "link": "https://streetviewpixels-pa.googleapis.com/v1/thumbnail?panoid=EpaAlZ-1JZUQ2UN7yh87Jg&cb_client=maps_sv.tactile.gps&w=224&h=298&yaw=341.6733&pitch=0&thumbfov=100"
            },
            {
                "about": "Street View & 360deg",
                "link": "https://streetviewpixels-pa.googleapis.com/v1/thumbnail?panoid=EpaAlZ-1JZUQ2UN7yh87Jg&cb_client=maps_sv.tactile.gps&w=224&h=298&yaw=341.6733&pitch=0&thumbfov=100"
            }
        ],
        "link": "https://www.google.com/maps/place/Mosque/data=!4m7!3m6!1s0x3a382ae48c537ccf:0xfca361247bfccc32!8m2!3d17.1088731!4d82.2516454!16s%2Fg%2F1tk6yxyg!19sChIJz3xTjOQqODoRMsz8eyRho_w?authuser=0&hl=en&rclk=1",
        "coordinates": {
            "latitude": 17.1088731,
            "longitude": 82.2516454
        }
    },
    {
        "name": "Mosque",
        "main_category": "Mosque",
        "address": "467W+JV6 Mosque, gold market Road, Pithapuram, Kathulagudem, Pithapuram, Andhra Pradesh 533450",
        "detailed_address": {
            "ward": "Kathulagudem",
            "street": "467W+JV6, gold market Road, Pithapuram",
            "city": "Pithapuram",
            "postal_code": "533450",
            "state": "Andhra Pradesh",
            "country_code": "IN"
        },
        "images": [],
        "link": "https://www.google.com/maps/place/Mosque/data=!4m7!3m6!1s0x3a382ae899555555:0x7b8c302e397640fc!8m2!3d17.1140391!4d82.2471252!16s%2Fg%2F11fzrjxpps!19sChIJVVVVmegqODoR_EB2OS4wjHs?authuser=0&hl=en&rclk=1",
        "coordinates": {
            "latitude": 17.1140391,
            "longitude": 82.2471252
        }
    },
    {
        "name": "Bada Maszid",
        "main_category": "Mosque",
        "address": "4772+564 Bada Maszid, Unnamed Road, Kathulagudem, Pithapuram, Andhra Pradesh 533450",
        "detailed_address": {
            "ward": "Kathulagudem",
            "street": "4772+564, Unnamed Road",
            "city": "Pithapuram",
            "postal_code": "533450",
            "state": "Andhra Pradesh",
            "country_code": "IN"
        },
        "images": [
            {
                "about": "All",
                "link": "https://lh5.googleusercontent.com/p/AF1QipO0hGbXjzdlHdzfAJs99gkgrWUVcWZvbV3g2XGy=w529-h298-k-no"
            },
            {
                "about": "Street View & 360deg",
                "link": "https://streetviewpixels-pa.googleapis.com/v1/thumbnail?panoid=GQTnga9759ue82S0opYtzA&cb_client=maps_sv.tactile.gps&w=224&h=298&yaw=38.693947&pitch=0&thumbfov=100"
            }
        ],
        "link": "https://www.google.com/maps/place/Bada+Maszid/data=!4m7!3m6!1s0x3a382ae68435d651:0xbb3ab6d6eda44fe8!8m2!3d17.1128794!4d82.2505671!16s%2Fg%2F11dfxds147!19sChIJUdY1hOYqODoR6E-k7da2Ors?authuser=0&hl=en&rclk=1",
        "coordinates": {
            "latitude": 17.1128794,
            "longitude": 82.2505671
        }
    },
    {
        "name": "Salfia masjid ( ahle hadees)",
        "main_category": "Mosque",
        "address": "4775+VPH Salfia masjid ( ahle hadees), Madhava Nagar, Pithapuram, Andhra Pradesh 533450",
        "detailed_address": {
            "ward": "Madhava Nagar",
            "street": "4775+VPH",
            "city": "Pithapuram",
            "postal_code": "533450",
            "state": "Andhra Pradesh",
            "country_code": "IN"
        },
        "images": [],
        "link": "https://www.google.com/maps/place/Salfia+masjid+%28+ahle+hadees%29/data=!4m7!3m6!1s0x3a382bf775f4a897:0x323a98e6aacfd75a!8m2!3d17.1146943!4d82.259352!16s%2Fg%2F11tw_0dnmq!19sChIJl6j0dfcrODoRWtfPquaYOjI?authuser=0&hl=en&rclk=1",
        "coordinates": {
            "latitude": 17.1146943,
            "longitude": 82.25935199999999
        }
    },
    {
        "name": "Kathivada",
        "main_category": "Mosque",
        "address": "4772+RVC Kathivada, Kotagummam Area, Pithapuram, Andhra Pradesh 533450",
        "detailed_address": {
            "ward": "Kotagummam Area",
            "street": "4772+RVC",
            "city": "Pithapuram",
            "postal_code": "533450",
            "state": "Andhra Pradesh",
            "country_code": "IN"
        },
        "images": [
            {
                "about": "All",
                "link": "https://streetviewpixels-pa.googleapis.com/v1/thumbnail?panoid=9RtTkkBJIwknqrlZD0R80g&cb_client=maps_sv.tactile.gps&w=224&h=298&yaw=64.03515&pitch=0&thumbfov=100"
            },
            {
                "about": "Street View & 360deg",
                "link": "https://streetviewpixels-pa.googleapis.com/v1/thumbnail?panoid=9RtTkkBJIwknqrlZD0R80g&cb_client=maps_sv.tactile.gps&w=224&h=298&yaw=64.03515&pitch=0&thumbfov=100"
            }
        ],
        "link": "https://www.google.com/maps/place/Kathivada/data=!4m7!3m6!1s0x3a382bca37a50f6f:0xb4414f390a30baf4!8m2!3d17.1145559!4d82.2521517!16s%2Fg%2F11k9hwbmfj!19sChIJbw-lN8orODoR9LowCjlPQbQ?authuser=0&hl=en&rclk=1",
        "coordinates": {
            "latitude": 17.1145559,
            "longitude": 82.2521517
        }
    }
]