[
    {
        "name": "Jama Masjid",
        "main_category": "Mosque",
        "address": "Jama Masjid, Old Delhi, Delhi, 110006",
        "detailed_address": {
            "ward": "Jama Masjid, Old Delhi",
            "street": null,
            "city": "Delhi",
            "postal_code": "110006",
            "state": "Delhi",
            "country_code": "IN"
        },
        "images": [
            {
                "about": "All",
                "link": "https://lh5.googleusercontent.com/p/AF1QipMak1D51ms3fAec8Hv85TWzznlDqiSG6WVzH1oo=w447-h298-k-no"
            },
            {
                "about": "Latest",
                "link": "https://lh5.googleusercontent.com/p/AF1QipNNRpm0-dXpgV9oJsKWwcImDfg9o81awCWu2hlm=w224-h398-k-no"
            },
            {
                "about": "Videos",
                "link": "https://lh5.googleusercontent.com/p/AF1QipMlxs5wfHk0o905fntq2LudrTJLkjZky0yCrLHV=w529-h298-k-no"
            },
            {
                "about": "National Boot House",
                "link": "https://lh5.googleusercontent.com/p/AF1QipM5PMl5iJ13XFmdtykdBe9uqqkRj7XNcGjDk_Gd=w529-h298-k-no"
            },
            {
                "about": "Dome",
                "link": "https://lh5.googleusercontent.com/p/AF1QipN2U6zM28o9erhatzJ_mJpeLOkFiGCQiEtj0B9g=w274-h298-k-no"
            },
            {
                "about": "Street View & 360deg",
                "link": "https://lh5.googleusercontent.com/p/AF1QipPz_Omqh6xT1_brAdCRe0ER_BM8EZGxJGXxUSA=w224-h298-k-no-pi-30.000002-ya291.3302-ro-0-fo100"
            }
        ],
        "link": "https://www.google.com/maps/place/Jama+Masjid/data=!4m7!3m6!1s0x390cfd18df89b215:0xdd57369e29bf9d96!8m2!3d28.6506792!4d77.2334421!16zL20vMDR5emo1!19sChIJFbKJ3xj9DDkRlp2_KZ42V90?authuser=0&hl=en&rclk=1",
        "coordinates": {
            "latitude": 28.6506792,
            "longitude": 77.23344209999999
        }
    },
    {
        "name": "Bamarrah Masjid",
        "main_category": "Mosque",
        "address": "Bamarrah, Bamarrah Masjid, Chelyama, Bamarra, West Bengal 723146",
        "detailed_address": {
            "ward": null,
            "street": "Bamarrah",
            "city": "Chelyama, Bamarra",
            "postal_code": "723146",
            "state": "West Bengal",
            "country_code": "IN"
        },
        "images": [
            {
                "about": "All",
                "link": "https://lh5.googleusercontent.com/p/AF1QipObt7pRUCAKUWFSyTnZbmlodjxJGMMDq1GlI7eu=w410-h298-k-no"
            },
            {
                "about": "Latest",
                "link": "https://streetviewpixels-pa.googleapis.com/v1/thumbnail?panoid=ixV_fU6B6vB6lmFqdjmcqw&cb_client=maps_sv.tactile.gps&w=224&h=298&yaw=179.69075&pitch=0&thumbfov=100"
            },
            {
                "about": "Street View & 360deg",
                "link": "https://streetviewpixels-pa.googleapis.com/v1/thumbnail?panoid=ixV_fU6B6vB6lmFqdjmcqw&cb_client=maps_sv.tactile.gps&w=224&h=298&yaw=179.69075&pitch=0&thumbfov=100"
            }
        ],
        "link": "https://www.google.com/maps/place/Bamarrah+Masjid/data=!4m7!3m6!1s0x39f6934fad7de33d:0x7cf438a4aac8c42!8m2!3d23.6163162!4d86.5726696!16s%2Fg%2F11gcq0h9_6!19sChIJPeN9rU-T9jkRQoysSopDzwc?authuser=0&hl=en&rclk=1",
        "coordinates": {
            "latitude": 23.6163162,
            "longitude": 86.5726696
        }
    },
    {
        "name": "Raza Jama Masjid",
        "main_category": "Mosque",
        "address": "PV3F+J96 Raza Jama Masjid, Bamandiah Village, Neamatpur, West Bengal 713360",
        "detailed_address": {
            "ward": null,
            "street": "PV3F+J96, Bamandiah Village",
            "city": "Neamatpur, Bamandiah Village",
            "postal_code": "713360",
            "state": "West Bengal",
            "country_code": "IN"
        },
        "images": [
            {
                "about": "All",
                "link": "https://lh5.googleusercontent.com/p/AF1QipOP0SRXAODvgnoJ_ZZ8VxW0omGyvqaKgHPkjlES=w224-h298-k-no"
            },
            {
                "about": "Videos",
                "link": "https://lh5.googleusercontent.com/p/AF1QipP0bSSdxM7N5HTNrI_ul3TNkqBywV6x6i8N7L2U=w224-h398-k-no"
            }
        ],
        "link": "https://www.google.com/maps/place/Raza+Jama+Masjid/data=!4m7!3m6!1s0x39f6e0433da11209:0xb45fac59fbc59011!8m2!3d23.7040456!4d86.8733902!16s%2Fg%2F11hbc0qr4g!19sChIJCRKhPUPg9jkREZDF-1msX7Q?authuser=0&hl=en&rclk=1",
        "coordinates": {
            "latitude": 23.7040456,
            "longitude": 86.8733902
        }
    },
    {
        "name": "Jama Masjid Baliapur",
        "main_category": "Mosque",
        "address": "PGCG+87C Jama Masjid Baliapur, Baliapur, Jharkhand 828201",
        "detailed_address": {
            "ward": null,
            "street": "PGCG+87C",
            "city": "Baliapur",
            "postal_code": "828201",
            "state": "Jharkhand",
            "country_code": "IN"
        },
        "images": [
            {
                "about": "All",
                "link": "https://lh5.googleusercontent.com/p/AF1QipNJttkOpR5f4pvD0jyx0WM2dgCUZA2EcXowGAgM=w397-h298-k-no"
            },
            {
                "about": "Videos",
                "link": "https://lh5.googleusercontent.com/p/AF1QipMxT5OCGST6gI0f9YbYqlcDCq6ot8Hrb25zJDIB=w529-h298-k-no"
            }
        ],
        "link": "https://www.google.com/maps/place/Jama+Masjid+Baliapur/data=!4m7!3m6!1s0x39f6958970153e5b:0xea8eb0b7d5aeac5!8m2!3d23.7208046!4d86.5256316!16s%2Fg%2F11hbkkcshk!19sChIJWz4VcImV9jkRxepafQvrqA4?authuser=0&hl=en&rclk=1",
        "coordinates": {
            "latitude": 23.720804599999997,
            "longitude": 86.5256316
        }
    },
    {
        "name": "Bhelatard Masjid",
        "main_category": "Mosque",
        "address": "Bhelatard Masjid, Santaldih Bhelatard, West Bengal 723146",
        "detailed_address": {
            "ward": null,
            "street": "Santaldih Bhelatard",
            "city": "Asurbandh",
            "postal_code": "723146",
            "state": "West Bengal",
            "country_code": "IN"
        },
        "images": [
            {
                "about": "All",
                "link": "https://lh5.googleusercontent.com/p/AF1QipMs8iST0JDnKXsK29Z8pn_23fKnVoFZA2rEZ94=w224-h298-k-no"
            },
            {
                "about": "By owner",
                "link": "https://lh5.googleusercontent.com/p/AF1QipMLfhR3q3OMjBK6eOfrfwsDj5NmAvU62Ps2ia5l=w529-h298-k-no"
            }
        ],
        "link": "https://www.google.com/maps/place/Bhelatard+Masjid/data=!4m7!3m6!1s0x39f6905ba1d584f7:0xc2b8234408646827!8m2!3d23.5712679!4d86.4453002!16s%2Fg%2F11dxl8hlc9!19sChIJ94TVoVuQ9jkRJ2hkCEQjuMI?authuser=0&hl=en&rclk=1",
        "coordinates": {
            "latitude": 23.5712679,
            "longitude": 86.44530019999999
        }
    },
    {
        "name": "New Masjid Banda",
        "main_category": "Mosque",
        "address": "New Masjid Banda, Shanrmara, Jharkhand 828206",
        "detailed_address": {
            "ward": null,
            "street": null,
            "city": "Shanrmara",
            "postal_code": "828206",
            "state": "Jharkhand",
            "country_code": "IN"
        },
        "images": [
            {
                "about": "All",
                "link": "https://lh5.googleusercontent.com/p/AF1QipPch7mw2grTSzRlD57tiJi5nq8nY73UgW-FhkqC=w224-h385-k-no"
            },
            {
                "about": "By owner",
                "link": "https://lh5.googleusercontent.com/p/AF1QipPch7mw2grTSzRlD57tiJi5nq8nY73UgW-FhkqC=w224-h385-k-no"
            },
            {
                "about": "Street View & 360deg",
                "link": "https://streetviewpixels-pa.googleapis.com/v1/thumbnail?panoid=XZFxRUjqMiMfSOFjiMC4Iw&cb_client=maps_sv.tactile.gps&w=224&h=298&yaw=142.10133&pitch=0&thumbfov=100"
            }
        ],
        "link": "https://www.google.com/maps/place/New+Masjid+Banda/data=!4m7!3m6!1s0x39f6e738f03e2a99:0x7b39212a4d678d3c!8m2!3d23.696155!4d86.757071!16s%2Fg%2F11fmdwxlr4!19sChIJmSo-8Djn9jkRPI1nTSohOXs?authuser=0&hl=en&rclk=1",
        "coordinates": {
            "latitude": 23.696154999999997,
            "longitude": 86.757071
        }
    },
    {
        "name": "Madina Masjid (Gorabari)",
        "main_category": "Mosque",
        "address": "JRV2+5XV Madina Masjid (Gorabari), Heddi, West Bengal 713324",
        "detailed_address": {
            "ward": null,
            "street": "JRV2+5XV",
            "city": "Heddi",
            "postal_code": "713324",
            "state": "West Bengal",
            "country_code": "IN"
        },
        "images": [
            {
                "about": "All",
                "link": "https://lh5.googleusercontent.com/p/AF1QipMnANCc9CFHlnZbcyrEmp1DEVdhDuAjZSz2FEck=w529-h298-k-no"
            }
        ],
        "link": "https://www.google.com/maps/place/Madina+Masjid+%28Gorabari%29/data=!4m7!3m6!1s0x39f6e6a2722add2f:0xc4279d04041e6fee!8m2!3d23.6429911!4d86.8024195!16s%2Fg%2F11g9q9553c!19sChIJL90qcqLm9jkR7m8eBASdJ8Q?authuser=0&hl=en&rclk=1",
        "coordinates": {
            "latitude": 23.6429911,
            "longitude": 86.8024195
        }
    },
    {
        "name": "Masjid-e-Belal Elakend",
        "main_category": "Mosque",
        "address": "QJ49+4WP Masjid-e-Belal Elakend, Elakend, Jharkhand 828201",
        "detailed_address": {
            "ward": null,
            "street": "QJ49+4WP",
            "city": "Elakend",
            "postal_code": "828201",
            "state": "Jharkhand",
            "country_code": "IN"
        },
        "images": [
            {
                "about": "All",
                "link": "https://lh5.googleusercontent.com/p/AF1QipMT7NmfjdGYhNMW5XPo6rLKOv0ERuCXFtY3pTEz=w224-h398-k-no"
            }
        ],
        "link": "https://www.google.com/maps/place/Masjid-e-Belal+Elakend/data=!4m7!3m6!1s0x39f6c1deed8f60cb:0x57bc77cb01301ad2!8m2!3d23.7553371!4d86.6198246!16s%2Fg%2F11gmst35_6!19sChIJy2CP7d7B9jkR0howAct3vFc?authuser=0&hl=en&rclk=1",
        "coordinates": {
            "latitude": 23.7553371,
            "longitude": 86.6198246
        }
    },
    {
        "name": "Bamanbad Belal Masjid",
        "main_category": "Mosque",
        "address": "GGPM+56F Bamanbad Belal Masjid, Bamanbad, West Bengal 723155",
        "detailed_address": {
            "ward": null,
            "street": "GGPM+56F",
            "city": "Bamanbad",
            "postal_code": null,
            "state": "West Bengal",
            "country_code": "IN"
        },
        "images": [
            {
                "about": "All",
                "link": "https://lh5.googleusercontent.com/p/AF1QipOKhdF0uJfK1B9cD_Z8-gkbo-T9F-8w2joYkW77=w224-h298-k-no"
            }
        ],
        "link": "https://www.google.com/maps/place/Bamanbad+Belal+Masjid/data=!4m7!3m6!1s0x39f6939ece0aef0d:0xe8c9514d78515b49!8m2!3d23.5354265!4d86.533034!16s%2Fg%2F11f62sqmd6!19sChIJDe8Kzp6T9jkRSVtReE1Ryeg?authuser=0&hl=en&rclk=1",
        "coordinates": {
            "latitude": 23.5354265,
            "longitude": 86.533034
        }
    },
    {
        "name": "ZAKARIA MASJID",
        "main_category": "Mosque",
        "address": "JR6R+9C8 ZAKARIA MASJID, Rd, Murulia, West Bengal 713143",
        "detailed_address": {
            "ward": null,
            "street": "JR6R+9C8, Rd",
            "city": "Murulia",
            "postal_code": "713143",
            "state": "West Bengal",
            "country_code": "IN"
        },
        "images": [
            {
                "about": "All",
                "link": "https://lh5.googleusercontent.com/p/AF1QipOj27h_gSUztU2ASQBNYsJBrM4GhVZpFy1PeVow=w283-h298-k-no"
            },
            {
                "about": "Videos",
                "link": "https://lh5.googleusercontent.com/p/AF1QipNxJ03LUCBMkhDhG24nZg9mKlzzhZoPk5Cpyb2u=w224-h398-k-no"
            }
        ],
        "link": "https://www.google.com/maps/place/ZAKARIA+MASJID/data=!4m7!3m6!1s0x39f6e3a26496a497:0xa2a3f3d054ba8532!8m2!3d23.6109198!4d86.841081!16s%2Fg%2F11lj_j4q70!19sChIJl6SWZKLj9jkRMoW6VNDzo6I?authuser=0&hl=en&rclk=1",
        "coordinates": {
            "latitude": 23.610919799999998,
            "longitude": 86.841081
        }
    },
    {
        "name": "Kukur tanga jama masjid",
        "main_category": "Mosque",
        "address": "HCJV+CX9 Kukur tanga jama masjid, Asurbandh, West Bengal 723145",
        "detailed_address": {
            "ward": null,
            "street": "HCJV+CX9",
            "city": "Asurbandh",
            "postal_code": "723145",
            "state": "West Bengal",
            "country_code": "IN"
        },
        "images": [
            {
                "about": "All",
                "link": "https://lh5.googleusercontent.com/p/AF1QipNsNaVzSFx6GJVPDL6c4JBZpFMkOSbsao6ZDi2n=w224-h298-k-no"
            }
        ],
        "link": "https://www.google.com/maps/place/Kukur+tanga+jama+masjid/data=!4m7!3m6!1s0x39f691845307a755:0x8d59b6dae797f252!8m2!3d23.5810373!4d86.444972!16s%2Fg%2F11j4yxkq65!19sChIJVacHU4SR9jkRUvKX59q2WY0?authuser=0&hl=en&rclk=1",
        "coordinates": {
            "latitude": 23.5810373,
            "longitude": 86.44497199999999
        }
    },
    {
        "name": "Jama masjid ubchuria",
        "main_category": "Mosque",
        "address": "RPH2+4X9 Jama masjid ubchuria, Ubchuria, Jharkhand 828205",
        "detailed_address": {
            "ward": null,
            "street": "RPH2+4X9",
            "city": "Ubchuria",
            "postal_code": "828205",
            "state": "Jharkhand",
            "country_code": "IN"
        },
        "images": [
            {
                "about": "All",
                "link": "https://lh5.googleusercontent.com/p/AF1QipPstbmxBrCTB4b8p3T6R7nRM0N2IZIVVzg0DGsG=w224-h298-k-no"
            },
            {
                "about": "Videos",
                "link": "https://lh5.googleusercontent.com/p/AF1QipOy_K2vRFykouqu5lNZX_GNLcWBSk_o50t5Olot=w224-h398-k-no"
            }
        ],
        "link": "https://www.google.com/maps/place/Jama+masjid+ubchuria/data=!4m7!3m6!1s0x39f6c48095827027:0x5a4cccda293e19f8!8m2!3d23.8277979!4d86.7024879!16s%2Fg%2F11d_7x21md!19sChIJJ3CClYDE9jkR-Bk-KdrMTFo?authuser=0&hl=en&rclk=1",
        "coordinates": {
            "latitude": 23.8277979,
            "longitude": 86.7024879
        }
    },
    {
        "name": "Masjid E Belal",
        "main_category": "Mosque",
        "address": "HG45+CWG Masjid E Belal, Rahardi, West Bengal 723155",
        "detailed_address": {
            "ward": null,
            "street": "HG45+CWG",
            "city": "Rahardi",
            "postal_code": "723155",
            "state": "West Bengal",
            "country_code": "IN"
        },
        "images": [],
        "link": "https://www.google.com/maps/place/Masjid+E+Belal/data=!4m7!3m6!1s0x39f692178a974221:0x66cb1c3b667b74ec!8m2!3d23.5560691!4d86.5098211!16s%2Fg%2F11fxczxwdg!19sChIJIUKXiheS9jkR7HR7Zjscy2Y?authuser=0&hl=en&rclk=1",
        "coordinates": {
            "latitude": 23.5560691,
            "longitude": 86.5098211
        }
    },
    {
        "name": "Dudhia Jama Masjid",
        "main_category": "Mosque",
        "address": "PH38+2GP Dudhia Jama Masjid, Dudhiya, Jharkhand 828201",
        "detailed_address": {
            "ward": null,
            "street": "PH38+2GP",
            "city": "Dudhiya",
            "postal_code": "828201",
            "state": "Jharkhand",
            "country_code": "IN"
        },
        "images": [
            {
                "about": "All",
                "link": "https://lh5.googleusercontent.com/p/AF1QipP0bhmKNXztmDNiWrPvE00F0y3NEldDjg-AX87I=w529-h298-k-no"
            }
        ],
        "link": "https://www.google.com/maps/place/Dudhia+Jama+Masjid/data=!4m7!3m6!1s0x39f695adca0a0df5:0xb99d4c9165d0a6a!8m2!3d23.7025792!4d86.5663379!16s%2Fg%2F11fnrng0w1!19sChIJ9Q0Kyq2V9jkRagpdFsnUmQs?authuser=0&hl=en&rclk=1",
        "coordinates": {
            "latitude": 23.7025792,
            "longitude": 86.5663379
        }
    },
    {
        "name": "Moti Masjid",
        "main_category": "Mosque",
        "address": "MQ97+Q5J Moti Masjid, Keliyasota, West Bengal 713324",
        "detailed_address": {
            "ward": null,
            "street": "MQ97+Q5J",
            "city": "Keliyasota",
            "postal_code": "713324",
            "state": "West Bengal",
            "country_code": "IN"
        },
        "images": [],
        "link": "https://www.google.com/maps/place/Moti+Masjid/data=!4m7!3m6!1s0x39f6e78afca593f3:0xd727270429c47188!8m2!3d23.669451!4d86.7628949!16s%2Fg%2F11lrwv_dd4!19sChIJ85Ol_Irn9jkRiHHEKQQnJ9c?authuser=0&hl=en&rclk=1",
        "coordinates": {
            "latitude": 23.669451,
            "longitude": 86.76289489999999
        }
    },
    {
        "name": "Kultora Purani Masjid (khwltwrr prny msjd)",
        "main_category": "Mosque",
        "address": "PVC9+4J9 Kultora Purani Masjid (khwltwrr prny msjd), Neamatpur, West Bengal 713359",
        "detailed_address": {
            "ward": null,
            "street": "PVC9+4J9",
            "city": "Neamatpur",
            "postal_code": "713359",
            "state": "West Bengal",
            "country_code": "IN"
        },
        "images": [
            {
                "about": "All",
                "link": "https://lh5.googleusercontent.com/p/AF1QipPx_fjWMPyICdki8jScSoePPDxnLw2uO5-wwZZJ=w224-h398-k-no"
            },
            {
                "about": "Street View & 360deg",
                "link": "https://streetviewpixels-pa.googleapis.com/v1/thumbnail?panoid=7k6S2nM_jtR4p516ku6xtQ&cb_client=maps_sv.tactile.gps&w=224&h=298&yaw=178.57196&pitch=0&thumbfov=100"
            },
            {
                "about": "Videos",
                "link": "https://lh5.googleusercontent.com/p/AF1QipPx_fjWMPyICdki8jScSoePPDxnLw2uO5-wwZZJ=w224-h398-k-no"
            }
        ],
        "link": "https://www.google.com/maps/place/Kultora+Purani+Masjid+%28%DA%A9%D9%88%D9%84%D8%AA%D9%88%DA%91%D8%A7+%D9%BE%D8%B1%D8%A7%D9%86%DB%8C+%D9%85%D8%B3%D8%AC%D8%AF%29%E2%80%AD/data=!4m7!3m6!1s0x39f6e1ad02206e8f:0x2743c5d2fee09382!8m2!3d23.720278!4d86.8691111!16s%2Fg%2F11hf3h337c!19sChIJj24gAq3h9jkRgpPg_tLFQyc?authuser=0&hl=en&rclk=1",
        "coordinates": {
            "latitude": 23.720278,
            "longitude": 86.8691111
        }
    },
    {
        "name": "Ajmeri masjid (aajmerii msjid)",
        "main_category": "Mosque",
        "address": "MM64+44F Ajmeri masjid (aajmerii msjid), Lakhyabad, West Bengal 723142",
        "detailed_address": {
            "ward": null,
            "street": "MM64+44F",
            "city": "Lakhyabad",
            "postal_code": "723142",
            "state": "West Bengal",
            "country_code": "IN"
        },
        "images": [
            {
                "about": "All",
                "link": "https://streetviewpixels-pa.googleapis.com/v1/thumbnail?panoid=D3Ls62My6xKb1Mrd5vsctA&cb_client=maps_sv.tactile.gps&w=224&h=298&yaw=33.8055&pitch=0&thumbfov=100"
            },
            {
                "about": "Street View & 360deg",
                "link": "https://streetviewpixels-pa.googleapis.com/v1/thumbnail?panoid=D3Ls62My6xKb1Mrd5vsctA&cb_client=maps_sv.tactile.gps&w=224&h=298&yaw=33.8055&pitch=0&thumbfov=100"
            }
        ],
        "link": "https://www.google.com/maps/place/Ajmeri+masjid+%28%E0%A6%86%E0%A6%9C%E0%A6%AE%E0%A7%87%E0%A6%B0%E0%A7%80+%E0%A6%AE%E0%A6%B8%E0%A6%9C%E0%A6%BF%E0%A6%A6%29/data=!4m7!3m6!1s0x39f6ebb10a8fd993:0xff6701bfe4b7134b!8m2!3d23.6603196!4d86.6552934!16s%2Fg%2F11r9f9wp49!19sChIJk9mPCrHr9jkRSxO35L8BZ_8?authuser=0&hl=en&rclk=1",
        "coordinates": {
            "latitude": 23.660319599999998,
            "longitude": 86.65529339999999
        }
    },
    {
        "name": "Lachhmanpur teigia masjid.",
        "main_category": "Mosque",
        "address": "HPRJ+PWJ Lachhmanpur teigia masjid., Unnamed Road, Lachhmanpur, West Bengal 723142",
        "detailed_address": {
            "ward": null,
            "street": "HPRJ+PWJ, Unnamed Road",
            "city": "Lachhmanpur",
            "postal_code": "723142",
            "state": "West Bengal",
            "country_code": "IN"
        },
        "images": [
            {
                "about": "All",
                "link": "https://streetviewpixels-pa.googleapis.com/v1/thumbnail?panoid=kZik9QKxHDxpy7RBpg5HFw&cb_client=maps_sv.tactile.gps&w=224&h=298&yaw=91.76873&pitch=0&thumbfov=100"
            },
            {
                "about": "Street View & 360deg",
                "link": "https://streetviewpixels-pa.googleapis.com/v1/thumbnail?panoid=kZik9QKxHDxpy7RBpg5HFw&cb_client=maps_sv.tactile.gps&w=224&h=298&yaw=91.76873&pitch=0&thumbfov=100"
            }
        ],
        "link": "https://www.google.com/maps/place/Lachhmanpur+teigia+masjid./data=!4m7!3m6!1s0x39f6ef5dded0e557:0x279fb15cad52618d!8m2!3d23.5918371!4d86.7322651!16s%2Fg%2F11qfw7qf7s!19sChIJV-XQ3l3v9jkRjWFSrVyxnyc?authuser=0&hl=en&rclk=1",
        "coordinates": {
            "latitude": 23.5918371,
            "longitude": 86.73226509999999
        }
    },
    {
        "name": "Eidgaah wali masjid",
        "main_category": "Mosque",
        "address": "Eidgaah wali masjid, Madarsa Mohalla, Neamatpur, West Bengal 713359",
        "detailed_address": {
            "ward": null,
            "street": "Madarsa Mohalla",
            "city": "Neamatpur",
            "postal_code": "713359",
            "state": "West Bengal",
            "country_code": "IN"
        },
        "images": [
            {
                "about": "All",
                "link": "https://lh5.googleusercontent.com/p/AF1QipMSQYHwOffsXxhLSgjD1A2bL1WO0IaGTl7MKiHy=w224-h497-k-no"
            },
            {
                "about": "By owner",
                "link": "https://lh5.googleusercontent.com/p/AF1QipOWfjDrj3DUF9NYBpJKK-33SZovNqFqHGnW_mhI=w224-h497-k-no"
            }
        ],
        "link": "https://www.google.com/maps/place/Eidgaah+wali+masjid/data=!4m7!3m6!1s0x39f6e17598598435:0xda289a9a853c9837!8m2!3d23.7141351!4d86.8835239!16s%2Fg%2F11sd6932kf!19sChIJNYRZmHXh9jkRN5g8hZqaKNo?authuser=0&hl=en&rclk=1",
        "coordinates": {
            "latitude": 23.7141351,
            "longitude": 86.8835239
        }
    },
    {
        "name": "Belkura Masjid Umar",
        "main_category": "Mosque",
        "address": "HCMV+9GG Belkura Masjid Umar, Belkura, West Bengal 723145",
        "detailed_address": {
            "ward": null,
            "street": "HCMV+9GG",
            "city": "Belkura",
            "postal_code": "723145",
            "state": "West Bengal",
            "country_code": "IN"
        },
        "images": [],
        "link": "https://www.google.com/maps/place/Belkura+Masjid+Umar/data=!4m7!3m6!1s0x39f69130a053f7f3:0xef6a259cf60f3440!8m2!3d23.5834663!4d86.4438685!16s%2Fg%2F11vd151nn2!19sChIJ8_dToDCR9jkRQDQP9pwlau8?authuser=0&hl=en&rclk=1",
        "coordinates": {
            "latitude": 23.583466299999998,
            "longitude": 86.4438685
        }
    }
]