[
    {
        "name": "Jama Masjid",
        "main_category": "Mosque",
        "address": "29GJ+2PR Jama Masjid, Beohari, Madhya Pradesh 484774",
        "detailed_address": {
            "ward": null,
            "street": "29GJ+2PR",
            "city": "Beohari",
            "postal_code": "484774",
            "state": "Madhya Pradesh",
            "country_code": "IN"
        },
        "images": [
            {
                "about": "All",
                "link": "https://lh5.googleusercontent.com/p/AF1QipOkKbQ4VXYEZwFGLuJhITYCCND1PbkZSI0YodcZ=w666-h298-k-no"
            }
        ],
        "link": "https://www.google.com/maps/place/Jama+Masjid/data=!4m7!3m6!1s0x39842f1e65479169:0x6bdd38cad9bcb9ec!8m2!3d24.0251153!4d81.3817762!16s%2Fg%2F11ddytkrth!19sChIJaZFHZR4vhDkR7Lm82co43Ws?authuser=0&hl=en&rclk=1",
        "coordinates": {
            "latitude": 24.0251153,
            "longitude": 81.38177619999999
        }
    },
    {
        "name": "Mosque",
        "main_category": "Mosque",
        "address": "29FJ+9Q3 Mosque, Beohari, Madhya Pradesh 484774",
        "detailed_address": {
            "ward": null,
            "street": "29FJ+9Q3",
            "city": "Beohari",
            "postal_code": "484774",
            "state": "Madhya Pradesh",
            "country_code": "IN"
        },
        "images": [
            {
                "about": "All",
                "link": "https://lh5.googleusercontent.com/p/AF1QipMtPx-JX29fo4eWTSrladNPhVS9hIq-aKGxcuiC=w224-h398-k-no"
            },
            {
                "about": "Dome",
                "link": "https://lh5.googleusercontent.com/p/AF1QipMXw6rgbdQmpqBmEq0PxBu3Glf2YtliC-XrSaQD=w224-h298-k-no"
            },
            {
                "about": "Videos",
                "link": "https://lh5.googleusercontent.com/p/AF1QipMzLX7LK-1pLQWcZIiB7aEzi19s3AayenEhjRcY=w224-h398-k-no"
            }
        ],
        "link": "https://www.google.com/maps/place/Mosque/data=!4m7!3m6!1s0x39842fcffd4c3233:0x5c13b89b0b390032!8m2!3d24.0233812!4d81.3819106!16s%2Fg%2F11f699drcm!19sChIJMzJM_c8vhDkRMgA5C5u4E1w?authuser=0&hl=en&rclk=1",
        "coordinates": {
            "latitude": 24.0233812,
            "longitude": 81.3819106
        }
    },
    {
        "name": "Msjid",
        "main_category": "Mosque",
        "address": "29JC+C59 Msjid, Beohari, Madhya Pradesh 484774",
        "detailed_address": {
            "ward": null,
            "street": "29JC+C59",
            "city": "Beohari",
            "postal_code": null,
            "state": "Madhya Pradesh",
            "country_code": "IN"
        },
        "images": [
            {
                "about": "All",
                "link": "https://streetviewpixels-pa.googleapis.com/v1/thumbnail?panoid=UQ16jG1ARCr7KJ8ZSmpnUw&cb_client=maps_sv.tactile.gps&w=224&h=298&yaw=10.193194&pitch=0&thumbfov=100"
            },
            {
                "about": "Street View & 360deg",
                "link": "https://streetviewpixels-pa.googleapis.com/v1/thumbnail?panoid=UQ16jG1ARCr7KJ8ZSmpnUw&cb_client=maps_sv.tactile.gps&w=224&h=298&yaw=10.193194&pitch=0&thumbfov=100"
            }
        ],
        "link": "https://www.google.com/maps/place/Msjid/data=!4m7!3m6!1s0x39842fabbd06e255:0xf130dabe8ecfc3ec!8m2!3d24.0310463!4d81.3704723!16s%2Fg%2F11fsng4xhm!19sChIJVeIGvasvhDkR7MPPjr7aMPE?authuser=0&hl=en&rclk=1",
        "coordinates": {
            "latitude": 24.0310463,
            "longitude": 81.3704723
        }
    },
    {
        "name": "Babu Miya sahab dargaah",
        "main_category": "Mosque",
        "address": "29FP+R25 Babu Miya sahab dargaah, Beohari, Madhya Pradesh 484774",
        "detailed_address": {
            "ward": null,
            "street": "29FP+R25",
            "city": "Beohari",
            "postal_code": "484774",
            "state": "Madhya Pradesh",
            "country_code": "IN"
        },
        "images": [],
        "link": "https://www.google.com/maps/place/Babu+Miya+sahab+dargaah/data=!4m7!3m6!1s0x39842ff854b4a76d:0x48183217bfc1ab50!8m2!3d24.0245032!4d81.3851145!16s%2Fg%2F11vhh7b0ln!19sChIJbae0VPgvhDkRUKvBvxcyGEg?authuser=0&hl=en&rclk=1",
        "coordinates": {
            "latitude": 24.024503199999998,
            "longitude": 81.3851145
        }
    }
]