[
    {
        "name": "Shifat Masjid",
        "main_category": "Mosque",
        "address": "X6R3+6PH Shifat Masjid, Haryana Rd, Gouripur, Baroli, 250619",
        "detailed_address": {
            "ward": null,
            "street": "X6R3+6PH, Haryana Rd, Gouripur",
            "city": "Baroli, Barauli",
            "postal_code": "250619",
            "state": "Uttar Pradesh",
            "country_code": "IN"
        },
        "images": [
            {
                "about": "All",
                "link": "https://lh5.googleusercontent.com/p/AF1QipO1FFC-kc4xX0R9Clm1qI-2cS58KmPUhhPjHwg2=w397-h298-k-no"
            },
            {
                "about": "Videos",
                "link": "https://lh5.googleusercontent.com/p/AF1QipOyVlaHhBvgGO5lFN_Qj-zo0Ho2b82NFTf1mfZ4=w224-h398-k-no"
            }
        ],
        "link": "https://www.google.com/maps/place/Shifat+Masjid/data=!4m7!3m6!1s0x390c4d57bc2d2ca3:0xed1cba375057f608!8m2!3d28.9905644!4d77.2043603!16s%2Fg%2F11ggs2cbcw!19sChIJoywtvFdNDDkRCPZXUDe6HO0?authuser=0&hl=en&rclk=1",
        "coordinates": {
            "latitude": 28.9905644,
            "longitude": 77.20436029999999
        }
    },
    {
        "name": "Gauripur bazar masjid",
        "main_category": "Mosque",
        "address": "Gauripur bazar masjid, Thana-PO Road, Bridge, Beguntali, Gauripur, Assam 783331",
        "detailed_address": {
            "ward": null,
            "street": "Thana-PO Road, Bridge",
            "city": "Beguntali, Gauripur",
            "postal_code": "783331",
            "state": "Assam",
            "country_code": "IN"
        },
        "images": [
            {
                "about": "All",
                "link": "https://streetviewpixels-pa.googleapis.com/v1/thumbnail?panoid=JzB2DdJfndTnT3NgXlwrAQ&cb_client=maps_sv.tactile.gps&w=224&h=298&yaw=266.2469&pitch=0&thumbfov=100"
            },
            {
                "about": "Street View & 360deg",
                "link": "https://streetviewpixels-pa.googleapis.com/v1/thumbnail?panoid=JzB2DdJfndTnT3NgXlwrAQ&cb_client=maps_sv.tactile.gps&w=224&h=298&yaw=266.2469&pitch=0&thumbfov=100"
            }
        ],
        "link": "https://www.google.com/maps/place/Gauripur+bazar+masjid/data=!4m7!3m6!1s0x39e29f38ad13ecd7:0x78304ab99a31442d!8m2!3d26.0879413!4d89.9652189!16s%2Fg%2F11g0gn7zm9!19sChIJ1-wTrTif4jkRLUQxmrlKMHg?authuser=0&hl=en&rclk=1",
        "coordinates": {
            "latitude": 26.087941299999997,
            "longitude": 89.9652189
        }
    },
    {
        "name": "Gauripur Madarsa/ Masjid",
        "main_category": "School",
        "address": "2JG2+PJQ Gauripur Madarsa/ Masjid, Gauripur, Bihar 845307",
        "detailed_address": {
            "ward": null,
            "street": "2JG2+PJQ",
            "city": "Gauripur",
            "postal_code": "845307",
            "state": "Bihar",
            "country_code": "IN"
        },
        "images": [
            {
                "about": "All",
                "link": "https://lh5.googleusercontent.com/p/AF1QipPUNBabBmIVyUmg-_pSF6gGQ3BsoCI5pxUQfmA=w224-h398-k-no"
            },
            {
                "about": "Street View & 360deg",
                "link": "https://streetviewpixels-pa.googleapis.com/v1/thumbnail?panoid=xvHeL58PKySLxW2hV8s82Q&cb_client=maps_sv.tactile.gps&w=224&h=298&yaw=51.04723&pitch=0&thumbfov=100"
            }
        ],
        "link": "https://www.google.com/maps/place/Gauripur+Madarsa%2F+Masjid/data=!4m7!3m6!1s0x3993607e8fcaf369:0x7bfc5e15bd90f435!8m2!3d27.026836!4d84.6016186!16s%2Fg%2F11f3n431bn!19sChIJafPKj35gkzkRNfSQvRVe_Hs?authuser=0&hl=en&rclk=1",
        "coordinates": {
            "latitude": 27.026836,
            "longitude": 84.6016186
        }
    },
    {
        "name": "Noor Masjid",
        "main_category": "Mosque",
        "address": "X6J9+C46 Noor Masjid, Goripur, Uttar Pradesh 250619",
        "detailed_address": {
            "ward": null,
            "street": "X6J9+C46",
            "city": "Goripur",
            "postal_code": null,
            "state": "Uttar Pradesh",
            "country_code": "IN"
        },
        "images": [],
        "link": "https://www.google.com/maps/place/Noor+Masjid/data=!4m7!3m6!1s0x390c53a502432dc5:0xd311e5034c009e70!8m2!3d28.9810269!4d77.2177666!16s%2Fg%2F11flt1rzvb!19sChIJxS1DAqVTDDkRcJ4ATAPlEdM?authuser=0&hl=en&rclk=1",
        "coordinates": {
            "latitude": 28.9810269,
            "longitude": 77.21776659999999
        }
    },
    {
        "name": "IBRAHIM MASJID",
        "main_category": "Mosque",
        "address": "X6MC+R65 IBRAHIM MASJID, Gauripur Morh Bus Stop, Uttar Pradesh 250619",
        "detailed_address": {
            "ward": null,
            "street": "X6MC+R65, Gauripur Morh Bus Stop",
            "city": null,
            "postal_code": "250619",
            "state": "Uttar Pradesh",
            "country_code": "IN"
        },
        "images": [
            {
                "about": "All",
                "link": "https://lh5.googleusercontent.com/p/AF1QipNc-vsyTpgQnoyCvhfAAasBKqH0ruHwSPd7RPpR=w224-h337-k-no"
            },
            {
                "about": "Dome",
                "link": "https://lh5.googleusercontent.com/p/AF1QipMQv8oRRcR_VMR5h9b9mJRAvgCp35c_TnQ4g6A1=w224-h300-k-no"
            },
            {
                "about": "Street View & 360deg",
                "link": "https://streetviewpixels-pa.googleapis.com/v1/thumbnail?panoid=-nEGFh76s41LSuhBrjpIfA&cb_client=maps_sv.tactile.gps&w=224&h=298&yaw=186.6428&pitch=0&thumbfov=100"
            }
        ],
        "link": "https://www.google.com/maps/place/IBRAHIM+MASJID/data=!4m7!3m6!1s0x390c533cd3afa311:0x61219d6e4924bb08!8m2!3d28.9845141!4d77.2206048!16s%2Fg%2F11h48pmxw2!19sChIJEaOv0zxTDDkRCLskSW6dIWE?authuser=0&hl=en&rclk=1",
        "coordinates": {
            "latitude": 28.9845141,
            "longitude": 77.22060479999999
        }
    },
    {
        "name": "Gauripur Jama Masjid",
        "main_category": "Mosque",
        "address": "3XWG+P8M Gauripur Jama Masjid, MATIABOG, Gauripur, Assam 783331",
        "detailed_address": {
            "ward": null,
            "street": "3XWG+P8M, MATIABOG",
            "city": "Gauripur",
            "postal_code": "783331",
            "state": "Assam",
            "country_code": "IN"
        },
        "images": [],
        "link": "https://www.google.com/maps/place/Gauripur+Jama+Masjid/data=!4m7!3m6!1s0x39e29f465bc974cf:0xd83f5d8e50d17f02!8m2!3d26.0966228!4d89.9758269!16s%2Fg%2F11v5wcss8z!19sChIJz3TJW0af4jkRAn_RUI5dP9g?authuser=0&hl=en&rclk=1",
        "coordinates": {
            "latitude": 26.0966228,
            "longitude": 89.9758269
        }
    }
]