[
    {
        "name": "Jama Masjid Neelaroza",
        "main_category": "Mosque",
        "address": "G6CF+88J Jama Masjid Neelaroza, peerzadgaan, Jhinjhana, Uttar Pradesh 247773",
        "detailed_address": {
            "ward": "peerzadgaan",
            "street": "G6CF+88J",
            "city": "Jhinjhana",
            "postal_code": null,
            "state": "Uttar Pradesh",
            "country_code": "IN"
        },
        "images": [
            {
                "about": "All",
                "link": "https://lh5.googleusercontent.com/p/AF1QipOqhVh-XTQUTQbK397qHpqKK3xhQ-HYfPA-MIA=w401-h298-k-no"
            },
            {
                "about": "Dome",
                "link": "https://lh5.googleusercontent.com/p/AF1QipPUXU9qThZSILsN4UlO8N2JbQq5VtNwVts-LmM=w301-h298-k-no"
            },
            {
                "about": "Videos",
                "link": "https://lh5.googleusercontent.com/p/AF1QipO7mr3Rw6gxDAZU3txH1R3m_VUQMcByiNnlm-lc=w224-h398-k-no"
            },
            {
                "about": "Street View & 360deg",
                "link": "https://lh5.googleusercontent.com/p/AF1QipNC4uSODjRophXrffp7oEV_ADsmR3fdI0tB9aQ=w224-h298-k-no-pi0-ya353-ro-0-fo100"
            }
        ],
        "link": "https://www.google.com/maps/place/Jama+Masjid+Neelaroza/data=!4m7!3m6!1s0x390c2befe2cd567b:0x9feb38bcfa1f456c!8m2!3d29.5208443!4d77.2232796!16s%2Fg%2F11gk69v6ss!19sChIJe1bN4u8rDDkRbEUf-rw4658?authuser=0&hl=en&rclk=1",
        "coordinates": {
            "latitude": 29.5208443,
            "longitude": 77.2232796
        }
    },
    {
        "name": "Markaz Masjid Jhinjhana",
        "main_category": "Mosque",
        "address": "G6CF+833 Markaz Masjid Jhinjhana, moh.shahghasi darwaja, Jhinjhana, Uttar Pradesh 247773",
        "detailed_address": {
            "ward": "moh.shahghasi darwaja",
            "street": "G6CF+833",
            "city": "Jhinjhana",
            "postal_code": null,
            "state": "Uttar Pradesh",
            "country_code": "IN"
        },
        "images": [
            {
                "about": "All",
                "link": "https://lh5.googleusercontent.com/p/AF1QipPVDJCziwHXFXhU7SBzw3a5JylqbCKnFlpEbgvX=w528-h298-k-no"
            },
            {
                "about": "Street View & 360deg",
                "link": "https://lh5.googleusercontent.com/p/AF1QipM91nG5kp7A7hh1D9Rz7-ZE3iUTGegYf1wy9Ds=w224-h298-k-no-pi-10-ya219-ro0-fo100"
            }
        ],
        "link": "https://www.google.com/maps/place/Markaz+Masjid+Jhinjhana/data=!4m7!3m6!1s0x390c2a940e31c7a9:0x69413d3d9a52aa3e!8m2!3d29.5207529!4d77.2226861!16s%2Fg%2F11gf5rcfm7!19sChIJqccxDpQqDDkRPqpSmj09QWk?authuser=0&hl=en&rclk=1",
        "coordinates": {
            "latitude": 29.520752899999998,
            "longitude": 77.22268609999999
        }
    },
    {
        "name": "manihaaraan masjid",
        "main_category": "Mosque",
        "address": "G6FG+2G2 manihaaraan masjid, Jhinjhana, Uttar Pradesh 247773",
        "detailed_address": {
            "ward": null,
            "street": "G6FG+2G2",
            "city": "Jhinjhana",
            "postal_code": "247773",
            "state": "Uttar Pradesh",
            "country_code": "IN"
        },
        "images": [],
        "link": "https://www.google.com/maps/place/manihaaraan+masjid/data=!4m7!3m6!1s0x390c2a91827e854d:0x7ba5c2e775956039!8m2!3d29.5225045!4d77.2262666!16s%2Fg%2F11g6ypqvcp!19sChIJTYV-gpEqDDkROWCVdefCpXs?authuser=0&hl=en&rclk=1",
        "coordinates": {
            "latitude": 29.5225045,
            "longitude": 77.2262666
        }
    },
    {
        "name": "Imaam sahaab masjid",
        "main_category": "Mosque",
        "address": "G69J+PCX Imaam sahaab masjid, Jhinjhana, Uttar Pradesh 247773",
        "detailed_address": {
            "ward": null,
            "street": "G69J+PCX",
            "city": "Jhinjhana",
            "postal_code": "247773",
            "state": "Uttar Pradesh",
            "country_code": "IN"
        },
        "images": [
            {
                "about": "All",
                "link": "https://lh5.googleusercontent.com/p/AF1QipPXcTK85gTUalIvb25okt5idkBJbSTfbmPg-qAU=w224-h335-k-no"
            }
        ],
        "link": "https://www.google.com/maps/place/Imaam+sahaab+masjid/data=!4m7!3m6!1s0x390c2a8d08961605:0x3de8856eb207df3b!8m2!3d29.5193562!4d77.231113!16s%2Fg%2F11gbl3ssmk!19sChIJBRaWCI0qDDkRO98Hsm6F6D0?authuser=0&hl=en&rclk=1",
        "coordinates": {
            "latitude": 29.519356199999997,
            "longitude": 77.231113
        }
    },
    {
        "name": "Madina Masjid",
        "main_category": "Mosque",
        "address": "G69F+QJC Madina Masjid, Moh.Shahmubarik, Jhinjhana, Uttar Pradesh",
        "detailed_address": {
            "ward": null,
            "street": "G69F+QJC, Moh.Shahmubarik",
            "city": "Jhinjhana",
            "postal_code": null,
            "state": "Uttar Pradesh",
            "country_code": "IN"
        },
        "images": [
            {
                "about": "All",
                "link": "https://streetviewpixels-pa.googleapis.com/v1/thumbnail?panoid=YGv6A5G7LuQhaOZu3Bw-bw&cb_client=maps_sv.tactile.gps&w=224&h=298&yaw=58.864506&pitch=0&thumbfov=100"
            },
            {
                "about": "Street View & 360deg",
                "link": "https://streetviewpixels-pa.googleapis.com/v1/thumbnail?panoid=YGv6A5G7LuQhaOZu3Bw-bw&cb_client=maps_sv.tactile.gps&w=224&h=298&yaw=58.864506&pitch=0&thumbfov=100"
            },
            {
                "about": "Videos",
                "link": "https://lh5.googleusercontent.com/p/AF1QipNY3FznESgM-8x8_6TtyzDwNIBRSaDuUNntLG5J=w224-h398-k-no"
            }
        ],
        "link": "https://www.google.com/maps/place/Madina+Masjid/data=!4m7!3m6!1s0x390c2a939a457f53:0x11812fde49512637!8m2!3d29.5194269!4d77.2240273!16s%2Fg%2F11f0_fn2_j!19sChIJU39FmpMqDDkRNyZRSd4vgRE?authuser=0&hl=en&rclk=1",
        "coordinates": {
            "latitude": 29.5194269,
            "longitude": 77.2240273
        }
    },
    {
        "name": "Masjid Shah Mubarik msjd shh mbrkh msjid shaah mubaarik",
        "main_category": "Mosque",
        "address": "G69F+GCM Masjid Shah Mubarik msjd shh mbrkh msjid shaah mubaarik, Jhinjhana, Uttar Pradesh 247773",
        "detailed_address": {
            "ward": null,
            "street": "G69F+GCM",
            "city": "Jhinjhana",
            "postal_code": "247773",
            "state": "Uttar Pradesh",
            "country_code": "IN"
        },
        "images": [
            {
                "about": "All",
                "link": "https://lh5.googleusercontent.com/p/AF1QipP4vWEfC5Xi5-6ZP_1oawARzcFr6LYM4JOOQJsx=w224-h298-k-no"
            },
            {
                "about": "Street View & 360deg",
                "link": "https://streetviewpixels-pa.googleapis.com/v1/thumbnail?panoid=yg_qtYRrE3Xnuh4IXdD96A&cb_client=maps_sv.tactile.gps&w=224&h=298&yaw=62.244076&pitch=0&thumbfov=100"
            }
        ],
        "link": "https://www.google.com/maps/place/Masjid+Shah+Mubarik+%D9%85%D8%B3%D8%AC%D8%AF+%D8%B4%D8%A7%DB%81+%D9%85%D8%A8%D8%A7%D8%B1%DA%A9+%E0%A4%AE%E0%A4%B8%E0%A5%8D%E0%A4%9C%E0%A4%BF%E0%A4%A6+%E0%A4%B6%E0%A4%BE%E0%A4%B9+%E0%A4%AE%E0%A5%81%E0%A4%AC%E0%A4%BE%E0%A4%B0%E0%A4%BF%E0%A4%95%E2%80%AD/data=!4m7!3m6!1s0x390c2b64956997c3:0xf22078e4f46d6662!8m2!3d29.5188357!4d77.2235411!16s%2Fg%2F11h7dg7wv9!19sChIJw5dplWQrDDkRYmZt9OR4IPI?authuser=0&hl=en&rclk=1",
        "coordinates": {
            "latitude": 29.5188357,
            "longitude": 77.22354109999999
        }
    },
    {
        "name": "Jama masjid Peerkhond",
        "main_category": "Mosque",
        "address": "G68F+8C2 Jama masjid Peerkhond, Jhinjhana, Uttar Pradesh 247773",
        "detailed_address": {
            "ward": null,
            "street": "G68F+8C2",
            "city": "Jhinjhana",
            "postal_code": "247773",
            "state": "Uttar Pradesh",
            "country_code": "IN"
        },
        "images": [
            {
                "about": "All",
                "link": "https://lh5.googleusercontent.com/p/AF1QipMx-xMl3q7qm6zLLT6M5VZ_7cgYeh86x7lUM3Rd=w224-h298-k-no"
            },
            {
                "about": "Dome",
                "link": "https://lh5.googleusercontent.com/p/AF1QipMx-xMl3q7qm6zLLT6M5VZ_7cgYeh86x7lUM3Rd=w224-h298-k-no"
            },
            {
                "about": "Videos",
                "link": "https://lh5.googleusercontent.com/p/AF1QipMCKi8the-1RVSJzzcliUuUH31gltgwWtKBDhKQ=w224-h398-k-no"
            }
        ],
        "link": "https://www.google.com/maps/place/Jama+masjid+Peerkhond/data=!4m7!3m6!1s0x390c2bff8bbb13c5:0x3338c048d9a872af!8m2!3d29.5157568!4d77.2235307!16s%2Fg%2F11flbrn4m2!19sChIJxRO7i_8rDDkRr3Ko2UjAODM?authuser=0&hl=en&rclk=1",
        "coordinates": {
            "latitude": 29.5157568,
            "longitude": 77.2235307
        }
    },
    {
        "name": "Masjid Umar Farooq (Ra) (bus adda wali)",
        "main_category": "Mosque",
        "address": "Masjid Umar Farooq (Ra) (bus adda wali), in front of State bank of india, Jhinjhana, Uttar Pradesh 247773",
        "detailed_address": {
            "ward": null,
            "street": "in front of State bank of india",
            "city": "Jhinjhana",
            "postal_code": "247773",
            "state": "Uttar Pradesh",
            "country_code": "IN"
        },
        "images": [
            {
                "about": "All",
                "link": "https://streetviewpixels-pa.googleapis.com/v1/thumbnail?panoid=jHS-cVqrfqTTchvB9seDfQ&cb_client=maps_sv.tactile.gps&w=224&h=298&yaw=1.4061731&pitch=0&thumbfov=100"
            },
            {
                "about": "By owner",
                "link": "https://lh5.googleusercontent.com/p/AF1QipP3roZ9x_rPtKsKQYS5rHl9yTeCLSh63LiLdRxq=w224-h298-k-no"
            },
            {
                "about": "Street View & 360deg",
                "link": "https://streetviewpixels-pa.googleapis.com/v1/thumbnail?panoid=jHS-cVqrfqTTchvB9seDfQ&cb_client=maps_sv.tactile.gps&w=224&h=298&yaw=1.4061731&pitch=0&thumbfov=100"
            }
        ],
        "link": "https://www.google.com/maps/place/Masjid+Umar+Farooq+%28Ra%29+%28bus+adda+wali%29/data=!4m7!3m6!1s0x390c2b72e662357f:0xe5f8f746cebc5f58!8m2!3d29.5228911!4d77.2217417!16s%2Fg%2F11tg40y9n_!19sChIJfzVi5nIrDDkRWF-8zkb3-OU?authuser=0&hl=en&rclk=1",
        "coordinates": {
            "latitude": 29.5228911,
            "longitude": 77.2217417
        }
    },
    {
        "name": "Masjid Afghanan msjd fGnn",
        "main_category": "Mosque",
        "address": "G6CF+PG8 Masjid Afghanan msjd fGnn, Afghanan Road, Jhinjhana, Uttar Pradesh 247773",
        "detailed_address": {
            "ward": null,
            "street": "G6CF+PG8, Afghanan Road",
            "city": "Jhinjhana",
            "postal_code": "247773",
            "state": "Uttar Pradesh",
            "country_code": "IN"
        },
        "images": [
            {
                "about": "All",
                "link": "https://lh5.googleusercontent.com/p/AF1QipMgF6c4oSTOYwXm9k-IjNZyvnJxw2C9bSLYyWR7=w224-h298-k-no"
            }
        ],
        "link": "https://www.google.com/maps/place/Masjid+Afghanan+%D9%85%D8%B3%D8%AC%D8%AF+%D8%A7%D9%81%D8%BA%D8%A7%D9%86%D8%A7%D9%86%E2%80%AD/data=!4m7!3m6!1s0x390c2b470fe279df:0x1c5439ad906a0ab8!8m2!3d29.521793!4d77.2238257!16s%2Fg%2F11h132zkd8!19sChIJ33niD0crDDkRuApqkK05VBw?authuser=0&hl=en&rclk=1",
        "coordinates": {
            "latitude": 29.521793,
            "longitude": 77.22382569999999
        }
    },
    {
        "name": "Masjid Salara",
        "main_category": "Mosque",
        "address": "G6CC+2FH Masjid Salara, Unnamed Road, Jhinjhana, Uttar Pradesh 247773",
        "detailed_address": {
            "ward": null,
            "street": "G6CC+2FH, Unnamed Road",
            "city": "Jhinjhana",
            "postal_code": "247773",
            "state": "Uttar Pradesh",
            "country_code": "IN"
        },
        "images": [
            {
                "about": "All",
                "link": "https://lh5.googleusercontent.com/p/AF1QipOGRVgQNjy2mZyYtsZIYVo829L3Kx_5OYbq2NOZ=w333-h298-k-no"
            },
            {
                "about": "Street View & 360deg",
                "link": "https://streetviewpixels-pa.googleapis.com/v1/thumbnail?panoid=nvRq4ASi6VyZDAPUHHSxNw&cb_client=maps_sv.tactile.gps&w=224&h=298&yaw=267.7282&pitch=0&thumbfov=100"
            }
        ],
        "link": "https://www.google.com/maps/place/Masjid+Salara/data=!4m7!3m6!1s0x390c2bd5b9b3de1f:0xa5fd37a74a79c505!8m2!3d29.5200607!4d77.2212277!16s%2Fg%2F11h7fmb08t!19sChIJH96zudUrDDkRBcV5Sqc3_aU?authuser=0&hl=en&rclk=1",
        "coordinates": {
            "latitude": 29.5200607,
            "longitude": 77.2212277
        }
    },
    {
        "name": "Masjid msjd Hmzh",
        "main_category": "Mosque",
        "address": "G69F+P89 Masjid msjd Hmzh, Jhinjhana, Uttar Pradesh 247773",
        "detailed_address": {
            "ward": null,
            "street": "G69F+P89",
            "city": "Jhinjhana",
            "postal_code": "247773",
            "state": "Uttar Pradesh",
            "country_code": "IN"
        },
        "images": [
            {
                "about": "All",
                "link": "https://streetviewpixels-pa.googleapis.com/v1/thumbnail?panoid=51hYB3TcOCNl57wQ1UyGEQ&cb_client=maps_sv.tactile.gps&w=224&h=298&yaw=304.32916&pitch=0&thumbfov=100"
            },
            {
                "about": "Street View & 360deg",
                "link": "https://streetviewpixels-pa.googleapis.com/v1/thumbnail?panoid=51hYB3TcOCNl57wQ1UyGEQ&cb_client=maps_sv.tactile.gps&w=224&h=298&yaw=304.32916&pitch=0&thumbfov=100"
            }
        ],
        "link": "https://www.google.com/maps/place/Masjid+%D9%85%D8%B3%D8%AC%D8%AF+%D8%AD%D9%85%D8%B2%DB%81%E2%80%AD/data=!4m7!3m6!1s0x390c2ba7b551bf03:0x248c0cdb55a6c1c7!8m2!3d29.5192911!4d77.2233449!16s%2Fg%2F11h7cvnnhy!19sChIJA79RtacrDDkRx8GmVdsMjCQ?authuser=0&hl=en&rclk=1",
        "coordinates": {
            "latitude": 29.5192911,
            "longitude": 77.2233449
        }
    },
    {
        "name": "Masjid Chhatti PeerZadGan msjid chtti piirjaadgaan msjd chhtWy",
        "main_category": "Mosque",
        "address": "G69F+WHF Masjid Chhatti PeerZadGan msjid chtti piirjaadgaan msjd chhtWy, Neela Roza Road, Jhinjhana, Uttar Pradesh 247773",
        "detailed_address": {
            "ward": null,
            "street": "G69F+WHF, Neela Roza Road",
            "city": "Jhinjhana",
            "postal_code": "247773",
            "state": "Uttar Pradesh",
            "country_code": "IN"
        },
        "images": [
            {
                "about": "All",
                "link": "https://lh5.googleusercontent.com/p/AF1QipMXVoCV94dhYLE97ye_H3MBSkFJQGo0nLm94EQ=w397-h298-k-no"
            }
        ],
        "link": "https://www.google.com/maps/place/Masjid+Chhatti+PeerZadGan+%E0%A4%AE%E0%A4%B8%E0%A5%8D%E0%A4%9C%E0%A4%BF%E0%A4%A6+%E0%A4%9B%E0%A4%A4%E0%A5%8D%E0%A4%A4%E0%A4%BF+%E0%A4%AA%E0%A5%80%E0%A4%B0%E0%A4%9C%E0%A4%BE%E0%A4%A6%E0%A4%97%E0%A4%BE%E0%A4%A8+%D9%85%D8%B3%D8%AC%D8%AF+%DA%86%DA%BE%D8%AA%D9%91%DB%8C%E2%80%AD/data=!4m7!3m6!1s0x390c2b45df1c427d:0x2a56e41c36797448!8m2!3d29.5198043!4d77.2239145!16s%2Fg%2F11h6v4m5gx!19sChIJfUIc30UrDDkRSHR5NhzkVio?authuser=0&hl=en&rclk=1",
        "coordinates": {
            "latitude": 29.519804299999997,
            "longitude": 77.22391449999999
        }
    },
    {
        "name": "Masjid Durrah shaheed msjd drh shhyd",
        "main_category": "Mosque",
        "address": "Masjid Durrah shaheed msjd drh shhyd, Bus stand, Road, Jhinjhana, Uttar Pradesh 247773",
        "detailed_address": {
            "ward": null,
            "street": "Bus stand, Road",
            "city": "Jhinjhana",
            "postal_code": "247773",
            "state": "Uttar Pradesh",
            "country_code": "IN"
        },
        "images": [],
        "link": "https://www.google.com/maps/place/Masjid+Durrah+shaheed+%D9%85%D8%B3%D8%AC%D8%AF+%D8%AF%D8%B1%D9%87+%D8%B4%D9%87%D9%8A%D8%AF%E2%80%AD/data=!4m7!3m6!1s0x390c2b583426b013:0xdc284e6700f891cc!8m2!3d29.5213707!4d77.2230989!16s%2Fg%2F11fkwkjyk7!19sChIJE7AmNFgrDDkRzJH4AGdOKNw?authuser=0&hl=en&rclk=1",
        "coordinates": {
            "latitude": 29.5213707,
            "longitude": 77.2230989
        }
    },
    {
        "name": "Masjid Takiye wali",
        "main_category": "Mosque",
        "address": "G69F+687 Masjid Takiye wali, Unnamed Road, Jhinjhana, Uttar Pradesh 247773",
        "detailed_address": {
            "ward": null,
            "street": "G69F+687, Unnamed Road",
            "city": "Jhinjhana",
            "postal_code": "247773",
            "state": "Uttar Pradesh",
            "country_code": "IN"
        },
        "images": [
            {
                "about": "All",
                "link": "https://streetviewpixels-pa.googleapis.com/v1/thumbnail?panoid=_SP427wbM7wRaPHllSITWw&cb_client=maps_sv.tactile.gps&w=224&h=298&yaw=309.05096&pitch=0&thumbfov=100"
            },
            {
                "about": "Street View & 360deg",
                "link": "https://streetviewpixels-pa.googleapis.com/v1/thumbnail?panoid=_SP427wbM7wRaPHllSITWw&cb_client=maps_sv.tactile.gps&w=224&h=298&yaw=309.05096&pitch=0&thumbfov=100"
            }
        ],
        "link": "https://www.google.com/maps/place/Masjid+Takiye+wali/data=!4m7!3m6!1s0x390c2b13672b562b:0x16258c402cd6104!8m2!3d29.5180258!4d77.2232889!16s%2Fg%2F11h7fm27p9!19sChIJK1YrZxMrDDkRBGHNAsRYYgE?authuser=0&hl=en&rclk=1",
        "coordinates": {
            "latitude": 29.5180258,
            "longitude": 77.2232889
        }
    },
    {
        "name": "Jama Masjide Aaysha",
        "main_category": "Mosque",
        "address": "G69G+FCF Jama Masjide Aaysha, shahmubarik, Jhinjhana, Uttar Pradesh 247773",
        "detailed_address": {
            "ward": "shahmubarik",
            "street": "G69G+FCF",
            "city": "Jhinjhana",
            "postal_code": null,
            "state": "Uttar Pradesh",
            "country_code": "IN"
        },
        "images": [],
        "link": "https://www.google.com/maps/place/Jama+Masjide+Aaysha/data=!4m7!3m6!1s0x390c2b4960585961:0x12fce3c3c83d5c2e!8m2!3d29.5186916!4d77.2260379!16s%2Fg%2F11gt9ycl76!19sChIJYVlYYEkrDDkRLlw9yMPj_BI?authuser=0&hl=en&rclk=1",
        "coordinates": {
            "latitude": 29.5186916,
            "longitude": 77.2260379
        }
    },
    {
        "name": "Masjid Qaziyan",
        "main_category": "Mosque",
        "address": "G6CF+959 Masjid Qaziyan, Jhinjhana, Uttar Pradesh 247773",
        "detailed_address": {
            "ward": null,
            "street": "G6CF+959",
            "city": "Jhinjhana",
            "postal_code": "247773",
            "state": "Uttar Pradesh",
            "country_code": "IN"
        },
        "images": [],
        "link": "https://www.google.com/maps/place/Masjid+Qaziyan/data=!4m7!3m6!1s0x390c2a9408cc1c97:0x5aac783ded8064d4!8m2!3d29.5209082!4d77.2229986!16s%2Fg%2F11f_p2997g!19sChIJlxzMCJQqDDkR1GSA7T14rFo?authuser=0&hl=en&rclk=1",
        "coordinates": {
            "latitude": 29.520908199999997,
            "longitude": 77.2229986
        }
    },
    {
        "name": "Masjid Khare wali",
        "main_category": "Mosque",
        "address": "G69C+PQ2 Masjid Khare wali, Unnamed Road, Jhinjhana, Uttar Pradesh 247773",
        "detailed_address": {
            "ward": null,
            "street": "G69C+PQ2, Unnamed Road",
            "city": "Jhinjhana",
            "postal_code": "247773",
            "state": "Uttar Pradesh",
            "country_code": "IN"
        },
        "images": [
            {
                "about": "All",
                "link": "https://streetviewpixels-pa.googleapis.com/v1/thumbnail?panoid=7ACZZm4bcE6hjy_nvOd8nw&cb_client=maps_sv.tactile.gps&w=224&h=298&yaw=296.60254&pitch=0&thumbfov=100"
            },
            {
                "about": "Street View & 360deg",
                "link": "https://streetviewpixels-pa.googleapis.com/v1/thumbnail?panoid=7ACZZm4bcE6hjy_nvOd8nw&cb_client=maps_sv.tactile.gps&w=224&h=298&yaw=296.60254&pitch=0&thumbfov=100"
            }
        ],
        "link": "https://www.google.com/maps/place/Masjid+Khare+wali/data=!4m7!3m6!1s0x390c2b7e47ead8f3:0xc787dfd4303b3b1!8m2!3d29.5192545!4d77.221889!16s%2Fg%2F11flbrhqck!19sChIJ89jqR34rDDkRsbMDQ_19eAw?authuser=0&hl=en&rclk=1",
        "coordinates": {
            "latitude": 29.5192545,
            "longitude": 77.22188899999999
        }
    },
    {
        "name": "Masjid Chishti",
        "main_category": "Mosque",
        "address": "G6CF+5F4 Masjid Chishti, Neela Roza Road, Jhinjhana, Uttar Pradesh 247773",
        "detailed_address": {
            "ward": null,
            "street": "G6CF+5F4, Neela Roza Road",
            "city": "Jhinjhana",
            "postal_code": "247773",
            "state": "Uttar Pradesh",
            "country_code": "IN"
        },
        "images": [
            {
                "about": "All",
                "link": "https://lh5.googleusercontent.com/p/AF1QipOfCL8Vy4WFbfgEpCaiTwuCw6VqvvGa-Z1SE4Q=w224-h298-k-no"
            }
        ],
        "link": "https://www.google.com/maps/place/Masjid+Chishti/data=!4m7!3m6!1s0x390c2ba0d9a68913:0xed8619777aa734c1!8m2!3d29.520387!4d77.2237043!16s%2Fg%2F11h6vcwk81!19sChIJE4mm2aArDDkRwTSnencZhu0?authuser=0&hl=en&rclk=1",
        "coordinates": {
            "latitude": 29.520387,
            "longitude": 77.2237043
        }
    },
    {
        "name": "Masjid Quartero wali",
        "main_category": "Mosque",
        "address": "G6HF+RPW Masjid Quartero wali, Jhinjhana Rural, Uttar Pradesh 247773",
        "detailed_address": {
            "ward": null,
            "street": "G6HF+RPW",
            "city": "Jhinjhana Rural",
            "postal_code": "247773",
            "state": "Uttar Pradesh",
            "country_code": "IN"
        },
        "images": [],
        "link": "https://www.google.com/maps/place/Masjid+Quartero+wali/data=!4m7!3m6!1s0x390c2bf379b7e67d:0x216de8d9720925f7!8m2!3d29.5296029!4d77.2243213!16s%2Fg%2F11h3qkn7mj!19sChIJfea3efMrDDkR9yUJctnobSE?authuser=0&hl=en&rclk=1",
        "coordinates": {
            "latitude": 29.5296029,
            "longitude": 77.2243213
        }
    },
    {
        "name": "Masjid Main market Jhinjhana",
        "main_category": "Mosque",
        "address": "G6CG+PV3 Masjid Main market Jhinjhana, Jhinjhana, Uttar Pradesh 247773",
        "detailed_address": {
            "ward": null,
            "street": "G6CG+PV3",
            "city": "Jhinjhana",
            "postal_code": "247773",
            "state": "Uttar Pradesh",
            "country_code": "IN"
        },
        "images": [],
        "link": "https://www.google.com/maps/place/Masjid+Main+market+Jhinjhana/data=!4m7!3m6!1s0x390c2b76ce40d77d:0x7e320b969e890fc2!8m2!3d29.5217576!4d77.2271847!16s%2Fg%2F11h7fm0q4h!19sChIJfddAznYrDDkRwg-JnpYLMn4?authuser=0&hl=en&rclk=1",
        "coordinates": {
            "latitude": 29.521757599999997,
            "longitude": 77.2271847
        }
    },
    {
        "name": "Masjid Chonk msjd chwnkh",
        "main_category": "Mosque",
        "address": "G6CF+6VQ Masjid Chonk msjd chwnkh, Jhinjhana, Uttar Pradesh 247773",
        "detailed_address": {
            "ward": null,
            "street": "G6CF+6VQ",
            "city": "Jhinjhana",
            "postal_code": "247773",
            "state": "Uttar Pradesh",
            "country_code": "IN"
        },
        "images": [],
        "link": "https://www.google.com/maps/place/Masjid+Chonk+%D9%85%D8%B3%D8%AC%D8%AF+%DA%86%D9%88%D9%86%DA%A9%E2%80%AD/data=!4m7!3m6!1s0x390c2bc3a4041113:0xe61f277162cf3606!8m2!3d29.520587!4d77.2247448!16s%2Fg%2F11fl94jvvw!19sChIJExEEpMMrDDkRBjbPYnEnH-Y?authuser=0&hl=en&rclk=1",
        "coordinates": {
            "latitude": 29.520587,
            "longitude": 77.2247448
        }
    },
    {
        "name": "Masjid thana jhinjhana",
        "main_category": "Mosque",
        "address": "G6CG+6RX Masjid thana jhinjhana, Jhinjhana, Uttar Pradesh 247773",
        "detailed_address": {
            "ward": null,
            "street": "G6CG+6RX",
            "city": "Jhinjhana",
            "postal_code": "247773",
            "state": "Uttar Pradesh",
            "country_code": "IN"
        },
        "images": [],
        "link": "https://www.google.com/maps/place/Masjid+thana+jhinjhana/data=!4m7!3m6!1s0x390c2b39722bb1cb:0x94033d1f6d040e60!8m2!3d29.5206201!4d77.2271212!16s%2Fg%2F11h7flzpkz!19sChIJy7ErcjkrDDkRYA4EbR89A5Q?authuser=0&hl=en&rclk=1",
        "coordinates": {
            "latitude": 29.5206201,
            "longitude": 77.2271212
        }
    },
    {
        "name": "Chhoti Masjid",
        "main_category": "Mosque",
        "address": "G6CG+6GV Chhoti Masjid, Unnamed Road, Jhinjhana, Uttar Pradesh 247773",
        "detailed_address": {
            "ward": null,
            "street": "G6CG+6GV, Unnamed Road",
            "city": "Jhinjhana",
            "postal_code": "247773",
            "state": "Uttar Pradesh",
            "country_code": "IN"
        },
        "images": [
            {
                "about": "All",
                "link": "https://lh5.googleusercontent.com/p/AF1QipOk4PUqsXY7IRih8LB6TKzzsRs6-qkeSoNKSeha=w224-h298-k-no"
            }
        ],
        "link": "https://www.google.com/maps/place/Chhoti+Masjid/data=!4m7!3m6!1s0x390c2b84ec46245f:0x280c646dd7f55095!8m2!3d29.520609!4d77.2262877!16s%2Fg%2F11h7fm7b7g!19sChIJXyRG7IQrDDkRlVD1121kDCg?authuser=0&hl=en&rclk=1",
        "coordinates": {
            "latitude": 29.520609,
            "longitude": 77.2262877
        }
    },
    {
        "name": "msjd nwr mHmdyh Masjid Noor Muhammadiya",
        "main_category": "Mosque",
        "address": "G6FH+227 msjd nwr mHmdyh Masjid Noor Muhammadiya, Jhinjhana, Uttar Pradesh 247773",
        "detailed_address": {
            "ward": null,
            "street": "G6FH+227",
            "city": "Jhinjhana",
            "postal_code": "247773",
            "state": "Uttar Pradesh",
            "country_code": "IN"
        },
        "images": [],
        "link": "https://www.google.com/maps/place/%D9%85%D8%B3%D8%AC%D8%AF+%D9%86%D9%88%D8%B1+%D9%85%D8%AD%D9%85%D8%AF%D9%8A%D9%87+Masjid+Noor+Muhammadiya%E2%80%AD/data=!4m7!3m6!1s0x390c2b895e8f1001:0xf34cfba6ec5b564b!8m2!3d29.5225436!4d77.227545!16s%2Fg%2F11h3qkfbxc!19sChIJARCPXokrDDkRS1Zb7Kb7TPM?authuser=0&hl=en&rclk=1",
        "coordinates": {
            "latitude": 29.5225436,
            "longitude": 77.22754499999999
        }
    },
    {
        "name": "Markaj wali Masjid",
        "main_category": "Housing society",
        "address": "G6CF+5VF Markaj wali Masjid, Jhinjhana, Uttar Pradesh 247773",
        "detailed_address": {
            "ward": null,
            "street": "G6CF+5VF",
            "city": "Jhinjhana",
            "postal_code": "247773",
            "state": "Uttar Pradesh",
            "country_code": "IN"
        },
        "images": [
            {
                "about": "All",
                "link": "https://lh5.googleusercontent.com/p/AF1QipPi-0VfCIaaCGEVy-uqgEtMw4q0usUO9DEoBeMA=w613-h298-k-no"
            }
        ],
        "link": "https://www.google.com/maps/place/Markaj+wali+Masjid/data=!4m7!3m6!1s0x390c2bcad12b26e5:0xf2228011264156ec!8m2!3d29.5204295!4d77.2246613!16s%2Fg%2F11kjg2zrg6!19sChIJ5SYr0corDDkR7FZBJhGAIvI?authuser=0&hl=en&rclk=1",
        "coordinates": {
            "latitude": 29.5204295,
            "longitude": 77.2246613
        }
    },
    {
        "name": "Umar masjid (bus stand wali)",
        "main_category": "Mosque",
        "address": "G6CF+5VF Umar masjid (bus stand wali), wali gali, near state Bank of India ke samne, Jhinjhana, Uttar Pradesh 247773",
        "detailed_address": {
            "ward": null,
            "street": "G6CF+5VF, wali gali, near state Bank of India ke samne",
            "city": "Jhinjhana",
            "postal_code": null,
            "state": "Uttar Pradesh",
            "country_code": "IN"
        },
        "images": [],
        "link": "https://www.google.com/maps/place/Umar+masjid+%28bus+stand+wali%29/data=!4m7!3m6!1s0x390c2b48e0b4eb43:0xb88adf719ee6034a!8m2!3d29.5204295!4d77.2246613!16s%2Fg%2F11td3c5202!19sChIJQ-u04EgrDDkRSgPmnnHfirg?authuser=0&hl=en&rclk=1",
        "coordinates": {
            "latitude": 29.5204295,
            "longitude": 77.2246613
        }
    }
]