[
    {
        "name": "Jama Masjid",
        "main_category": "Mosque",
        "address": "MGV8+5P8 Jama Masjid, Damnagar, Gujarat 365220",
        "detailed_address": {
            "ward": null,
            "street": "MGV8+5P8",
            "city": "Damnagar",
            "postal_code": "365220",
            "state": "Gujarat",
            "country_code": "IN"
        },
        "images": [
            {
                "about": "All",
                "link": "https://lh5.googleusercontent.com/p/AF1QipPO997Nhyd7wMQ5pKJH6MWHT60mYQQGyvLrFKDx=w224-h398-k-no"
            }
        ],
        "link": "https://www.google.com/maps/place/Jama+Masjid/data=!4m7!3m6!1s0x39589904463f7741:0x2a18ff06dd7c1abb!8m2!3d21.6929004!4d71.5168437!16s%2Fg%2F11fxzjxm25!19sChIJQXc_RgSZWDkRuxp83Qb_GCo?authuser=0&hl=en&rclk=1",
        "coordinates": {
            "latitude": 21.6929004,
            "longitude": 71.5168437
        }
    },
    {
        "name": "Madina Masjid",
        "main_category": "Mosque",
        "address": "MGR9+V4G Madina Masjid, Damnagar, Gujarat 365220",
        "detailed_address": {
            "ward": null,
            "street": "MGR9+V4G",
            "city": "Damnagar",
            "postal_code": "365220",
            "state": "Gujarat",
            "country_code": "IN"
        },
        "images": [],
        "link": "https://www.google.com/maps/place/Madina+Masjid/data=!4m7!3m6!1s0x3958993ef90966c1:0x54304964d97f7b3c!8m2!3d21.6921951!4d71.5178317!16s%2Fg%2F11gh8r59f1!19sChIJwWYJ-T6ZWDkRPHt_2WRJMFQ?authuser=0&hl=en&rclk=1",
        "coordinates": {
            "latitude": 21.6921951,
            "longitude": 71.5178317
        }
    },
    {
        "name": "Motapeer Sahib Dargah Sharif",
        "main_category": "Mosque",
        "address": "MGW9+32R Motapeer Sahib Dargah Sharif, Damnagar, Gujarat 365220",
        "detailed_address": {
            "ward": null,
            "street": "MGW9+32R",
            "city": "Damnagar",
            "postal_code": "365220",
            "state": "Gujarat",
            "country_code": "IN"
        },
        "images": [],
        "link": "https://www.google.com/maps/place/Motapeer+Sahib+Dargah+Sharif/data=!4m7!3m6!1s0x395899fba9901947:0xab7703619d0b672a!8m2!3d21.6953671!4d71.5176514!16s%2Fg%2F11s8zd0qpj!19sChIJRxmQqfuZWDkRKmcLnWEDd6s?authuser=0&hl=en&rclk=1",
        "coordinates": {
            "latitude": 21.6953671,
            "longitude": 71.51765139999999
        }
    },
    {
        "name": "Jumma Masjid damnagar",
        "main_category": "Mosque",
        "address": "Jumma Masjid damnagar, Mota Bhandariya Barvala Bavisi Rd, Damnagar, Gujarat 365220",
        "detailed_address": {
            "ward": null,
            "street": "Mota Bhandariya Barvala Bavisi Rd",
            "city": "Damnagar",
            "postal_code": "365220",
            "state": "Gujarat",
            "country_code": "IN"
        },
        "images": [
            {
                "about": "All",
                "link": "https://lh5.googleusercontent.com/p/AF1QipPVOhGexMvfeT1Bv_UFLSQuPwMV_FnimhrOBMvf=w224-h472-k-no"
            },
            {
                "about": "Dome",
                "link": "https://lh5.googleusercontent.com/p/AF1QipPVOhGexMvfeT1Bv_UFLSQuPwMV_FnimhrOBMvf=w224-h472-k-no"
            }
        ],
        "link": "https://www.google.com/maps/place/Jumma+Masjid+damnagar/data=!4m7!3m6!1s0x3958997cf2240355:0x4bbaf397ca305be7!8m2!3d21.6938726!4d71.5170917!16s%2Fg%2F11tf413r15!19sChIJVQMk8nyZWDkR51swypfzuks?authuser=0&hl=en&rclk=1",
        "coordinates": {
            "latitude": 21.6938726,
            "longitude": 71.5170917
        }
    },
    {
        "name": "Ladnshapir laaddnshaapiir",
        "main_category": "Mosque",
        "address": "Ladnshapir laaddnshaapiir, Main Bazar, juni kacheri St, Damnagar, Gujarat 365220",
        "detailed_address": {
            "ward": null,
            "street": "Main Bazar, juni kacheri St",
            "city": "Damnagar",
            "postal_code": "365220",
            "state": "Gujarat",
            "country_code": "IN"
        },
        "images": [],
        "link": "https://www.google.com/maps/place/Ladnshapir+%E0%AA%B2%E0%AA%BE%E0%AA%A1%E0%AA%A8%E0%AB%8D%E0%AA%B6%E0%AA%BE%E0%AA%AA%E0%AB%80%E0%AA%B0/data=!4m7!3m6!1s0x3958997c00c16fdb:0x5e7207e858900196!8m2!3d21.6944943!4d71.5165291!16s%2Fg%2F11tf52sf13!19sChIJ22_BAHyZWDkRlgGQWOgHcl4?authuser=0&hl=en&rclk=1",
        "coordinates": {
            "latitude": 21.6944943,
            "longitude": 71.5165291
        }
    }
]