[
    {
        "name": "Masjid Thothibari",
        "main_category": "Mosque",
        "address": "CCMH+JVF Masjid Thothibari, Nautanwa, Uttar Pradesh 273164",
        "detailed_address": {
            "ward": null,
            "street": "CCMH+JVF",
            "city": "Nautanwa",
            "postal_code": "273164",
            "state": "Uttar Pradesh",
            "country_code": "IN"
        },
        "images": [
            {
                "about": "All",
                "link": "https://lh5.googleusercontent.com/p/AF1QipP3JJW0XY3k2E3Fcaz2YrOrMZXkqw17dHFGrS8W=w377-h298-k-no"
            },
            {
                "about": "Dome",
                "link": "https://lh5.googleusercontent.com/p/AF1QipP3JJW0XY3k2E3Fcaz2YrOrMZXkqw17dHFGrS8W=w377-h298-k-no"
            }
        ],
        "link": "https://www.google.com/maps/place/Masjid+Thothibari/data=!4m7!3m6!1s0x3996982ef620770d:0xac0a0f5619acbfb6!8m2!3d27.4340588!4d83.4296678!16s%2Fg%2F11g9jjb3rn!19sChIJDXcg9i6YljkRtr-sGVYPCqw?authuser=0&hl=en&rclk=1",
        "coordinates": {
            "latitude": 27.4340588,
            "longitude": 83.42966779999999
        }
    },
    {
        "name": "Masjid",
        "main_category": "Mosque",
        "address": "CCJF+P48 Masjid, Nautanwa Bazar, Nautanwa, Uttar Pradesh 273164",
        "detailed_address": {
            "ward": "Nautanwa Bazar",
            "street": "CCJF+P48",
            "city": "Nautanwa",
            "postal_code": "273164",
            "state": "Uttar Pradesh",
            "country_code": "IN"
        },
        "images": [
            {
                "about": "All",
                "link": "https://lh5.googleusercontent.com/p/AF1QipODgJZ7gUkb06eKJkrNhT101s-1KEDrLRdceKM1=w529-h298-k-no"
            }
        ],
        "link": "https://www.google.com/maps/place/Masjid/data=!4m7!3m6!1s0x3996982838fcd2ad:0x3f99a47e8e9b3f18!8m2!3d27.4317812!4d83.422842!16s%2Fg%2F11fxc2r5g3!19sChIJrdL8OCiYljkRGD-bjn6kmT8?authuser=0&hl=en&rclk=1",
        "coordinates": {
            "latitude": 27.4317812,
            "longitude": 83.422842
        }
    },
    {
        "name": "Masjid & Madarsa Persohiya",
        "main_category": "Mosque",
        "address": "CCJG+G2M Masjid & Madarsa Persohiya, Nautanwa Bazar, Nautanwa, Uttar Pradesh 273164",
        "detailed_address": {
            "ward": "Nautanwa Bazar",
            "street": "CCJG+G2M",
            "city": "Nautanwa",
            "postal_code": "273164",
            "state": "Uttar Pradesh",
            "country_code": "IN"
        },
        "images": [],
        "link": "https://www.google.com/maps/place/Masjid+%26+Madarsa+Persohiya/data=!4m7!3m6!1s0x3996982892b83cc5:0xea068d3fb26bfb77!8m2!3d27.4313435!4d83.4250525!16s%2Fg%2F11d_yqxpsl!19sChIJxTy4kiiYljkRd_trsj-NBuo?authuser=0&hl=en&rclk=1",
        "coordinates": {
            "latitude": 27.431343499999997,
            "longitude": 83.42505249999999
        }
    },
    {
        "name": "Markaji Jama Masjid",
        "main_category": "Mosque",
        "address": "CCG8+MPC Markaji Jama Masjid, Nautanwa, Uttar Pradesh 273164",
        "detailed_address": {
            "ward": null,
            "street": "CCG8+MPC",
            "city": "Nautanwa",
            "postal_code": "273164",
            "state": "Uttar Pradesh",
            "country_code": "IN"
        },
        "images": [
            {
                "about": "All",
                "link": "https://lh5.googleusercontent.com/p/AF1QipM02wjiSEztMQkh_CVCtXMIYPimM0wm_3qX9193=w397-h298-k-no"
            },
            {
                "about": "Latest",
                "link": "https://lh5.googleusercontent.com/p/AF1QipOnMiILJIt-gXZAOVXvvHN65u-WCXldK50cWSem=w224-h298-k-no"
            },
            {
                "about": "Videos",
                "link": "https://lh5.googleusercontent.com/p/AF1QipPQh5WLTHBOscg-DASr4XEC9CMnVKqAJ6vfQiQQ=w224-h398-k-no"
            },
            {
                "about": "Street View & 360deg",
                "link": "https://streetviewpixels-pa.googleapis.com/v1/thumbnail?panoid=sNtppC9Pqxi-HhcdD_ca7g&cb_client=maps_sv.tactile.gps&w=224&h=298&yaw=342.32968&pitch=0&thumbfov=100"
            }
        ],
        "link": "https://www.google.com/maps/place/Markaji+Jama+Masjid/data=!4m7!3m6!1s0x399697892891156b:0xf6bea1400df6a30f!8m2!3d27.4266833!4d83.4167607!16s%2Fg%2F11dz_wll3q!19sChIJaxWRKImXljkRD6P2DUChvvY?authuser=0&hl=en&rclk=1",
        "coordinates": {
            "latitude": 27.426683299999997,
            "longitude": 83.4167607
        }
    },
    {
        "name": "Jama Masjid",
        "main_category": "Mosque",
        "address": "5H74+28C Jama Masjid, Nautanwa, Bihar 845451",
        "detailed_address": {
            "ward": null,
            "street": "5H74+28C",
            "city": "Nautanwa",
            "postal_code": "845451",
            "state": "Bihar",
            "country_code": "IN"
        },
        "images": [
            {
                "about": "All",
                "link": "https://lh5.googleusercontent.com/p/AF1QipPbQvRgrqpzaraCF7WZlRfeQKPFmktjQDm1WzUv=w662-h298-k-no"
            }
        ],
        "link": "https://www.google.com/maps/place/Jama+Masjid/data=!4m7!3m6!1s0x39949919a5218f47:0x4a2e3ebae6c137d1!8m2!3d27.1625573!4d84.5557608!16s%2Fg%2F11j5h345tf!19sChIJR48hpRmZlDkR0TfB5ro-Lko?authuser=0&hl=en&rclk=1",
        "coordinates": {
            "latitude": 27.1625573,
            "longitude": 84.5557608
        }
    },
    {
        "name": "Masjid Madarsawali",
        "main_category": "Mosque",
        "address": "CCG8+JHR Masjid Madarsawali, Araji Sarkar Urf Bairiha, Nautanwa, Uttar Pradesh 273164",
        "detailed_address": {
            "ward": null,
            "street": "CCG8+JHR",
            "city": "Araji Sarkar Urf Bairiha, Nautanwa",
            "postal_code": "273164",
            "state": "Uttar Pradesh",
            "country_code": "IN"
        },
        "images": [
            {
                "about": "All",
                "link": "https://streetviewpixels-pa.googleapis.com/v1/thumbnail?panoid=fLNO5b7KMu2_KknVGVbdaw&cb_client=maps_sv.tactile.gps&w=224&h=298&yaw=332.60016&pitch=0&thumbfov=100"
            },
            {
                "about": "Street View & 360deg",
                "link": "https://streetviewpixels-pa.googleapis.com/v1/thumbnail?panoid=fLNO5b7KMu2_KknVGVbdaw&cb_client=maps_sv.tactile.gps&w=224&h=298&yaw=332.60016&pitch=0&thumbfov=100"
            }
        ],
        "link": "https://www.google.com/maps/place/Masjid+Madarsawali/data=!4m7!3m6!1s0x3996978ed4aba77f:0x375a194063c80dc2!8m2!3d27.4266062!4d83.4164033!16s%2Fg%2F11fy4pwwjk!19sChIJf6er1I6XljkRwg3IY0AZWjc?authuser=0&hl=en&rclk=1",
        "coordinates": {
            "latitude": 27.4266062,
            "longitude": 83.4164033
        }
    },
    {
        "name": "Masjid",
        "main_category": "Mosque",
        "address": "5H9G+77R Masjid, Nautanwa, Bihar 845306",
        "detailed_address": {
            "ward": null,
            "street": "5H9G+77R",
            "city": "Nautanwa",
            "postal_code": "845306",
            "state": "Bihar",
            "country_code": "IN"
        },
        "images": [
            {
                "about": "All",
                "link": "https://streetviewpixels-pa.googleapis.com/v1/thumbnail?panoid=ew9doekY226yrfrceGHCRA&cb_client=maps_sv.tactile.gps&w=224&h=298&yaw=106.567215&pitch=0&thumbfov=100"
            },
            {
                "about": "Street View & 360deg",
                "link": "https://streetviewpixels-pa.googleapis.com/v1/thumbnail?panoid=ew9doekY226yrfrceGHCRA&cb_client=maps_sv.tactile.gps&w=224&h=298&yaw=106.567215&pitch=0&thumbfov=100"
            }
        ],
        "link": "https://www.google.com/maps/place/Masjid/data=!4m7!3m6!1s0x399499345f3e9b5b:0x71de141cc605989b!8m2!3d27.1682264!4d84.5756551!16s%2Fg%2F11rrphp22t!19sChIJW5s-XzSZlDkRm5gFxhwU3nE?authuser=0&hl=en&rclk=1",
        "coordinates": {
            "latitude": 27.168226399999998,
            "longitude": 84.57565509999999
        }
    },
    {
        "name": "Masjid Umar Farooq",
        "main_category": "Mosque",
        "address": "CC98+P6V Masjid Umar Farooq, Nautanwa, Uttar Pradesh 273164",
        "detailed_address": {
            "ward": null,
            "street": "CC98+P6V",
            "city": "Nautanwa",
            "postal_code": null,
            "state": "Uttar Pradesh",
            "country_code": "IN"
        },
        "images": [
            {
                "about": "All",
                "link": "https://streetviewpixels-pa.googleapis.com/v1/thumbnail?panoid=Ce9JeylIF_5KSiLi4Yr1PA&cb_client=maps_sv.tactile.gps&w=224&h=298&yaw=345.65634&pitch=0&thumbfov=100"
            },
            {
                "about": "Street View & 360deg",
                "link": "https://streetviewpixels-pa.googleapis.com/v1/thumbnail?panoid=Ce9JeylIF_5KSiLi4Yr1PA&cb_client=maps_sv.tactile.gps&w=224&h=298&yaw=345.65634&pitch=0&thumbfov=100"
            }
        ],
        "link": "https://www.google.com/maps/place/Masjid+Umar+Farooq/data=!4m7!3m6!1s0x39969771db58728b:0x156af1b2d38f39d7!8m2!3d27.4193593!4d83.4155507!16s%2Fg%2F11swlqc69q!19sChIJi3JY23GXljkR1zmP07LxahU?authuser=0&hl=en&rclk=1",
        "coordinates": {
            "latitude": 27.4193593,
            "longitude": 83.4155507
        }
    },
    {
        "name": "Bahrupiya masjid",
        "main_category": "Mosque",
        "address": "Bahrupiya masjid, 273164, bahrupiya street, Nautanwa, Uttar Pradesh 273164",
        "detailed_address": {
            "ward": null,
            "street": "273164, bahrupiya street",
            "city": "Nautanwa",
            "postal_code": "273164",
            "state": "Uttar Pradesh",
            "country_code": "IN"
        },
        "images": [
            {
                "about": "All",
                "link": "https://lh5.googleusercontent.com/p/AF1QipMzCjgXBMwlUu2UuEg-tonbXg9lpdNyrQFqhhB1=w525-h298-k-no"
            }
        ],
        "link": "https://www.google.com/maps/place/Bahrupiya+masjid/data=!4m7!3m6!1s0x399699a757dc9dcd:0x1cc3ec25392c128f!8m2!3d27.4241659!4d83.4269996!16s%2Fg%2F11q9dbld52!19sChIJzZ3cV6eZljkRjxIsOSXswxw?authuser=0&hl=en&rclk=1",
        "coordinates": {
            "latitude": 27.4241659,
            "longitude": 83.4269996
        }
    },
    {
        "name": "Masjid",
        "main_category": "Mosque",
        "address": "CCHF+HCJ Masjid, Nautanwa Bazar, Nautanwa, Uttar Pradesh 273164",
        "detailed_address": {
            "ward": "Nautanwa Bazar",
            "street": "CCHF+HCJ",
            "city": "Nautanwa",
            "postal_code": "273164",
            "state": "Uttar Pradesh",
            "country_code": "IN"
        },
        "images": [],
        "link": "https://www.google.com/maps/place/Masjid/data=!4m7!3m6!1s0x399699c4bbc46ab9:0x8aa5a615224dbfd1!8m2!3d27.4289174!4d83.4235892!16s%2Fg%2F11kbtj0hc6!19sChIJuWrEu8SZljkR0b9NIhWmpYo?authuser=0&hl=en&rclk=1",
        "coordinates": {
            "latitude": 27.4289174,
            "longitude": 83.4235892
        }
    },
    {
        "name": "Masjid",
        "main_category": "Mosque",
        "address": "CCMJ+63P Masjid, Nautanwa, Uttar Pradesh 273164",
        "detailed_address": {
            "ward": null,
            "street": "CCMJ+63P",
            "city": "Nautanwa",
            "postal_code": "273164",
            "state": "Uttar Pradesh",
            "country_code": "IN"
        },
        "images": [
            {
                "about": "All",
                "link": "https://streetviewpixels-pa.googleapis.com/v1/thumbnail?panoid=3bNVpFgMdyd-zDpa_r7UhQ&cb_client=maps_sv.tactile.gps&w=224&h=298&yaw=349.101&pitch=0&thumbfov=100"
            },
            {
                "about": "Street View & 360deg",
                "link": "https://streetviewpixels-pa.googleapis.com/v1/thumbnail?panoid=3bNVpFgMdyd-zDpa_r7UhQ&cb_client=maps_sv.tactile.gps&w=224&h=298&yaw=349.101&pitch=0&thumbfov=100"
            }
        ],
        "link": "https://www.google.com/maps/place/Masjid/data=!4m7!3m6!1s0x399699d636caa077:0x6c2d9a0a64a99b89!8m2!3d27.4330851!4d83.4302054!16s%2Fg%2F11f760qyn9!19sChIJd6DKNtaZljkRiZupZAqaLWw?authuser=0&hl=en&rclk=1",
        "coordinates": {
            "latitude": 27.4330851,
            "longitude": 83.43020539999999
        }
    },
    {
        "name": "Ashrafi jama masjid",
        "main_category": "Mosque",
        "address": "CCJG+G2M Ashrafi jama masjid, Nautanwa Bazar, Nautanwa, Uttar Pradesh 273164",
        "detailed_address": {
            "ward": "Nautanwa Bazar",
            "street": "CCJG+G2M",
            "city": "Nautanwa",
            "postal_code": "273164",
            "state": "Uttar Pradesh",
            "country_code": "IN"
        },
        "images": [],
        "link": "https://www.google.com/maps/place/Ashrafi+jama+masjid/data=!4m7!3m6!1s0x399699e7e370b075:0xe5f4c550a4064c1a!8m2!3d27.43135!4d83.4250397!16s%2Fg%2F11t61y2v1k!19sChIJdbBw4-eZljkRGkwGpFDF9OU?authuser=0&hl=en&rclk=1",
        "coordinates": {
            "latitude": 27.43135,
            "longitude": 83.4250397
        }
    },
    {
        "name": "Jumma masjid",
        "main_category": "Mosque",
        "address": "Jumma masjid, National Highway 24 kunserwa, Kunserwa, Nautanwa, Uttar Pradesh 273164",
        "detailed_address": {
            "ward": null,
            "street": "National Highway 24 kunserwa, Kunserwa",
            "city": "Nautanwa",
            "postal_code": "273164",
            "state": "Uttar Pradesh",
            "country_code": "IN"
        },
        "images": [
            {
                "about": "All",
                "link": "https://streetviewpixels-pa.googleapis.com/v1/thumbnail?panoid=Hi9NbFXA0ibioOIbp3ZmDg&cb_client=maps_sv.tactile.gps&w=224&h=298&yaw=242.06393&pitch=0&thumbfov=100"
            },
            {
                "about": "Street View & 360deg",
                "link": "https://streetviewpixels-pa.googleapis.com/v1/thumbnail?panoid=Hi9NbFXA0ibioOIbp3ZmDg&cb_client=maps_sv.tactile.gps&w=224&h=298&yaw=242.06393&pitch=0&thumbfov=100"
            }
        ],
        "link": "https://www.google.com/maps/place/Jumma+masjid/data=!4m7!3m6!1s0x399697c1d896b171:0xa020edca8a862b72!8m2!3d27.4334154!4d83.4154537!16s%2Fg%2F11jsnfzpnv!19sChIJcbGW2MGXljkRciuGisrtIKA?authuser=0&hl=en&rclk=1",
        "coordinates": {
            "latitude": 27.433415399999998,
            "longitude": 83.4154537
        }
    },
    {
        "name": "MASJID BYPASS",
        "main_category": "Mosque",
        "address": "CCP9+94W MASJID BYPASS, Nautanwa, Uttar Pradesh 273164",
        "detailed_address": {
            "ward": null,
            "street": "CCP9+94W",
            "city": "Nautanwa",
            "postal_code": "273164",
            "state": "Uttar Pradesh",
            "country_code": "IN"
        },
        "images": [
            {
                "about": "All",
                "link": "https://streetviewpixels-pa.googleapis.com/v1/thumbnail?panoid=_zc-xiIxnLPnLIy8L7u5ag&cb_client=maps_sv.tactile.gps&w=224&h=298&yaw=98.22474&pitch=0&thumbfov=100"
            },
            {
                "about": "Street View & 360deg",
                "link": "https://streetviewpixels-pa.googleapis.com/v1/thumbnail?panoid=_zc-xiIxnLPnLIy8L7u5ag&cb_client=maps_sv.tactile.gps&w=224&h=298&yaw=98.22474&pitch=0&thumbfov=100"
            }
        ],
        "link": "https://www.google.com/maps/place/MASJID+BYPASS/data=!4m7!3m6!1s0x399697ed34d0f24b:0xa95dab79a4dd8b33!8m2!3d27.4359752!4d83.4178403!16s%2Fg%2F11rtsy0n1r!19sChIJS_LQNO2XljkRM4vdpHmrXak?authuser=0&hl=en&rclk=1",
        "coordinates": {
            "latitude": 27.435975199999998,
            "longitude": 83.4178403
        }
    },
    {
        "name": "Masjid Madhubanwa",
        "main_category": "Mosque",
        "address": "CCJ8+3WV Masjid Madhubanwa, Nautanwa, Uttar Pradesh 273164",
        "detailed_address": {
            "ward": null,
            "street": "CCJ8+3WV",
            "city": "Nautanwa",
            "postal_code": "273164",
            "state": "Uttar Pradesh",
            "country_code": "IN"
        },
        "images": [],
        "link": "https://www.google.com/maps/place/Masjid+Madhubanwa/data=!4m7!3m6!1s0x3996978619ed0351:0xd64c6b19791ff8c6!8m2!3d27.4302395!4d83.4173065!16s%2Fg%2F11fx9gt2bm!19sChIJUQPtGYaXljkRxvgfeRlrTNY?authuser=0&hl=en&rclk=1",
        "coordinates": {
            "latitude": 27.4302395,
            "longitude": 83.4173065
        }
    },
    {
        "name": "Masjid SBI",
        "main_category": "Mosque",
        "address": "CCHC+642 Masjid SBI, Nautanwa, Uttar Pradesh 273164",
        "detailed_address": {
            "ward": null,
            "street": "CCHC+642",
            "city": "Nautanwa",
            "postal_code": "273164",
            "state": "Uttar Pradesh",
            "country_code": "IN"
        },
        "images": [
            {
                "about": "All",
                "link": "https://streetviewpixels-pa.googleapis.com/v1/thumbnail?panoid=7VkQBV_2HRfAUAyAgORlug&cb_client=maps_sv.tactile.gps&w=224&h=298&yaw=85.06899&pitch=0&thumbfov=100"
            },
            {
                "about": "Street View & 360deg",
                "link": "https://streetviewpixels-pa.googleapis.com/v1/thumbnail?panoid=7VkQBV_2HRfAUAyAgORlug&cb_client=maps_sv.tactile.gps&w=224&h=298&yaw=85.06899&pitch=0&thumbfov=100"
            }
        ],
        "link": "https://www.google.com/maps/place/Masjid+SBI/data=!4m7!3m6!1s0x39969788408da59d:0x70c9d99122324105!8m2!3d27.4280132!4d83.4202556!16s%2Fg%2F11gcfn5gxk!19sChIJnaWNQIiXljkRBUEyIpHZyXA?authuser=0&hl=en&rclk=1",
        "coordinates": {
            "latitude": 27.4280132,
            "longitude": 83.42025559999999
        }
    },
    {
        "name": "Raza Jama Masjid Ramgardwa",
        "main_category": "Mosque",
        "address": "CCPJ+X6Q Raza Jama Masjid Ramgardwa, Nautanwa - Thuthibari - Nichlaul Rd, Bisnpurwa Mohalla, Nautanwa, Uttar Pradesh 273164",
        "detailed_address": {
            "ward": "Bisnpurwa Mohalla",
            "street": "CCPJ+X6Q, Nautanwa - Thuthibari - Nichlaul Rd",
            "city": "Nautanwa",
            "postal_code": null,
            "state": "Uttar Pradesh",
            "country_code": "IN"
        },
        "images": [
            {
                "about": "All",
                "link": "https://streetviewpixels-pa.googleapis.com/v1/thumbnail?panoid=FfkT9nSVftAp8gA9X22bGg&cb_client=maps_sv.tactile.gps&w=224&h=298&yaw=252.01563&pitch=0&thumbfov=100"
            },
            {
                "about": "Street View & 360deg",
                "link": "https://streetviewpixels-pa.googleapis.com/v1/thumbnail?panoid=FfkT9nSVftAp8gA9X22bGg&cb_client=maps_sv.tactile.gps&w=224&h=298&yaw=252.01563&pitch=0&thumbfov=100"
            }
        ],
        "link": "https://www.google.com/maps/place/Raza+Jama+Masjid+Ramgardwa/data=!4m7!3m6!1s0x399699eea9d7b4bb:0x13b1457f3d02158b!8m2!3d27.4374619!4d83.4305965!16s%2Fg%2F11rf0ckm_x!19sChIJu7TXqe6ZljkRixUCPX9FsRM?authuser=0&hl=en&rclk=1",
        "coordinates": {
            "latitude": 27.4374619,
            "longitude": 83.4305965
        }
    }
]