[
    {
        "name": "Badi Masjid",
        "main_category": "Mosque",
        "address": "2PCC+MMR Badi Masjid, Sai Colony, Ashta, Madhya Pradesh 466116",
        "detailed_address": {
            "ward": "Sai Colony",
            "street": "2PCC+MMR",
            "city": "Ashta",
            "postal_code": "466116",
            "state": "Madhya Pradesh",
            "country_code": "IN"
        },
        "images": [
            {
                "about": "All",
                "link": "https://lh5.googleusercontent.com/p/AF1QipNyFPAuHOkEJAtD4bv4kqpQtzITq5NCMoU3KGGZ=w224-h398-k-no"
            },
            {
                "about": "Street View & 360deg",
                "link": "https://streetviewpixels-pa.googleapis.com/v1/thumbnail?panoid=V0LIbZfd0MEhqyti-JHpFw&cb_client=maps_sv.tactile.gps&w=224&h=298&yaw=159.81544&pitch=0&thumbfov=100"
            },
            {
                "about": "Videos",
                "link": "https://lh5.googleusercontent.com/p/AF1QipNhI584JjEADdBHD5oknFY7u5Di9MZXQJqAD-Cj=w224-h398-k-no"
            }
        ],
        "link": "https://www.google.com/maps/place/Badi+Masjid/data=!4m7!3m6!1s0x397cc4bab136d971:0x6e4b0e172cac6c7c!8m2!3d23.0217472!4d76.7216384!16s%2Fg%2F1tlw7gyz!19sChIJcdk2sbrEfDkRfGysLBcOS24?authuser=0&hl=en&rclk=1",
        "coordinates": {
            "latitude": 23.0217472,
            "longitude": 76.7216384
        }
    },
    {
        "name": "Shahjahani Masjid (shh jhny msjd)",
        "main_category": "Mosque",
        "address": "Shahjahani Masjid (shh jhny msjd), Sikandar Bazaar, Road, Ashta, Madhya Pradesh 466116",
        "detailed_address": {
            "ward": null,
            "street": "Sikandar Bazaar, Road",
            "city": "Ashta",
            "postal_code": "466116",
            "state": "Madhya Pradesh",
            "country_code": "IN"
        },
        "images": [
            {
                "about": "All",
                "link": "https://lh5.googleusercontent.com/p/AF1QipMJ06x8EUxqEZsj9zEy1Q8IbjuVWjFJT5uk8g7T=w224-h298-k-no"
            },
            {
                "about": "Dome",
                "link": "https://lh5.googleusercontent.com/p/AF1QipNGcPTCjooLNQZmg4Q_4Bn5XD7UZreXvwEZJ4hM=w224-h497-k-no"
            },
            {
                "about": "Street View & 360deg",
                "link": "https://streetviewpixels-pa.googleapis.com/v1/thumbnail?panoid=Mpl_MnE_1bEudkETdLCCLA&cb_client=maps_sv.tactile.gps&w=224&h=298&yaw=180.50027&pitch=0&thumbfov=100"
            }
        ],
        "link": "https://www.google.com/maps/place/Shahjahani+Masjid+%28%D8%B4%D8%A7%DB%81+%D8%AC%DB%81%D8%A7%D9%86%DB%8C+%D9%85%D8%B3%D8%AC%D8%AF%29%E2%80%AD/data=!4m7!3m6!1s0x397cc4b02c87fb37:0x509c7d99b5d5464c!8m2!3d23.0179492!4d76.7217042!16s%2Fg%2F11g6wyp90n!19sChIJN_uHLLDEfDkRTEbVtZl9nFA?authuser=0&hl=en&rclk=1",
        "coordinates": {
            "latitude": 23.0179492,
            "longitude": 76.72170419999999
        }
    },
    {
        "name": "Fatima Masjid Alipur",
        "main_category": "Mosque",
        "address": "2PH8+P33 Fatima Masjid Alipur, MP SH 41, Patwari Colony, Alipur, Ashta, Madhya Pradesh 466116",
        "detailed_address": {
            "ward": "Patwari Colony, Alipur",
            "street": "2PH8+P33, MP SH 41",
            "city": "Ashta",
            "postal_code": "466116",
            "state": "Madhya Pradesh",
            "country_code": "IN"
        },
        "images": [
            {
                "about": "All",
                "link": "https://lh5.googleusercontent.com/p/AF1QipNPDFrnJc0h3ME06pZjPOQKyuKJRi9yjeaFpRuA=w529-h298-k-no"
            },
            {
                "about": "Videos",
                "link": "https://lh5.googleusercontent.com/p/AF1QipPrZjO469OD9LDv2E7dmn7Bm3ujTL5-GOH1s-f0=w224-h398-k-no"
            }
        ],
        "link": "https://www.google.com/maps/place/Fatima+Masjid+Alipur/data=!4m7!3m6!1s0x397cc4be66b52815:0x640336d8fde8c363!8m2!3d23.0292684!4d76.7151606!16s%2Fg%2F11dxkvtggt!19sChIJFSi1Zr7EfDkRY8Po_dg2A2Q?authuser=0&hl=en&rclk=1",
        "coordinates": {
            "latitude": 23.0292684,
            "longitude": 76.71516059999999
        }
    },
    {
        "name": "Hamidiya Masjid",
        "main_category": "Mosque",
        "address": "2P99+9W4 Hamidiya Masjid, Ashta, Madhya Pradesh 466116",
        "detailed_address": {
            "ward": null,
            "street": "2P99+9W4",
            "city": "Ashta",
            "postal_code": "466116",
            "state": "Madhya Pradesh",
            "country_code": "IN"
        },
        "images": [
            {
                "about": "All",
                "link": "https://lh5.googleusercontent.com/p/AF1QipNAOE0Iq1oQtEySGTzGJ7jaXHfptnmC6eYZJxG-=w224-h398-k-no"
            },
            {
                "about": "Dome",
                "link": "https://lh5.googleusercontent.com/p/AF1QipMUtrAiAls4ETKhqJYB9dvKs8pLh0AXymJ3-WIP=w224-h398-k-no"
            },
            {
                "about": "Videos",
                "link": "https://lh5.googleusercontent.com/p/AF1QipO8Sg-e0641BFUX8FdGyQwbz149kqms4U2SITRu=w224-h395-k-no"
            }
        ],
        "link": "https://www.google.com/maps/place/Hamidiya+Masjid/data=!4m7!3m6!1s0x397cc4b0500cdb65:0x77beb5734d6a1413!8m2!3d23.0183998!4d76.7198315!16s%2Fg%2F11dxklfnm_!19sChIJZdsMULDEfDkRExRqTXO1vnc?authuser=0&hl=en&rclk=1",
        "coordinates": {
            "latitude": 23.018399799999997,
            "longitude": 76.7198315
        }
    },
    {
        "name": "Bilal Masjid Dourabaad",
        "main_category": "Mosque",
        "address": "2PGC+3F8 Bilal Masjid Dourabaad, Ali Ganj, Dourabaad, Ashta, Madhya Pradesh 466116",
        "detailed_address": {
            "ward": "Ali Ganj, Dourabaad",
            "street": "2PGC+3F8",
            "city": "Ashta",
            "postal_code": "466116",
            "state": "Madhya Pradesh",
            "country_code": "IN"
        },
        "images": [
            {
                "about": "All",
                "link": "https://lh5.googleusercontent.com/p/AF1QipMTAwm9ZgFsH8W3o08Unxe10lUJemLMkdo0d7Mn=w529-h298-k-no"
            },
            {
                "about": "Dome",
                "link": "https://lh5.googleusercontent.com/p/AF1QipOsHC_F4OmyosAVEOXVatAYWnc7d3h7xppmgfuM=w298-h298-k-no"
            },
            {
                "about": "Street View & 360deg",
                "link": "https://streetviewpixels-pa.googleapis.com/v1/thumbnail?panoid=HAemdIh5XJWr-D4tU9P6LA&cb_client=maps_sv.tactile.gps&w=224&h=298&yaw=34.92954&pitch=0&thumbfov=100"
            }
        ],
        "link": "https://www.google.com/maps/place/Bilal+Masjid+Dourabaad/data=!4m7!3m6!1s0x397cc4bb47a77ed1:0x46a412be5db840ab!8m2!3d23.0251545!4d76.7212076!16s%2Fg%2F11f3mbv7l0!19sChIJ0X6nR7vEfDkRq0C4Xb4SpEY?authuser=0&hl=en&rclk=1",
        "coordinates": {
            "latitude": 23.0251545,
            "longitude": 76.7212076
        }
    },
    {
        "name": "Masjid Shekhpura",
        "main_category": "Mosque",
        "address": "2PF8+VV5 Masjid Shekhpura, Ali Ganj, Alipur, Ashta, Madhya Pradesh 466116",
        "detailed_address": {
            "ward": "Ali Ganj, Alipur",
            "street": "2PF8+VV5",
            "city": "Ashta",
            "postal_code": "466116",
            "state": "Madhya Pradesh",
            "country_code": "IN"
        },
        "images": [
            {
                "about": "All",
                "link": "https://lh5.googleusercontent.com/p/AF1QipOXoEwHXn7UKMXCfha4FRS_6cO6aJyBOpj2mCFF=w508-h298-k-no"
            },
            {
                "about": "Street View & 360deg",
                "link": "https://streetviewpixels-pa.googleapis.com/v1/thumbnail?panoid=RFp6fkLqqglARgoGiqQdUw&cb_client=maps_sv.tactile.gps&w=224&h=298&yaw=148.67905&pitch=0&thumbfov=100"
            },
            {
                "about": "Videos",
                "link": "https://lh5.googleusercontent.com/p/AF1QipMuaPt1XzYK1HoP--Yhi7nPEcSf7_qEd2H_QiOq=w224-h398-k-no"
            }
        ],
        "link": "https://www.google.com/maps/place/Masjid+Shekhpura/data=!4m7!3m6!1s0x397cc4bbc262c66f:0xcf808b104b453bbc!8m2!3d23.0246441!4d76.7172446!16s%2Fg%2F11f1df1zqw!19sChIJb8ZiwrvEfDkRvDtFSxCLgM8?authuser=0&hl=en&rclk=1",
        "coordinates": {
            "latitude": 23.0246441,
            "longitude": 76.7172446
        }
    },
    {
        "name": "Taj Masjid",
        "main_category": "Mosque",
        "address": "2PJ7+P7V Taj Masjid, Alipur, Ashta, Bahadarpura, Madhya Pradesh 466116",
        "detailed_address": {
            "ward": "Alipur",
            "street": "2PJ7+P7V",
            "city": "Ashta, Bahadarpura",
            "postal_code": "466116",
            "state": "Madhya Pradesh",
            "country_code": "IN"
        },
        "images": [],
        "link": "https://www.google.com/maps/place/Taj+Masjid/data=!4m7!3m6!1s0x397cc4957e8dbadb:0xd5ce81cd8764c74d!8m2!3d23.031869!4d76.7131647!16s%2Fg%2F11g8_1yl3w!19sChIJ27qNfpXEfDkRTcdkh82BztU?authuser=0&hl=en&rclk=1",
        "coordinates": {
            "latitude": 23.031869,
            "longitude": 76.7131647
        }
    },
    {
        "name": "Jamun Wali Masjid Qila Ashta",
        "main_category": "Mosque",
        "address": "2PC9+977 Jamun Wali Masjid Qila Ashta, Ashta, Madhya Pradesh 466116",
        "detailed_address": {
            "ward": null,
            "street": "2PC9+977",
            "city": "Ashta",
            "postal_code": "466116",
            "state": "Madhya Pradesh",
            "country_code": "IN"
        },
        "images": [
            {
                "about": "All",
                "link": "https://lh5.googleusercontent.com/p/AF1QipPX-BGcCUSFQ18d5y7wr7J2f9kdSFLFxkZut_ol=w397-h298-k-no"
            },
            {
                "about": "Street View & 360deg",
                "link": "https://streetviewpixels-pa.googleapis.com/v1/thumbnail?panoid=eXAlT7_JjVLTiqakQKl_0Q&cb_client=maps_sv.tactile.gps&w=224&h=298&yaw=332.59204&pitch=0&thumbfov=100"
            }
        ],
        "link": "https://www.google.com/maps/place/Jamun+Wali+Masjid+Qila+Ashta/data=!4m7!3m6!1s0x397cc4ba7179164b:0x531e488d4bca0553!8m2!3d23.0209227!4d76.7181683!16s%2Fg%2F11fz8tkwqh!19sChIJSxZ5cbrEfDkRUwXKS41IHlM?authuser=0&hl=en&rclk=1",
        "coordinates": {
            "latitude": 23.0209227,
            "longitude": 76.7181683
        }
    },
    {
        "name": "Kali Masjid",
        "main_category": "Mosque",
        "address": "2P8F+F95 Kali Masjid, Ashta, Madhya Pradesh 466116",
        "detailed_address": {
            "ward": null,
            "street": "2P8F+F95",
            "city": "Ashta",
            "postal_code": "466116",
            "state": "Madhya Pradesh",
            "country_code": "IN"
        },
        "images": [
            {
                "about": "All",
                "link": "https://lh5.googleusercontent.com/p/AF1QipOkEW94J_zmGA06tTZfGj9jqGGItLYDNGDG2G-4=w224-h407-k-no"
            },
            {
                "about": "Videos",
                "link": "https://lh5.googleusercontent.com/p/AF1QipOkEW94J_zmGA06tTZfGj9jqGGItLYDNGDG2G-4=w224-h407-k-no"
            }
        ],
        "link": "https://www.google.com/maps/place/Kali+Masjid/data=!4m7!3m6!1s0x397cc4ae14a3243f:0x21dc736c87da70f4!8m2!3d23.0161357!4d76.7234741!16s%2Fg%2F11f32f3n_g!19sChIJPySjFK7EfDkR9HDah2xz3CE?authuser=0&hl=en&rclk=1",
        "coordinates": {
            "latitude": 23.0161357,
            "longitude": 76.72347409999999
        }
    },
    {
        "name": "Tehsil Wali Masjid",
        "main_category": "Mosque",
        "address": "2PC9+GM2 Tehsil Wali Masjid, Near Old Water Tank Qila, Ashta, Madhya Pradesh 466116",
        "detailed_address": {
            "ward": null,
            "street": "2PC9+GM2, Near Old Water Tank Qila",
            "city": "Ashta",
            "postal_code": "466116",
            "state": "Madhya Pradesh",
            "country_code": "IN"
        },
        "images": [
            {
                "about": "All",
                "link": "https://lh5.googleusercontent.com/p/AF1QipMUOztfCnLBB1X8byCiE3NuFtriAYGEHiAotT8e=w224-h298-k-no"
            },
            {
                "about": "Street View & 360deg",
                "link": "https://streetviewpixels-pa.googleapis.com/v1/thumbnail?panoid=to8syHKS1vzHHKPMPlCeMA&cb_client=maps_sv.tactile.gps&w=224&h=298&yaw=89.20707&pitch=0&thumbfov=100"
            }
        ],
        "link": "https://www.google.com/maps/place/Tehsil+Wali+Masjid/data=!4m7!3m6!1s0x397cc4ba62d10605:0x3a3d2c0ed0326573!8m2!3d23.0212583!4d76.7191431!16s%2Fg%2F11dxkx822_!19sChIJBQbRYrrEfDkRc2Uy0A4sPTo?authuser=0&hl=en&rclk=1",
        "coordinates": {
            "latitude": 23.0212583,
            "longitude": 76.7191431
        }
    },
    {
        "name": "Masjid Mirza Amjad Baig",
        "main_category": "Mosque",
        "address": "2PCF+975 Masjid Mirza Amjad Baig, Subhash Nagar, Ashta, Madhya Pradesh 466116",
        "detailed_address": {
            "ward": "Subhash Nagar",
            "street": "2PCF+975",
            "city": "Ashta",
            "postal_code": "466116",
            "state": "Madhya Pradesh",
            "country_code": "IN"
        },
        "images": [],
        "link": "https://www.google.com/maps/place/Masjid+Mirza+Amjad+Baig/data=!4m7!3m6!1s0x397cc4aff469e11f:0xf66c99cd8711fa19!8m2!3d23.0208897!4d76.7232344!16s%2Fg%2F11gd9142tf!19sChIJH-Fp9K_EfDkRGfoRh82ZbPY?authuser=0&hl=en&rclk=1",
        "coordinates": {
            "latitude": 23.020889699999998,
            "longitude": 76.7232344
        }
    },
    {
        "name": "Madeena Masjid",
        "main_category": "Mosque",
        "address": "2PG6+8G8 Madeena Masjid, Mirpura, Ashta, Bahadarpura, Madhya Pradesh 466116",
        "detailed_address": {
            "ward": "Mirpura",
            "street": "2PG6+8G8",
            "city": "Ashta, Bahadarpura",
            "postal_code": "466116",
            "state": "Madhya Pradesh",
            "country_code": "IN"
        },
        "images": [
            {
                "about": "All",
                "link": "https://lh5.googleusercontent.com/p/AF1QipM7ulUYQcRlsUAKoOpo2BKWLINduNBUeg9dvVNn=w224-h298-k-no"
            },
            {
                "about": "Dome",
                "link": "https://lh5.googleusercontent.com/p/AF1QipMuha6PJ5JZmRpBoyEwoy8pKDLIMRzn0jiiSE1k=w224-h298-k-no"
            },
            {
                "about": "Street View & 360deg",
                "link": "https://streetviewpixels-pa.googleapis.com/v1/thumbnail?panoid=Dt1g9V3Y04OwijE895udxA&cb_client=maps_sv.tactile.gps&w=224&h=298&yaw=229.96144&pitch=0&thumbfov=100"
            }
        ],
        "link": "https://www.google.com/maps/place/Madeena+Masjid/data=!4m7!3m6!1s0x397cc4bf4d5feb7f:0xadc7990cb453b73d!8m2!3d23.0257891!4d76.7113172!16s%2Fg%2F11f4pmq5w3!19sChIJf-tfTb_EfDkRPbdTtAyZx60?authuser=0&hl=en&rclk=1",
        "coordinates": {
            "latitude": 23.025789099999997,
            "longitude": 76.7113172
        }
    },
    {
        "name": "Masjid Alipur",
        "main_category": "Mosque",
        "address": "2PG7+549 Masjid Alipur, Mirpura, Ashta, Madhya Pradesh 466116",
        "detailed_address": {
            "ward": "Mirpura",
            "street": "2PG7+549",
            "city": "Ashta",
            "postal_code": "466116",
            "state": "Madhya Pradesh",
            "country_code": "IN"
        },
        "images": [],
        "link": "https://www.google.com/maps/place/Masjid+Alipur/data=!4m7!3m6!1s0x397cc4b8d17b52af:0xa6fdb3dd30da6a0c!8m2!3d23.0254135!4d76.7128548!16s%2Fg%2F11f3xysvhp!19sChIJr1J70bjEfDkRDGraMN2z_aY?authuser=0&hl=en&rclk=1",
        "coordinates": {
            "latitude": 23.0254135,
            "longitude": 76.7128548
        }
    },
    {
        "name": "Badi Masjid",
        "main_category": "Mosque",
        "address": "Badi Masjid, badi masjid, Ashta, Bahadarpura, Madhya Pradesh 466116",
        "detailed_address": {
            "ward": null,
            "street": "badi masjid",
            "city": "Ashta, Bahadarpura",
            "postal_code": null,
            "state": "Madhya Pradesh",
            "country_code": "IN"
        },
        "images": [
            {
                "about": "All",
                "link": "https://lh5.googleusercontent.com/p/AF1QipMBc2FKyg9iXQHG03ROr13VXy8qUApPGx1bV7th=w224-h298-k-no"
            },
            {
                "about": "Street View & 360deg",
                "link": "https://streetviewpixels-pa.googleapis.com/v1/thumbnail?panoid=HmAzswGNzbvl43PQL-bGOw&cb_client=maps_sv.tactile.gps&w=224&h=298&yaw=155.20944&pitch=0&thumbfov=100"
            }
        ],
        "link": "https://www.google.com/maps/place/Badi+Masjid/data=!4m7!3m6!1s0x397cc4eb1ff5c1d5:0xb70021fc5a74efd0!8m2!3d23.0342987!4d76.7091144!16s%2Fg%2F11b7j_mx6_!19sChIJ1cH1H-vEfDkR0O90WvwhALc?authuser=0&hl=en&rclk=1",
        "coordinates": {
            "latitude": 23.034298699999997,
            "longitude": 76.70911439999999
        }
    },
    {
        "name": "Masjid Munshiji",
        "main_category": "Mosque",
        "address": "2P8C+GM7 Masjid Munshiji, Ashta, Madhya Pradesh 466116",
        "detailed_address": {
            "ward": null,
            "street": "2P8C+GM7",
            "city": "Ashta",
            "postal_code": "466116",
            "state": "Madhya Pradesh",
            "country_code": "IN"
        },
        "images": [
            {
                "about": "All",
                "link": "https://streetviewpixels-pa.googleapis.com/v1/thumbnail?panoid=fDLJVHk39HQz-RaCQtXQaA&cb_client=maps_sv.tactile.gps&w=224&h=298&yaw=250.7857&pitch=0&thumbfov=100"
            },
            {
                "about": "Street View & 360deg",
                "link": "https://streetviewpixels-pa.googleapis.com/v1/thumbnail?panoid=fDLJVHk39HQz-RaCQtXQaA&cb_client=maps_sv.tactile.gps&w=224&h=298&yaw=250.7857&pitch=0&thumbfov=100"
            }
        ],
        "link": "https://www.google.com/maps/place/Masjid+Munshiji/data=!4m7!3m6!1s0x397cc4b1e7547eed:0xe6953b8891808f0f!8m2!3d23.0162884!4d76.7216727!16s%2Fg%2F11hbr1jmlg!19sChIJ7X5U57HEfDkRD4-AkYg7leY?authuser=0&hl=en&rclk=1",
        "coordinates": {
            "latitude": 23.0162884,
            "longitude": 76.7216727
        }
    },
    {
        "name": "Mohammadi Masjid",
        "main_category": "Mosque",
        "address": "2PCC+5FQ Mohammadi Masjid, Sabji Mandi Road, Sai Colony, Ashta, Madhya Pradesh 466116",
        "detailed_address": {
            "ward": "Sai Colony",
            "street": "2PCC+5FQ, Sabji Mandi Road",
            "city": "Ashta",
            "postal_code": "466116",
            "state": "Madhya Pradesh",
            "country_code": "IN"
        },
        "images": [
            {
                "about": "All",
                "link": "https://lh5.googleusercontent.com/p/AF1QipNOvOsIL3xpNVdYtLd5bbz5vd3KkSEyvbH0Yxpf=w529-h298-k-no"
            },
            {
                "about": "Street View & 360deg",
                "link": "https://streetviewpixels-pa.googleapis.com/v1/thumbnail?panoid=TdrL_iGH62STjFQLoFOFHg&cb_client=maps_sv.tactile.gps&w=224&h=298&yaw=141.77715&pitch=0&thumbfov=100"
            }
        ],
        "link": "https://www.google.com/maps/place/Mohammadi+Masjid/data=!4m7!3m6!1s0x397cc4b0084219df:0xda081c41211f9ca2!8m2!3d23.0204689!4d76.7212261!16s%2Fg%2F11c57yf2c2!19sChIJ3xlCCLDEfDkRopwfIUEcCNo?authuser=0&hl=en&rclk=1",
        "coordinates": {
            "latitude": 23.020468899999997,
            "longitude": 76.7212261
        }
    },
    {
        "name": "Bilal Masjid",
        "main_category": "Mosque",
        "address": "2P88+X29 Bilal Masjid, Ashta, Madhya Pradesh 466116",
        "detailed_address": {
            "ward": null,
            "street": "2P88+X29",
            "city": "Ashta",
            "postal_code": "466116",
            "state": "Madhya Pradesh",
            "country_code": "IN"
        },
        "images": [],
        "link": "https://www.google.com/maps/place/Bilal+Masjid/data=!4m7!3m6!1s0x397cc4b7204cbc39:0xf505407bda364fa4!8m2!3d23.0174052!4d76.715114!16s%2Fg%2F11d_7t94pd!19sChIJObxMILfEfDkRpE822ntABfU?authuser=0&hl=en&rclk=1",
        "coordinates": {
            "latitude": 23.0174052,
            "longitude": 76.715114
        }
    },
    {
        "name": "thaane vaalii msjid",
        "main_category": "Mosque",
        "address": "2P9C+X5Q thaane vaalii msjid, Ashta, Madhya Pradesh 466116",
        "detailed_address": {
            "ward": null,
            "street": "2P9C+X5Q",
            "city": "Ashta",
            "postal_code": "466116",
            "state": "Madhya Pradesh",
            "country_code": "IN"
        },
        "images": [
            {
                "about": "All",
                "link": "https://lh5.googleusercontent.com/p/AF1QipPWHH6ZWmvKqnQlxeE8F7HAvOrrYfuXUExIEFL8=w224-h495-k-no"
            }
        ],
        "link": "https://www.google.com/maps/place/%E0%A4%A5%E0%A4%BE%E0%A4%A8%E0%A5%87+%E0%A4%B5%E0%A4%BE%E0%A4%B2%E0%A5%80+%E0%A4%AE%E0%A4%B8%E0%A5%8D%E0%A4%9C%E0%A4%BF%E0%A4%A6/data=!4m7!3m6!1s0x397cc4b0725f39a3:0xbc524a200cc709c3!8m2!3d23.0199667!4d76.7204781!16s%2Fg%2F11g02f16ny!19sChIJozlfcrDEfDkRwwnHDCBKUrw?authuser=0&hl=en&rclk=1",
        "coordinates": {
            "latitude": 23.019966699999998,
            "longitude": 76.7204781
        }
    },
    {
        "name": "Noorani Masjid",
        "main_category": "Mosque",
        "address": "2PFG+594 Noorani Masjid, MP SH 41, Sai Colony, Ashta, Madhya Pradesh 466116",
        "detailed_address": {
            "ward": "Sai Colony",
            "street": "2PFG+594, MP SH 41",
            "city": "Ashta",
            "postal_code": "466116",
            "state": "Madhya Pradesh",
            "country_code": "IN"
        },
        "images": [
            {
                "about": "All",
                "link": "https://lh5.googleusercontent.com/p/AF1QipNasYjNrWxj3atiquFdFFwdPkP8yLPFjV98EOv7=w465-h298-k-no"
            },
            {
                "about": "Dome",
                "link": "https://lh5.googleusercontent.com/p/AF1QipOTF2A4cBOv4Z2e3MRB56K--K_pYwZC-9d8o-cc=w224-h448-k-no"
            },
            {
                "about": "Videos",
                "link": "https://lh5.googleusercontent.com/p/AF1QipNX1Cz19fLzgnAtAGwGNvwc4OAHq46n5w4nNG_s=w224-h398-k-no"
            },
            {
                "about": "Street View & 360deg",
                "link": "https://streetviewpixels-pa.googleapis.com/v1/thumbnail?panoid=oA3gH1SAfpKupdPPOiJtaQ&cb_client=maps_sv.tactile.gps&w=224&h=298&yaw=149.87306&pitch=0&thumbfov=100"
            }
        ],
        "link": "https://www.google.com/maps/place/Noorani+Masjid/data=!4m7!3m6!1s0x397cc4a5bc763eab:0xb606fb35a42fab30!8m2!3d23.022882!4d76.725953!16s%2Fg%2F11dxjy99n5!19sChIJqz52vKXEfDkRMKsvpDX7BrY?authuser=0&hl=en&rclk=1",
        "coordinates": {
            "latitude": 23.022882,
            "longitude": 76.72595299999999
        }
    },
    {
        "name": "Bahar Wali Masjid Ashta",
        "main_category": "Mosque",
        "address": "2P7C+CFM Bahar Wali Masjid Ashta, Adalat Rd, Ashta, Madhya Pradesh 466116",
        "detailed_address": {
            "ward": null,
            "street": "2P7C+CFM, Adalat Rd",
            "city": "Ashta",
            "postal_code": "466116",
            "state": "Madhya Pradesh",
            "country_code": "IN"
        },
        "images": [
            {
                "about": "All",
                "link": "https://lh5.googleusercontent.com/p/AF1QipP4ZdroSJoYAfSG7H1CGaZTPVEYdJqTLg5JIyfX=w224-h398-k-no"
            },
            {
                "about": "Dome",
                "link": "https://lh5.googleusercontent.com/p/AF1QipP4ZdroSJoYAfSG7H1CGaZTPVEYdJqTLg5JIyfX=w224-h398-k-no"
            },
            {
                "about": "Videos",
                "link": "https://lh5.googleusercontent.com/p/AF1QipP4ZdroSJoYAfSG7H1CGaZTPVEYdJqTLg5JIyfX=w224-h398-k-no"
            },
            {
                "about": "Street View & 360deg",
                "link": "https://streetviewpixels-pa.googleapis.com/v1/thumbnail?panoid=GVHacLRNbm_BpQ3gbZrmqQ&cb_client=maps_sv.tactile.gps&w=224&h=298&yaw=236.92812&pitch=0&thumbfov=100"
            }
        ],
        "link": "https://www.google.com/maps/place/Bahar+Wali+Masjid+Ashta/data=!4m7!3m6!1s0x397cc4b213b0ce13:0xf8182022816ac238!8m2!3d23.0135917!4d76.7211694!16s%2Fg%2F11fzf7kpnl!19sChIJE86wE7LEfDkROMJqgSIgGPg?authuser=0&hl=en&rclk=1",
        "coordinates": {
            "latitude": 23.0135917,
            "longitude": 76.7211694
        }
    },
    {
        "name": "Takiye Wali Masjid",
        "main_category": "Mosque",
        "address": "2PC8+6V4 Takiye Wali Masjid, Qila Rd, Ashta, Madhya Pradesh 466116",
        "detailed_address": {
            "ward": null,
            "street": "2PC8+6V4, Qila Rd",
            "city": "Ashta",
            "postal_code": "466116",
            "state": "Madhya Pradesh",
            "country_code": "IN"
        },
        "images": [
            {
                "about": "All",
                "link": "https://lh5.googleusercontent.com/p/AF1QipMX9m1THayA68j0aKMf0jsUXG3tHGdlxWsDXD-Y=w529-h298-k-no"
            },
            {
                "about": "Street View & 360deg",
                "link": "https://streetviewpixels-pa.googleapis.com/v1/thumbnail?panoid=ToqQ6RaT3OYhhEtybF3pqw&cb_client=maps_sv.tactile.gps&w=224&h=298&yaw=305.1982&pitch=0&thumbfov=100"
            }
        ],
        "link": "https://www.google.com/maps/place/Takiye+Wali+Masjid/data=!4m7!3m6!1s0x397cc4ba08c0f873:0x15332b06f5a2f5b4!8m2!3d23.0205058!4d76.7171896!16s%2Fg%2F11dxkjbt8m!19sChIJc_jACLrEfDkRtPWi9QYrMxU?authuser=0&hl=en&rclk=1",
        "coordinates": {
            "latitude": 23.0205058,
            "longitude": 76.7171896
        }
    },
    {
        "name": "Masjid Kajipura msjd",
        "main_category": "Mosque",
        "address": "2P9C+43X Masjid Kajipura msjd, Sai Colony, Ashta, Madhya Pradesh 466116",
        "detailed_address": {
            "ward": "Sai Colony",
            "street": "2P9C+43X",
            "city": "Ashta",
            "postal_code": "466116",
            "state": "Madhya Pradesh",
            "country_code": "IN"
        },
        "images": [
            {
                "about": "All",
                "link": "https://lh5.googleusercontent.com/p/AF1QipNwkFzCr8_M2IS5WrdE9a8sRPw6kt8qj5jJh92r=w224-h298-k-no"
            },
            {
                "about": "Dome",
                "link": "https://lh5.googleusercontent.com/p/AF1QipPqpTiXsh-agbRVNb06-Dr25iVWuqaLehRdYCbb=w397-h298-k-no"
            }
        ],
        "link": "https://www.google.com/maps/place/Masjid+Kajipura+%D9%85%D8%B3%D8%AC%D8%AF%E2%80%AD/data=!4m7!3m6!1s0x397cc4b03132f0bb:0x7a25c7e9a934bf79!8m2!3d23.0178663!4d76.7202227!16s%2Fg%2F11gdsgc_lm!19sChIJu_AyMbDEfDkReb80qenHJXo?authuser=0&hl=en&rclk=1",
        "coordinates": {
            "latitude": 23.017866299999998,
            "longitude": 76.7202227
        }
    },
    {
        "name": "msjid al alii, ber vaalaa tkiyaa",
        "main_category": "Mosque",
        "address": "2P88+RWV msjid al alii, ber vaalaa tkiyaa, Ashta, Madhya Pradesh 466116",
        "detailed_address": {
            "ward": null,
            "street": "2P88+RWV",
            "city": "Ashta",
            "postal_code": "466116",
            "state": "Madhya Pradesh",
            "country_code": "IN"
        },
        "images": [
            {
                "about": "All",
                "link": "https://lh5.googleusercontent.com/p/AF1QipPqa5vXjZm6_yyaH0uIkgcvqiAEa2FksAC7WnRg=w224-h298-k-no"
            },
            {
                "about": "Street View & 360deg",
                "link": "https://streetviewpixels-pa.googleapis.com/v1/thumbnail?panoid=w-h-2_ZoTnnt8OakODZ5QA&cb_client=maps_sv.tactile.gps&w=224&h=298&yaw=181.71446&pitch=0&thumbfov=100"
            },
            {
                "about": "Videos",
                "link": "https://lh5.googleusercontent.com/p/AF1QipO2mdnC_IYRmxZOc_WuM-fHnSncbCGGGmyWn7_v=w529-h298-k-no"
            }
        ],
        "link": "https://www.google.com/maps/place/%E0%A4%AE%E0%A4%B8%E0%A5%8D%E0%A4%9C%E0%A4%BF%E0%A4%A6+%E0%A4%85%E0%A4%B2+%E0%A4%85%E0%A4%B2%E0%A5%80,+%E0%A4%AC%E0%A5%87%E0%A4%B0+%E0%A4%B5%E0%A4%BE%E0%A4%B2%E0%A4%BE+%E0%A4%A4%E0%A4%95%E0%A4%BF%E0%A4%AF%E0%A4%BE/data=!4m7!3m6!1s0x397cc52cd84441ed:0xf0ac9898d240e476!8m2!3d23.0171215!4d76.7172959!16s%2Fg%2F11p4xpl3r6!19sChIJ7UFE2CzFfDkRduRA0piYrPA?authuser=0&hl=en&rclk=1",
        "coordinates": {
            "latitude": 23.0171215,
            "longitude": 76.7172959
        }
    },
    {
        "name": "Masjid Qureshiyan",
        "main_category": "Mosque",
        "address": "2P9C+65H Masjid Qureshiyan, Ashta, Madhya Pradesh 466116",
        "detailed_address": {
            "ward": null,
            "street": "2P9C+65H",
            "city": "Ashta",
            "postal_code": "466116",
            "state": "Madhya Pradesh",
            "country_code": "IN"
        },
        "images": [],
        "link": "https://www.google.com/maps/place/Masjid+Qureshiyan/data=!4m7!3m6!1s0x397cc4b0497239e9:0x995c9dd7f94340ce!8m2!3d23.0180733!4d76.7204985!16s%2Fg%2F11gdsg_p4z!19sChIJ6TlySbDEfDkRzkBD-dedXJk?authuser=0&hl=en&rclk=1",
        "coordinates": {
            "latitude": 23.018073299999998,
            "longitude": 76.72049849999999
        }
    },
    {
        "name": "Masjid Jhalapir Qila",
        "main_category": "Mosque",
        "address": "2P99+CG3 Masjid Jhalapir Qila, Ashta, Madhya Pradesh 466116",
        "detailed_address": {
            "ward": null,
            "street": "2P99+CG3",
            "city": "Ashta",
            "postal_code": "466116",
            "state": "Madhya Pradesh",
            "country_code": "IN"
        },
        "images": [],
        "link": "https://www.google.com/maps/place/Masjid+Jhalapir+Qila/data=!4m7!3m6!1s0x397cc4b0f14a1797:0x2aa3a1a47a2c5510!8m2!3d23.0185008!4d76.7187871!16s%2Fg%2F11f3nmkdr5!19sChIJlxdK8bDEfDkREFUseqShoyo?authuser=0&hl=en&rclk=1",
        "coordinates": {
            "latitude": 23.018500799999998,
            "longitude": 76.7187871
        }
    },
    {
        "name": "Masjid Zaheda Bee msjid j'aahedaa bii",
        "main_category": "Mosque",
        "address": "2P76+6M9 Masjid Zaheda Bee msjid j'aahedaa bii, Rajpura Road, Islampura, Ashta, Madhya Pradesh 466116",
        "detailed_address": {
            "ward": "Islampura",
            "street": "2P76+6M9, Rajpura Road",
            "city": "Ashta",
            "postal_code": "466116",
            "state": "Madhya Pradesh",
            "country_code": "IN"
        },
        "images": [
            {
                "about": "All",
                "link": "https://lh5.googleusercontent.com/p/AF1QipNzMC63FwMKRC88yo2ZCWcdnz53JLEbEKnUvzJL=w397-h298-k-no"
            },
            {
                "about": "Street View & 360deg",
                "link": "https://streetviewpixels-pa.googleapis.com/v1/thumbnail?panoid=oDWh4B3ZiUXDm-Jd3cS5vw&cb_client=maps_sv.tactile.gps&w=224&h=298&yaw=126.837036&pitch=0&thumbfov=100"
            }
        ],
        "link": "https://www.google.com/maps/place/Masjid+Zaheda+Bee+%E0%A4%AE%E0%A4%B8%E0%A5%8D%E0%A4%9C%E0%A4%BF%E0%A4%A6+%E0%A4%9C%E0%A4%BC%E0%A4%BE%E0%A4%B9%E0%A5%87%E0%A4%A6%E0%A4%BE+%E0%A4%AC%E0%A5%80/data=!4m7!3m6!1s0x397cc5aecb65e72f:0xf7bf1d9dc4bb3b67!8m2!3d23.0130464!4d76.7117481!16s%2Fg%2F11kwj7bxnk!19sChIJL-dly67FfDkRZzu7xJ0dv_c?authuser=0&hl=en&rclk=1",
        "coordinates": {
            "latitude": 23.0130464,
            "longitude": 76.7117481
        }
    },
    {
        "name": "Moti Masjid Ashta Alipur",
        "main_category": "Mosque",
        "address": "2PGG+F58 Moti Masjid Ashta Alipur, Unnamed Road, Ali Ganj, Ashta, Madhya Pradesh 466116",
        "detailed_address": {
            "ward": "Ali Ganj",
            "street": "2PGG+F58, Unnamed Road",
            "city": "Ashta",
            "postal_code": "466116",
            "state": "Madhya Pradesh",
            "country_code": "IN"
        },
        "images": [
            {
                "about": "All",
                "link": "https://lh5.googleusercontent.com/p/AF1QipM2Vix9B5lmC7EOb6fYK_HEzGlk81qArrY74yb9=w529-h298-k-no"
            },
            {
                "about": "Street View & 360deg",
                "link": "https://streetviewpixels-pa.googleapis.com/v1/thumbnail?panoid=LWYc6EqpTquoQe-qMiJ9hg&cb_client=maps_sv.tactile.gps&w=224&h=298&yaw=303.8147&pitch=0&thumbfov=100"
            }
        ],
        "link": "https://www.google.com/maps/place/Moti+Masjid+Ashta+Alipur/data=!4m7!3m6!1s0x397cc54be4459d33:0x2ccb5dd17846fa13!8m2!3d23.0261533!4d76.7254388!16s%2Fg%2F11fk3wn0sw!19sChIJM51F5EvFfDkRE_pGeNFdyyw?authuser=0&hl=en&rclk=1",
        "coordinates": {
            "latitude": 23.0261533,
            "longitude": 76.72543879999999
        }
    },
    {
        "name": "Masjid Ansar",
        "main_category": "Mosque",
        "address": "2P98+978 Masjid Ansar, Ashta, Madhya Pradesh 466116",
        "detailed_address": {
            "ward": null,
            "street": "2P98+978",
            "city": "Ashta",
            "postal_code": "466116",
            "state": "Madhya Pradesh",
            "country_code": "IN"
        },
        "images": [],
        "link": "https://www.google.com/maps/place/Masjid+Ansar/data=!4m7!3m6!1s0x397cc4b730c95a9d:0x7ea4c0967a2652ab!8m2!3d23.0184042!4d76.7157127!16s%2Fg%2F11gg9ks4_3!19sChIJnVrJMLfEfDkRq1ImepbApH4?authuser=0&hl=en&rclk=1",
        "coordinates": {
            "latitude": 23.0184042,
            "longitude": 76.7157127
        }
    },
    {
        "name": "Madeena Masjid (Tekri Wali)",
        "main_category": "Mosque",
        "address": "2P79+XX5 Madeena Masjid (Tekri Wali), Ashta, Madhya Pradesh 466116",
        "detailed_address": {
            "ward": null,
            "street": "2P79+XX5",
            "city": "Ashta",
            "postal_code": "466116",
            "state": "Madhya Pradesh",
            "country_code": "IN"
        },
        "images": [
            {
                "about": "All",
                "link": "https://lh5.googleusercontent.com/p/AF1QipOrqhA4CPYZhe_3qManPDdRs_cRz9QKMixw0L9-=w554-h298-k-no"
            }
        ],
        "link": "https://www.google.com/maps/place/Madeena+Masjid+%28Tekri+Wali%29/data=!4m7!3m6!1s0x397cc4b188865841:0x568ca368295850d8!8m2!3d23.0148989!4d76.7199778!16s%2Fg%2F11cphpd6m3!19sChIJQViGiLHEfDkR2FBYKWijjFY?authuser=0&hl=en&rclk=1",
        "coordinates": {
            "latitude": 23.0148989,
            "longitude": 76.7199778
        }
    },
    {
        "name": "Aaysha Masjid",
        "main_category": "Mosque",
        "address": "2P98+H63 Aaysha Masjid, Ashta, Madhya Pradesh 466116",
        "detailed_address": {
            "ward": null,
            "street": "2P98+H63",
            "city": "Ashta",
            "postal_code": "466116",
            "state": "Madhya Pradesh",
            "country_code": "IN"
        },
        "images": [],
        "link": "https://www.google.com/maps/place/Aaysha+Masjid/data=!4m7!3m6!1s0x397cc51a0e9bfe01:0xb1ddd955b1bbc16d!8m2!3d23.0188896!4d76.7155545!16s%2Fg%2F11gydm3qd4!19sChIJAf6bDhrFfDkRbcG7sVXZ3bE?authuser=0&hl=en&rclk=1",
        "coordinates": {
            "latitude": 23.018889599999998,
            "longitude": 76.7155545
        }
    },
    {
        "name": "Jama masjid ,Ashta",
        "main_category": "Mosque",
        "address": "VXGP+RHH Jama masjid ,Ashta, Ashta, Maharashtra 431721",
        "detailed_address": {
            "ward": null,
            "street": "VXGP+RHH",
            "city": "Ashta",
            "postal_code": "431721",
            "state": "Maharashtra",
            "country_code": "IN"
        },
        "images": [],
        "link": "https://www.google.com/maps/place/Jama+masjid+,Ashta/data=!4m7!3m6!1s0x3bd22be74a18735f:0xe0d19d9e3467062f!8m2!3d19.8770528!4d77.9864874!16s%2Fg%2F11j91q5sct!19sChIJX3MYSucr0jsRLwZnNJ6d0eA?authuser=0&hl=en&rclk=1",
        "coordinates": {
            "latitude": 19.877052799999998,
            "longitude": 77.9864874
        }
    },
    {
        "name": "Dawoodi Bohra Masjid Ashta",
        "main_category": "Corporate office",
        "address": "2P9C+8P2 Dawoodi Bohra Masjid Ashta, Sai Colony, Ashta, Madhya Pradesh 466116",
        "detailed_address": {
            "ward": "Sai Colony",
            "street": "2P9C+8P2",
            "city": "Ashta",
            "postal_code": "466116",
            "state": "Madhya Pradesh",
            "country_code": "IN"
        },
        "images": [
            {
                "about": "All",
                "link": "https://streetviewpixels-pa.googleapis.com/v1/thumbnail?panoid=ezcREbsS_GQ58AV0tom3dw&cb_client=maps_sv.tactile.gps&w=224&h=298&yaw=332.75433&pitch=0&thumbfov=100"
            },
            {
                "about": "Building",
                "link": "https://lh5.googleusercontent.com/p/AF1QipOAud_UsBY9NjbTqKlMucn_JLhnnoglFfaYKtMZ=w529-h298-k-no"
            },
            {
                "about": "Street View & 360deg",
                "link": "https://streetviewpixels-pa.googleapis.com/v1/thumbnail?panoid=ezcREbsS_GQ58AV0tom3dw&cb_client=maps_sv.tactile.gps&w=224&h=298&yaw=332.75433&pitch=0&thumbfov=100"
            }
        ],
        "link": "https://www.google.com/maps/place/Dawoodi+Bohra+Masjid+Ashta/data=!4m7!3m6!1s0x397cc5ee014910f7:0x718514bbb41aa92d!8m2!3d23.0182708!4d76.7217588!16s%2Fg%2F11fq_dmscq!19sChIJ9xBJAe7FfDkRLakatLsUhXE?authuser=0&hl=en&rclk=1",
        "coordinates": {
            "latitude": 23.0182708,
            "longitude": 76.7217588
        }
    },
    {
        "name": "Alamgiri Masjid",
        "main_category": "Mosque",
        "address": "2PG9+X78 Alamgiri Masjid, Ali Ganj, Alipur, Ashta, Madhya Pradesh 466116",
        "detailed_address": {
            "ward": "Ali Ganj, Alipur",
            "street": "2PG9+X78",
            "city": "Ashta",
            "postal_code": "466116",
            "state": "Madhya Pradesh",
            "country_code": "IN"
        },
        "images": [],
        "link": "https://www.google.com/maps/place/Alamgiri+Masjid/data=!4m7!3m6!1s0x397cc5a316115c89:0x9181c9494aafae0f!8m2!3d23.0274133!4d76.7181999!16s%2Fg%2F11rtd8jcb9!19sChIJiVwRFqPFfDkRD66vSknJgZE?authuser=0&hl=en&rclk=1",
        "coordinates": {
            "latitude": 23.0274133,
            "longitude": 76.7181999
        }
    },
    {
        "name": "Masjid Islampura",
        "main_category": "Mosque",
        "address": "RPXX+529 Masjid Islampura, Islampura , Manipura Ashta - Kannod Road, Khacharod, Ashta, Madhya Pradesh",
        "detailed_address": {
            "ward": null,
            "street": "RPXX+529, Islampura , Manipura Ashta - Kannod Road, Khacharod",
            "city": "Ashta, Nomaniya",
            "postal_code": null,
            "state": "Madhya Pradesh",
            "country_code": "IN"
        },
        "images": [],
        "link": "https://www.google.com/maps/place/Masjid+Islampura/data=!4m7!3m6!1s0x397cdf8d5d3849c1:0x6517b5bded19b1f5!8m2!3d22.8479167!4d76.7476032!16s%2Fg%2F11rt_nl993!19sChIJwUk4XY3ffDkR9bEZ7b21F2U?authuser=0&hl=en&rclk=1",
        "coordinates": {
            "latitude": 22.8479167,
            "longitude": 76.7476032
        }
    }
]