[
    {
        "name": "Gulzaar Masjid",
        "main_category": "Mosque",
        "address": "MGCR+66Q Gulzaar Masjid, Bokkalguda St, Brahmanwadi, Adilabad, Telangana 504001",
        "detailed_address": {
            "ward": "Brahmanwadi",
            "street": "MGCR+66Q, Bokkalguda St",
            "city": "Adilabad",
            "postal_code": "504001",
            "state": "Telangana",
            "country_code": "IN"
        },
        "images": [
            {
                "about": "All",
                "link": "https://lh5.googleusercontent.com/p/AF1QipPmV3_7b_4d4-yd3TDYdhSwh-dkAtQLbh-hwyA=w397-h298-k-no"
            },
            {
                "about": "Street View & 360deg",
                "link": "https://streetviewpixels-pa.googleapis.com/v1/thumbnail?panoid=Hjurfo0YTHMAMkuvVanxqg&cb_client=maps_sv.tactile.gps&w=224&h=298&yaw=359.00403&pitch=0&thumbfov=100"
            }
        ],
        "link": "https://www.google.com/maps/place/Gulzaar+Masjid/data=!4m7!3m6!1s0x3bd25c7477d00337:0x3dc61fe7489f62b1!8m2!3d19.6704596!4d78.5395986!16s%2Fg%2F1tcz6sjz!19sChIJNwPQd3Rc0jsRsWKfSOcfxj0?authuser=0&hl=en&rclk=1",
        "coordinates": {
            "latitude": 19.670459599999997,
            "longitude": 78.53959859999999
        }
    },
    {
        "name": "Jama Masjid",
        "main_category": "Mosque",
        "address": "9WF4+RQQ Jama Masjid, Jainoor, Telangana 504313",
        "detailed_address": {
            "ward": null,
            "street": "9WF4+RQQ",
            "city": "Jainoor",
            "postal_code": "504313",
            "state": "Telangana",
            "country_code": "IN"
        },
        "images": [],
        "link": "https://www.google.com/maps/place/Jama+Masjid/data=!4m7!3m6!1s0x3bd29a35900ac135:0x7391ef599ce08a2c!8m2!3d19.3745916!4d78.9069837!16s%2Fg%2F11f34m3m7b!19sChIJNcEKkDWa0jsRLIrgnFnvkXM?authuser=0&hl=en&rclk=1",
        "coordinates": {
            "latitude": 19.3745916,
            "longitude": 78.9069837
        }
    },
    {
        "name": "Masjid E Firdous",
        "main_category": "Mosque",
        "address": "Masjid E Firdous, Utukur, Lakshettipet, Telangana 504215",
        "detailed_address": {
            "ward": null,
            "street": null,
            "city": "Utukur, Lakshettipet",
            "postal_code": null,
            "state": "Telangana",
            "country_code": "IN"
        },
        "images": [
            {
                "about": "All",
                "link": "https://lh5.googleusercontent.com/p/AF1QipPT7IB1G4WIzjOlIfmFRzj27CESxvsoRgL5D3tp=w224-h298-k-no"
            },
            {
                "about": "Street View & 360deg",
                "link": "https://streetviewpixels-pa.googleapis.com/v1/thumbnail?panoid=GhmZhEdq-mUDp4XUM-1JPQ&cb_client=maps_sv.tactile.gps&w=224&h=298&yaw=44.815517&pitch=0&thumbfov=100"
            }
        ],
        "link": "https://www.google.com/maps/place/Masjid+E+Firdous/data=!4m7!3m6!1s0x3bcd480ee90e2c3f:0xfcd8f71cabc7c5c8!8m2!3d18.8884431!4d79.2072006!16s%2Fg%2F1td5721r!19sChIJPywO6Q5IzTsRyMXHqxz32Pw?authuser=0&hl=en&rclk=1",
        "coordinates": {
            "latitude": 18.8884431,
            "longitude": 79.2072006
        }
    },
    {
        "name": "Madeena Masjid",
        "main_category": "Mosque",
        "address": "V6P3+8XJ Madeena Masjid, Unnamed Road, Lakshettipet, Utukur, Telangana 504215",
        "detailed_address": {
            "ward": null,
            "street": "V6P3+8XJ, Unnamed Road",
            "city": "Lakshettipet, Utukur",
            "postal_code": "504215",
            "state": "Telangana",
            "country_code": "IN"
        },
        "images": [
            {
                "about": "All",
                "link": "https://streetviewpixels-pa.googleapis.com/v1/thumbnail?panoid=gGh0N2l0YFnyBs5z-_-ZjA&cb_client=maps_sv.tactile.gps&w=224&h=298&yaw=249.1473&pitch=0&thumbfov=100"
            },
            {
                "about": "Street View & 360deg",
                "link": "https://streetviewpixels-pa.googleapis.com/v1/thumbnail?panoid=gGh0N2l0YFnyBs5z-_-ZjA&cb_client=maps_sv.tactile.gps&w=224&h=298&yaw=249.1473&pitch=0&thumbfov=100"
            }
        ],
        "link": "https://www.google.com/maps/place/Madeena+Masjid/data=!4m7!3m6!1s0x3bcd4808b8069611:0xa08757891f8dc24f!8m2!3d18.8858394!4d79.2049032!16s%2Fg%2F11h9rd_j48!19sChIJEZYGuAhIzTsRT8KNH4lXh6A?authuser=0&hl=en&rclk=1",
        "coordinates": {
            "latitude": 18.8858394,
            "longitude": 79.20490319999999
        }
    },
    {
        "name": "Jaame Masjid",
        "main_category": "Mosque",
        "address": "22MM+M88 Jaame Masjid, Donthapur, Telangana 505425",
        "detailed_address": {
            "ward": null,
            "street": "22MM+M88",
            "city": "Donthapur",
            "postal_code": "505425",
            "state": "Telangana",
            "country_code": "IN"
        },
        "images": [
            {
                "about": "All",
                "link": "https://lh5.googleusercontent.com/p/AF1QipPlh61d4ddzDhvV8NoyE2-UZZuKbZJ7sKpLtiT0=w397-h298-k-no"
            },
            {
                "about": "Videos",
                "link": "https://lh5.googleusercontent.com/p/AF1QipOedv9M5RspWPfx3CvZPOysQf7X9V7Ry-kbj3SR=w529-h298-k-no"
            }
        ],
        "link": "https://www.google.com/maps/place/Jaame+Masjid/data=!4m7!3m6!1s0x3bcd42bb0af194e7:0x637d967f2a20d1f7!8m2!3d19.0341733!4d79.0333137!16s%2Fg%2F11bx1hgl96!19sChIJ55TxCrtCzTsR99EgKn-WfWM?authuser=0&hl=en&rclk=1",
        "coordinates": {
            "latitude": 19.0341733,
            "longitude": 79.0333137
        }
    },
    {
        "name": "Jama Masjid",
        "main_category": "Mosque",
        "address": "4XCX+W6R Jama Masjid, Jannaram, Telangana 504205",
        "detailed_address": {
            "ward": null,
            "street": "4XCX+W6R",
            "city": "Jannaram",
            "postal_code": "504205",
            "state": "Telangana",
            "country_code": "IN"
        },
        "images": [
            {
                "about": "All",
                "link": "https://lh5.googleusercontent.com/p/AF1QipOLEOYVV60s5Qieo-Pl7Q1nzW9P6YiLst4UdojE=w662-h298-k-no"
            },
            {
                "about": "Videos",
                "link": "https://lh5.googleusercontent.com/p/AF1QipNGT76G3tD1jGH7BzfV5dbzQAKhvh1Sr8OkCwRh=w224-h396-k-no"
            }
        ],
        "link": "https://www.google.com/maps/place/Jama+Masjid/data=!4m7!3m6!1s0x3bcd67409343a49f:0xacb4e0cdbc72e535!8m2!3d19.1223711!4d78.9980289!16s%2Fg%2F11bwkyz4lp!19sChIJn6RDk0BnzTsRNeVyvM3gtKw?authuser=0&hl=en&rclk=1",
        "coordinates": {
            "latitude": 19.1223711,
            "longitude": 78.9980289
        }
    },
    {
        "name": "Masjid E Aqsa",
        "main_category": "Mosque",
        "address": "V6M3+CQ7 Masjid E Aqsa, Godavari Rd, Luxettipet, Utukur, Telangana 504215",
        "detailed_address": {
            "ward": null,
            "street": "V6M3+CQ7, Godavari Rd",
            "city": "Luxettipet, Utukur",
            "postal_code": "504215",
            "state": "Telangana",
            "country_code": "IN"
        },
        "images": [
            {
                "about": "All",
                "link": "https://lh5.googleusercontent.com/p/AF1QipMpfKxE7fdWagd-rx-cz2etK0QLWDalWa5hG7HX=w298-h298-k-no"
            },
            {
                "about": "Dome",
                "link": "https://lh5.googleusercontent.com/p/AF1QipMpfKxE7fdWagd-rx-cz2etK0QLWDalWa5hG7HX=w298-h298-k-no"
            },
            {
                "about": "Street View & 360deg",
                "link": "https://streetviewpixels-pa.googleapis.com/v1/thumbnail?panoid=mCVqNBmWwbjZwz8u3lS4DQ&cb_client=maps_sv.tactile.gps&w=224&h=298&yaw=274.5184&pitch=0&thumbfov=100"
            }
        ],
        "link": "https://www.google.com/maps/place/Masjid+E+Aqsa/data=!4m7!3m6!1s0x3bcd4806170503ff:0x41898622cf17800e!8m2!3d18.8835328!4d79.204429!16s%2Fg%2F11dx9f8k5s!19sChIJ_wMFFwZIzTsRDoAXzyKGiUE?authuser=0&hl=en&rclk=1",
        "coordinates": {
            "latitude": 18.883532799999998,
            "longitude": 79.20442899999999
        }
    },
    {
        "name": "Masjid e Bilala",
        "main_category": "Mosque",
        "address": "Masjid e Bilala, Adilabad-Asifabad Rd, Jainoor, Telangana 504313",
        "detailed_address": {
            "ward": null,
            "street": "Adilabad-Asifabad Rd",
            "city": "Jainoor",
            "postal_code": "504313",
            "state": "Telangana",
            "country_code": "IN"
        },
        "images": [
            {
                "about": "All",
                "link": "https://lh5.googleusercontent.com/p/AF1QipPrT3QJ9RL-Bce0k5QY-aYY3DzEabo_HLhH0fys=w397-h298-k-no"
            },
            {
                "about": "By owner",
                "link": "https://lh5.googleusercontent.com/p/AF1QipN1YKm-SB7UnN3dLhzYBVnoGdFwOK4HsVBJ1o1d=w397-h298-k-no"
            },
            {
                "about": "Street View & 360deg",
                "link": "https://streetviewpixels-pa.googleapis.com/v1/thumbnail?panoid=oXi_1U0A8V0tvjzlrjwiCw&cb_client=maps_sv.tactile.gps&w=224&h=298&yaw=10.859192&pitch=0&thumbfov=100"
            }
        ],
        "link": "https://www.google.com/maps/place/Masjid+e+Bilala/data=!4m7!3m6!1s0x3bd29bb7204a9e0f:0x706dab2553f72b79!8m2!3d19.3750134!4d78.9120455!16s%2Fg%2F11f6qq3rwz!19sChIJD55KILeb0jsReSv3UyWrbXA?authuser=0&hl=en&rclk=1",
        "coordinates": {
            "latitude": 19.3750134,
            "longitude": 78.91204549999999
        }
    },
    {
        "name": "Mosque",
        "main_category": "Mosque",
        "address": "X52G+R6F Mosque, Mutyampet, Telangana 504206",
        "detailed_address": {
            "ward": null,
            "street": "X52G+R6F",
            "city": "Mutyampet",
            "postal_code": "504206",
            "state": "Telangana",
            "country_code": "IN"
        },
        "images": [
            {
                "about": "All",
                "link": "https://streetviewpixels-pa.googleapis.com/v1/thumbnail?panoid=NrS9hW4bjoOZvKKwRjEHuQ&cb_client=maps_sv.tactile.gps&w=224&h=298&yaw=68.89017&pitch=0&thumbfov=100"
            },
            {
                "about": "Street View & 360deg",
                "link": "https://streetviewpixels-pa.googleapis.com/v1/thumbnail?panoid=NrS9hW4bjoOZvKKwRjEHuQ&cb_client=maps_sv.tactile.gps&w=224&h=298&yaw=68.89017&pitch=0&thumbfov=100"
            }
        ],
        "link": "https://www.google.com/maps/place/Mosque/data=!4m7!3m6!1s0x3bcd466d6eedd661:0x2921ef9d1613e136!8m2!3d18.9520508!4d79.1755405!16s%2Fg%2F11ddxvk81c!19sChIJYdbtbm1GzTsRNuETFp3vISk?authuser=0&hl=en&rclk=1",
        "coordinates": {
            "latitude": 18.9520508,
            "longitude": 79.1755405
        }
    },
    {
        "name": "EidGah Donthapur",
        "main_category": "Mosque",
        "address": "22HH+393 EidGah Donthapur, Telangana 505454",
        "detailed_address": {
            "ward": null,
            "street": "22HH+393",
            "city": null,
            "postal_code": "505454",
            "state": "Telangana",
            "country_code": "IN"
        },
        "images": [
            {
                "about": "All",
                "link": "https://lh5.googleusercontent.com/p/AF1QipNpCW5H_ym62XsJzXny2dEnB3-Q0kYm8OjLaXQx=w397-h298-k-no"
            }
        ],
        "link": "https://www.google.com/maps/place/EidGah+Donthapur/data=!4m7!3m6!1s0x3bcd42a2d1c7d42b:0xca626dc30ee13ca9!8m2!3d19.027628!4d79.0284177!16s%2Fg%2F11g9vmb82t!19sChIJK9TH0aJCzTsRqTzhDsNtYso?authuser=0&hl=en&rclk=1",
        "coordinates": {
            "latitude": 19.027628,
            "longitude": 79.02841769999999
        }
    },
    {
        "name": "Masjid",
        "main_category": "Mosque",
        "address": "Masjid, Masjid Area, Allipur, Telangana 505460",
        "detailed_address": {
            "ward": "Masjid Area",
            "street": null,
            "city": "Allipur",
            "postal_code": "505460",
            "state": "Telangana",
            "country_code": "IN"
        },
        "images": [
            {
                "about": "All",
                "link": "https://lh5.googleusercontent.com/p/AF1QipMuHYSfpFOTqtmrsxYRdCDKmUxVvRqTl8qf9Zr5=w224-h298-k-no"
            },
            {
                "about": "Street View & 360deg",
                "link": "https://streetviewpixels-pa.googleapis.com/v1/thumbnail?panoid=JNT8ZVYpCWBAV5vsqYD2vw&cb_client=maps_sv.tactile.gps&w=224&h=298&yaw=349.494&pitch=0&thumbfov=100"
            }
        ],
        "link": "https://www.google.com/maps/place/Masjid/data=!4m7!3m6!1s0x3bcd6d2e36a3f90b:0x2b14f3eb5563439d!8m2!3d18.861378!4d78.8733175!16s%2Fg%2F1pp2tx0rj!19sChIJC_mjNi5tzTsRnUNjVevzFCs?authuser=0&hl=en&rclk=1",
        "coordinates": {
            "latitude": 18.861378,
            "longitude": 78.8733175
        }
    },
    {
        "name": "Masjid-E-Mohammadiya",
        "main_category": "Mosque",
        "address": "Masjid-E-Mohammadiya, 1, Nirmal - Mancherial Rd, Jannaram, Telangana 504205",
        "detailed_address": {
            "ward": null,
            "street": "1, Nirmal - Mancherial Rd",
            "city": "Jannaram",
            "postal_code": "504205",
            "state": "Telangana",
            "country_code": "IN"
        },
        "images": [],
        "link": "https://www.google.com/maps/place/Masjid-E-Mohammadiya/data=!4m7!3m6!1s0x3bcd673fccaa4f81:0xf85ddfa7fa77cdbb!8m2!3d19.1192404!4d78.9938765!16s%2Fg%2F11byvwzk4r!19sChIJgU-qzD9nzTsRu813-qffXfg?authuser=0&hl=en&rclk=1",
        "coordinates": {
            "latitude": 19.1192404,
            "longitude": 78.9938765
        }
    },
    {
        "name": "Makka Masjid Theegala Dhrmaram",
        "main_category": "Mosque",
        "address": "225M+7F7 Makka Masjid Theegala Dhrmaram, Theegala Dharmaram, Telangana 505454",
        "detailed_address": {
            "ward": null,
            "street": "225M+7F7",
            "city": "Theegala Dharmaram",
            "postal_code": "505454",
            "state": "Telangana",
            "country_code": "IN"
        },
        "images": [
            {
                "about": "All",
                "link": "https://lh5.googleusercontent.com/p/AF1QipNnZLpviGZASopa5VTsN9NowXYnwNCYznsvONZu=w397-h298-k-no"
            }
        ],
        "link": "https://www.google.com/maps/place/Makka+Masjid+Theegala+Dhrmaram/data=!4m7!3m6!1s0x3bcd428926ec2039:0x43d64dd5a8bc946b!8m2!3d19.0081507!4d79.0336722!16s%2Fg%2F11f0wpv39c!19sChIJOSDsJolCzTsRa5S8qNVN1kM?authuser=0&hl=en&rclk=1",
        "coordinates": {
            "latitude": 19.008150699999998,
            "longitude": 79.0336722
        }
    },
    {
        "name": "Katkapur Mosque (kttkaapuur msiidu)",
        "main_category": "Mosque",
        "address": "XVVG+5RF Katkapur Mosque (kttkaapuur msiidu), near pond ( ceruvu dggr, Katkapur, Telangana 505460",
        "detailed_address": {
            "ward": null,
            "street": "XVVG+5RF, near pond ( ceruvu dggr",
            "city": "Katkapur",
            "postal_code": "505460",
            "state": "Telangana",
            "country_code": "IN"
        },
        "images": [
            {
                "about": "All",
                "link": "https://lh5.googleusercontent.com/p/AF1QipOCR9j9_LnbnAuultd6Yzgww-hDWgIraZIaWvGL=w529-h298-k-no"
            },
            {
                "about": "Dome",
                "link": "https://lh5.googleusercontent.com/p/AF1QipNYD2zZDYmXmTy1r4ReVJChyOc35PT_T3YXsKd3=w529-h298-k-no"
            },
            {
                "about": "By owner",
                "link": "https://lh5.googleusercontent.com/p/AF1QipNqkc1Yv-rBSyo4FhkdgOVMYVq9G1r5tzRrdaO8=w529-h298-k-no"
            }
        ],
        "link": "https://www.google.com/maps/place/Katkapur+Mosque+%28%E0%B0%95%E0%B0%9F%E0%B1%8D%E0%B0%95%E0%B0%BE%E0%B0%AA%E0%B1%82%E0%B0%B0%E0%B1%8D+%E0%B0%AE%E0%B0%B8%E0%B1%80%E0%B0%A6%E0%B1%81%29/data=!4m7!3m6!1s0x3bcd6fb4c94e53ab:0xa93ccc3c7b6ec293!8m2!3d18.9894705!4d78.8750372!16s%2Fg%2F11fhr7tfd0!19sChIJq1NOybRvzTsRk8JuezzMPKk?authuser=0&hl=en&rclk=1",
        "coordinates": {
            "latitude": 18.9894705,
            "longitude": 78.8750372
        }
    },
    {
        "name": "Veerapur Mosque ( Masjid )",
        "main_category": "Mosque",
        "address": "Veerapur Mosque ( Masjid ), Veerapur, Telangana 505460",
        "detailed_address": {
            "ward": null,
            "street": null,
            "city": "Veerapur",
            "postal_code": null,
            "state": "Telangana",
            "country_code": "IN"
        },
        "images": [
            {
                "about": "All",
                "link": "https://lh5.googleusercontent.com/p/AF1QipPGHoFd5l2y8HaA_01hCEdz9EcUYfsGGIGxbKik=w397-h298-k-no"
            },
            {
                "about": "Street View & 360deg",
                "link": "https://streetviewpixels-pa.googleapis.com/v1/thumbnail?panoid=2Jl6pzE837heYQz-cMGqQA&cb_client=maps_sv.tactile.gps&w=224&h=298&yaw=112.53967&pitch=0&thumbfov=100"
            }
        ],
        "link": "https://www.google.com/maps/place/Veerapur+Mosque+%28+Masjid+%29/data=!4m7!3m6!1s0x3bcd6d9200071201:0x301f751968b31cdf!8m2!3d18.9160391!4d78.8495851!16s%2Fg%2F1pp2twn2b!19sChIJARIHAJJtzTsR3xyzaBl1HzA?authuser=0&hl=en&rclk=1",
        "coordinates": {
            "latitude": 18.9160391,
            "longitude": 78.8495851
        }
    },
    {
        "name": "Masjid-e-Mahmoodunnisa",
        "main_category": "Mosque",
        "address": "3435+9WM Masjid-e-Mahmoodunnisa, Thallapet, Tallapet, Telangana 504206",
        "detailed_address": {
            "ward": null,
            "street": "3435+9WM",
            "city": "Thallapet, Tallapet",
            "postal_code": "504206",
            "state": "Telangana",
            "country_code": "IN"
        },
        "images": [
            {
                "about": "All",
                "link": "https://lh5.googleusercontent.com/p/AF1QipNeIcheaYziX2Mm8DGhCrAdoMpzMe2LXp6wqhOo=w224-h298-k-no"
            },
            {
                "about": "Street View & 360deg",
                "link": "https://streetviewpixels-pa.googleapis.com/v1/thumbnail?panoid=nbN0KBGYfHp66jnFdbMo7Q&cb_client=maps_sv.tactile.gps&w=224&h=298&yaw=48.546665&pitch=0&thumbfov=100"
            }
        ],
        "link": "https://www.google.com/maps/place/Masjid-e-Mahmoodunnisa/data=!4m7!3m6!1s0x3bcd453f06c5e385:0x8bfd0695f73e7367!8m2!3d19.0534615!4d79.1098047!16s%2Fg%2F11ghs2kky5!19sChIJhePFBj9FzTsRZ3M-95UG_Ys?authuser=0&hl=en&rclk=1",
        "coordinates": {
            "latitude": 19.053461499999997,
            "longitude": 79.1098047
        }
    },
    {
        "name": "Masjid E Ayesha",
        "main_category": "Mosque",
        "address": "V6H2+8JM Masjid E Ayesha, Luxettipet, Telangana 504215",
        "detailed_address": {
            "ward": null,
            "street": "V6H2+8JM",
            "city": "Luxettipet",
            "postal_code": "504215",
            "state": "Telangana",
            "country_code": "IN"
        },
        "images": [
            {
                "about": "All",
                "link": "https://lh5.googleusercontent.com/p/AF1QipPn-Y5yrClDZuE5TIHexsjBGkDOwHVUBX7fIoIY=w397-h298-k-no"
            }
        ],
        "link": "https://www.google.com/maps/place/Masjid+E+Ayesha/data=!4m7!3m6!1s0x3bcd49d98161d923:0x59d66f4dcf609572!8m2!3d18.8783282!4d79.2015539!16s%2Fg%2F11q24cd0db!19sChIJI9lhgdlJzTsRcpVgz01v1lk?authuser=0&hl=en&rclk=1",
        "coordinates": {
            "latitude": 18.8783282,
            "longitude": 79.2015539
        }
    },
    {
        "name": "Mosque",
        "main_category": "Mosque",
        "address": "Mosque, Devapur, Telangana 504218",
        "detailed_address": {
            "ward": null,
            "street": null,
            "city": "Devapur",
            "postal_code": null,
            "state": "Telangana",
            "country_code": "IN"
        },
        "images": [],
        "link": "https://www.google.com/maps/place/Mosque/data=!4m7!3m6!1s0x3bcd4d17c2ad90f3:0xab9c721020869a11!8m2!3d19.0355273!4d79.3571019!16s%2Fg%2F1tfzqcm7!19sChIJ85CtwhdNzTsREZqGIBBynKs?authuser=0&hl=en&rclk=1",
        "coordinates": {
            "latitude": 19.0355273,
            "longitude": 79.35710189999999
        }
    },
    {
        "name": "MASJID E MOHAMMADIA Lachakkapet",
        "main_category": "Mosque",
        "address": "VW86+GPF MASJID E MOHAMMADIA Lachakkapet, Lachakkapet, Telangana 505529",
        "detailed_address": {
            "ward": null,
            "street": "VW86+GPF",
            "city": "Lachakkapet",
            "postal_code": "505529",
            "state": "Telangana",
            "country_code": "IN"
        },
        "images": [
            {
                "about": "All",
                "link": "https://lh5.googleusercontent.com/p/AF1QipO0TnA0QBum1mV4Er-9aTz1NstowRtncLoLRPHw=w397-h298-k-no"
            }
        ],
        "link": "https://www.google.com/maps/place/MASJID+E+MOHAMMADIA+Lachakkapet/data=!4m7!3m6!1s0x3bcd6d3f383d71ab:0x4c34ef7d93c9c2db!8m2!3d18.866323!4d78.9118033!16s%2Fg%2F11stj50ww5!19sChIJq3E9OD9tzTsR28LJk33vNEw?authuser=0&hl=en&rclk=1",
        "coordinates": {
            "latitude": 18.866322999999998,
            "longitude": 78.9118033
        }
    },
    {
        "name": "Masjide Wahida Unisa",
        "main_category": "Mosque",
        "address": "V3V4+QGR Masjide Wahida Unisa, Velgonda, Telangana 505454",
        "detailed_address": {
            "ward": null,
            "street": "V3V4+QGR",
            "city": "Velgonda",
            "postal_code": "505454",
            "state": "Telangana",
            "country_code": "IN"
        },
        "images": [],
        "link": "https://www.google.com/maps/place/Masjide+Wahida+Unisa/data=!4m7!3m6!1s0x3bcd405b9ee52317:0x8fb1c9f68cb284a!8m2!3d18.8944821!4d79.0562564!16s%2Fg%2F11f15dx9xq!19sChIJFyPlnltAzTsRSijLaJ8c-wg?authuser=0&hl=en&rclk=1",
        "coordinates": {
            "latitude": 18.894482099999998,
            "longitude": 79.0562564
        }
    },
    {
        "name": "Masjid E Safia Sulaiman",
        "main_category": "Mosque",
        "address": "X32W+V9F Masjid E Safia Sulaiman, Unnamed Road, Mamidiwada, Rotte Venkamma Illu, Dharmapuri, Telangana 505425",
        "detailed_address": {
            "ward": "Mamidiwada, Rotte Venkamma Illu",
            "street": "X32W+V9F, Unnamed Road",
            "city": "Dharmapuri",
            "postal_code": "505425",
            "state": "Telangana",
            "country_code": "IN"
        },
        "images": [
            {
                "about": "All",
                "link": "https://lh5.googleusercontent.com/p/AF1QipN4bCP34ZcGudJK83kZ7qUPQ6XBcjjt5_FkHA7F=w224-h298-k-no"
            },
            {
                "about": "Street View & 360deg",
                "link": "https://streetviewpixels-pa.googleapis.com/v1/thumbnail?panoid=4WnkaU9ZaQp8e57P4pPy4Q&cb_client=maps_sv.tactile.gps&w=224&h=298&yaw=323.66022&pitch=0&thumbfov=100"
            }
        ],
        "link": "https://www.google.com/maps/place/Masjid+E+Safia+Sulaiman/data=!4m7!3m6!1s0x3bcd419c1140ecef:0x5738f10bd92bf8d1!8m2!3d18.9521875!4d79.0959375!16s%2Fg%2F11rcrh6mgm!19sChIJ7-xAEZxBzTsR0fgr2QvxOFc?authuser=0&hl=en&rclk=1",
        "coordinates": {
            "latitude": 18.9521875,
            "longitude": 79.09593749999999
        }
    },
    {
        "name": "Masjid-e-Abdullah",
        "main_category": "Mosque",
        "address": "3XR2+J23 Masjid-e-Abdullah, Jannaram - Kalamadugu Rd, Kalmadagu, Telangana 504205",
        "detailed_address": {
            "ward": null,
            "street": "3XR2+J23, Jannaram - Kalamadugu Rd",
            "city": "Kalmadagu",
            "postal_code": "504205",
            "state": "Telangana",
            "country_code": "IN"
        },
        "images": [
            {
                "about": "All",
                "link": "https://lh5.googleusercontent.com/p/AF1QipOvo_w25BNUkR6QwLBoSQWlYLE-F8vV2JpFpqZH=w529-h298-k-no"
            },
            {
                "about": "Videos",
                "link": "https://lh5.googleusercontent.com/p/AF1QipMp4uSDSodWbXNP4k8QvYtA62lWwcbTMV1okx9r=w298-h298-k-no"
            }
        ],
        "link": "https://www.google.com/maps/place/Masjid-e-Abdullah/data=!4m7!3m6!1s0x3bcd6660227f8177:0xe67839b827ba0ea4!8m2!3d19.0915155!4d78.9500358!16s%2Fg%2F11hbc1vfry!19sChIJd4F_ImBmzTsRpA66J7g5eOY?authuser=0&hl=en&rclk=1",
        "coordinates": {
            "latitude": 19.0915155,
            "longitude": 78.9500358
        }
    },
    {
        "name": "Masjid",
        "main_category": "Mosque",
        "address": "V6MR+V66 Masjid, Ankathipally, Telangana 504215",
        "detailed_address": {
            "ward": null,
            "street": "V6MR+V66",
            "city": "Ankathipally",
            "postal_code": "504215",
            "state": "Telangana",
            "country_code": "IN"
        },
        "images": [
            {
                "about": "All",
                "link": "https://streetviewpixels-pa.googleapis.com/v1/thumbnail?panoid=TpL2ezeqpsdsaVsRSuPdzg&cb_client=maps_sv.tactile.gps&w=224&h=298&yaw=194.30045&pitch=0&thumbfov=100"
            },
            {
                "about": "Street View & 360deg",
                "link": "https://streetviewpixels-pa.googleapis.com/v1/thumbnail?panoid=TpL2ezeqpsdsaVsRSuPdzg&cb_client=maps_sv.tactile.gps&w=224&h=298&yaw=194.30045&pitch=0&thumbfov=100"
            }
        ],
        "link": "https://www.google.com/maps/place/Masjid/data=!4m7!3m6!1s0x3bcd49bdc216284d:0x350592a99ce08e14!8m2!3d18.8846738!4d79.2405227!16s%2Fg%2F11h2hhxpqs!19sChIJTSgWwr1JzTsRFI7gnKmSBTU?authuser=0&hl=en&rclk=1",
        "coordinates": {
            "latitude": 18.884673799999998,
            "longitude": 79.2405227
        }
    },
    {
        "name": "Peerila Masjid",
        "main_category": "Mosque",
        "address": "W3XW+8M8 Peerila Masjid, Dharmapuri, Telangana 505425",
        "detailed_address": {
            "ward": null,
            "street": "W3XW+8M8",
            "city": "Dharmapuri",
            "postal_code": "505425",
            "state": "Telangana",
            "country_code": "IN"
        },
        "images": [
            {
                "about": "All",
                "link": "https://streetviewpixels-pa.googleapis.com/v1/thumbnail?panoid=9843aNIATpRUGFuZIWGvvg&cb_client=maps_sv.tactile.gps&w=224&h=298&yaw=21.841396&pitch=0&thumbfov=100"
            },
            {
                "about": "Street View & 360deg",
                "link": "https://streetviewpixels-pa.googleapis.com/v1/thumbnail?panoid=9843aNIATpRUGFuZIWGvvg&cb_client=maps_sv.tactile.gps&w=224&h=298&yaw=21.841396&pitch=0&thumbfov=100"
            }
        ],
        "link": "https://www.google.com/maps/place/Peerila+Masjid/data=!4m7!3m6!1s0x3bcd41453495526d:0xd1b992ce8abbbd59!8m2!3d18.9482959!4d79.0967184!16s%2Fg%2F124t1g8cl!19sChIJbVKVNEVBzTsRWb27is6SudE?authuser=0&hl=en&rclk=1",
        "coordinates": {
            "latitude": 18.948295899999998,
            "longitude": 79.0967184
        }
    },
    {
        "name": "Jama Mosque Devapur",
        "main_category": "Mosque",
        "address": "29R3+5CH Jama Mosque Devapur, Devapur, Telangana 504218",
        "detailed_address": {
            "ward": null,
            "street": "29R3+5CH",
            "city": "Devapur",
            "postal_code": "504218",
            "state": "Telangana",
            "country_code": "IN"
        },
        "images": [
            {
                "about": "All",
                "link": "https://lh5.googleusercontent.com/p/AF1QipNasVqxqJouIMc6LFaSP-8Q6RRdQW2P8S0ywUcU=w224-h298-k-no"
            }
        ],
        "link": "https://www.google.com/maps/place/Jama+Mosque+Devapur/data=!4m7!3m6!1s0x3bcd4d143d51615b:0xd161b4f792ad7f92!8m2!3d19.0404421!4d79.3536248!16s%2Fg%2F11hbvtzyrz!19sChIJW2FRPRRNzTsRkn-tkve0YdE?authuser=0&hl=en&rclk=1",
        "coordinates": {
            "latitude": 19.0404421,
            "longitude": 79.35362479999999
        }
    },
    {
        "name": "Masjid E Imam E Azam",
        "main_category": "Mosque",
        "address": "2X2W+9H6 Masjid E Imam E Azam, Narsimlapalli, Telangana 505454",
        "detailed_address": {
            "ward": null,
            "street": "2X2W+9H6",
            "city": "Narsimlapalli",
            "postal_code": "505454",
            "state": "Telangana",
            "country_code": "IN"
        },
        "images": [
            {
                "about": "All",
                "link": "https://lh5.googleusercontent.com/p/AF1QipNKdF1DIcw9KbKH683zLXDajF7qTBZ3rXNmERKs=w224-h336-k-no"
            },
            {
                "about": "Dome",
                "link": "https://lh5.googleusercontent.com/p/AF1QipMGDl4mfob4RIteFgZr8OC4dY1_Lq5_h7Ps0Irl=w224-h336-k-no"
            }
        ],
        "link": "https://www.google.com/maps/place/Masjid+E+Imam+E+Azam/data=!4m7!3m6!1s0x3bcd6995d28d15b7:0xa8b1ff9dca1baa19!8m2!3d19.0009086!4d78.9963954!16s%2Fg%2F11j8hxt2lz!19sChIJtxWN0pVpzTsRGaobyp3_sag?authuser=0&hl=en&rclk=1",
        "coordinates": {
            "latitude": 19.0009086,
            "longitude": 78.9963954
        }
    },
    {
        "name": "JAMA MASJID DEPAIGUDA JAINATH",
        "main_category": "Mosque",
        "address": "QJ7X+WX3 JAMA MASJID DEPAIGUDA JAINATH, Deepaiguda, Telangana 504309",
        "detailed_address": {
            "ward": null,
            "street": "QJ7X+WX3",
            "city": "Deepaiguda",
            "postal_code": "504309",
            "state": "Telangana",
            "country_code": "IN"
        },
        "images": [
            {
                "about": "All",
                "link": "https://lh5.googleusercontent.com/p/AF1QipNfCRrNKthaLpHgHD8v6EM7ZiAQicGR7eJC_UCN=w224-h298-k-no"
            }
        ],
        "link": "https://www.google.com/maps/place/JAMA+MASJID+DEPAIGUDA+JAINATH/data=!4m7!3m6!1s0x3bd2580f5d37a7c1:0xaf0ffc45bfdc1279!8m2!3d19.7647648!4d78.6499297!16s%2Fg%2F11f_w0tkbl!19sChIJwac3XQ9Y0jsReRLcv0X8D68?authuser=0&hl=en&rclk=1",
        "coordinates": {
            "latitude": 19.7647648,
            "longitude": 78.6499297
        }
    },
    {
        "name": "Choti Masjid",
        "main_category": "Mosque",
        "address": "Choti Masjid, 1, Nirmal - Mancherial Rd, Jannaram, Telangana 504205",
        "detailed_address": {
            "ward": null,
            "street": "1, Nirmal - Mancherial Rd",
            "city": "Jannaram",
            "postal_code": "504205",
            "state": "Telangana",
            "country_code": "IN"
        },
        "images": [
            {
                "about": "All",
                "link": "https://streetviewpixels-pa.googleapis.com/v1/thumbnail?panoid=Idh00paMelYeBIsU85mM7w&cb_client=maps_sv.tactile.gps&w=224&h=298&yaw=214.03764&pitch=0&thumbfov=100"
            },
            {
                "about": "Street View & 360deg",
                "link": "https://streetviewpixels-pa.googleapis.com/v1/thumbnail?panoid=Idh00paMelYeBIsU85mM7w&cb_client=maps_sv.tactile.gps&w=224&h=298&yaw=214.03764&pitch=0&thumbfov=100"
            }
        ],
        "link": "https://www.google.com/maps/place/Choti+Masjid/data=!4m7!3m6!1s0x3bcd673e34ac2f77:0xc32f71faf30d7a5f!8m2!3d19.1184965!4d78.9931769!16s%2Fg%2F11bw5mbvt0!19sChIJdy-sND5nzTsRX3oN8_pxL8M?authuser=0&hl=en&rclk=1",
        "coordinates": {
            "latitude": 19.1184965,
            "longitude": 78.9931769
        }
    },
    {
        "name": "Khankha e mohammadi luxettipet",
        "main_category": "Mosque",
        "address": "V6G2+MFW Khankha e mohammadi luxettipet, Unnamed Road, Luxettipet, Telangana 504215",
        "detailed_address": {
            "ward": null,
            "street": "V6G2+MFW, Unnamed Road",
            "city": "Luxettipet",
            "postal_code": "504215",
            "state": "Telangana",
            "country_code": "IN"
        },
        "images": [],
        "link": "https://www.google.com/maps/place/Khankha+e+mohammadi+luxettipet/data=!4m7!3m6!1s0x3bcd494724f49b4d:0x987539901e1b05d2!8m2!3d18.8767471!4d79.2012099!16s%2Fg%2F11nt4bv2g0!19sChIJTZv0JEdJzTsR0gUbHpA5dZg?authuser=0&hl=en&rclk=1",
        "coordinates": {
            "latitude": 18.8767471,
            "longitude": 79.2012099
        }
    },
    {
        "name": "Mosque , arepalle",
        "main_category": "Mosque",
        "address": "327F+R6Q Mosque , arepalle, Arepally Rd, Donthapur, Arpapalle, Telangana 505425",
        "detailed_address": {
            "ward": null,
            "street": "327F+R6Q, Arepally Rd",
            "city": "Donthapur, Arpapalle",
            "postal_code": "505425",
            "state": "Telangana",
            "country_code": "IN"
        },
        "images": [],
        "link": "https://www.google.com/maps/place/Mosque+,+arepalle/data=!4m7!3m6!1s0x3bcd5d8dd8a2592b:0x800db10c518ef6fa!8m2!3d19.0645903!4d79.0231206!16s%2Fg%2F11qg18z79k!19sChIJK1mi2I1dzTsR-vaOUQyxDYA?authuser=0&hl=en&rclk=1",
        "coordinates": {
            "latitude": 19.0645903,
            "longitude": 79.0231206
        }
    },
    {
        "name": "Masjid e umar",
        "main_category": "Mosque",
        "address": "9W95+WC9 Masjid e umar, Jainoor, Telangana 504313",
        "detailed_address": {
            "ward": null,
            "street": "9W95+WC9",
            "city": "Jainoor",
            "postal_code": "504313",
            "state": "Telangana",
            "country_code": "IN"
        },
        "images": [
            {
                "about": "All",
                "link": "https://lh5.googleusercontent.com/p/AF1QipOhk43Dt8DWZ-qd8VCRH9KLa6-1vmaIrU-Gtbgb=w224-h398-k-no"
            },
            {
                "about": "Videos",
                "link": "https://lh5.googleusercontent.com/p/AF1QipP2VgtVhhKBGvocmZLYTj5XvXKopHNd17b5qI4D=w224-h407-k-no"
            }
        ],
        "link": "https://www.google.com/maps/place/Masjid+e+umar/data=!4m7!3m6!1s0x3bd29b093593e477:0xe65cd53a2848ead0!8m2!3d19.3700184!4d78.9089038!16s%2Fg%2F11t27x9_rj!19sChIJd-STNQmb0jsR0OpIKDrVXOY?authuser=0&hl=en&rclk=1",
        "coordinates": {
            "latitude": 19.3700184,
            "longitude": 78.90890379999999
        }
    },
    {
        "name": "Masjid E Fatima Yousuf",
        "main_category": "Mosque",
        "address": "3WG8+XMP Masjid E Fatima Yousuf, Revojipet New, Revojipet (Old), Telangana 504202",
        "detailed_address": {
            "ward": null,
            "street": "3WG8+XMP",
            "city": "Revojipet New, Revojipet (Old)",
            "postal_code": "504202",
            "state": "Telangana",
            "country_code": "IN"
        },
        "images": [
            {
                "about": "All",
                "link": "https://lh5.googleusercontent.com/p/AF1QipN1p7OTMjxWJivvD3RWPioNyKiqrk_1CdlBVI5s=w529-h298-k-no"
            }
        ],
        "link": "https://www.google.com/maps/place/Masjid+E+Fatima+Yousuf/data=!4m7!3m6!1s0x3bcd6551fa8de007:0x1f6da9a6fdded8d8!8m2!3d19.0776595!4d78.9174451!16s%2Fg%2F11rmz_sv6c!19sChIJB-CN-lFlzTsR2Nje_aapbR8?authuser=0&hl=en&rclk=1",
        "coordinates": {
            "latitude": 19.0776595,
            "longitude": 78.9174451
        }
    },
    {
        "name": "Masjid",
        "main_category": "Mosque",
        "address": "V7J4+GG5 Masjid, Telangana 504215",
        "detailed_address": {
            "ward": null,
            "street": "V7J4+GG5",
            "city": null,
            "postal_code": "504215",
            "state": "Telangana",
            "country_code": "IN"
        },
        "images": [
            {
                "about": "All",
                "link": "https://lh5.googleusercontent.com/p/AF1QipOcsNqRJUWKaj2mYrG46XlbWwcVrLuZAV-qX6M4=w224-h486-k-no"
            }
        ],
        "link": "https://www.google.com/maps/place/Masjid/data=!4m7!3m6!1s0x3bcd4949a9bf89a1:0xfedf2abfb93c1c36!8m2!3d18.8812544!4d79.2563521!16s%2Fg%2F11rw9wcgw5!19sChIJoYm_qUlJzTsRNhw8ub8q3_4?authuser=0&hl=en&rclk=1",
        "coordinates": {
            "latitude": 18.8812544,
            "longitude": 79.2563521
        }
    },
    {
        "name": "Pangdi masjid",
        "main_category": "Mosque",
        "address": "9263+5W Pangdi masjid, Seetagondi, Telangana 504313",
        "detailed_address": {
            "ward": null,
            "street": "9263+5W",
            "city": "Seetagondi",
            "postal_code": null,
            "state": "Telangana",
            "country_code": "IN"
        },
        "images": [],
        "link": "https://www.google.com/maps/place/Pangdi+masjid/data=!4m7!3m6!1s0x3bd299407103a9bf:0xc33d1edde125fb60!8m2!3d19.3603172!4d79.0060313!16s%2Fg%2F11s57ytdlj!19sChIJv6kDcUCZ0jsRYPsl4d0ePcM?authuser=0&hl=en&rclk=1",
        "coordinates": {
            "latitude": 19.3603172,
            "longitude": 79.00603129999999
        }
    },
    {
        "name": "Eidgah Lachakkapet",
        "main_category": "Mosque",
        "address": "VW65+QJR Eidgah Lachakkapet, Laxmipur, Telangana 505529",
        "detailed_address": {
            "ward": null,
            "street": "VW65+QJR",
            "city": "Laxmipur",
            "postal_code": "505529",
            "state": "Telangana",
            "country_code": "IN"
        },
        "images": [
            {
                "about": "All",
                "link": "https://lh5.googleusercontent.com/p/AF1QipNSFhcVCfUBqyPQNCffqZI1tYHJtKZVnefbRSli=w397-h298-k-no"
            }
        ],
        "link": "https://www.google.com/maps/place/Eidgah+Lachakkapet/data=!4m7!3m6!1s0x3bcd6db11fa7a651:0x69cd98fc5e610e56!8m2!3d18.8619863!4d78.9090067!16s%2Fg%2F11h75zck1r!19sChIJUaanH7FtzTsRVg5hXvyYzWk?authuser=0&hl=en&rclk=1",
        "coordinates": {
            "latitude": 18.861986299999998,
            "longitude": 78.90900669999999
        }
    },
    {
        "name": "* ASHURKHANA BARAH IMAM *MOHARRAM",
        "main_category": "Mosque",
        "address": "726X+QCJ * ASHURKHANA BARAH IMAM *MOHARRAM, Yellapatar, Telangana 504313",
        "detailed_address": {
            "ward": null,
            "street": "726X+QCJ",
            "city": "Yellapatar",
            "postal_code": "504313",
            "state": "Telangana",
            "country_code": "IN"
        },
        "images": [
            {
                "about": "All",
                "link": "https://lh5.googleusercontent.com/p/AF1QipMkr_y4m_yAQTm7bvtS3TfsitROboprgEee8n5W=w224-h398-k-no"
            },
            {
                "about": "Videos",
                "link": "https://lh5.googleusercontent.com/p/AF1QipO8fo2pq6bcTLcvUtuHiF2NdGp5dbBrqxUHFJIg=w224-h398-k-no"
            }
        ],
        "link": "https://www.google.com/maps/place/*+ASHURKHANA+BARAH+IMAM+*MOHARRAM/data=!4m7!3m6!1s0x3bd2a1d7a05cb05b:0x2ad6f2e9cbb8bf9c!8m2!3d19.261955!4d79.0485027!16s%2Fg%2F11pzs9dl31!19sChIJW7BcoNeh0jsRnL-4y-ny1io?authuser=0&hl=en&rclk=1",
        "coordinates": {
            "latitude": 19.261955,
            "longitude": 79.0485027
        }
    },
    {
        "name": "Masjid-E-Noor",
        "main_category": "Mosque",
        "address": "Masjid-E-Noor, #101 ,Rechapally, Jagtial, Telangana",
        "detailed_address": {
            "ward": null,
            "street": "#101 ,Rechapally",
            "city": "Jagtial, Rechapalli",
            "postal_code": null,
            "state": "Telangana",
            "country_code": "IN"
        },
        "images": [
            {
                "about": "All",
                "link": "https://lh5.googleusercontent.com/p/AF1QipM_n4jNYUFDrSwoM4gjEmYb7ca8vB4zSP5QOdm9=w224-h398-k-no"
            }
        ],
        "link": "https://www.google.com/maps/place/Masjid-E-Noor/data=!4m7!3m6!1s0x3bcd6be8cd809ef9:0x28c4237f1d69a774!8m2!3d18.9316153!4d78.9304784!16s%2Fg%2F11j8hhpjmy!19sChIJ-Z6AzehrzTsRdKdpHX8jxCg?authuser=0&hl=en&rclk=1",
        "coordinates": {
            "latitude": 18.9316153,
            "longitude": 78.9304784
        }
    },
    {
        "name": "Masjid gullapet",
        "main_category": "Museum",
        "address": "VX65+VJC Masjid gullapet, Hanuman St, Gullapeta, Telangana 505454",
        "detailed_address": {
            "ward": null,
            "street": "VX65+VJC, Hanuman St",
            "city": "Gullapeta",
            "postal_code": "505454",
            "state": "Telangana",
            "country_code": "IN"
        },
        "images": [],
        "link": "https://www.google.com/maps/place/Masjid+gullapet/data=!4m7!3m6!1s0x3bcd6b68198baaad:0xe46de9d58e121c67!8m2!3d18.8621776!4d78.9590296!16s%2Fg%2F11ht6ttrql!19sChIJraqLGWhrzTsRZxwSjtXpbeQ?authuser=0&hl=en&rclk=1",
        "coordinates": {
            "latitude": 18.8621776,
            "longitude": 78.9590296
        }
    },
    {
        "name": "MAJED MBD",
        "main_category": "Mosque",
        "address": "33QC+436 MAJED MBD, Malyal1, Telangana 504205",
        "detailed_address": {
            "ward": null,
            "street": "33QC+436",
            "city": "Malyal1",
            "postal_code": "504205",
            "state": "Telangana",
            "country_code": "IN"
        },
        "images": [],
        "link": "https://www.google.com/maps/place/MAJED+MBD/data=!4m7!3m6!1s0x3bcd5dc7d8043ab9:0xd0a3a374a7512c1b!8m2!3d19.087524!4d79.070119!16s%2Fg%2F11t4_mj0wl!19sChIJuToE2MddzTsRGyxRp3Sjo9A?authuser=0&hl=en&rclk=1",
        "coordinates": {
            "latitude": 19.087524,
            "longitude": 79.07011899999999
        }
    },
    {
        "name": "Mosque Mahammadabad",
        "main_category": "Mosque",
        "address": "33QC+229 Mosque Mahammadabad, jannaram mahammadabad, 504205",
        "detailed_address": {
            "ward": null,
            "street": "33QC+229, jannaram mahammadabad",
            "city": null,
            "postal_code": "504205",
            "state": "Telangana",
            "country_code": "IN"
        },
        "images": [],
        "link": "https://www.google.com/maps/place/Mosque+Mahammadabad/data=!4m7!3m6!1s0x3bcd5d75c529e10b:0x76390774d02a9d68!8m2!3d19.0875411!4d79.0700938!16s%2Fg%2F11t6ky02_j!19sChIJC-EpxXVdzTsRaJ0q0HQHOXY?authuser=0&hl=en&rclk=1",
        "coordinates": {
            "latitude": 19.0875411,
            "longitude": 79.0700938
        }
    },
    {
        "name": "Badi masjid",
        "main_category": "Mosque",
        "address": "V6M4+6G6 Badi masjid, Luxettipet, Utukur, Telangana 504215",
        "detailed_address": {
            "ward": null,
            "street": "V6M4+6G6",
            "city": "Luxettipet, Utukur",
            "postal_code": "504215",
            "state": "Telangana",
            "country_code": "IN"
        },
        "images": [
            {
                "about": "All",
                "link": "https://streetviewpixels-pa.googleapis.com/v1/thumbnail?panoid=2Fma5QjCQUEZ-Ww14r02Sg&cb_client=maps_sv.tactile.gps&w=224&h=298&yaw=145.20671&pitch=0&thumbfov=100"
            },
            {
                "about": "Street View & 360deg",
                "link": "https://streetviewpixels-pa.googleapis.com/v1/thumbnail?panoid=2Fma5QjCQUEZ-Ww14r02Sg&cb_client=maps_sv.tactile.gps&w=224&h=298&yaw=145.20671&pitch=0&thumbfov=100"
            }
        ],
        "link": "https://www.google.com/maps/place/Badi+masjid/data=!4m7!3m6!1s0x3bcd4983c8455595:0x967acd0ca59d0e65!8m2!3d18.8830416!4d79.2062597!16s%2Fg%2F11vf2g1rj5!19sChIJlVVFyINJzTsRZQ6dpQzNepY?authuser=0&hl=en&rclk=1",
        "coordinates": {
            "latitude": 18.8830416,
            "longitude": 79.20625969999999
        }
    },
    {
        "name": "Jama masjid luxettipet",
        "main_category": "Mosque",
        "address": "W656+7GJ Jama masjid luxettipet, Luxettipet, Utukur, Telangana 504215",
        "detailed_address": {
            "ward": null,
            "street": "W656+7GJ",
            "city": "Luxettipet, Utukur",
            "postal_code": "504215",
            "state": "Telangana",
            "country_code": "IN"
        },
        "images": [],
        "link": "https://www.google.com/maps/place/Jama+masjid+luxettipet/data=!4m7!3m6!1s0x3bcd495e1c762f25:0xa0cfa07634d3bb03!8m2!3d18.9082189!4d79.2112769!16s%2Fg%2F11vf2fh6z5!19sChIJJS92HF5JzTsRA7vTNHagz6A?authuser=0&hl=en&rclk=1",
        "coordinates": {
            "latitude": 18.908218899999998,
            "longitude": 79.2112769
        }
    },
    {
        "name": "MASJID E COURT AREA LUXETTIPET",
        "main_category": "Mosque",
        "address": "V6Q3+JGJ MASJID E COURT AREA LUXETTIPET, Utukur, Telangana 504215",
        "detailed_address": {
            "ward": null,
            "street": "V6Q3+JGJ",
            "city": "Utukur",
            "postal_code": "504215",
            "state": "Telangana",
            "country_code": "IN"
        },
        "images": [
            {
                "about": "All",
                "link": "https://streetviewpixels-pa.googleapis.com/v1/thumbnail?panoid=fpZuJVX7Gnhj9mn2MZSqLg&cb_client=maps_sv.tactile.gps&w=224&h=298&yaw=347.23236&pitch=0&thumbfov=100"
            },
            {
                "about": "Street View & 360deg",
                "link": "https://streetviewpixels-pa.googleapis.com/v1/thumbnail?panoid=fpZuJVX7Gnhj9mn2MZSqLg&cb_client=maps_sv.tactile.gps&w=224&h=298&yaw=347.23236&pitch=0&thumbfov=100"
            }
        ],
        "link": "https://www.google.com/maps/place/MASJID+E+COURT+AREA+LUXETTIPET/data=!4m7!3m6!1s0x3bcd49085fcf7d37:0xb9935c9de9f0090d!8m2!3d18.8890885!4d79.2037506!16s%2Fg%2F11nn43__y4!19sChIJN33PXwhJzTsRDQnw6Z1ck7k?authuser=0&hl=en&rclk=1",
        "coordinates": {
            "latitude": 18.8890885,
            "longitude": 79.20375059999999
        }
    },
    {
        "name": "Eid Gah",
        "main_category": "Mosque",
        "address": "V6R3+844 Eid Gah, Lakshettipet, Utukur, Telangana 504215",
        "detailed_address": {
            "ward": null,
            "street": "V6R3+844",
            "city": "Lakshettipet, Utukur",
            "postal_code": "504215",
            "state": "Telangana",
            "country_code": "IN"
        },
        "images": [
            {
                "about": "All",
                "link": "https://lh5.googleusercontent.com/p/AF1QipNZgTIrs0DoEc3aijr8Uat1OEzPiDbcz1QCzg3J=w224-h298-k-no"
            },
            {
                "about": "Videos",
                "link": "https://lh5.googleusercontent.com/p/AF1QipNPdzRkn1CArjGX6kBTKIzVuhEh7ticQUecNTr6=w224-h398-k-no"
            }
        ],
        "link": "https://www.google.com/maps/place/Eid+Gah/data=!4m7!3m6!1s0x3bcd49633e4aa623:0xc8ba704d0873bb4a!8m2!3d18.8907702!4d79.202828!16s%2Fg%2F11q_1t7gt0!19sChIJI6ZKPmNJzTsRSrtzCE1wusg?authuser=0&hl=en&rclk=1",
        "coordinates": {
            "latitude": 18.8907702,
            "longitude": 79.202828
        }
    },
    {
        "name": "Masjid e Saleh",
        "main_category": "Mosque",
        "address": "X5W3+5FW Masjid e Saleh, bolishetty rajanna mro office, Dantepally, Telangana 504206",
        "detailed_address": {
            "ward": null,
            "street": "X5W3+5FW, bolishetty rajanna mro office",
            "city": "Dantepally",
            "postal_code": "504206",
            "state": "Telangana",
            "country_code": "IN"
        },
        "images": [],
        "link": "https://www.google.com/maps/place/Masjid+e+Saleh/data=!4m7!3m6!1s0x3bcd45dc06307c6d:0xb5279caa5d165fe6!8m2!3d18.9954959!4d79.1537098!16s%2Fg%2F11n258mlmb!19sChIJbXwwBtxFzTsR5l8WXaqcJ7U?authuser=0&hl=en&rclk=1",
        "coordinates": {
            "latitude": 18.995495899999998,
            "longitude": 79.1537098
        }
    },
    {
        "name": "HAZRAT ALI BABA KARBALA DEVUNIGUDA",
        "main_category": "Mosque",
        "address": "5X2G+64G HAZRAT ALI BABA KARBALA DEVUNIGUDA, Devuniguda, Kamanpalle, Telangana 504205",
        "detailed_address": {
            "ward": null,
            "street": "5X2G+64G",
            "city": "Devuniguda, Kamanpalle",
            "postal_code": "504205",
            "state": "Telangana",
            "country_code": "IN"
        },
        "images": [
            {
                "about": "All",
                "link": "https://lh5.googleusercontent.com/p/AF1QipPneDjC9mA1-nJhA_y1Q0EwGoWBlawKkYQADgVz=w224-h398-k-no"
            }
        ],
        "link": "https://www.google.com/maps/place/HAZRAT+ALI+BABA+KARBALA+DEVUNIGUDA/data=!4m7!3m6!1s0x3bcd61dd37a84fc3:0x4c9c24dbaaf795de!8m2!3d19.1505631!4d78.9753296!16s%2Fg%2F11qt448pc7!19sChIJw0-oN91hzTsR3pX3qtsknEw?authuser=0&hl=en&rclk=1",
        "coordinates": {
            "latitude": 19.1505631,
            "longitude": 78.9753296
        }
    },
    {
        "name": "Madeena majhid",
        "main_category": "Mosque",
        "address": "X3MQ+P34 Madeena majhid, Unnamed Road, Rajaram, Telangana 505425",
        "detailed_address": {
            "ward": null,
            "street": "X3MQ+P34, Unnamed Road",
            "city": "Rajaram",
            "postal_code": "505425",
            "state": "Telangana",
            "country_code": "IN"
        },
        "images": [],
        "link": "https://www.google.com/maps/place/Madeena+majhid/data=!4m7!3m6!1s0x3bcd4361bfcc1b0f:0xfe0d7c8a129ec417!8m2!3d18.9842711!4d79.0876911!16s%2Fg%2F11rb3r6v9n!19sChIJDxvMv2FDzTsRF8SeEop8Df4?authuser=0&hl=en&rclk=1",
        "coordinates": {
            "latitude": 18.9842711,
            "longitude": 79.0876911
        }
    },
    {
        "name": "Jama masjid kawal",
        "main_category": "Mosque",
        "address": "5X97+M8M Jama masjid kawal, Kawal, Telangana 504205",
        "detailed_address": {
            "ward": null,
            "street": "5X97+M8M",
            "city": "Kawal",
            "postal_code": "504205",
            "state": "Telangana",
            "country_code": "IN"
        },
        "images": [
            {
                "about": "All",
                "link": "https://lh5.googleusercontent.com/p/AF1QipMXusNH4XCR44lGjxWf8tLh2J_r4oCcA5suEn3j=w224-h510-k-no"
            },
            {
                "about": "By owner",
                "link": "https://lh5.googleusercontent.com/p/AF1QipMXusNH4XCR44lGjxWf8tLh2J_r4oCcA5suEn3j=w224-h510-k-no"
            }
        ],
        "link": "https://www.google.com/maps/place/Jama+masjid+kawal/data=!4m7!3m6!1s0x3bcd61db9faed409:0xc8e57351b72be292!8m2!3d19.1707652!4d78.9627696!16s%2Fg%2F11tgfrbxkx!19sChIJCdSun9thzTsRkuIrt1Fz5cg?authuser=0&hl=en&rclk=1",
        "coordinates": {
            "latitude": 19.170765199999998,
            "longitude": 78.9627696
        }
    },
    {
        "name": "Community Hall",
        "main_category": "Mosque",
        "address": "2WW5+6JR Community Hall, Godserial, Telangana 504202",
        "detailed_address": {
            "ward": null,
            "street": "2WW5+6JR",
            "city": "Godserial",
            "postal_code": null,
            "state": "Telangana",
            "country_code": "IN"
        },
        "images": [],
        "link": "https://www.google.com/maps/place/Community+Hall/data=!4m7!3m6!1s0x3bcd6533481136a9:0x70724a69a268e136!8m2!3d19.0456115!4d78.9090214!16s%2Fg%2F11swmqtzks!19sChIJqTYRSDNlzTsRNuFoomlKcnA?authuser=0&hl=en&rclk=1",
        "coordinates": {
            "latitude": 19.0456115,
            "longitude": 78.9090214
        }
    },
    {
        "name": "BILALA MASJID",
        "main_category": "Mosque",
        "address": "9WF5+HJJ BILALA MASJID, Jainoor, Telangana 504313",
        "detailed_address": {
            "ward": null,
            "street": "9WF5+HJJ",
            "city": "Jainoor",
            "postal_code": "504313",
            "state": "Telangana",
            "country_code": "IN"
        },
        "images": [
            {
                "about": "All",
                "link": "https://lh5.googleusercontent.com/p/AF1QipN_PR4-OS9i6-PeL1j_gryG5-yWpH4rFAj4CuL9=w397-h298-k-no"
            }
        ],
        "link": "https://www.google.com/maps/place/BILALA+MASJID/data=!4m7!3m6!1s0x3bd29b2e07edb8d3:0xa2580038ac3fd778!8m2!3d19.3739522!4d78.9090191!16s%2Fg%2F11f77_fyxp!19sChIJ07jtBy6b0jsReNc_rDgAWKI?authuser=0&hl=en&rclk=1",
        "coordinates": {
            "latitude": 19.373952199999998,
            "longitude": 78.9090191
        }
    },
    {
        "name": "Jamma Masjid",
        "main_category": "Mosque",
        "address": "7345+QGQ Jamma Masjid, Yellapatar, Telangana 504313",
        "detailed_address": {
            "ward": null,
            "street": "7345+QGQ",
            "city": "Yellapatar",
            "postal_code": null,
            "state": "Telangana",
            "country_code": "IN"
        },
        "images": [],
        "link": "https://www.google.com/maps/place/Jamma+Masjid/data=!4m7!3m6!1s0x3bd2a1118f7720e5:0xd3a650aa42284af1!8m2!3d19.2569583!4d79.058856!16s%2Fg%2F11thhfc6wm!19sChIJ5SB3jxGh0jsR8UooQqpQptM?authuser=0&hl=en&rclk=1",
        "coordinates": {
            "latitude": 19.2569583,
            "longitude": 79.05885599999999
        }
    },
    {
        "name": "Masjid-E-Ibrahimia",
        "main_category": "Mosque",
        "address": "W3XR+6G5 Masjid-E-Ibrahimia, Dharmapuri Camp, Dharmapuri, Telangana 505425",
        "detailed_address": {
            "ward": "Dharmapuri Camp",
            "street": "W3XR+6G5",
            "city": "Dharmapuri",
            "postal_code": "505425",
            "state": "Telangana",
            "country_code": "IN"
        },
        "images": [
            {
                "about": "All",
                "link": "https://lh5.googleusercontent.com/p/AF1QipMomx3bIZuP3NM4GJqUNF1yAUR6OsJHNfx8XwiW=w529-h298-k-no"
            },
            {
                "about": "Street View & 360deg",
                "link": "https://streetviewpixels-pa.googleapis.com/v1/thumbnail?panoid=PT1KnhUUhS3mAL07e5Jm2g&cb_client=maps_sv.tactile.gps&w=224&h=298&yaw=117.41483&pitch=0&thumbfov=100"
            }
        ],
        "link": "https://www.google.com/maps/place/Masjid-E-Ibrahimia/data=!4m7!3m6!1s0x3bcd417b204cbc55:0xfcf4ceb2cce74a88!8m2!3d18.9479993!4d79.091359!16s%2Fg%2F11rqh_2269!19sChIJVbxMIHtBzTsRiErnzLLO9Pw?authuser=0&hl=en&rclk=1",
        "coordinates": {
            "latitude": 18.9479993,
            "longitude": 79.091359
        }
    },
    {
        "name": "theegala dhrmaram eidgah",
        "main_category": "Mosque",
        "address": "224Q+GM9 theegala dhrmaram eidgah, Theegala Dharmaram, Telangana 505454",
        "detailed_address": {
            "ward": null,
            "street": "224Q+GM9",
            "city": "Theegala Dharmaram",
            "postal_code": null,
            "state": "Telangana",
            "country_code": "IN"
        },
        "images": [],
        "link": "https://www.google.com/maps/place/theegala+dhrmaram+eidgah/data=!4m7!3m6!1s0x3bcd4368ad4018c5:0x790c17ab17e3aaa6!8m2!3d19.0062932!4d79.0392394!16s%2Fg%2F11j92b1npv!19sChIJxRhArWhDzTsRpqrjF6sXDHk?authuser=0&hl=en&rclk=1",
        "coordinates": {
            "latitude": 19.006293199999998,
            "longitude": 79.0392394
        }
    },
    {
        "name": "Masjid-E-Noor",
        "main_category": "Mosque",
        "address": "WWPH+HVQ Masjid-E-Noor, Rechapalli, Telangana 505454",
        "detailed_address": {
            "ward": null,
            "street": "WWPH+HVQ",
            "city": "Rechapalli",
            "postal_code": "505454",
            "state": "Telangana",
            "country_code": "IN"
        },
        "images": [
            {
                "about": "All",
                "link": "https://lh5.googleusercontent.com/p/AF1QipPAsPknI6k70ibrJP3ljbM4uqfs6C2pD1dnAzQM=w224-h398-k-no"
            }
        ],
        "link": "https://www.google.com/maps/place/Masjid-E-Noor/data=!4m7!3m6!1s0x3bcd6b7331514d5f:0xff45f99cdcb0ecc8!8m2!3d18.9364588!4d78.9297201!16s%2Fg%2F11fvgfnlsd!19sChIJX01RMXNrzTsRyOyw3Jz5Rf8?authuser=0&hl=en&rclk=1",
        "coordinates": {
            "latitude": 18.9364588,
            "longitude": 78.9297201
        }
    },
    {
        "name": "Abbubakar masjid",
        "main_category": "Mosque",
        "address": "9WG5+JJV Abbubakar masjid, Jainoor, Telangana 504313",
        "detailed_address": {
            "ward": null,
            "street": "9WG5+JJV",
            "city": "Jainoor",
            "postal_code": "504313",
            "state": "Telangana",
            "country_code": "IN"
        },
        "images": [],
        "link": "https://www.google.com/maps/place/Abbubakar+masjid/data=!4m7!3m6!1s0x3bd29bab25333f2b:0x3b3f437925c3c48c!8m2!3d19.3766247!4d78.909049!16s%2Fg%2F11rs2wxm5k!19sChIJKz8zJaub0jsRjMTDJXlDPzs?authuser=0&hl=en&rclk=1",
        "coordinates": {
            "latitude": 19.3766247,
            "longitude": 78.909049
        }
    },
    {
        "name": "Arpapalli Masjid",
        "main_category": "Mosque",
        "address": "VXG6+G6J Arpapalli Masjid, Arpapalli, Telangana 505454",
        "detailed_address": {
            "ward": null,
            "street": "VXG6+G6J",
            "city": "Arpapalli",
            "postal_code": "505454",
            "state": "Telangana",
            "country_code": "IN"
        },
        "images": [
            {
                "about": "All",
                "link": "https://lh5.googleusercontent.com/p/AF1QipOMvT0HAI1KjqKqeJroSq009ib0-01aeNCCHifj=w224-h298-k-no"
            }
        ],
        "link": "https://www.google.com/maps/place/Arpapalli+Masjid/data=!4m7!3m6!1s0x3bcd6b1e5bd2ca9f:0xf70c13b1b76ce353!8m2!3d18.8763476!4d78.9605286!16s%2Fg%2F11ptzvdrt1!19sChIJn8rSWx5rzTsRU-Nst7ETDPc?authuser=0&hl=en&rclk=1",
        "coordinates": {
            "latitude": 18.8763476,
            "longitude": 78.9605286
        }
    },
    {
        "name": "Madina Masjid",
        "main_category": "Mosque",
        "address": "W3XW+XWP Madina Masjid, Rotte Venkamma Illu, Dharmapuri, Telangana 505425",
        "detailed_address": {
            "ward": "Rotte Venkamma Illu",
            "street": "W3XW+XWP",
            "city": "Dharmapuri",
            "postal_code": "505425",
            "state": "Telangana",
            "country_code": "IN"
        },
        "images": [],
        "link": "https://www.google.com/maps/place/Madina+Masjid/data=!4m7!3m6!1s0x3bcd415a95e6aaab:0x91c9672ecbd81a34!8m2!3d18.9499598!4d79.097315!16s%2Fg%2F11txmzj9x5!19sChIJq6rmlVpBzTsRNBrYyy5nyZE?authuser=0&hl=en&rclk=1",
        "coordinates": {
            "latitude": 18.9499598,
            "longitude": 79.097315
        }
    },
    {
        "name": "Jama masjid",
        "main_category": "Mosque",
        "address": "9XX2+F85 Jama masjid, Unnamed Road, Daboli, Telangana 504313",
        "detailed_address": {
            "ward": null,
            "street": "9XX2+F85, Unnamed Road",
            "city": "Daboli",
            "postal_code": "504313",
            "state": "Telangana",
            "country_code": "IN"
        },
        "images": [],
        "link": "https://www.google.com/maps/place/Jama+masjid/data=!4m7!3m6!1s0x3bd29962bbeafef3:0x74b0832244550441!8m2!3d19.3986432!4d78.9508508!16s%2Fg%2F11h4v7zns2!19sChIJ8_7qu2KZ0jsRQQRVRCKDsHQ?authuser=0&hl=en&rclk=1",
        "coordinates": {
            "latitude": 19.3986432,
            "longitude": 78.9508508
        }
    },
    {
        "name": "Jama Masjid",
        "main_category": "Mosque",
        "address": "V6G3+54W Jama Masjid, Luxettipet, Telangana 504215",
        "detailed_address": {
            "ward": null,
            "street": "V6G3+54W",
            "city": "Luxettipet",
            "postal_code": null,
            "state": "Telangana",
            "country_code": "IN"
        },
        "images": [],
        "link": "https://www.google.com/maps/place/Jama+Masjid/data=!4m7!3m6!1s0x3bcd4970ae68eff7:0x61bbf5e4054c084d!8m2!3d18.8754757!4d79.2028155!16s%2Fg%2F11sdxmbcv_!19sChIJ9-9ornBJzTsRTQhMBeT1u2E?authuser=0&hl=en&rclk=1",
        "coordinates": {
            "latitude": 18.8754757,
            "longitude": 79.2028155
        }
    }
]