[
    {
        "name": "Madina Masjid",
        "main_category": "Mosque",
        "address": "Madina Masjid, Government Junior College, Bhainsa, Telangana 504103",
        "detailed_address": {
            "ward": null,
            "street": "Government Junior College",
            "city": "Bhainsa",
            "postal_code": "504103",
            "state": "Telangana",
            "country_code": "IN"
        },
        "images": [
            {
                "about": "All",
                "link": "https://lh5.googleusercontent.com/p/AF1QipOgBfteuhgcz0S1My3oVNL-oqzpmOdD4y-HbFp6=w224-h398-k-no"
            },
            {
                "about": "Videos",
                "link": "https://lh5.googleusercontent.com/p/AF1QipOgBfteuhgcz0S1My3oVNL-oqzpmOdD4y-HbFp6=w224-h398-k-no"
            }
        ],
        "link": "https://www.google.com/maps/place/Madina+Masjid/data=!4m7!3m6!1s0x3bcdfe5aef2fd1e3:0x48c8397dc97ab0f6!8m2!3d19.1096769!4d77.9643594!16s%2Fg%2F11b7w99d4p!19sChIJ49Ev71r-zTsR9rB6yX05yEg?authuser=0&hl=en&rclk=1",
        "coordinates": {
            "latitude": 19.1096769,
            "longitude": 77.96435939999999
        }
    },
    {
        "name": "Masjid Panjesha",
        "main_category": "Mosque",
        "address": "Masjid Panjesha, masjid, panjesha marg, Bhainsa, Telangana 504103",
        "detailed_address": {
            "ward": null,
            "street": "masjid, panjesha marg",
            "city": "Bhainsa",
            "postal_code": null,
            "state": "Telangana",
            "country_code": "IN"
        },
        "images": [
            {
                "about": "All",
                "link": "https://lh5.googleusercontent.com/p/AF1QipO_s7rO64wG93YIcBuS6JQ_1TYMJqeHQFlVg1VY=w397-h298-k-no"
            },
            {
                "about": "Dome",
                "link": "https://lh5.googleusercontent.com/p/AF1QipNHmjHjXgfpP2Zu9d-le8RNY-FJC6BKJpNrJs1L=w397-h298-k-no"
            },
            {
                "about": "Videos",
                "link": "https://lh5.googleusercontent.com/p/AF1QipOXCbPtkew6WuGaOFY_ABwGxvaDcIKzLFKX_hg=w518-h298-k-no"
            },
            {
                "about": "Street View & 360deg",
                "link": "https://streetviewpixels-pa.googleapis.com/v1/thumbnail?panoid=TzWRqkK3svgcJm4jbP1L2g&cb_client=maps_sv.tactile.gps&w=224&h=298&yaw=271.78186&pitch=0&thumbfov=100"
            }
        ],
        "link": "https://www.google.com/maps/place/Masjid+Panjesha/data=!4m7!3m6!1s0x3bcdfe45594b318b:0xa9a4527a0d3bdd4e!8m2!3d19.1114013!4d77.9614446!16s%2Fg%2F11xfvxc4m!19sChIJizFLWUX-zTsRTt07DXpSpKk?authuser=0&hl=en&rclk=1",
        "coordinates": {
            "latitude": 19.1114013,
            "longitude": 77.9614446
        }
    },
    {
        "name": "Eid-Gah",
        "main_category": "Mosque",
        "address": "4XC4+J65 Eid-Gah, Palsi Road, Telangana 504103",
        "detailed_address": {
            "ward": null,
            "street": "4XC4+J65, Palsi Road",
            "city": null,
            "postal_code": "504103",
            "state": "Telangana",
            "country_code": "IN"
        },
        "images": [
            {
                "about": "All",
                "link": "https://lh5.googleusercontent.com/p/AF1QipOOHcV4Av33YHc62QhAq_rcGytaOXJ01tzQjBAj=w397-h298-k-no"
            }
        ],
        "link": "https://www.google.com/maps/place/Eid-Gah/data=!4m7!3m6!1s0x3bcdfe4b41f2b35b:0x49272df21ed88662!8m2!3d19.1215231!4d77.9556209!16s%2Fg%2F11b7lhbkzd!19sChIJW7PyQUv-zTsRYobYHvItJ0k?authuser=0&hl=en&rclk=1",
        "coordinates": {
            "latitude": 19.121523099999997,
            "longitude": 77.9556209
        }
    },
    {
        "name": "Masjid-e-Umar Farooq",
        "main_category": "Mosque",
        "address": "4X79+M2F Masjid-e-Umar Farooq, Umar Farooq St, Abadi, Bhainsa, Telangana 504103",
        "detailed_address": {
            "ward": "Abadi",
            "street": "4X79+M2F, Umar Farooq St",
            "city": "Bhainsa",
            "postal_code": "504103",
            "state": "Telangana",
            "country_code": "IN"
        },
        "images": [
            {
                "about": "All",
                "link": "https://lh5.googleusercontent.com/p/AF1QipOvyueRdlKI1LWXMOUq4HQk_p0gWPT1L__u-YB_=w529-h298-k-no"
            },
            {
                "about": "Videos",
                "link": "https://lh5.googleusercontent.com/p/AF1QipPjjkM98HDCDQzzsJgD5fJLCS-wEGPUH3t9Uucv=w529-h298-k-no"
            }
        ],
        "link": "https://www.google.com/maps/place/Masjid-e-Umar+Farooq/data=!4m7!3m6!1s0x3bcdfe50d026f4b3:0x9d2df10fc48b7b47!8m2!3d19.1141962!4d77.9675498!16s%2Fg%2F11c1s1_b43!19sChIJs_Qm0FD-zTsRR3uLxA_xLZ0?authuser=0&hl=en&rclk=1",
        "coordinates": {
            "latitude": 19.1141962,
            "longitude": 77.9675498
        }
    },
    {
        "name": "MASJID-E-MOMINAN",
        "main_category": "Mosque",
        "address": "4X76+4V9 MASJID-E-MOMINAN, mominan Galli, Siddhartha Nagar, Bhainsa, Telangana 504103",
        "detailed_address": {
            "ward": "Siddhartha Nagar",
            "street": "4X76+4V9, mominan Galli",
            "city": "Bhainsa",
            "postal_code": "504103",
            "state": "Telangana",
            "country_code": "IN"
        },
        "images": [
            {
                "about": "All",
                "link": "https://streetviewpixels-pa.googleapis.com/v1/thumbnail?panoid=wIOL1P3Wb5yEneQhKoLidw&cb_client=maps_sv.tactile.gps&w=224&h=298&yaw=210.08919&pitch=0&thumbfov=100"
            },
            {
                "about": "Street View & 360deg",
                "link": "https://streetviewpixels-pa.googleapis.com/v1/thumbnail?panoid=wIOL1P3Wb5yEneQhKoLidw&cb_client=maps_sv.tactile.gps&w=224&h=298&yaw=210.08919&pitch=0&thumbfov=100"
            }
        ],
        "link": "https://www.google.com/maps/place/MASJID-E-MOMINAN/data=!4m7!3m6!1s0x3bcdfe4fe1772615:0x1ea8449dd9031e42!8m2!3d19.1127883!4d77.9622459!16s%2Fg%2F11bymwdg7g!19sChIJFSZ34U_-zTsRQh4D2Z1EqB4?authuser=0&hl=en&rclk=1",
        "coordinates": {
            "latitude": 19.1127883,
            "longitude": 77.9622459
        }
    },
    {
        "name": "Masjid E Ibrahim, Barktpura",
        "main_category": "Mosque",
        "address": "V5G2+6GW Masjid E Ibrahim, Barktpura, Nandipet, Telangana 503212",
        "detailed_address": {
            "ward": null,
            "street": "V5G2+6GW",
            "city": "Nandipet",
            "postal_code": "503212",
            "state": "Telangana",
            "country_code": "IN"
        },
        "images": [
            {
                "about": "All",
                "link": "https://lh5.googleusercontent.com/p/AF1QipPUaYTdfSK24GqFUeTa9a3k8lhQLRMbCRD30vPZ=w224-h298-k-no"
            },
            {
                "about": "Street View & 360deg",
                "link": "https://streetviewpixels-pa.googleapis.com/v1/thumbnail?panoid=auOdnlt_yE3su7msakBHNQ&cb_client=maps_sv.tactile.gps&w=224&h=298&yaw=95.06884&pitch=0&thumbfov=100"
            }
        ],
        "link": "https://www.google.com/maps/place/Masjid+E+Ibrahim,+Barktpura/data=!4m7!3m6!1s0x3bcde8e0d7a7ca29:0x90e848f7ab731261!8m2!3d18.8756018!4d78.1513263!16s%2Fg%2F11c3117pqk!19sChIJKcqn1-DozTsRYRJzq_dI6JA?authuser=0&hl=en&rclk=1",
        "coordinates": {
            "latitude": 18.8756018,
            "longitude": 78.1513263
        }
    },
    {
        "name": "Masjid E IbadurRahman Ahle Hadees",
        "main_category": "Mosque",
        "address": "XWG6+27P Masjid E IbadurRahman Ahle Hadees, Mudhole, Telangana 504102",
        "detailed_address": {
            "ward": null,
            "street": "XWG6+27P",
            "city": "Mudhole",
            "postal_code": "504102",
            "state": "Telangana",
            "country_code": "IN"
        },
        "images": [
            {
                "about": "All",
                "link": "https://lh5.googleusercontent.com/p/AF1QipOrOEe2MYCvaHvIPaqK9akdqVAFWZX2F7pbvczd=w272-h298-k-no"
            }
        ],
        "link": "https://www.google.com/maps/place/Masjid+E+IbadurRahman+Ahle+Hadees/data=!4m7!3m6!1s0x3bce080be6d32c33:0x252823fccc2f49dc!8m2!3d18.975097!4d77.9106939!16s%2Fg%2F11g7zv4hq8!19sChIJMyzT5gsIzjsR3EkvzPwjKCU?authuser=0&hl=en&rclk=1",
        "coordinates": {
            "latitude": 18.975096999999998,
            "longitude": 77.9106939
        }
    },
    {
        "name": "Osman Masjid",
        "main_category": "Mosque",
        "address": "4X47+RJX Osman Masjid, Asad Baba Nagar, Bhainsa, Telangana 504103",
        "detailed_address": {
            "ward": "Asad Baba Nagar",
            "street": "4X47+RJX",
            "city": "Bhainsa",
            "postal_code": "504103",
            "state": "Telangana",
            "country_code": "IN"
        },
        "images": [
            {
                "about": "All",
                "link": "https://lh5.googleusercontent.com/p/AF1QipMJk-qQCTUMu7cD5Elt9Zqk6YOwEwkijfuR4K7W=w224-h298-k-no"
            }
        ],
        "link": "https://www.google.com/maps/place/Osman+Masjid/data=!4m7!3m6!1s0x3bcdfe5b6bc0025d:0x854fb770d38fd2a3!8m2!3d19.107103!4d77.9641068!16s%2Fg%2F11cn6jvztk!19sChIJXQLAa1v-zTsRo9KP03C3T4U?authuser=0&hl=en&rclk=1",
        "coordinates": {
            "latitude": 19.107103,
            "longitude": 77.9641068
        }
    },
    {
        "name": "Zulfaquar Masjid",
        "main_category": "Mosque",
        "address": "Zulfaquar Masjid, Batti Galli, Bhainsa, Telangana 504103",
        "detailed_address": {
            "ward": null,
            "street": "Batti Galli",
            "city": "Bhainsa",
            "postal_code": "504103",
            "state": "Telangana",
            "country_code": "IN"
        },
        "images": [
            {
                "about": "All",
                "link": "https://lh5.googleusercontent.com/p/AF1QipM7E1ptmA3StCAANJRjlMm3n5uoMxAV_h7Zmycy=w645-h298-k-no"
            },
            {
                "about": "By owner",
                "link": "https://lh5.googleusercontent.com/p/AF1QipMbizTqvcVQus_gQbzxFRC87HvLcmH9Z_lLAqe3=w529-h298-k-no"
            },
            {
                "about": "Videos",
                "link": "https://lh5.googleusercontent.com/p/AF1QipMbizTqvcVQus_gQbzxFRC87HvLcmH9Z_lLAqe3=w529-h298-k-no"
            },
            {
                "about": "Street View & 360deg",
                "link": "https://streetviewpixels-pa.googleapis.com/v1/thumbnail?panoid=RlM5Kmut7SKS_-xEUA-pDQ&cb_client=maps_sv.tactile.gps&w=224&h=298&yaw=186.6167&pitch=0&thumbfov=100"
            }
        ],
        "link": "https://www.google.com/maps/place/Zulfaquar+Masjid/data=!4m7!3m6!1s0x3bcdfe458e005063:0x3327cc952a5d40c3!8m2!3d19.1106687!4d77.9585257!16s%2Fg%2F11b7lgcncq!19sChIJY1AAjkX-zTsRw0BdKpXMJzM?authuser=0&hl=en&rclk=1",
        "coordinates": {
            "latitude": 19.110668699999998,
            "longitude": 77.9585257
        }
    },
    {
        "name": "jama masjid",
        "main_category": "Mosque",
        "address": "4556+99V jama masjid, Narsapur, Telangana 504104",
        "detailed_address": {
            "ward": null,
            "street": "4556+99V",
            "city": "Narsapur",
            "postal_code": "504104",
            "state": "Telangana",
            "country_code": "IN"
        },
        "images": [
            {
                "about": "All",
                "link": "https://lh5.googleusercontent.com/p/AF1QipOPIP1qQg97_iSKy4lRKYYJ6tC5zEqYZf_iVK0D=w529-h298-k-no"
            }
        ],
        "link": "https://www.google.com/maps/place/jama+masjid/data=!4m7!3m6!1s0x3bcdf6debe130ce1:0x496ea4eb093e0f95!8m2!3d19.1084754!4d78.1609358!16s%2Fg%2F11dymkzz5r!19sChIJ4QwTvt72zTsRlQ8-Ceukbkk?authuser=0&hl=en&rclk=1",
        "coordinates": {
            "latitude": 19.1084754,
            "longitude": 78.16093579999999
        }
    },
    {
        "name": "ISLAMIA MASJID",
        "main_category": "Mosque",
        "address": "33P9+Q3G ISLAMIA MASJID, Unnamed Road, Pendapalle, Telangana 504109",
        "detailed_address": {
            "ward": null,
            "street": "33P9+Q3G, Unnamed Road",
            "city": "Pendapalle",
            "postal_code": "504109",
            "state": "Telangana",
            "country_code": "IN"
        },
        "images": [
            {
                "about": "All",
                "link": "https://lh5.googleusercontent.com/p/AF1QipNA9wPkaN0CRVUg1Rys0LL_Sup5TOGwnCqzUSB2=w529-h298-k-no"
            }
        ],
        "link": "https://www.google.com/maps/place/ISLAMIA+MASJID/data=!4m7!3m6!1s0x3bcdf9a84cf030af:0x3505c992c42fe512!8m2!3d19.0869441!4d78.0677168!16s%2Fg%2F11h1lsvqdn!19sChIJrzDwTKj5zTsREuUvxJLJBTU?authuser=0&hl=en&rclk=1",
        "coordinates": {
            "latitude": 19.0869441,
            "longitude": 78.0677168
        }
    },
    {
        "name": "Jama Masjid",
        "main_category": "Mosque",
        "address": "XWG6+C48 Jama Masjid, Mudhole, Telangana 504102",
        "detailed_address": {
            "ward": null,
            "street": "XWG6+C48",
            "city": "Mudhole",
            "postal_code": "504102",
            "state": "Telangana",
            "country_code": "IN"
        },
        "images": [
            {
                "about": "All",
                "link": "https://lh5.googleusercontent.com/p/AF1QipPdPdFewlW4GDNJxXp5PpXvU2UTrOudF1HULBiF=w529-h298-k-no"
            }
        ],
        "link": "https://www.google.com/maps/place/Jama+Masjid/data=!4m7!3m6!1s0x3bce080bcfe00875:0x521c3c0cceda907b!8m2!3d18.976033!4d77.910315!16s%2Fg%2F11cs6hpvpt!19sChIJdQjgzwsIzjsRe5Dazgw8HFI?authuser=0&hl=en&rclk=1",
        "coordinates": {
            "latitude": 18.976032999999997,
            "longitude": 77.910315
        }
    },
    {
        "name": "Makkah Masjid",
        "main_category": "Mosque",
        "address": "XWG6+PX2 Makkah Masjid, Mudhole, Telangana 504102",
        "detailed_address": {
            "ward": null,
            "street": "XWG6+PX2",
            "city": "Mudhole",
            "postal_code": "504102",
            "state": "Telangana",
            "country_code": "IN"
        },
        "images": [
            {
                "about": "All",
                "link": "https://lh5.googleusercontent.com/p/AF1QipOUWXLPsu_XIMirfS5trQJ2kkzaFf9m1NBcP9FW=w224-h398-k-no"
            },
            {
                "about": "Videos",
                "link": "https://lh5.googleusercontent.com/p/AF1QipOUWXLPsu_XIMirfS5trQJ2kkzaFf9m1NBcP9FW=w224-h398-k-no"
            }
        ],
        "link": "https://www.google.com/maps/place/Makkah+Masjid/data=!4m7!3m6!1s0x3bce0809755c9b3f:0x48d5663eeadd5675!8m2!3d18.976772!4d77.9123917!16s%2Fg%2F11c1xm9fpd!19sChIJP5tcdQkIzjsRdVbd6j5m1Ug?authuser=0&hl=en&rclk=1",
        "coordinates": {
            "latitude": 18.976772,
            "longitude": 77.9123917
        }
    },
    {
        "name": "Puspoor Jama Masjid",
        "main_category": "Mosque",
        "address": "22XJ+P6Q Puspoor Jama Masjid, Puspur, Telangana 504102",
        "detailed_address": {
            "ward": null,
            "street": "22XJ+P6Q",
            "city": "Puspur",
            "postal_code": "504102",
            "state": "Telangana",
            "country_code": "IN"
        },
        "images": [
            {
                "about": "All",
                "link": "https://lh5.googleusercontent.com/p/AF1QipMSL1wUlPuwtRNi-QBnxaDAeA9ZR5HozeTNzeCl=w224-h298-k-no"
            },
            {
                "about": "Dome",
                "link": "https://lh5.googleusercontent.com/p/AF1QipP6lcAjQZLSyC2_FLav2Sx-vax8aorTd_NWU2FK=w338-h298-k-no"
            }
        ],
        "link": "https://www.google.com/maps/place/Puspoor+Jama+Masjid/data=!4m7!3m6!1s0x3bcdfb8e2e750bc9:0x687fc9f12d518e7d!8m2!3d19.0493459!4d78.0306125!16s%2Fg%2F11hbnncv9l!19sChIJyQt1Lo77zTsRfY5RLfHJf2g?authuser=0&hl=en&rclk=1",
        "coordinates": {
            "latitude": 19.0493459,
            "longitude": 78.03061249999999
        }
    },
    {
        "name": "EIDGAH MUDHOLE",
        "main_category": "Mosque",
        "address": "XWJ9+GF6 EIDGAH MUDHOLE, Mudhole, Telangana 504102",
        "detailed_address": {
            "ward": null,
            "street": "XWJ9+GF6",
            "city": "Mudhole",
            "postal_code": "504102",
            "state": "Telangana",
            "country_code": "IN"
        },
        "images": [],
        "link": "https://www.google.com/maps/place/EIDGAH+MUDHOLE/data=!4m7!3m6!1s0x3bce07fd6c3d37c5:0xd851295bd8707bd0!8m2!3d18.9812863!4d77.9186262!16s%2Fg%2F11gck4xmd2!19sChIJxTc9bP0HzjsR0Htw2FspUdg?authuser=0&hl=en&rclk=1",
        "coordinates": {
            "latitude": 18.9812863,
            "longitude": 77.91862619999999
        }
    },
    {
        "name": "Madina Masjid",
        "main_category": "Mosque",
        "address": "XWPC+CGC Madina Masjid, Mudhole St, Mudhole, Telangana 504102",
        "detailed_address": {
            "ward": null,
            "street": "XWPC+CGC, Mudhole St",
            "city": "Mudhole",
            "postal_code": "504102",
            "state": "Telangana",
            "country_code": "IN"
        },
        "images": [
            {
                "about": "All",
                "link": "https://lh5.googleusercontent.com/p/AF1QipOHTMLGNi6R8b3j-xqlImxFnO5KrHdnZUIJ1HRV=w224-h398-k-no"
            },
            {
                "about": "Videos",
                "link": "https://lh5.googleusercontent.com/p/AF1QipM0cRxabGW_HeDfxkrndRK4d7J9L0vDNompxYW8=w224-h398-k-no"
            }
        ],
        "link": "https://www.google.com/maps/place/Madina+Masjid/data=!4m7!3m6!1s0x3bce07fc0d5ab6d9:0xef39beed9a49c2b0!8m2!3d18.9860691!4d77.9212626!16s%2Fg%2F11fyzflsc6!19sChIJ2bZaDfwHzjsRsMJJmu2-Oe8?authuser=0&hl=en&rclk=1",
        "coordinates": {
            "latitude": 18.986069099999998,
            "longitude": 77.92126259999999
        }
    },
    {
        "name": "New Masjid",
        "main_category": "Mosque",
        "address": "4536+837 New Masjid, Narsapur, Telangana 504104",
        "detailed_address": {
            "ward": null,
            "street": "4536+837",
            "city": "Narsapur",
            "postal_code": "504104",
            "state": "Telangana",
            "country_code": "IN"
        },
        "images": [
            {
                "about": "All",
                "link": "https://lh5.googleusercontent.com/p/AF1QipM54G4ao8KLpfnUMityNPwDLhIOdlgeLBJaLwfm=w239-h298-k-no"
            },
            {
                "about": "Dome",
                "link": "https://lh5.googleusercontent.com/p/AF1QipM54G4ao8KLpfnUMityNPwDLhIOdlgeLBJaLwfm=w239-h298-k-no"
            }
        ],
        "link": "https://www.google.com/maps/place/New+Masjid/data=!4m7!3m6!1s0x3bcdf6d9badf7107:0x959db33fe812bc3a!8m2!3d19.1032998!4d78.1601806!16s%2Fg%2F11dyqr83fc!19sChIJB3Hfutn2zTsROrwS6D-znZU?authuser=0&hl=en&rclk=1",
        "coordinates": {
            "latitude": 19.1032998,
            "longitude": 78.16018059999999
        }
    },
    {
        "name": "JAAMA MASJID",
        "main_category": "Mosque",
        "address": "V5HQ+CR2 JAAMA MASJID, Khudavandapur, Telangana 503212",
        "detailed_address": {
            "ward": null,
            "street": "V5HQ+CR2",
            "city": "Khudavandapur",
            "postal_code": "503212",
            "state": "Telangana",
            "country_code": "IN"
        },
        "images": [
            {
                "about": "All",
                "link": "https://lh5.googleusercontent.com/p/AF1QipMYDY1G6gE9LAAEvha-Cm8vUsCWef79i7bnhm9U=w397-h298-k-no"
            }
        ],
        "link": "https://www.google.com/maps/place/JAAMA+MASJID/data=!4m7!3m6!1s0x3bcde9686667a3f5:0xee541aaa8c8de747!8m2!3d18.8785188!4d78.1895025!16s%2Fg%2F11c5350yrl!19sChIJ9aNnZmjpzTsRR-eNjKoaVO4?authuser=0&hl=en&rclk=1",
        "coordinates": {
            "latitude": 18.8785188,
            "longitude": 78.1895025
        }
    },
    {
        "name": "Masjid-E-Imam Unnissa",
        "main_category": "Mosque",
        "address": "4X88+73C Masjid-E-Imam Unnissa, Bhainsa, Telangana 504103",
        "detailed_address": {
            "ward": null,
            "street": "4X88+73C",
            "city": "Bhainsa",
            "postal_code": "504103",
            "state": "Telangana",
            "country_code": "IN"
        },
        "images": [
            {
                "about": "All",
                "link": "https://lh5.googleusercontent.com/p/AF1QipORlGPKY9FRAFC3XxBuza88SqSRlppowqS9wh5p=w397-h298-k-no"
            }
        ],
        "link": "https://www.google.com/maps/place/Masjid-E-Imam+Unnissa/data=!4m7!3m6!1s0x3bcdff48f9d34921:0xbfa3a3b4df1b04b1!8m2!3d19.1156767!4d77.965154!16s%2Fg%2F11n60wjr3b!19sChIJIUnT-Uj_zTsRsQQb37Sjo78?authuser=0&hl=en&rclk=1",
        "coordinates": {
            "latitude": 19.115676699999998,
            "longitude": 77.965154
        }
    },
    {
        "name": "Masjid e Raza",
        "main_category": "Mosque",
        "address": "XWF6+J4R Masjid e Raza, Mudhole, Telangana 504102",
        "detailed_address": {
            "ward": null,
            "street": "XWF6+J4R",
            "city": "Mudhole",
            "postal_code": "504102",
            "state": "Telangana",
            "country_code": "IN"
        },
        "images": [
            {
                "about": "All",
                "link": "https://lh5.googleusercontent.com/p/AF1QipNFpMnWq5Z4xC7Wbu2rmlpoHILUQabQdDyhUNyO=w224-h398-k-no"
            }
        ],
        "link": "https://www.google.com/maps/place/Masjid+e+Raza/data=!4m7!3m6!1s0x3bce080bf0b3996b:0x6a28aa7b8634486e!8m2!3d18.9741249!4d77.9102554!16s%2Fg%2F11gbk4v73l!19sChIJa5mz8AsIzjsRbkg0hnuqKGo?authuser=0&hl=en&rclk=1",
        "coordinates": {
            "latitude": 18.9741249,
            "longitude": 77.9102554
        }
    },
    {
        "name": "MOHAMMADIYA MASJID",
        "main_category": "Mosque",
        "address": "XVR7+2R5 MOHAMMADIYA MASJID, Nandgam, Telangana 504102",
        "detailed_address": {
            "ward": null,
            "street": "XVR7+2R5",
            "city": "Nandgam",
            "postal_code": "504102",
            "state": "Telangana",
            "country_code": "IN"
        },
        "images": [
            {
                "about": "All",
                "link": "https://lh5.googleusercontent.com/p/AF1QipNmGIGza_X-bueNJJKra2fFHfqPA__DQVwqXhBX=w529-h298-k-no"
            }
        ],
        "link": "https://www.google.com/maps/place/MOHAMMADIYA+MASJID/data=!4m7!3m6!1s0x3bce07528ded7757:0x80b1e2eefa1c65c1!8m2!3d18.9900182!4d77.8646149!16s%2Fg%2F11tcm00p9l!19sChIJV3ftjVIHzjsRwWUc-u7isYA?authuser=0&hl=en&rclk=1",
        "coordinates": {
            "latitude": 18.990018199999998,
            "longitude": 77.86461489999999
        }
    },
    {
        "name": "Masjid",
        "main_category": "Mosque",
        "address": "V4J3+G35 Masjid, Talveda, Telangana 503212",
        "detailed_address": {
            "ward": null,
            "street": "V4J3+G35",
            "city": "Talveda",
            "postal_code": "503212",
            "state": "Telangana",
            "country_code": "IN"
        },
        "images": [
            {
                "about": "All",
                "link": "https://lh5.googleusercontent.com/p/AF1QipMra2c2ujdLYY-zELW15yIg1WPq6eLgmyVT5ja0=w397-h298-k-no"
            },
            {
                "about": "Street View & 360deg",
                "link": "https://streetviewpixels-pa.googleapis.com/v1/thumbnail?panoid=3QOx_wj-qtdz_PBtOjFVdQ&cb_client=maps_sv.tactile.gps&w=224&h=298&yaw=110.09798&pitch=0&thumbfov=100"
            }
        ],
        "link": "https://www.google.com/maps/place/Masjid/data=!4m7!3m6!1s0x3bcde61bd6f5a8df:0x2075fc2b5df30b25!8m2!3d18.8812633!4d78.1027307!16s%2Fg%2F11d_bkbh7z!19sChIJ36j11hvmzTsRJQvzXSv8dSA?authuser=0&hl=en&rclk=1",
        "coordinates": {
            "latitude": 18.8812633,
            "longitude": 78.1027307
        }
    },
    {
        "name": "Masjid e Ansar",
        "main_category": "Mosque",
        "address": "XWH8+35H Masjid e Ansar, Mudhole, Telangana 504102",
        "detailed_address": {
            "ward": null,
            "street": "XWH8+35H",
            "city": "Mudhole",
            "postal_code": "504102",
            "state": "Telangana",
            "country_code": "IN"
        },
        "images": [],
        "link": "https://www.google.com/maps/place/Masjid+e+Ansar/data=!4m7!3m6!1s0x3bce0808663e36b7:0x507a7de2ed269433!8m2!3d18.9776815!4d77.9154895!16s%2Fg%2F11fyzflcvx!19sChIJtzY-ZggIzjsRM5Qm7eJ9elA?authuser=0&hl=en&rclk=1",
        "coordinates": {
            "latitude": 18.9776815,
            "longitude": 77.91548949999999
        }
    },
    {
        "name": "Masijd",
        "main_category": "Mosque",
        "address": "37RJ+GWX Masijd, Sirgapur, Telangana 504306",
        "detailed_address": {
            "ward": null,
            "street": "37RJ+GWX",
            "city": "Sirgapur",
            "postal_code": "504306",
            "state": "Telangana",
            "country_code": "IN"
        },
        "images": [
            {
                "about": "All",
                "link": "https://lh5.googleusercontent.com/p/AF1QipOhMnCvOzTCVgOmsyAdlUkttXFc1OTSHkkrd5XR=w298-h298-k-no"
            }
        ],
        "link": "https://www.google.com/maps/place/Masijd/data=!4m7!3m6!1s0x3bcdf33758e9a9e3:0xdf1a41fcd63d0884!8m2!3d19.0913546!4d78.2823573!16s%2Fg%2F11ssjwr2t4!19sChIJ46npWDfzzTsRhAg91vxBGt8?authuser=0&hl=en&rclk=1",
        "coordinates": {
            "latitude": 19.0913546,
            "longitude": 78.2823573
        }
    },
    {
        "name": "MAKTAB ABU BAKKAR SIDDIQ AILAPUR masjid",
        "main_category": "Mosque",
        "address": "R4XC+R93 MAKTAB ABU BAKKAR SIDDIQ AILAPUR masjid, Ailapur, Gunjali, Telangana 503212",
        "detailed_address": {
            "ward": null,
            "street": "R4XC+R93",
            "city": "Ailapur, Gunjali",
            "postal_code": null,
            "state": "Telangana",
            "country_code": "IN"
        },
        "images": [],
        "link": "https://www.google.com/maps/place/MAKTAB+ABU+BAKKAR+SIDDIQ+AILAPUR+masjid/data=!4m7!3m6!1s0x3bcde9f36adbabc3:0x71fe00fb81b6ee5d!8m2!3d18.849512!4d78.12091!16s%2Fg%2F11tx1s7mnm!19sChIJw6vbavPpzTsRXe62gfsA_nE?authuser=0&hl=en&rclk=1",
        "coordinates": {
            "latitude": 18.849512,
            "longitude": 78.12091
        }
    },
    {
        "name": "Masjid e Mubeen",
        "main_category": "Mosque",
        "address": "XWF5+7JW Masjid e Mubeen, Mudhole, Telangana 504102",
        "detailed_address": {
            "ward": null,
            "street": "XWF5+7JW",
            "city": "Mudhole",
            "postal_code": "504102",
            "state": "Telangana",
            "country_code": "IN"
        },
        "images": [],
        "link": "https://www.google.com/maps/place/Masjid+e+Mubeen/data=!4m7!3m6!1s0x3bce080c712766a7:0x4da094a3ac35a2d9!8m2!3d18.9732415!4d77.9090696!16s%2Fg%2F11f0_gjyz0!19sChIJp2YncQwIzjsR2aI1rKOUoE0?authuser=0&hl=en&rclk=1",
        "coordinates": {
            "latitude": 18.9732415,
            "longitude": 77.9090696
        }
    },
    {
        "name": "Wattoli Darga ",
        "main_category": "Mosque",
        "address": "X3H6+4X6 Wattoli Darga , Wastapur, Telangana 504101",
        "detailed_address": {
            "ward": null,
            "street": "X3H6+4X6",
            "city": "Wastapur",
            "postal_code": "504101",
            "state": "Telangana",
            "country_code": "IN"
        },
        "images": [],
        "link": "https://www.google.com/maps/place/Wattoli+Darga+%F0%9F%95%8B/data=!4m7!3m6!1s0x3bcde5434ff9fddb:0x570612386c856213!8m2!3d18.977918!4d78.061883!16s%2Fg%2F11vb_7nnp1!19sChIJ2_35T0PlzTsRE2KFbDgSBlc?authuser=0&hl=en&rclk=1",
        "coordinates": {
            "latitude": 18.977918,
            "longitude": 78.061883
        }
    },
    {
        "name": "Owaisi masjid",
        "main_category": "Mosque",
        "address": "4X3C+PVW Owaisi masjid, Rd number 2, Bhainsa, Telangana 504103",
        "detailed_address": {
            "ward": null,
            "street": "4X3C+PVW, Rd number 2",
            "city": "Bhainsa",
            "postal_code": "504103",
            "state": "Telangana",
            "country_code": "IN"
        },
        "images": [
            {
                "about": "All",
                "link": "https://lh5.googleusercontent.com/p/AF1QipN2qBcj1bacLG5mkM1RyVE5_C19TB5ipjsUp5W4=w224-h398-k-no"
            },
            {
                "about": "Videos",
                "link": "https://lh5.googleusercontent.com/p/AF1QipPg6bt5oVPHbgyL3OHfx8y4qnQzO4BpXG1pVetp=w224-h398-k-no"
            }
        ],
        "link": "https://www.google.com/maps/place/Owaisi+masjid/data=!4m7!3m6!1s0x3bcdffb38f817769:0x3746a83dd7b84291!8m2!3d19.1044739!4d77.9714137!16s%2Fg%2F11s5627lk5!19sChIJaXeBj7P_zTsRkUK41z2oRjc?authuser=0&hl=en&rclk=1",
        "coordinates": {
            "latitude": 19.1044739,
            "longitude": 77.9714137
        }
    },
    {
        "name": "Jama Masjid Nikalpoor",
        "main_category": "Mosque",
        "address": "W5Q8+3CH Jama Masjid Nikalpoor, Nizmabad, Nikalpur, Telangana 503212",
        "detailed_address": {
            "ward": null,
            "street": "W5Q8+3CH, Nizmabad",
            "city": "Nikalpur",
            "postal_code": "503212",
            "state": "Telangana",
            "country_code": "IN"
        },
        "images": [
            {
                "about": "All",
                "link": "https://lh5.googleusercontent.com/p/AF1QipOP-EN6F2ImWjXiycE3gyYpDTIrVlKT46Aa5E3X=w397-h298-k-no"
            }
        ],
        "link": "https://www.google.com/maps/place/Jama+Masjid+Nikalpoor/data=!4m7!3m6!1s0x3bcdeee53497f8e9:0x39d6ff72e8b22f94!8m2!3d18.9376999!4d78.1661121!16s%2Fg%2F11g6bm2xmm!19sChIJ6fiXNOXuzTsRlC-y6HL_1jk?authuser=0&hl=en&rclk=1",
        "coordinates": {
            "latitude": 18.9376999,
            "longitude": 78.16611209999999
        }
    },
    {
        "name": "JAME MASJID msiid Nagepoor",
        "main_category": "Mosque",
        "address": "RX2W+G8Q JAME MASJID msiid Nagepoor, Basara Rd, near zphs, Nagepur, Telangana 503245",
        "detailed_address": {
            "ward": null,
            "street": "RX2W+G8Q, Basara Rd, near zphs",
            "city": "Nagepur",
            "postal_code": null,
            "state": "Telangana",
            "country_code": "IN"
        },
        "images": [],
        "link": "https://www.google.com/maps/place/JAME+MASJID+%E0%B0%AE%E0%B0%B8%E0%B1%80%E0%B0%A6%E0%B1%8D+Nagepoor/data=!4m7!3m6!1s0x3bcde1757e333251:0x3f5941690a1096c8!8m2!3d18.8013323!4d77.9958577!16s%2Fg%2F11h3kbhg6b!19sChIJUTIzfnXhzTsRyJYQCmlBWT8?authuser=0&hl=en&rclk=1",
        "coordinates": {
            "latitude": 18.8013323,
            "longitude": 77.9958577
        }
    },
    {
        "name": "Dargah Ahmed Pasha Quadri",
        "main_category": "Mosque",
        "address": "XWF5+8JF Dargah Ahmed Pasha Quadri, Mudhole, Telangana 504102",
        "detailed_address": {
            "ward": null,
            "street": "XWF5+8JF",
            "city": "Mudhole",
            "postal_code": "504102",
            "state": "Telangana",
            "country_code": "IN"
        },
        "images": [],
        "link": "https://www.google.com/maps/place/Dargah+Ahmed+Pasha+Quadri/data=!4m7!3m6!1s0x3bce080c77299c19:0x9f92a587190f7f8e!8m2!3d18.973309!4d77.9090555!16s%2Fg%2F11fy_2cstl!19sChIJGZwpdwwIzjsRjn8PGYelkp8?authuser=0&hl=en&rclk=1",
        "coordinates": {
            "latitude": 18.973309,
            "longitude": 77.9090555
        }
    },
    {
        "name": "Masjid kothwal",
        "main_category": "Mosque",
        "address": "VXP3+V4Q Masjid kothwal, Unnamed Road, Basar, Telangana 504101",
        "detailed_address": {
            "ward": null,
            "street": "VXP3+V4Q, Unnamed Road",
            "city": "Basar",
            "postal_code": "504101",
            "state": "Telangana",
            "country_code": "IN"
        },
        "images": [
            {
                "about": "All",
                "link": "https://lh5.googleusercontent.com/p/AF1QipP1ORtNr19gtgQ7RgBkjI8U29WMNHeLn0R4vQ5U=w224-h398-k-no"
            },
            {
                "about": "Dome",
                "link": "https://lh5.googleusercontent.com/p/AF1QipPvBsEVRY0HS4FOM6_fCqjAKJMBNFGewO0YTDkG=w529-h298-k-no"
            },
            {
                "about": "Street View & 360deg",
                "link": "https://streetviewpixels-pa.googleapis.com/v1/thumbnail?panoid=Z9Y_GxOZ2Y7n5AogyYZfYg&cb_client=maps_sv.tactile.gps&w=224&h=298&yaw=110.54984&pitch=0&thumbfov=100"
            }
        ],
        "link": "https://www.google.com/maps/place/Masjid+kothwal/data=!4m7!3m6!1s0x3bcde16442d9a5c5:0x6573bdfe9c430a9c!8m2!3d18.8872129!4d77.9528679!16s%2Fg%2F11kky5c5x4!19sChIJxaXZQmThzTsRnApDnP69c2U?authuser=0&hl=en&rclk=1",
        "coordinates": {
            "latitude": 18.887212899999998,
            "longitude": 77.9528679
        }
    },
    {
        "name": "Masjid-e-Ibrahim",
        "main_category": "Mosque",
        "address": "4X3F+MGW Masjid-e-Ibrahim, Owasi Nagar, Bhainsa, Telangana 504103",
        "detailed_address": {
            "ward": "Owasi Nagar",
            "street": "4X3F+MGW",
            "city": "Bhainsa",
            "postal_code": "504103",
            "state": "Telangana",
            "country_code": "IN"
        },
        "images": [
            {
                "about": "All",
                "link": "https://lh5.googleusercontent.com/p/AF1QipOoEU1YJySEn4_7Zhos4eNXZNQ-pk7MftimqMF5=w529-h298-k-no"
            }
        ],
        "link": "https://www.google.com/maps/place/Masjid-e-Ibrahim/data=!4m7!3m6!1s0x3bcdff2e3ed8c869:0x9a1ebb33c7592548!8m2!3d19.1042258!4d77.9738428!16s%2Fg%2F11jpgpwxgp!19sChIJacjYPi7_zTsRSCVZxzO7Hpo?authuser=0&hl=en&rclk=1",
        "coordinates": {
            "latitude": 19.1042258,
            "longitude": 77.9738428
        }
    },
    {
        "name": "Eidgah.Khudavandpoor",
        "main_category": "Mosque",
        "address": "V5GW+H8G Eidgah.Khudavandpoor, Khudavandapur, Telangana 503212",
        "detailed_address": {
            "ward": null,
            "street": "V5GW+H8G",
            "city": "Khudavandapur",
            "postal_code": null,
            "state": "Telangana",
            "country_code": "IN"
        },
        "images": [],
        "link": "https://www.google.com/maps/place/Eidgah.Khudavandpoor/data=!4m7!3m6!1s0x3bcde9ac4d4f8c19:0xed0c61cfdbaf9aa5!8m2!3d18.8764358!4d78.1958335!16s%2Fg%2F11f653w8gn!19sChIJGYxPTazpzTsRpZqv289hDO0?authuser=0&hl=en&rclk=1",
        "coordinates": {
            "latitude": 18.8764358,
            "longitude": 78.19583349999999
        }
    },
    {
        "name": "Jama masjid",
        "main_category": "Mosque",
        "address": "X3CH+HHH Jama masjid, Unnamed Road, Dharmara, Telangana 504104",
        "detailed_address": {
            "ward": null,
            "street": "X3CH+HHH, Unnamed Road",
            "city": "Dharmara",
            "postal_code": "504104",
            "state": "Telangana",
            "country_code": "IN"
        },
        "images": [
            {
                "about": "All",
                "link": "https://lh5.googleusercontent.com/p/AF1QipN4YNOBRRJ8IcrxMG5QlfmyjXT5yUaS0wXfe_dD=w397-h298-k-no"
            }
        ],
        "link": "https://www.google.com/maps/place/Jama+masjid/data=!4m7!3m6!1s0x3bcde506ad45489d:0xd1d7c1c541293b7c!8m2!3d18.9714412!4d78.0789727!16s%2Fg%2F11r6xq5r2z!19sChIJnUhFrQblzTsRfDspQcXB19E?authuser=0&hl=en&rclk=1",
        "coordinates": {
            "latitude": 18.971441199999997,
            "longitude": 78.0789727
        }
    },
    {
        "name": "Darul Uloom Faiz ul Quran",
        "main_category": "Mosque",
        "address": "XWRC+9P3 Darul Uloom Faiz ul Quran, Adilabad, Telangana 504102",
        "detailed_address": {
            "ward": null,
            "street": "XWRC+9P3",
            "city": "Adilabad",
            "postal_code": null,
            "state": "Telangana",
            "country_code": "IN"
        },
        "images": [
            {
                "about": "All",
                "link": "https://lh5.googleusercontent.com/p/AF1QipNUhJdA_k5_x5fvhKJuMMZKx6mzR537tlrXrr4B=w397-h298-k-no"
            }
        ],
        "link": "https://www.google.com/maps/place/Darul+Uloom+Faiz+ul+Quran/data=!4m7!3m6!1s0x3bce0764d16d9c37:0x9f8a0bf244810834!8m2!3d18.9908992!4d77.9218055!16s%2Fg%2F11g1fv10bs!19sChIJN5xt0WQHzjsRNAiBRPILip8?authuser=0&hl=en&rclk=1",
        "coordinates": {
            "latitude": 18.990899199999998,
            "longitude": 77.92180549999999
        }
    },
    {
        "name": "Dargah masjid",
        "main_category": "Mosque",
        "address": "4X86+MR9 Dargah masjid, Old Bazar Rd, Bhainsa, Telangana 504103",
        "detailed_address": {
            "ward": null,
            "street": "4X86+MR9, Old Bazar Rd",
            "city": "Bhainsa",
            "postal_code": "504103",
            "state": "Telangana",
            "country_code": "IN"
        },
        "images": [
            {
                "about": "All",
                "link": "https://lh5.googleusercontent.com/p/AF1QipNIUk8WfUNOZtV-nRP4L6sQk1UzLXzZNZ6w9k5S=w224-h298-k-no"
            }
        ],
        "link": "https://www.google.com/maps/place/Dargah+masjid/data=!4m7!3m6!1s0x3bcdff763fbf880f:0x512b48d84c4231e0!8m2!3d19.1167346!4d77.962365!16s%2Fg%2F11sz2st0k3!19sChIJD4i_P3b_zTsR4DFCTNhIK1E?authuser=0&hl=en&rclk=1",
        "coordinates": {
            "latitude": 19.1167346,
            "longitude": 77.96236499999999
        }
    },
    {
        "name": "Masjid e Ehtesabi",
        "main_category": "Mosque",
        "address": "XWF6+X43 Masjid e Ehtesabi, Mudhole, Telangana 504102",
        "detailed_address": {
            "ward": null,
            "street": "XWF6+X43",
            "city": "Mudhole",
            "postal_code": "504102",
            "state": "Telangana",
            "country_code": "IN"
        },
        "images": [],
        "link": "https://www.google.com/maps/place/Masjid+e+Ehtesabi/data=!4m7!3m6!1s0x3bce080bef54c367:0x4a93e5c981198351!8m2!3d18.9748753!4d77.9102991!16s%2Fg%2F11fyzfn1m_!19sChIJZ8NU7wsIzjsRUYMZgcnlk0o?authuser=0&hl=en&rclk=1",
        "coordinates": {
            "latitude": 18.9748753,
            "longitude": 77.9102991
        }
    },
    {
        "name": "Thimmapur masjid",
        "main_category": "Mosque",
        "address": "435F+Q9G Thimmapur masjid, Unnamed Road, Thimmapur, Telangana 504109",
        "detailed_address": {
            "ward": null,
            "street": "435F+Q9G, Unnamed Road",
            "city": "Thimmapur",
            "postal_code": "504109",
            "state": "Telangana",
            "country_code": "IN"
        },
        "images": [],
        "link": "https://www.google.com/maps/place/Thimmapur+masjid/data=!4m7!3m6!1s0x3bcdf93c28513963:0x7dcfb1f3b4f8e7af!8m2!3d19.1094489!4d78.0734603!16s%2Fg%2F11qzbkts3t!19sChIJYzlRKDz5zTsRr-f4tPOxz30?authuser=0&hl=en&rclk=1",
        "coordinates": {
            "latitude": 19.1094489,
            "longitude": 78.0734603
        }
    },
    {
        "name": "pedd gutttt deevuddu, dhrmaarN",
        "main_category": "Mosque",
        "address": "X3PH+PC pedd gutttt deevuddu, dhrmaarN, VIP ADDA, New Raipur (K), Telangana 504104",
        "detailed_address": {
            "ward": null,
            "street": "X3PH+PC VIP ADDA",
            "city": "New Raipur (K)",
            "postal_code": "504104",
            "state": "Telangana",
            "country_code": "IN"
        },
        "images": [
            {
                "about": "All",
                "link": "https://lh5.googleusercontent.com/p/AF1QipMAI27ENq95vF0SgBRCFIQh5lh00gVozVC-rFTw=w668-h298-k-no"
            },
            {
                "about": "Latest",
                "link": "https://lh5.googleusercontent.com/p/AF1QipNXcFXFi78-EBBusfXSwihppUCFj0yETASvk_K0=w224-h502-k-no"
            }
        ],
        "link": "https://www.google.com/maps/place/%E0%B0%AA%E0%B1%86%E0%B0%A6%E0%B1%8D%E0%B0%A6+%E0%B0%97%E0%B1%81%E0%B0%9F%E0%B1%8D%E0%B0%9F+%E0%B0%A6%E0%B1%87%E0%B0%B5%E0%B1%81%E0%B0%A1%E0%B1%81,+%E0%B0%A7%E0%B0%B0%E0%B1%8D%E0%B0%AE%E0%B0%BE%E0%B0%B0%E0%B0%82/data=!4m7!3m6!1s0x3bcde5abeb56f289:0xb9041ab83c7f2d55!8m2!3d18.9880077!4d78.07903!16s%2Fg%2F11vj7tb2v9!19sChIJifJW66vlzTsRVS1_PLgaBLk?authuser=0&hl=en&rclk=1",
        "coordinates": {
            "latitude": 18.9880077,
            "longitude": 78.07903
        }
    },
    {
        "name": "Quadanshah ali",
        "main_category": "Mosque",
        "address": "4X5F+FPC Quadanshah ali, Bhainsa, Telangana 504103",
        "detailed_address": {
            "ward": null,
            "street": "4X5F+FPC",
            "city": "Bhainsa",
            "postal_code": "504103",
            "state": "Telangana",
            "country_code": "IN"
        },
        "images": [
            {
                "about": "All",
                "link": "https://lh5.googleusercontent.com/p/AF1QipMo7YMe2R_8NWsr4i4G96ZYcdtTynI2neUeg7HU=w298-h298-k-no"
            },
            {
                "about": "Latest",
                "link": "https://lh5.googleusercontent.com/p/AF1QipPV1Ee2nFbroYB0I39O80uIKn1n3QT-YfKFZs3w=w298-h298-k-no"
            }
        ],
        "link": "https://www.google.com/maps/place/Quadanshah+ali/data=!4m7!3m6!1s0x3bcdff7a411bd27f:0xf18f2bb4d86febfc!8m2!3d19.1086944!4d77.9742549!16s%2Fg%2F11l6yhsc3v!19sChIJf9IbQXr_zTsR_Otv2LQrj_E?authuser=0&hl=en&rclk=1",
        "coordinates": {
            "latitude": 19.108694399999997,
            "longitude": 77.97425489999999
        }
    },
    {
        "name": "Masjid-e-Taweed",
        "main_category": "Mosque",
        "address": "W49M+X9V Masjid-e-Taweed, Ummeda, Telangana 503212",
        "detailed_address": {
            "ward": null,
            "street": "W49M+X9V",
            "city": "Ummeda",
            "postal_code": "503212",
            "state": "Telangana",
            "country_code": "IN"
        },
        "images": [],
        "link": "https://www.google.com/maps/place/Masjid-e-Taweed/data=!4m7!3m6!1s0x3bcdef84711adc7f:0x8386494f394d9ae7!8m2!3d18.9199843!4d78.1334202!16s%2Fg%2F11f9zdrpmj!19sChIJf9wacYTvzTsR55pNOU9JhoM?authuser=0&hl=en&rclk=1",
        "coordinates": {
            "latitude": 18.9199843,
            "longitude": 78.1334202
        }
    },
    {
        "name": "Jama masjid",
        "main_category": "Mosque",
        "address": "Jama masjid, Tondakur, Shahpur, Telangana 503212",
        "detailed_address": {
            "ward": null,
            "street": null,
            "city": "Tondakur, Shahpur",
            "postal_code": "503212",
            "state": "Telangana",
            "country_code": "IN"
        },
        "images": [
            {
                "about": "All",
                "link": "https://lh5.googleusercontent.com/p/AF1QipNJkXI0yOKU5uJX7mxl53MxCr5qCJnUe5MVRAQ2=w529-h298-k-no"
            }
        ],
        "link": "https://www.google.com/maps/place/Jama+masjid/data=!4m7!3m6!1s0x3bcde9b6689d0d6d:0xd82ac2d148723667!8m2!3d18.9007382!4d78.1827624!16s%2Fg%2F11ty4q1_7p!19sChIJbQ2daLbpzTsRZzZySNHCKtg?authuser=0&hl=en&rclk=1",
        "coordinates": {
            "latitude": 18.9007382,
            "longitude": 78.1827624
        }
    },
    {
        "name": "Nagar masjid",
        "main_category": "Mosque",
        "address": "2462+FF8 Nagar masjid, Nagar, Telangana 504104",
        "detailed_address": {
            "ward": null,
            "street": "2462+FF8",
            "city": "Nagar",
            "postal_code": "504104",
            "state": "Telangana",
            "country_code": "IN"
        },
        "images": [
            {
                "about": "All",
                "link": "https://lh5.googleusercontent.com/p/AF1QipM2yg-4hs-FQtPPBy_EuMlhXFOyviqnqlq25Rm1=w224-h298-k-no"
            }
        ],
        "link": "https://www.google.com/maps/place/Nagar+masjid/data=!4m7!3m6!1s0x3bcdfb87f4e1ca07:0x97a41421f66a5818!8m2!3d19.010881!4d78.102116!16s%2Fg%2F11jt0w_z_l!19sChIJB8rh9If7zTsRGFhq9iEUpJc?authuser=0&hl=en&rclk=1",
        "coordinates": {
            "latitude": 19.010880999999998,
            "longitude": 78.102116
        }
    },
    {
        "name": "Dastagir Saheb Burj",
        "main_category": "Mosque",
        "address": "2X6X+X44 Dastagir Saheb Burj, Edbid, Telangana 504102",
        "detailed_address": {
            "ward": null,
            "street": "2X6X+X44",
            "city": "Edbid",
            "postal_code": "504102",
            "state": "Telangana",
            "country_code": "IN"
        },
        "images": [
            {
                "about": "All",
                "link": "https://lh5.googleusercontent.com/p/AF1QipMsvpCw8OfZhbko_LLR9ChZWventR5Tm9A4Sw9V=w224-h298-k-no"
            }
        ],
        "link": "https://www.google.com/maps/place/Dastagir+Saheb+Burj/data=!4m7!3m6!1s0x3bcdfdd991c2255f:0xc03dc50b054bc67f!8m2!3d19.0131884!4d77.9979526!16s%2Fg%2F11pz0j6z29!19sChIJXyXCkdn9zTsRf8ZLBQvFPcA?authuser=0&hl=en&rclk=1",
        "coordinates": {
            "latitude": 19.0131884,
            "longitude": 77.99795259999999
        }
    },
    {
        "name": "Masjid-e-ubaidullah",
        "main_category": "Mosque",
        "address": "6763+MPH Masjid-e-ubaidullah, Sarangpur, Telangana 504110",
        "detailed_address": {
            "ward": null,
            "street": "6763+MPH",
            "city": "Sarangpur",
            "postal_code": null,
            "state": "Telangana",
            "country_code": "IN"
        },
        "images": [],
        "link": "https://www.google.com/maps/place/Masjid-e-ubaidullah/data=!4m7!3m6!1s0x3bd20b252120dd91:0x7c73203f3c9c251a!8m2!3d19.2116901!4d78.2543469!16s%2Fg%2F11t9pbrlmq!19sChIJkd0gISUL0jsRGiWcPD8gc3w?authuser=0&hl=en&rclk=1",
        "coordinates": {
            "latitude": 19.2116901,
            "longitude": 78.2543469
        }
    },
    {
        "name": "Madarse Mohammadia Talim Ul Quran Wo Deniyat",
        "main_category": "Mosque",
        "address": "XWG7+PGX Madarse Mohammadia Talim Ul Quran Wo Deniyat, Mudhole, Telangana 504102",
        "detailed_address": {
            "ward": null,
            "street": "XWG7+PGX",
            "city": "Mudhole",
            "postal_code": "504102",
            "state": "Telangana",
            "country_code": "IN"
        },
        "images": [],
        "link": "https://www.google.com/maps/place/Madarse+Mohammadia+Talim+Ul+Quran+Wo+Deniyat/data=!4m7!3m6!1s0x3bce080855555555:0xa685082d5b291ae3!8m2!3d18.9768748!4d77.9138661!16s%2Fg%2F11fy_395k9!19sChIJVVVVVQgIzjsR4xopWy0IhaY?authuser=0&hl=en&rclk=1",
        "coordinates": {
            "latitude": 18.976874799999997,
            "longitude": 77.91386609999999
        }
    },
    {
        "name": "Masjid Mahboobia",
        "main_category": "Mosque",
        "address": "4X47+736 Masjid Mahboobia, Bhainsa, Telangana 504103",
        "detailed_address": {
            "ward": null,
            "street": "4X47+736",
            "city": "Bhainsa",
            "postal_code": "504103",
            "state": "Telangana",
            "country_code": "IN"
        },
        "images": [
            {
                "about": "All",
                "link": "https://lh5.googleusercontent.com/p/AF1QipM9e4THfGjaSsFz6RYbiYNNCEq4WrIJHxRRPiv6=w228-h298-k-no"
            },
            {
                "about": "Dome",
                "link": "https://lh5.googleusercontent.com/p/AF1QipM9e4THfGjaSsFz6RYbiYNNCEq4WrIJHxRRPiv6=w228-h298-k-no"
            }
        ],
        "link": "https://www.google.com/maps/place/Masjid+Mahboobia/data=!4m7!3m6!1s0x3bcdffa54730d159:0x3070551ca0bf95d2!8m2!3d19.1056685!4d77.9626302!16s%2Fg%2F11n001s619!19sChIJWdEwR6X_zTsR0pW_oBxVcDA?authuser=0&hl=en&rclk=1",
        "coordinates": {
            "latitude": 19.1056685,
            "longitude": 77.96263019999999
        }
    },
    {
        "name": "Dubba Masjid Nandipet",
        "main_category": "Mosque",
        "address": "V4GV+QGF Dubba Masjid Nandipet, Noothpalli, Telangana 503212",
        "detailed_address": {
            "ward": null,
            "street": "V4GV+QGF",
            "city": "Noothpalli",
            "postal_code": "503212",
            "state": "Telangana",
            "country_code": "IN"
        },
        "images": [
            {
                "about": "All",
                "link": "https://streetviewpixels-pa.googleapis.com/v1/thumbnail?panoid=qgspcnoXuC75zPZ0PPzKOQ&cb_client=maps_sv.tactile.gps&w=224&h=298&yaw=251.5479&pitch=0&thumbfov=100"
            },
            {
                "about": "Street View & 360deg",
                "link": "https://streetviewpixels-pa.googleapis.com/v1/thumbnail?panoid=qgspcnoXuC75zPZ0PPzKOQ&cb_client=maps_sv.tactile.gps&w=224&h=298&yaw=251.5479&pitch=0&thumbfov=100"
            }
        ],
        "link": "https://www.google.com/maps/place/Dubba+Masjid+Nandipet/data=!4m7!3m6!1s0x3bcde98d96886be9:0x3478282a5d76648b!8m2!3d18.8769333!4d78.1437879!16s%2Fg%2F11h57m9nzq!19sChIJ6WuIlo3pzTsRi2R2XSooeDQ?authuser=0&hl=en&rclk=1",
        "coordinates": {
            "latitude": 18.876933299999997,
            "longitude": 78.14378789999999
        }
    },
    {
        "name": "Eid Gah Pendpally",
        "main_category": "Mosque",
        "address": "33V5+4J5 Eid Gah Pendpally, Pendapalle, Telangana 504109",
        "detailed_address": {
            "ward": null,
            "street": "33V5+4J5",
            "city": "Pendapalle",
            "postal_code": null,
            "state": "Telangana",
            "country_code": "IN"
        },
        "images": [
            {
                "about": "All",
                "link": "https://lh5.googleusercontent.com/p/AF1QipPSTp_2BHMR3xitvmsDDROOGm5zh4b6Dvw5eytN=w224-h398-k-no"
            }
        ],
        "link": "https://www.google.com/maps/place/Eid+Gah+Pendpally/data=!4m7!3m6!1s0x3bcdf96438d2ab65:0x81c7b0a7ae7719bd!8m2!3d19.0927654!4d78.0591246!16s%2Fg%2F11h4s0gw3_!19sChIJZavSOGT5zTsRvRl3rqewx4E?authuser=0&hl=en&rclk=1",
        "coordinates": {
            "latitude": 19.092765399999998,
            "longitude": 78.05912459999999
        }
    },
    {
        "name": "Jamiya Masjid",
        "main_category": "Mosque",
        "address": "Jamiya Masjid, Panchagudi, Dharmara, Telangana 504104",
        "detailed_address": {
            "ward": null,
            "street": null,
            "city": "Panchagudi, Dharmara",
            "postal_code": "504104",
            "state": "Telangana",
            "country_code": "IN"
        },
        "images": [
            {
                "about": "All",
                "link": "https://lh5.googleusercontent.com/p/AF1QipM5i9IOOHW-ZlNoFoGvKpt8OwSV4QWEo83MMoeP=w397-h298-k-no"
            },
            {
                "about": "By owner",
                "link": "https://lh5.googleusercontent.com/p/AF1QipOih7VnTsEr7XFFl5v9hERLp6_XWIpIrFwoZPL2=w397-h298-k-no"
            }
        ],
        "link": "https://www.google.com/maps/place/Jamiya+Masjid/data=!4m7!3m6!1s0x3bcde5f57d5ce841:0x54a16d15ab8d2131!8m2!3d18.9698223!4d78.0838299!16s%2Fg%2F11g23bk4d8!19sChIJQehcffXlzTsRMSGNqxVtoVQ?authuser=0&hl=en&rclk=1",
        "coordinates": {
            "latitude": 18.9698223,
            "longitude": 78.0838299
        }
    },
    {
        "name": "EIDGAH, NARSAPUR (G)",
        "main_category": "Mosque",
        "address": "4575+M2P EIDGAH, NARSAPUR (G), Mallanna temple road, Narsapur G, Dist:Nirmal, Telangana 504104",
        "detailed_address": {
            "ward": null,
            "street": "4575+M2P, Mallanna temple road, Narsapur G, Dist:Nirmal",
            "city": "Shakapur",
            "postal_code": "504104",
            "state": "Telangana",
            "country_code": "IN"
        },
        "images": [],
        "link": "https://www.google.com/maps/place/EIDGAH,+NARSAPUR+%28G%29/data=!4m7!3m6!1s0x3bcdf72f7b2bd6cf:0xd8b0b0a1390199e5!8m2!3d19.1142006!4d78.1575704!16s%2Fg%2F11ffw748c1!19sChIJz9Yrey_3zTsR5ZkBOaGwsNg?authuser=0&hl=en&rclk=1",
        "coordinates": {
            "latitude": 19.1142006,
            "longitude": 78.1575704
        }
    },
    {
        "name": "Dargah masjid",
        "main_category": "Mosque",
        "address": "4X85+RH4 Dargah masjid, Kisan Gally, Bhainsa, Telangana 504103",
        "detailed_address": {
            "ward": null,
            "street": "4X85+RH4, Kisan Gally",
            "city": "Bhainsa",
            "postal_code": "504103",
            "state": "Telangana",
            "country_code": "IN"
        },
        "images": [
            {
                "about": "All",
                "link": "https://lh5.googleusercontent.com/p/AF1QipN4VLE-280gwizsDZzevDhrzb-4vErUu_kLw4xV=w646-h298-k-no"
            },
            {
                "about": "Dome",
                "link": "https://lh5.googleusercontent.com/p/AF1QipO1DbHoxwCUVcQ4eJegcdaGQr-6jkAtYlV5XWLm=w397-h298-k-no"
            }
        ],
        "link": "https://www.google.com/maps/place/Dargah+masjid/data=!4m7!3m6!1s0x3bcdff8149341c71:0x4ab8fbf5c4f17c84!8m2!3d19.1170017!4d77.9589653!16s%2Fg%2F11n8wky035!19sChIJcRw0SYH_zTsRhHzxxPX7uEo?authuser=0&hl=en&rclk=1",
        "coordinates": {
            "latitude": 19.1170017,
            "longitude": 77.9589653
        }
    },
    {
        "name": "Jamamasjid",
        "main_category": "Mosque",
        "address": "2X6W+RJ9 Jamamasjid, Edbid, Telangana 504102",
        "detailed_address": {
            "ward": null,
            "street": "2X6W+RJ9",
            "city": "Edbid",
            "postal_code": "504102",
            "state": "Telangana",
            "country_code": "IN"
        },
        "images": [],
        "link": "https://www.google.com/maps/place/Jamamasjid/data=!4m7!3m6!1s0x3bcdfd9419127871:0xbb4ac3774c96936d!8m2!3d19.0120371!4d77.9966174!16s%2Fg%2F11rchyqlgj!19sChIJcXgSGZT9zTsRbZOWTHfDSrs?authuser=0&hl=en&rclk=1",
        "coordinates": {
            "latitude": 19.0120371,
            "longitude": 77.99661739999999
        }
    },
    {
        "name": "Ajaz uddin mpp mudhole",
        "main_category": "Mosque",
        "address": "XWG6+X2V Ajaz uddin mpp mudhole, Mudhole, Telangana 504102",
        "detailed_address": {
            "ward": null,
            "street": "XWG6+X2V",
            "city": "Mudhole",
            "postal_code": "504102",
            "state": "Telangana",
            "country_code": "IN"
        },
        "images": [],
        "link": "https://www.google.com/maps/place/Ajaz+uddin+mpp+mudhole/data=!4m7!3m6!1s0x3bce092b3bed0477:0x9883546bb0eb0297!8m2!3d18.9774875!4d77.9100469!16s%2Fg%2F11l2byjt14!19sChIJdwTtOysJzjsRlwLrsGtUg5g?authuser=0&hl=en&rclk=1",
        "coordinates": {
            "latitude": 18.9774875,
            "longitude": 77.9100469
        }
    },
    {
        "name": "Masjid e noor banu",
        "main_category": "Mosque",
        "address": "4298+7M3 Masjid e noor banu, Ekgaon, Telangana 504103",
        "detailed_address": {
            "ward": null,
            "street": "4298+7M3",
            "city": "Ekgaon",
            "postal_code": "504103",
            "state": "Telangana",
            "country_code": "IN"
        },
        "images": [],
        "link": "https://www.google.com/maps/place/Masjid+e+noor+banu/data=!4m7!3m6!1s0x3bcdff742aedeb0d:0x1cc2047094df4e93!8m2!3d19.1181434!4d78.0166847!16s%2Fg%2F11h6443h1y!19sChIJDevtKnT_zTsRk07flHAEwhw?authuser=0&hl=en&rclk=1",
        "coordinates": {
            "latitude": 19.118143399999997,
            "longitude": 78.0166847
        }
    },
    {
        "name": "Chowk masjid",
        "main_category": "Mosque",
        "address": "XWF6+P52 Chowk masjid, Mudhole, Telangana 504102",
        "detailed_address": {
            "ward": null,
            "street": "XWF6+P52",
            "city": "Mudhole",
            "postal_code": "504102",
            "state": "Telangana",
            "country_code": "IN"
        },
        "images": [],
        "link": "https://www.google.com/maps/place/Chowk+masjid/data=!4m7!3m6!1s0x3bce096f7564b777:0x6713987bed345f0f!8m2!3d18.9741684!4d77.9104478!16s%2Fg%2F11vcm56l_7!19sChIJd7dkdW8JzjsRD1807XuYE2c?authuser=0&hl=en&rclk=1",
        "coordinates": {
            "latitude": 18.9741684,
            "longitude": 77.9104478
        }
    },
    {
        "name": "Dulha masjid",
        "main_category": "Mosque",
        "address": "4X76+QPR Dulha masjid, Bhainsa, Telangana 504103",
        "detailed_address": {
            "ward": null,
            "street": "4X76+QPR",
            "city": "Bhainsa",
            "postal_code": "504103",
            "state": "Telangana",
            "country_code": "IN"
        },
        "images": [
            {
                "about": "All",
                "link": "https://streetviewpixels-pa.googleapis.com/v1/thumbnail?panoid=25yq9p5lcGF0kLZIy1l_KA&cb_client=maps_sv.tactile.gps&w=224&h=298&yaw=300.3951&pitch=0&thumbfov=100"
            },
            {
                "about": "Street View & 360deg",
                "link": "https://streetviewpixels-pa.googleapis.com/v1/thumbnail?panoid=25yq9p5lcGF0kLZIy1l_KA&cb_client=maps_sv.tactile.gps&w=224&h=298&yaw=300.3951&pitch=0&thumbfov=100"
            }
        ],
        "link": "https://www.google.com/maps/place/Dulha+masjid/data=!4m7!3m6!1s0x3bcdff11036a7bc1:0x2af6a0e9a007d28e!8m2!3d19.1144859!4d77.9617514!16s%2Fg%2F11pzpf_hcw!19sChIJwXtqAxH_zTsRjtIHoOmg9io?authuser=0&hl=en&rclk=1",
        "coordinates": {
            "latitude": 19.1144859,
            "longitude": 77.9617514
        }
    },
    {
        "name": "smshaanvaattik",
        "main_category": "Mosque",
        "address": "539X+CCJ smshaanvaattik, adilaabaadu, Telangana 504109",
        "detailed_address": {
            "ward": null,
            "street": "539X+CCJ",
            "city": "adilaabaadu",
            "postal_code": "504109",
            "state": "Telangana",
            "country_code": "IN"
        },
        "images": [],
        "link": "https://www.google.com/maps/place/%E0%B0%B8%E0%B1%8D%E0%B0%AE%E0%B0%B6%E0%B0%BE%E0%B0%A8%E0%B0%B5%E0%B0%BE%E0%B0%9F%E0%B0%BF%E0%B0%95/data=!4m7!3m6!1s0x3bcdf97b97a183ab:0xe00cb011d279594d!8m2!3d19.1682263!4d78.0990057!16s%2Fg%2F11v5bbbfvm!19sChIJq4Ohl3v5zTsRTVl50hGwDOA?authuser=0&hl=en&rclk=1",
        "coordinates": {
            "latitude": 19.1682263,
            "longitude": 78.09900569999999
        }
    },
    {
        "name": "Jama Masjid",
        "main_category": "Mosque",
        "address": "24MG+M6H Jama Masjid, Rajura, Telangana 504104",
        "detailed_address": {
            "ward": null,
            "street": "24MG+M6H",
            "city": "Rajura",
            "postal_code": "504104",
            "state": "Telangana",
            "country_code": "IN"
        },
        "images": [],
        "link": "https://www.google.com/maps/place/Jama+Masjid/data=!4m7!3m6!1s0x3bcdf16c0271a325:0x36c8259feb23b1f8!8m2!3d19.0341967!4d78.125624!16s%2Fg%2F11sh79cpjj!19sChIJJaNxAmzxzTsR-LEj658lyDY?authuser=0&hl=en&rclk=1",
        "coordinates": {
            "latitude": 19.0341967,
            "longitude": 78.125624
        }
    },
    {
        "name": "Jama masjid Mohammadia godapur",
        "main_category": "Mosque",
        "address": "6V2P+QWW Jama masjid Mohammadia godapur, Godapur, Telangana 504103",
        "detailed_address": {
            "ward": null,
            "street": "6V2P+QWW",
            "city": "Godapur",
            "postal_code": "504103",
            "state": "Telangana",
            "country_code": "IN"
        },
        "images": [
            {
                "about": "All",
                "link": "https://lh5.googleusercontent.com/p/AF1QipOdourqdP8sWhaWV0YaXg9ScrPW1OTbCooNBCfj=w224-h298-k-no"
            }
        ],
        "link": "https://www.google.com/maps/place/Jama+masjid+Mohammadia+godapur/data=!4m7!3m6!1s0x3bd1ff67c74f1d71:0x6fbccdef3e8d57!8m2!3d19.2027752!4d77.8869778!16s%2Fg%2F11rn96vg7f!19sChIJcR1Px2f_0TsRV40-7828bwA?authuser=0&hl=en&rclk=1",
        "coordinates": {
            "latitude": 19.202775199999998,
            "longitude": 77.8869778
        }
    },
    {
        "name": "Momino mosque",
        "main_category": "Mosque",
        "address": "4X38+64M Momino mosque, New Abadi, Bhainsa, Telangana 504103",
        "detailed_address": {
            "ward": "New Abadi",
            "street": "4X38+64M",
            "city": "Bhainsa",
            "postal_code": "504103",
            "state": "Telangana",
            "country_code": "IN"
        },
        "images": [],
        "link": "https://www.google.com/maps/place/Momino+mosque/data=!4m7!3m6!1s0x3bcdfffea979f1ef:0x5d2c7b949536d054!8m2!3d19.1030811!4d77.9652985!16s%2Fg%2F11kqn0r70h!19sChIJ7_F5qf7_zTsRVNA2lZR7LF0?authuser=0&hl=en&rclk=1",
        "coordinates": {
            "latitude": 19.1030811,
            "longitude": 77.9652985
        }
    },
    {
        "name": "masjid-e-Ameena. Taroda",
        "main_category": "Mosque",
        "address": "2W6P+HMC masjid-e-Ameena. Taroda, Taroda, Telangana 504102",
        "detailed_address": {
            "ward": null,
            "street": "2W6P+HMC",
            "city": "Taroda",
            "postal_code": "504102",
            "state": "Telangana",
            "country_code": "IN"
        },
        "images": [
            {
                "about": "All",
                "link": "https://lh5.googleusercontent.com/p/AF1QipNNXnsNr9pWRJdMbnjVP4hsH-aYk6VWam9ZAAwB=w397-h298-k-no"
            }
        ],
        "link": "https://www.google.com/maps/place/masjid-e-Ameena.+Taroda/data=!4m7!3m6!1s0x3bcdfd8ced879fc7:0xa8c8d0a46a879700!8m2!3d19.0114475!4d77.9366469!16s%2Fg%2F11nx3xpp3n!19sChIJx5-H7Yz9zTsRAJeHaqTQyKg?authuser=0&hl=en&rclk=1",
        "coordinates": {
            "latitude": 19.0114475,
            "longitude": 77.9366469
        }
    },
    {
        "name": "Qureshi's dayra",
        "main_category": "Mosque",
        "address": "XW74+RV Qureshi's dayra, Mudhole, Telangana 504102",
        "detailed_address": {
            "ward": null,
            "street": "XW74+RV",
            "city": "Mudhole",
            "postal_code": null,
            "state": "Telangana",
            "country_code": "IN"
        },
        "images": [],
        "link": "https://www.google.com/maps/place/Qureshi%27s+dayra/data=!4m7!3m6!1s0x3bce09a66983ce9b:0x9269f425b8a9c771!8m2!3d18.9645492!4d77.9071758!16s%2Fg%2F11kphpbb44!19sChIJm86DaaYJzjsRccepuCX0aZI?authuser=0&hl=en&rclk=1",
        "coordinates": {
            "latitude": 18.9645492,
            "longitude": 77.90717579999999
        }
    },
    {
        "name": "Jama masjid",
        "main_category": "Mosque",
        "address": "XR2M+XH9 Jama masjid, JewlaBuzurg, Jawala, Telangana 504102",
        "detailed_address": {
            "ward": null,
            "street": "XR2M+XH9",
            "city": "JewlaBuzurg, Jawala",
            "postal_code": "504102",
            "state": "Telangana",
            "country_code": "IN"
        },
        "images": [],
        "link": "https://www.google.com/maps/place/Jama+masjid/data=!4m7!3m6!1s0x3bce0fa40d8bb217:0xcbc4166bd40c1b17!8m2!3d18.9523864!4d77.834005!16s%2Fg%2F11s58b6fbg!19sChIJF7KLDaQPzjsRFxsM1GsWxMs?authuser=0&hl=en&rclk=1",
        "coordinates": {
            "latitude": 18.952386399999998,
            "longitude": 77.83400499999999
        }
    },
    {
        "name": "Mosque",
        "main_category": "Mosque",
        "address": "V23P+64R Mosque, Binola, Abbapur B, Telangana 503246",
        "detailed_address": {
            "ward": null,
            "street": "V23P+64R",
            "city": "Binola, Abbapur B",
            "postal_code": "503246",
            "state": "Telangana",
            "country_code": "IN"
        },
        "images": [
            {
                "about": "All",
                "link": "https://lh5.googleusercontent.com/p/AF1QipNtak5X2HqCuLxjh8r0uAfvM2SI9n_Ibkr9TozT=w224-h298-k-no"
            }
        ],
        "link": "https://www.google.com/maps/place/Mosque/data=!4m7!3m6!1s0x3bcde6d95e2f713f:0x4911a7c1ec28e174!8m2!3d18.8531021!4d78.0352664!16s%2Fg%2F11g9nhhhng!19sChIJP3EvXtnmzTsRdOEo7MGnEUk?authuser=0&hl=en&rclk=1",
        "coordinates": {
            "latitude": 18.853102099999997,
            "longitude": 78.0352664
        }
    },
    {
        "name": "Masjid e rahmat wayi lingi sanwli",
        "main_category": "Mosque",
        "address": "5VHV+7M Masjid e rahmat wayi lingi sanwli, Sanwali, Telangana 504103",
        "detailed_address": {
            "ward": null,
            "street": "5VHV+7M",
            "city": "Sanwali",
            "postal_code": null,
            "state": "Telangana",
            "country_code": "IN"
        },
        "images": [
            {
                "about": "All",
                "link": "https://lh5.googleusercontent.com/p/AF1QipN9J21oh3Ur8fqthELnkMMHYOc3UiZxEweF8CyE=w529-h298-k-no"
            }
        ],
        "link": "https://www.google.com/maps/place/Masjid+e+rahmat+wayi+lingi+sanwli/data=!4m7!3m6!1s0x3bd1ff51b4c00ebd:0x99ad3e5f1ac806ec!8m2!3d19.1781415!4d77.8941574!16s%2Fg%2F11rp5ck9mf!19sChIJvQ7AtFH_0TsR7AbIGl8-rZk?authuser=0&hl=en&rclk=1",
        "coordinates": {
            "latitude": 19.1781415,
            "longitude": 77.8941574
        }
    },
    {
        "name": "Sarkari masjid",
        "main_category": "Mosque",
        "address": "4X76+7FF Sarkari masjid, Bhainsa, Telangana 504103",
        "detailed_address": {
            "ward": null,
            "street": "4X76+7FF",
            "city": "Bhainsa",
            "postal_code": "504103",
            "state": "Telangana",
            "country_code": "IN"
        },
        "images": [],
        "link": "https://www.google.com/maps/place/Sarkari+masjid/data=!4m7!3m6!1s0x3bcdff1e48424da9:0xe5975291b8aab459!8m2!3d19.1131196!4d77.9611631!16s%2Fg%2F11sq9fy4l6!19sChIJqU1CSB7_zTsRWbSquJFSl-U?authuser=0&hl=en&rclk=1",
        "coordinates": {
            "latitude": 19.113119599999997,
            "longitude": 77.9611631
        }
    },
    {
        "name": "Masjid e mohammadiya",
        "main_category": "Mosque",
        "address": "4X78+7FX Masjid e mohammadiya, Bhainsa, Telangana 504103",
        "detailed_address": {
            "ward": null,
            "street": "4X78+7FX",
            "city": "Bhainsa",
            "postal_code": "504103",
            "state": "Telangana",
            "country_code": "IN"
        },
        "images": [],
        "link": "https://www.google.com/maps/place/Masjid+e+mohammadiya/data=!4m7!3m6!1s0x3bcdffafe5575e1f:0xadcb9e0d27ec98a!8m2!3d19.1131596!4d77.9653526!16s%2Fg%2F11qbh1lndc!19sChIJH15X5a__zTsRisl-0uC53Ao?authuser=0&hl=en&rclk=1",
        "coordinates": {
            "latitude": 19.1131596,
            "longitude": 77.9653526
        }
    },
    {
        "name": "Haji Sahab Masjid",
        "main_category": "Mosque",
        "address": "4X76+WR5 Haji Sahab Masjid, Bhainsa, Telangana 504103",
        "detailed_address": {
            "ward": null,
            "street": "4X76+WR5",
            "city": "Bhainsa",
            "postal_code": "504103",
            "state": "Telangana",
            "country_code": "IN"
        },
        "images": [
            {
                "about": "All",
                "link": "https://streetviewpixels-pa.googleapis.com/v1/thumbnail?panoid=E_Lcerv3_HJ3ugkKDO5GGw&cb_client=maps_sv.tactile.gps&w=224&h=298&yaw=91.78546&pitch=0&thumbfov=100"
            },
            {
                "about": "Street View & 360deg",
                "link": "https://streetviewpixels-pa.googleapis.com/v1/thumbnail?panoid=E_Lcerv3_HJ3ugkKDO5GGw&cb_client=maps_sv.tactile.gps&w=224&h=298&yaw=91.78546&pitch=0&thumbfov=100"
            }
        ],
        "link": "https://www.google.com/maps/place/Haji+Sahab+Masjid/data=!4m7!3m6!1s0x3bcdffd89e630f21:0x6958ac2f4082e62d!8m2!3d19.114766!4d77.9621118!16s%2Fg%2F11r0wdt94j!19sChIJIQ9jntj_zTsRLeaCQC-sWGk?authuser=0&hl=en&rclk=1",
        "coordinates": {
            "latitude": 19.114766,
            "longitude": 77.9621118
        }
    },
    {
        "name": "Jama Masjid Limba",
        "main_category": "Mosque",
        "address": "523V+7F2 Jama Masjid Limba, Limba Khurd, Telangana 504109",
        "detailed_address": {
            "ward": null,
            "street": "523V+7F2",
            "city": "Limba Khurd",
            "postal_code": "504109",
            "state": "Telangana",
            "country_code": "IN"
        },
        "images": [
            {
                "about": "All",
                "link": "https://lh5.googleusercontent.com/p/AF1QipOCmS3JQnOFRiCPYeUAMv18tmU6BqtHCXY29Izd=w529-h298-k-no"
            }
        ],
        "link": "https://www.google.com/maps/place/Jama+Masjid+Limba/data=!4m7!3m6!1s0x3bcdf91c30be5c01:0x41b0942c84df9744!8m2!3d19.1531407!4d78.0436445!16s%2Fg%2F11v9z80ywd!19sChIJAVy-MBz5zTsRRJffhCyUsEE?authuser=0&hl=en&rclk=1",
        "coordinates": {
            "latitude": 19.153140699999998,
            "longitude": 78.0436445
        }
    },
    {
        "name": "Masjid e Fatima",
        "main_category": "Mosque",
        "address": "4X5G+9P4 Masjid e Fatima, Bhainsa, Telangana 504103",
        "detailed_address": {
            "ward": null,
            "street": "4X5G+9P4",
            "city": "Bhainsa",
            "postal_code": "504103",
            "state": "Telangana",
            "country_code": "IN"
        },
        "images": [],
        "link": "https://www.google.com/maps/place/Masjid+e+Fatima/data=!4m7!3m6!1s0x3bcdffb3b5a3debf:0x2063de0cbf29b1de!8m2!3d19.1083892!4d77.9768327!16s%2Fg%2F11l29xysl3!19sChIJv96jtbP_zTsR3rEpvwzeYyA?authuser=0&hl=en&rclk=1",
        "coordinates": {
            "latitude": 19.108389199999998,
            "longitude": 77.9768327
        }
    },
    {
        "name": "Masjid",
        "main_category": "Mosque",
        "address": "VW8Q+JJP Masjid, Basar, Telangana 504101",
        "detailed_address": {
            "ward": null,
            "street": "VW8Q+JJP",
            "city": "Basar",
            "postal_code": null,
            "state": "Telangana",
            "country_code": "IN"
        },
        "images": [
            {
                "about": "All",
                "link": "https://streetviewpixels-pa.googleapis.com/v1/thumbnail?panoid=tXejCpgeH-Dci7VJdoZVIg&cb_client=maps_sv.tactile.gps&w=224&h=298&yaw=211.38228&pitch=0&thumbfov=100"
            },
            {
                "about": "Street View & 360deg",
                "link": "https://streetviewpixels-pa.googleapis.com/v1/thumbnail?panoid=tXejCpgeH-Dci7VJdoZVIg&cb_client=maps_sv.tactile.gps&w=224&h=298&yaw=211.38228&pitch=0&thumbfov=100"
            }
        ],
        "link": "https://www.google.com/maps/place/Masjid/data=!4m7!3m6!1s0x3bcde10cc7f5aca5:0x9964a345088a20b6!8m2!3d18.8665932!4d77.9390706!16s%2Fg%2F11rvgjzrxx!19sChIJpaz1xwzhzTsRtiCKCEWjZJk?authuser=0&hl=en&rclk=1",
        "coordinates": {
            "latitude": 18.8665932,
            "longitude": 77.9390706
        }
    }
]