[
    {
        "name": "Nanpara Mosque",
        "main_category": "Mosque",
        "address": "Nanpara Mosque, 13, Madan Mohan Malviya Marg, Parehta, Gokhale Vihar, Butler Colony, Lucknow, Uttar Pradesh 226001",
        "detailed_address": {
            "ward": "Parehta, Gokhale Vihar, Butler Colony",
            "street": "13, Madan Mohan Malviya Marg",
            "city": "Lucknow",
            "postal_code": "226001",
            "state": "Uttar Pradesh",
            "country_code": "IN"
        },
        "images": [
            {
                "about": "All",
                "link": "https://lh5.googleusercontent.com/p/AF1QipMfghWPuS7wrdMJjT32-NSMZTzYD3j60ISqb4c-=w224-h398-k-no"
            },
            {
                "about": "Videos",
                "link": "https://lh5.googleusercontent.com/p/AF1QipMfghWPuS7wrdMJjT32-NSMZTzYD3j60ISqb4c-=w224-h398-k-no"
            }
        ],
        "link": "https://www.google.com/maps/place/Nanpara+Mosque/data=!4m7!3m6!1s0x399bfd13b4c85d23:0xe111fde1d5382f77!8m2!3d26.855899!4d80.9567278!16s%2Fg%2F11b6j6k5n5!19sChIJI13ItBP9mzkRdy841eH9EeE?authuser=0&hl=en&rclk=1",
        "coordinates": {
            "latitude": 26.855898999999997,
            "longitude": 80.9567278
        }
    },
    {
        "name": "Bazar Wali Masjid",
        "main_category": "Mosque",
        "address": "VG82+3R2 Bazar Wali Masjid, National Highway 28C, Nanpara, Uttar Pradesh 271865",
        "detailed_address": {
            "ward": null,
            "street": "VG82+3R2, National Highway 28C",
            "city": "Nanpara",
            "postal_code": "271865",
            "state": "Uttar Pradesh",
            "country_code": "IN"
        },
        "images": [
            {
                "about": "All",
                "link": "https://lh5.googleusercontent.com/p/AF1QipOWlmkXaSL310VNjiFRPmPjOY1WUCnxviN1Dqvf=w529-h298-k-no"
            },
            {
                "about": "Videos",
                "link": "https://lh5.googleusercontent.com/p/AF1QipPyrFjHFOwSBVTS7P4XHRnTd5QNguSyJPov_kRc=w298-h298-k-no"
            }
        ],
        "link": "https://www.google.com/maps/place/Bazar+Wali+Masjid/data=!4m7!3m6!1s0x3998f7eefdf418dd:0x992654859e7df898!8m2!3d27.8651306!4d81.5020162!16s%2Fg%2F1pv25ld71!19sChIJ3Rj0_e73mDkRmPh9noVUJpk?authuser=0&hl=en&rclk=1",
        "coordinates": {
            "latitude": 27.865130599999997,
            "longitude": 81.5020162
        }
    },
    {
        "name": "Masjid Nanpara",
        "main_category": "Mosque",
        "address": "RWXM+73W Masjid Nanpara, Ghasyari Mandi, Aminabad, Lucknow, Uttar Pradesh 226018",
        "detailed_address": {
            "ward": "Ghasyari Mandi, Aminabad",
            "street": "RWXM+73W",
            "city": "Lucknow",
            "postal_code": "226018",
            "state": "Uttar Pradesh",
            "country_code": "IN"
        },
        "images": [],
        "link": "https://www.google.com/maps/place/Masjid+Nanpara/data=!4m7!3m6!1s0x399bfda54741d149:0x793efb0975f64a27!8m2!3d26.8482494!4d80.9327167!16s%2Fg%2F11fy2psk2z!19sChIJSdFBR6X9mzkRJ0r2dQn7Pnk?authuser=0&hl=en&rclk=1",
        "coordinates": {
            "latitude": 26.8482494,
            "longitude": 80.9327167
        }
    },
    {
        "name": "Nanpara masjid",
        "main_category": "Mosque",
        "address": "HHFR+JP4 Nanpara masjid, SH 30B, Mewati Pura, Bashir Ganj, Bahraich, Uttar Pradesh 271801",
        "detailed_address": {
            "ward": "Mewati Pura, Bashir Ganj",
            "street": "HHFR+JP4, SH 30B",
            "city": "Bahraich",
            "postal_code": "271801",
            "state": "Uttar Pradesh",
            "country_code": "IN"
        },
        "images": [
            {
                "about": "All",
                "link": "https://lh5.googleusercontent.com/p/AF1QipMf_PT6dXYBLEYo40r9Zp2CNyfOElTi38Mvdy3B=w529-h298-k-no"
            },
            {
                "about": "Dome",
                "link": "https://lh5.googleusercontent.com/p/AF1QipOEpsfgfq3yEyTMOSkBfQnABoPffXaAG0Zri79s=w224-h398-k-no"
            },
            {
                "about": "Videos",
                "link": "https://lh5.googleusercontent.com/p/AF1QipMG-B5KX67P5e9pL3kS4-k3C2gnWQ5oMLcX5Gw1=w611-h298-k-no"
            },
            {
                "about": "Street View & 360deg",
                "link": "https://streetviewpixels-pa.googleapis.com/v1/thumbnail?panoid=gTlJXbQ_NP20MGScatwkdA&cb_client=maps_sv.tactile.gps&w=224&h=298&yaw=166.8971&pitch=0&thumbfov=100"
            }
        ],
        "link": "https://www.google.com/maps/place/Nanpara+masjid/data=!4m7!3m6!1s0x3999a961958a2b35:0x1d3eb721307f0131!8m2!3d27.5740183!4d81.5918436!16s%2Fg%2F11jmcyzsgf!19sChIJNSuKlWGpmTkRMQF_MCG3Ph0?authuser=0&hl=en&rclk=1",
        "coordinates": {
            "latitude": 27.5740183,
            "longitude": 81.59184359999999
        }
    },
    {
        "name": "jama masjid nanpra",
        "main_category": "Mosque",
        "address": "VF8X+XMX jama masjid nanpra, Nanpara, Uttar Pradesh 271865",
        "detailed_address": {
            "ward": null,
            "street": "VF8X+XMX",
            "city": "Nanpara",
            "postal_code": "271865",
            "state": "Uttar Pradesh",
            "country_code": "IN"
        },
        "images": [
            {
                "about": "All",
                "link": "https://streetviewpixels-pa.googleapis.com/v1/thumbnail?panoid=LAC28KzFR1iE-xgWYAGD3Q&cb_client=maps_sv.tactile.gps&w=224&h=298&yaw=184.2664&pitch=0&thumbfov=100"
            },
            {
                "about": "Street View & 360deg",
                "link": "https://streetviewpixels-pa.googleapis.com/v1/thumbnail?panoid=LAC28KzFR1iE-xgWYAGD3Q&cb_client=maps_sv.tactile.gps&w=224&h=298&yaw=184.2664&pitch=0&thumbfov=100"
            }
        ],
        "link": "https://www.google.com/maps/place/jama+masjid+nanpra/data=!4m7!3m6!1s0x3998f7ebffffffff:0xceafa33c77ee1ad3!8m2!3d27.8674765!4d81.4992252!16s%2Fg%2F11c2kgl2vg!19sChIJ_____-v3mDkR0xrudzyjr84?authuser=0&hl=en&rclk=1",
        "coordinates": {
            "latitude": 27.8674765,
            "longitude": 81.4992252
        }
    }
]