[
    {
        "name": "NASIRABAD MASJID",
        "main_category": "Mosque",
        "address": "73Q3+GCW NASIRABAD MASJID, Shahnawaz Siddiqui, Dhamankar Naka, Narpoli, Bhiwandi, Maharashtra 421302",
        "detailed_address": {
            "ward": "Dhamankar Naka, Narpoli",
            "street": "73Q3+GCW, Shahnawaz Siddiqui",
            "city": "Bhiwandi",
            "postal_code": "421302",
            "state": "Maharashtra",
            "country_code": "IN"
        },
        "images": [
            {
                "about": "All",
                "link": "https://streetviewpixels-pa.googleapis.com/v1/thumbnail?panoid=2T8FYwx5Ux4cxYlylKU2nw&cb_client=maps_sv.tactile.gps&w=224&h=298&yaw=37.207092&pitch=0&thumbfov=100"
            },
            {
                "about": "Street View & 360deg",
                "link": "https://streetviewpixels-pa.googleapis.com/v1/thumbnail?panoid=2T8FYwx5Ux4cxYlylKU2nw&cb_client=maps_sv.tactile.gps&w=224&h=298&yaw=37.207092&pitch=0&thumbfov=100"
            }
        ],
        "link": "https://www.google.com/maps/place/NASIRABAD+MASJID/data=!4m7!3m6!1s0x3be7bd088a52b031:0xc7a0c77e6c0f1103!8m2!3d19.2888664!4d73.0535791!16s%2Fg%2F11cfg99_8!19sChIJMbBSigi95zsRAxEPbH7HoMc?authuser=0&hl=en&rclk=1",
        "coordinates": {
            "latitude": 19.2888664,
            "longitude": 73.0535791
        }
    },
    {
        "name": "JAMA MASJID",
        "main_category": "Mosque",
        "address": "7PXQ+75R JAMA MASJID, Nasirabad, Rajasthan 305601",
        "detailed_address": {
            "ward": null,
            "street": "7PXQ+75R",
            "city": "Nasirabad",
            "postal_code": "305601",
            "state": "Rajasthan",
            "country_code": "IN"
        },
        "images": [
            {
                "about": "All",
                "link": "https://lh5.googleusercontent.com/p/AF1QipO-jpGbvYogabFyuzjRBXLJLoFaDkombhwodGWL=w224-h397-k-no"
            },
            {
                "about": "Dome",
                "link": "https://lh5.googleusercontent.com/p/AF1QipNWUSu0HbhYrn4frEAdE2ISea2e4WLSF7zpuoqA=w224-h496-k-no"
            },
            {
                "about": "Street View & 360deg",
                "link": "https://streetviewpixels-pa.googleapis.com/v1/thumbnail?panoid=essmvbJdpJD7ShmxE38IVA&cb_client=maps_sv.tactile.gps&w=224&h=298&yaw=212.65103&pitch=0&thumbfov=100"
            }
        ],
        "link": "https://www.google.com/maps/place/JAMA+MASJID/data=!4m7!3m6!1s0x396959ab0d9bb4c7:0xd11bc072dfa18893!8m2!3d26.2982403!4d74.7378791!16s%2Fg%2F11hb6235q5!19sChIJx7SbDatZaTkRk4ih33LAG9E?authuser=0&hl=en&rclk=1",
        "coordinates": {
            "latitude": 26.2982403,
            "longitude": 74.7378791
        }
    },
    {
        "name": "Jumma Masjid",
        "main_category": "Mosque",
        "address": "8P2P+3X2 Jumma Masjid, Nasirabad, Rajasthan 305601",
        "detailed_address": {
            "ward": null,
            "street": "8P2P+3X2",
            "city": "Nasirabad",
            "postal_code": "305601",
            "state": "Rajasthan",
            "country_code": "IN"
        },
        "images": [
            {
                "about": "All",
                "link": "https://lh5.googleusercontent.com/p/AF1QipPlgJ-OVZ8Ffo759fJ2gPUhBz39RVxMc1wWI58V=w529-h298-k-no"
            }
        ],
        "link": "https://www.google.com/maps/place/Jumma+Masjid/data=!4m7!3m6!1s0x396959ab3272b8a9:0xf73ad53ca7b61c88!8m2!3d26.3001432!4d74.7374046!16s%2Fg%2F1hm1x8s61!19sChIJqbhyMqtZaTkRiBy2pzzVOvc?authuser=0&hl=en&rclk=1",
        "coordinates": {
            "latitude": 26.300143199999997,
            "longitude": 74.73740459999999
        }
    },
    {
        "name": "Bissaytiyan Masjid",
        "main_category": "Mosque",
        "address": "7PXM+JM5 Bissaytiyan Masjid, Sindhi Bazar, Nasirabad, Rajasthan 305601",
        "detailed_address": {
            "ward": "Sindhi Bazar",
            "street": "7PXM+JM5",
            "city": "Nasirabad",
            "postal_code": "305601",
            "state": "Rajasthan",
            "country_code": "IN"
        },
        "images": [
            {
                "about": "All",
                "link": "https://streetviewpixels-pa.googleapis.com/v1/thumbnail?panoid=58JELFsz8QaRSNxhyT866w&cb_client=maps_sv.tactile.gps&w=224&h=298&yaw=131.8133&pitch=0&thumbfov=100"
            },
            {
                "about": "Street View & 360deg",
                "link": "https://streetviewpixels-pa.googleapis.com/v1/thumbnail?panoid=58JELFsz8QaRSNxhyT866w&cb_client=maps_sv.tactile.gps&w=224&h=298&yaw=131.8133&pitch=0&thumbfov=100"
            }
        ],
        "link": "https://www.google.com/maps/place/Bissaytiyan+Masjid/data=!4m7!3m6!1s0x396959aaa47c7463:0xb5f5f63144589182!8m2!3d26.2990145!4d74.7342339!16s%2Fg%2F11g8f_f053!19sChIJY3R8pKpZaTkRgpFYRDH29bU?authuser=0&hl=en&rclk=1",
        "coordinates": {
            "latitude": 26.2990145,
            "longitude": 74.73423389999999
        }
    },
    {
        "name": "TEKRI Mosque",
        "main_category": "Mosque",
        "address": "7PXP+PWV TEKRI Mosque, Nasirabad, Rajasthan 305601",
        "detailed_address": {
            "ward": null,
            "street": "7PXP+PWV",
            "city": "Nasirabad",
            "postal_code": "305601",
            "state": "Rajasthan",
            "country_code": "IN"
        },
        "images": [
            {
                "about": "All",
                "link": "https://lh5.googleusercontent.com/p/AF1QipPma-F7tjgES8imwT0N4gJ8r6IHQlVymjwRx2w=w397-h298-k-no"
            }
        ],
        "link": "https://www.google.com/maps/place/TEKRI+Mosque/data=!4m7!3m6!1s0x396959502235041d:0x65d4cd1131794fe6!8m2!3d26.2993734!4d74.7372896!16s%2Fg%2F11g19pnvn3!19sChIJHQQ1IlBZaTkR5k95MRHN1GU?authuser=0&hl=en&rclk=1",
        "coordinates": {
            "latitude": 26.2993734,
            "longitude": 74.7372896
        }
    },
    {
        "name": "Masjid Bazar Road Nasirabad",
        "main_category": "Mosque",
        "address": "9WJ8+XHH Masjid Bazar Road Nasirabad, Nasirabad, Larkana, Sindh, Pakistan",
        "detailed_address": {
            "ward": null,
            "street": "9WJ8+XHH",
            "city": "Nasirabad",
            "postal_code": null,
            "state": "Larkana, Sindh",
            "country_code": "PK"
        },
        "images": [],
        "link": "https://www.google.com/maps/place/Masjid+Bazar+Road+Nasirabad/data=!4m7!3m6!1s0x39351189530aa1e1:0x1bcecefbebcf0c89!8m2!3d27.3824322!4d67.916495!16s%2Fg%2F11gnrpcbvp!19sChIJ4aEKU4kRNTkRiQzP6_vOzhs?authuser=0&hl=en&rclk=1",
        "coordinates": {
            "latitude": 27.3824322,
            "longitude": 67.916495
        }
    },
    {
        "name": "Jama Masjid, Ahle-e-Hadees",
        "main_category": "Mosque",
        "address": "7PWP+66R Jama Masjid, Ahle-e-Hadees, Mukari Moholla, Nasirabad, Rajasthan 305601",
        "detailed_address": {
            "ward": "Mukari Moholla",
            "street": "7PWP+66R",
            "city": "Nasirabad",
            "postal_code": "305601",
            "state": "Rajasthan",
            "country_code": "IN"
        },
        "images": [
            {
                "about": "All",
                "link": "https://lh5.googleusercontent.com/p/AF1QipOVewuHTTq7q-A_wLrHG_FEvjdVVNRBVV7PJ2E8=w224-h398-k-no"
            },
            {
                "about": "Street View & 360deg",
                "link": "https://streetviewpixels-pa.googleapis.com/v1/thumbnail?panoid=78K3ko77bvSNfVHFn2mJUw&cb_client=maps_sv.tactile.gps&w=224&h=298&yaw=228.85745&pitch=0&thumbfov=100"
            }
        ],
        "link": "https://www.google.com/maps/place/Jama+Masjid,+Ahle-e-Hadees/data=!4m7!3m6!1s0x3969598c776d8c71:0x1e837f3cdd369151!8m2!3d26.2956108!4d74.7355029!16s%2Fg%2F11h3kb8zj7!19sChIJcYxtd4xZaTkRUZE23Tx_gx4?authuser=0&hl=en&rclk=1",
        "coordinates": {
            "latitude": 26.2956108,
            "longitude": 74.7355029
        }
    },
    {
        "name": "Masjid - E- Khapri",
        "main_category": "Mosque",
        "address": "8M4M+GFG Masjid - E- Khapri, Nasirabad, Rajasthan 305601",
        "detailed_address": {
            "ward": null,
            "street": "8M4M+GFG",
            "city": "Nasirabad",
            "postal_code": null,
            "state": "Rajasthan",
            "country_code": "IN"
        },
        "images": [],
        "link": "https://www.google.com/maps/place/Masjid+-+E-+Khapri/data=!4m7!3m6!1s0x39695fd67ff6b70d:0x69fdcc2ca73bf338!8m2!3d26.3063233!4d74.6837161!16s%2Fg%2F11fm5cgxl9!19sChIJDbf2f9ZfaTkROPM7pyzM_Wk?authuser=0&hl=en&rclk=1",
        "coordinates": {
            "latitude": 26.3063233,
            "longitude": 74.6837161
        }
    },
    {
        "name": "Madarsa Mohammadia &masjid Nasirabad",
        "main_category": "Mosque",
        "address": "7PXQ+C9C Madarsa Mohammadia &masjid Nasirabad, Unnamed Road, Nasirabad, Rajasthan 305601",
        "detailed_address": {
            "ward": null,
            "street": "7PXQ+C9C, Unnamed Road",
            "city": "Nasirabad",
            "postal_code": "305601",
            "state": "Rajasthan",
            "country_code": "IN"
        },
        "images": [
            {
                "about": "All",
                "link": "https://streetviewpixels-pa.googleapis.com/v1/thumbnail?panoid=ScdtEZSraHp7wKW24WZ8fg&cb_client=maps_sv.tactile.gps&w=224&h=298&yaw=351.60092&pitch=0&thumbfov=100"
            },
            {
                "about": "Street View & 360deg",
                "link": "https://streetviewpixels-pa.googleapis.com/v1/thumbnail?panoid=ScdtEZSraHp7wKW24WZ8fg&cb_client=maps_sv.tactile.gps&w=224&h=298&yaw=351.60092&pitch=0&thumbfov=100"
            }
        ],
        "link": "https://www.google.com/maps/place/Madarsa+Mohammadia+%26masjid+Nasirabad/data=!4m7!3m6!1s0x3969597eee662c95:0x21cf9eff4fa918a0!8m2!3d26.298568!4d74.73839!16s%2Fg%2F11ff10vtwq!19sChIJlSxm7n5ZaTkRoBipT_-ezyE?authuser=0&hl=en&rclk=1",
        "coordinates": {
            "latitude": 26.298568,
            "longitude": 74.73839
        }
    },
    {
        "name": "msjid maulaanaa abdul hkiim saahb",
        "main_category": "Mosque",
        "address": "msjid maulaanaa abdul hkiim saahb, 1036, Sindhi Bazar, Derathu, Nasirabad, Rajasthan 305601",
        "detailed_address": {
            "ward": "Sindhi Bazar, Derathu",
            "street": "1036",
            "city": "Nasirabad",
            "postal_code": "305601",
            "state": "Rajasthan",
            "country_code": "IN"
        },
        "images": [
            {
                "about": "All",
                "link": "https://lh5.googleusercontent.com/p/AF1QipPEIxjoqZV1c_ehzBTnffwkFoitepXWNcuBbKHP=w224-h485-k-no"
            },
            {
                "about": "Street View & 360deg",
                "link": "https://streetviewpixels-pa.googleapis.com/v1/thumbnail?panoid=McEXT3piSaPmd0439gugRQ&cb_client=maps_sv.tactile.gps&w=224&h=298&yaw=149.11168&pitch=0&thumbfov=100"
            }
        ],
        "link": "https://www.google.com/maps/place/%E0%A4%AE%E0%A4%B8%E0%A5%8D%E0%A4%9C%E0%A4%BF%E0%A4%A6+%E0%A4%AE%E0%A5%8C%E0%A4%B2%E0%A4%BE%E0%A4%A8%E0%A4%BE+%E0%A4%85%E0%A4%AC%E0%A5%8D%E0%A4%A6%E0%A5%81%E0%A4%B2+%E0%A4%B9%E0%A4%95%E0%A5%80%E0%A4%AE+%E0%A4%B8%E0%A4%BE%E0%A4%B9%E0%A4%AC/data=!4m7!3m6!1s0x39695939c3415b17:0xaa2eb1387fe06a9f!8m2!3d26.300049!4d74.73329!16s%2Fg%2F11skhp9gqq!19sChIJF1tBwzlZaTkRn2rgfzixLqo?authuser=0&hl=en&rclk=1",
        "coordinates": {
            "latitude": 26.300048999999998,
            "longitude": 74.73329
        }
    },
    {
        "name": "Madina Masjid Nasirabad",
        "main_category": "Mosque",
        "address": "9WM9+8FW Madina Masjid Nasirabad, Nasirabad, Qambar Shahdadkot, Sindh, Pakistan",
        "detailed_address": {
            "ward": null,
            "street": "9WM9+8FW",
            "city": "Nasirabad",
            "postal_code": null,
            "state": "Qambar Shahdadkot, Sindh",
            "country_code": "PK"
        },
        "images": [],
        "link": "https://www.google.com/maps/place/Madina+Masjid+Nasirabad/data=!4m7!3m6!1s0x3935115578b87539:0x352cc15c3d1d9ead!8m2!3d27.3833732!4d67.9187116!16s%2Fg%2F11v0pwwlv5!19sChIJOXW4eFURNTkRrZ4dPVzBLDU?authuser=0&hl=en&rclk=1",
        "coordinates": {
            "latitude": 27.383373199999998,
            "longitude": 67.9187116
        }
    },
    {
        "name": "EIDGAH Nasirabad",
        "main_category": "Mosque",
        "address": "8P7R+RP EIDGAH Nasirabad, Nasirabad, Rajasthan 305601",
        "detailed_address": {
            "ward": null,
            "street": "8P7R+RP",
            "city": "Nasirabad",
            "postal_code": null,
            "state": "Rajasthan",
            "country_code": "IN"
        },
        "images": [
            {
                "about": "All",
                "link": "https://lh5.googleusercontent.com/p/AF1QipNmzlnVLUZmzx2mJI4TVrNX4OaBR6nPWaGdNuk3=w397-h298-k-no"
            },
            {
                "about": "Street View & 360deg",
                "link": "https://streetviewpixels-pa.googleapis.com/v1/thumbnail?panoid=SdhYZD49UjoATVp-O2XnNg&cb_client=maps_sv.tactile.gps&w=224&h=298&yaw=27.230888&pitch=0&thumbfov=100"
            }
        ],
        "link": "https://www.google.com/maps/place/EIDGAH+Nasirabad/data=!4m7!3m6!1s0x396959c1153fd095:0x966feda1255a7944!8m2!3d26.3145576!4d74.7417805!16s%2Fg%2F11scyzfzxz!19sChIJldA_FcFZaTkRRHlaJaHtb5Y?authuser=0&hl=en&rclk=1",
        "coordinates": {
            "latitude": 26.3145576,
            "longitude": 74.74178049999999
        }
    },
    {
        "name": "Masjid Al Quraish msjd lqrysh",
        "main_category": "Mosque",
        "address": "Masjid Al Quraish msjd lqrysh, Badi Mandi, Nasirabad, Rajasthan 305601",
        "detailed_address": {
            "ward": null,
            "street": "Badi Mandi",
            "city": "Nasirabad",
            "postal_code": "305601",
            "state": "Rajasthan",
            "country_code": "IN"
        },
        "images": [
            {
                "about": "All",
                "link": "https://lh5.googleusercontent.com/p/AF1QipP1npyLM2Dpjz8T0Whacvmpevqct-qGIPKBZziJ=w224-h298-k-no"
            },
            {
                "about": "Street View & 360deg",
                "link": "https://streetviewpixels-pa.googleapis.com/v1/thumbnail?panoid=Iuf2h5NzV0XrrDoElM-UNg&cb_client=maps_sv.tactile.gps&w=224&h=298&yaw=4.8448205&pitch=0&thumbfov=100"
            }
        ],
        "link": "https://www.google.com/maps/place/Masjid+Al+Quraish+%D9%85%D8%B3%D8%AC%D8%AF+%D8%A7%D9%84%D9%82%D8%B1%DB%8C%D8%B4%E2%80%AD/data=!4m7!3m6!1s0x396959b876807467:0x867a215bb194c8a7!8m2!3d26.2975698!4d74.7397194!16s%2Fg%2F11jzmbp1c9!19sChIJZ3SAdrhZaTkRp8iUsVsheoY?authuser=0&hl=en&rclk=1",
        "coordinates": {
            "latitude": 26.297569799999998,
            "longitude": 74.7397194
        }
    },
    {
        "name": "Masjid",
        "main_category": "Mosque",
        "address": "7PWJ+W47 Masjid, MDR 39, Nasirabad, Rajasthan 305601",
        "detailed_address": {
            "ward": null,
            "street": "7PWJ+W47, MDR 39",
            "city": "Nasirabad",
            "postal_code": "305601",
            "state": "Rajasthan",
            "country_code": "IN"
        },
        "images": [
            {
                "about": "All",
                "link": "https://streetviewpixels-pa.googleapis.com/v1/thumbnail?panoid=3gPhHqZm6wenunm3KJ5mPQ&cb_client=maps_sv.tactile.gps&w=224&h=298&yaw=15.666801&pitch=0&thumbfov=100"
            },
            {
                "about": "Street View & 360deg",
                "link": "https://streetviewpixels-pa.googleapis.com/v1/thumbnail?panoid=3gPhHqZm6wenunm3KJ5mPQ&cb_client=maps_sv.tactile.gps&w=224&h=298&yaw=15.666801&pitch=0&thumbfov=100"
            }
        ],
        "link": "https://www.google.com/maps/place/Masjid/data=!4m7!3m6!1s0x39695901aef42ed7:0x217ef1838c5d894e!8m2!3d26.2972865!4d74.7303021!16s%2Fg%2F1hjgjjvz1!19sChIJ1y70rgFZaTkRToldjIPxfiE?authuser=0&hl=en&rclk=1",
        "coordinates": {
            "latitude": 26.2972865,
            "longitude": 74.7303021
        }
    },
    {
        "name": "Badi Masjid",
        "main_category": "Mosque",
        "address": "7PXQ+76J Badi Masjid, Station Rd, Nasirabad, Rajasthan 305601",
        "detailed_address": {
            "ward": null,
            "street": "7PXQ+76J, Station Rd",
            "city": "Nasirabad",
            "postal_code": "305601",
            "state": "Rajasthan",
            "country_code": "IN"
        },
        "images": [
            {
                "about": "All",
                "link": "https://streetviewpixels-pa.googleapis.com/v1/thumbnail?panoid=sXLAz2kIo_diJvem2RkHug&cb_client=maps_sv.tactile.gps&w=224&h=298&yaw=83.16804&pitch=0&thumbfov=100"
            },
            {
                "about": "Street View & 360deg",
                "link": "https://streetviewpixels-pa.googleapis.com/v1/thumbnail?panoid=sXLAz2kIo_diJvem2RkHug&cb_client=maps_sv.tactile.gps&w=224&h=298&yaw=83.16804&pitch=0&thumbfov=100"
            }
        ],
        "link": "https://www.google.com/maps/place/Badi+Masjid/data=!4m7!3m6!1s0x396959ab0d6aaaab:0xd67af932f62419e7!8m2!3d26.2982248!4d74.7380046!16s%2Fg%2F11txmzcs6k!19sChIJq6pqDatZaTkR5xkk9jL5etY?authuser=0&hl=en&rclk=1",
        "coordinates": {
            "latitude": 26.2982248,
            "longitude": 74.7380046
        }
    },
    {
        "name": "Army masjid",
        "main_category": "Mosque",
        "address": "8P9H+H38 Army masjid, Nasirabad, Rajasthan 305601",
        "detailed_address": {
            "ward": null,
            "street": "8P9H+H38",
            "city": "Nasirabad",
            "postal_code": "305601",
            "state": "Rajasthan",
            "country_code": "IN"
        },
        "images": [],
        "link": "https://www.google.com/maps/place/Army+masjid/data=!4m7!3m6!1s0x396959d3c1a908d7:0x32055b59fffe0248!8m2!3d26.3189035!4d74.7276965!16s%2Fg%2F11kpl1gxjl!19sChIJ1wipwdNZaTkRSAL-_1lbBTI?authuser=0&hl=en&rclk=1",
        "coordinates": {
            "latitude": 26.318903499999998,
            "longitude": 74.7276965
        }
    },
    {
        "name": "Madina Masjid Nasirabad",
        "main_category": "Mosque",
        "address": "9WJ7+GRR Madina Masjid Nasirabad, Mehran Colony Nasirabad, Qambar Shahdadkot, Sindh, Pakistan",
        "detailed_address": {
            "ward": "Mehran Colony",
            "street": "9WJ7+GRR",
            "city": "Nasirabad",
            "postal_code": null,
            "state": "Qambar Shahdadkot, Sindh",
            "country_code": "PK"
        },
        "images": [],
        "link": "https://www.google.com/maps/place/Madina+Masjid+Nasirabad/data=!4m7!3m6!1s0x39351179565e6f23:0x15f8007f5c06a0ca!8m2!3d27.3813673!4d67.9145032!16s%2Fg%2F11svdfv3pd!19sChIJI29eVnkRNTkRyqAGXH8A-BU?authuser=0&hl=en&rclk=1",
        "coordinates": {
            "latitude": 27.381367299999997,
            "longitude": 67.9145032
        }
    },
    {
        "name": "Masjid e Madina",
        "main_category": "Mosque",
        "address": "Masjid e Madina, Howsing board, Nasirabad, Rajasthan 305601",
        "detailed_address": {
            "ward": null,
            "street": "Howsing board",
            "city": "Nasirabad",
            "postal_code": "305601",
            "state": "Rajasthan",
            "country_code": "IN"
        },
        "images": [
            {
                "about": "All",
                "link": "https://lh5.googleusercontent.com/p/AF1QipPie8_jo7kfzB9TlSfltKKWX9Phd6dib5m9xfIs=w529-h298-k-no"
            },
            {
                "about": "By owner",
                "link": "https://lh5.googleusercontent.com/p/AF1QipMK35c8lHK1nFimo_UgYnEdccPUhp6TFAlA7Zc=w224-h298-k-no"
            },
            {
                "about": "Street View & 360deg",
                "link": "https://streetviewpixels-pa.googleapis.com/v1/thumbnail?panoid=QafzdVAAtJ55T2T1TQ3w-g&cb_client=maps_sv.tactile.gps&w=224&h=298&yaw=261.0076&pitch=0&thumbfov=100"
            }
        ],
        "link": "https://www.google.com/maps/place/Masjid+e+Madina/data=!4m7!3m6!1s0x3969590d7595ce37:0x51d213543329659a!8m2!3d26.295709!4d74.7047909!16s%2Fg%2F11t16pwn_f!19sChIJN86VdQ1ZaTkRmmUpM1QT0lE?authuser=0&hl=en&rclk=1",
        "coordinates": {
            "latitude": 26.295709,
            "longitude": 74.70479089999999
        }
    },
    {
        "name": "Masjid e Madina",
        "main_category": "Mosque",
        "address": "Masjid e Madina, Howsing board, Nasirabad, Rajasthan 305601",
        "detailed_address": {
            "ward": null,
            "street": "Howsing board",
            "city": "Nasirabad",
            "postal_code": "305601",
            "state": "Rajasthan",
            "country_code": "IN"
        },
        "images": [],
        "link": "https://www.google.com/maps/place/Masjid+e+Madina/data=!4m7!3m6!1s0x39695980bd8a9127:0x44f3d4bf8344a928!8m2!3d26.2983519!4d74.7354074!16s%2Fg%2F11t2svz37t!19sChIJJ5GKvYBZaTkRKKlEg7_U80Q?authuser=0&hl=en&rclk=1",
        "coordinates": {
            "latitude": 26.2983519,
            "longitude": 74.7354074
        }
    }
]