[
    {
        "name": "Zaini Masjid",
        "main_category": "Mosque",
        "address": "W98F+W2C Zaini Masjid, Islampura, Siddhpur, Gujarat 384151",
        "detailed_address": {
            "ward": "Islampura",
            "street": "W98F+W2C",
            "city": "Siddhpur",
            "postal_code": "384151",
            "state": "Gujarat",
            "country_code": "IN"
        },
        "images": [
            {
                "about": "All",
                "link": "https://lh5.googleusercontent.com/p/AF1QipP3a7CBY1IzCgHW0Y-QfVBwRcuX9dTAHJLuNjqO=w397-h298-k-no"
            }
        ],
        "link": "https://www.google.com/maps/place/Zaini+Masjid/data=!4m7!3m6!1s0x395cf4fe83658d0f:0xcdc92b50515616bd!8m2!3d23.9173121!4d72.3725081!16s%2Fg%2F1hhm7vs9m!19sChIJD41lg_70XDkRvRZWUVAryc0?authuser=0&hl=en&rclk=1",
        "coordinates": {
            "latitude": 23.9173121,
            "longitude": 72.37250809999999
        }
    },
    {
        "name": "Mohammedi Masjid",
        "main_category": "Mosque",
        "address": "W99F+JFP Mohammedi Masjid, Zampli Pol, Ambavadi, Siddhpur, Gujarat 384151",
        "detailed_address": {
            "ward": "Zampli Pol, Ambavadi",
            "street": "W99F+JFP",
            "city": "Siddhpur",
            "postal_code": "384151",
            "state": "Gujarat",
            "country_code": "IN"
        },
        "images": [],
        "link": "https://www.google.com/maps/place/Mohammedi+Masjid/data=!4m7!3m6!1s0x395cf4feb96ff001:0x101afc626ac26124!8m2!3d23.9190895!4d72.3737079!16s%2Fg%2F11bwyl_dlm!19sChIJAfBvuf70XDkRJGHCamL8GhA?authuser=0&hl=en&rclk=1",
        "coordinates": {
            "latitude": 23.9190895,
            "longitude": 72.3737079
        }
    },
    {
        "name": "Masjid kakosi highway sidhpur",
        "main_category": "Mosque",
        "address": "W9J6+M8M Masjid kakosi highway sidhpur, Saraswati Nagar, Siddhpur, Gujarat 384151",
        "detailed_address": {
            "ward": "Saraswati Nagar",
            "street": "W9J6+M8M",
            "city": "Siddhpur",
            "postal_code": "384151",
            "state": "Gujarat",
            "country_code": "IN"
        },
        "images": [],
        "link": "https://www.google.com/maps/place/Masjid+kakosi+highway+sidhpur/data=!4m7!3m6!1s0x395cf5f8c01ba9a1:0x660921d4eab6b9c2!8m2!3d23.9317135!4d72.3607954!16s%2Fg%2F11h5vmwylb!19sChIJoakbwPj1XDkRwrm26tQhCWY?authuser=0&hl=en&rclk=1",
        "coordinates": {
            "latitude": 23.931713499999997,
            "longitude": 72.3607954
        }
    },
    {
        "name": "Rahimpura Masjid Navavas Sidhpur",
        "main_category": "Mosque",
        "address": "Rahimpura Masjid Navavas Sidhpur, 384151, Navavas, Maruvas, Siddhpur, Gujarat 384151",
        "detailed_address": {
            "ward": "Navavas, Maruvas",
            "street": "384151",
            "city": "Siddhpur",
            "postal_code": "384151",
            "state": "Gujarat",
            "country_code": "IN"
        },
        "images": [
            {
                "about": "All",
                "link": "https://lh5.googleusercontent.com/p/AF1QipPpAOfW_cjpI-IhXtsWWHvu2yIn7Fphn6gjKXYe=w224-h339-k-no"
            },
            {
                "about": "Videos",
                "link": "https://lh5.googleusercontent.com/p/AF1QipPHineokvtPRjUDqjqlrdcEfxoSZg_gmfaBEqIi=w298-h298-k-no"
            }
        ],
        "link": "https://www.google.com/maps/place/Rahimpura+Masjid+Navavas+Sidhpur/data=!4m7!3m6!1s0x395cf501e086642d:0x542161819a3ef8d1!8m2!3d23.9141228!4d72.3739919!16s%2Fg%2F11c6vvp6bn!19sChIJLWSG4AH1XDkR0fg-moFhIVQ?authuser=0&hl=en&rclk=1",
        "coordinates": {
            "latitude": 23.914122799999998,
            "longitude": 72.3739919
        }
    },
    {
        "name": "Markaz Masjid",
        "main_category": "Mosque",
        "address": "W9CC+59J Markaz Masjid, Islampura, Siddhpur, Gujarat 384151",
        "detailed_address": {
            "ward": "Islampura",
            "street": "W9CC+59J",
            "city": "Siddhpur",
            "postal_code": "384151",
            "state": "Gujarat",
            "country_code": "IN"
        },
        "images": [],
        "link": "https://www.google.com/maps/place/Markaz+Masjid/data=!4m7!3m6!1s0x395cf5193d475735:0xeb4bd2f2d8b2069d!8m2!3d23.9204503!4d72.3708983!16s%2Fg%2F11gj60_6w9!19sChIJNVdHPRn1XDkRnQay2PLSS-s?authuser=0&hl=en&rclk=1",
        "coordinates": {
            "latitude": 23.9204503,
            "longitude": 72.3708983
        }
    },
    {
        "name": "sunni hanfi masjid",
        "main_category": "Mosque",
        "address": "WCP9+XFW sunni hanfi masjid, mominwas, Mudana, Gujarat 384151",
        "detailed_address": {
            "ward": "mominwas",
            "street": "WCP9+XFW",
            "city": "Mudana",
            "postal_code": "384151",
            "state": "Gujarat",
            "country_code": "IN"
        },
        "images": [
            {
                "about": "All",
                "link": "https://lh5.googleusercontent.com/p/AF1QipPBo0g7EoA-F7Je33IsowezFqTgXIqwI415qLlF=w224-h352-k-no"
            },
            {
                "about": "Dome",
                "link": "https://lh5.googleusercontent.com/p/AF1QipPBo0g7EoA-F7Je33IsowezFqTgXIqwI415qLlF=w224-h352-k-no"
            }
        ],
        "link": "https://www.google.com/maps/place/sunni+hanfi+masjid/data=!4m7!3m6!1s0x395cf423f211f8bf:0x3781502ac429d3fd!8m2!3d23.9374989!4d72.418718!16s%2Fg%2F11c6chnfkd!19sChIJv_gR8iP0XDkR_dMpxCpQgTc?authuser=0&hl=en&rclk=1",
        "coordinates": {
            "latitude": 23.937498899999998,
            "longitude": 72.418718
        }
    },
    {
        "name": "Mughal Datar Masjid, Siddhpur",
        "main_category": "Mosque",
        "address": "W99C+WXC Mughal Datar Masjid, Siddhpur, Zampli Pol, Ambavadi, Siddhpur, Gujarat 384151",
        "detailed_address": {
            "ward": "Zampli Pol, Ambavadi",
            "street": "W99C+WXC",
            "city": "Siddhpur",
            "postal_code": "384151",
            "state": "Gujarat",
            "country_code": "IN"
        },
        "images": [
            {
                "about": "All",
                "link": "https://lh5.googleusercontent.com/p/AF1QipNgmSSi5j6muYuHEJaRg2_4ia_K0czyE4RBwWrZ=w629-h298-k-no"
            },
            {
                "about": "Latest",
                "link": "https://lh5.googleusercontent.com/p/AF1QipMY74snMHOVQfwss3Fk79DEbz8dBifGvb1Hs26H=w668-h298-k-no"
            }
        ],
        "link": "https://www.google.com/maps/place/Mughal+Datar+Masjid,+Siddhpur/data=!4m7!3m6!1s0x395cf5660555196f:0xcd7fe4b5649edba7!8m2!3d23.9198106!4d72.3723846!16s%2Fg%2F11gk8ygn02!19sChIJbxlVBWb1XDkRp9ueZLXkf80?authuser=0&hl=en&rclk=1",
        "coordinates": {
            "latitude": 23.919810599999998,
            "longitude": 72.3723846
        }
    },
    {
        "name": "Saifee Masjid",
        "main_category": "Mosque",
        "address": "W99C+CXR Saifee Masjid, Zampli Pol, Ambavadi, Siddhpur, Gujarat 384151",
        "detailed_address": {
            "ward": "Zampli Pol, Ambavadi",
            "street": "W99C+CXR",
            "city": "Siddhpur",
            "postal_code": "384151",
            "state": "Gujarat",
            "country_code": "IN"
        },
        "images": [],
        "link": "https://www.google.com/maps/place/Saifee+Masjid/data=!4m7!3m6!1s0x395cf4fc1e56bb89:0x7371452673e2ea91!8m2!3d23.918624!4d72.3723816!16s%2Fg%2F11ckvkrbxm!19sChIJibtWHvz0XDkRkericyZFcXM?authuser=0&hl=en&rclk=1",
        "coordinates": {
            "latitude": 23.918623999999998,
            "longitude": 72.3723816
        }
    },
    {
        "name": "Gulista Park Masjid",
        "main_category": "Mosque",
        "address": "Gulista Park Masjid, Gulista Park, Market Yard, Siddhpur, Gujarat 384151",
        "detailed_address": {
            "ward": "Market Yard",
            "street": "Gulista Park",
            "city": "Siddhpur",
            "postal_code": null,
            "state": "Gujarat",
            "country_code": "IN"
        },
        "images": [
            {
                "about": "All",
                "link": "https://lh5.googleusercontent.com/p/AF1QipNtY3VK8s3ZtstZoFGfXDoq01kwOJqdyedl5ECJ=w529-h298-k-no"
            },
            {
                "about": "Videos",
                "link": "https://lh5.googleusercontent.com/p/AF1QipNtY3VK8s3ZtstZoFGfXDoq01kwOJqdyedl5ECJ=w529-h298-k-no"
            }
        ],
        "link": "https://www.google.com/maps/place/Gulista+Park+Masjid/data=!4m7!3m6!1s0x395cf5d6d3818493:0xe19e1d67ee2bc25!8m2!3d23.925135!4d72.3631702!16s%2Fg%2F11t5syxg0g!19sChIJk4SB09b1XDkRJbziftbhGQ4?authuser=0&hl=en&rclk=1",
        "coordinates": {
            "latitude": 23.925134999999997,
            "longitude": 72.3631702
        }
    },
    {
        "name": "Masjid abu bakr",
        "main_category": "Mosque",
        "address": "Masjid abu bakr, 100, GJ SH 41, Modheshwari Society, Gurukripa Society, Siddhpur, Gujarat 384151",
        "detailed_address": {
            "ward": "Modheshwari Society, Gurukripa Society",
            "street": "100, GJ SH 41",
            "city": "Siddhpur",
            "postal_code": "384151",
            "state": "Gujarat",
            "country_code": "IN"
        },
        "images": [
            {
                "about": "All",
                "link": "https://lh5.googleusercontent.com/p/AF1QipPUY6Z4eZJHbqZEfKvNrckrCc-TnWqKVFg73SM2=w529-h298-k-no"
            }
        ],
        "link": "https://www.google.com/maps/place/Masjid+abu+bakr/data=!4m7!3m6!1s0x395cf56a2438c661:0xe52a4691de459b01!8m2!3d23.9224345!4d72.3619573!16s%2Fg%2F11fsml9kjb!19sChIJYcY4JGr1XDkRAZtF3pFGKuU?authuser=0&hl=en&rclk=1",
        "coordinates": {
            "latitude": 23.922434499999998,
            "longitude": 72.3619573
        }
    },
    {
        "name": "Najmi Masjid",
        "main_category": "Mosque",
        "address": "W99F+3J3 Najmi Masjid, Ambavadi, Siddhpur, Gujarat 384151",
        "detailed_address": {
            "ward": "Ambavadi",
            "street": "W99F+3J3",
            "city": "Siddhpur",
            "postal_code": "384151",
            "state": "Gujarat",
            "country_code": "IN"
        },
        "images": [],
        "link": "https://www.google.com/maps/place/Najmi+Masjid/data=!4m7!3m6!1s0x395cf4fef34ed0eb:0x8e9fd10d697dedd4!8m2!3d23.9176272!4d72.3740616!16s%2Fg%2F11bvt5c_2h!19sChIJ69BO8_70XDkR1O19aQ3Rn44?authuser=0&hl=en&rclk=1",
        "coordinates": {
            "latitude": 23.9176272,
            "longitude": 72.37406159999999
        }
    },
    {
        "name": "Masjid Bilal Sidhpur",
        "main_category": "Education center",
        "address": "Masjid Bilal Sidhpur, Rajpur Road, Dharnat Mohalla, Rajpur, Siddhpur, Gujarat 384151",
        "detailed_address": {
            "ward": "Dharnat Mohalla, Rajpur",
            "street": "Rajpur Road",
            "city": "Siddhpur",
            "postal_code": "384151",
            "state": "Gujarat",
            "country_code": "IN"
        },
        "images": [
            {
                "about": "All",
                "link": "https://lh5.googleusercontent.com/p/AF1QipOYtIn-FPuyoQRAh9U3q7MUIjgseiWMBDO8OcSx=w225-h298-k-no"
            },
            {
                "about": "By owner",
                "link": "https://lh5.googleusercontent.com/p/AF1QipOYtIn-FPuyoQRAh9U3q7MUIjgseiWMBDO8OcSx=w225-h298-k-no"
            }
        ],
        "link": "https://www.google.com/maps/place/Masjid+Bilal+Sidhpur/data=!4m7!3m6!1s0x395cf50742d54fc9:0x95a1394cf79f6cec!8m2!3d23.9227004!4d72.3720121!16s%2Fg%2F11mvmv5738!19sChIJyU_VQgf1XDkR7Gyf90w5oZU?authuser=0&hl=en&rclk=1",
        "coordinates": {
            "latitude": 23.9227004,
            "longitude": 72.37201209999999
        }
    },
    {
        "name": "Idgah Masjid",
        "main_category": "Mosque",
        "address": "W9C8+7VX Idgah Masjid, Green Park Society, Siddhpur, Gujarat 384151",
        "detailed_address": {
            "ward": "Green Park Society",
            "street": "W9C8+7VX",
            "city": "Siddhpur",
            "postal_code": "384151",
            "state": "Gujarat",
            "country_code": "IN"
        },
        "images": [],
        "link": "https://www.google.com/maps/place/Idgah+Masjid/data=!4m7!3m6!1s0x395cf54d5d904c53:0xe7d7803e1b8bcd1c!8m2!3d23.9207494!4d72.3672314!16s%2Fg%2F11ghrlpdwd!19sChIJU0yQXU31XDkRHM2LGz6A1-c?authuser=0&hl=en&rclk=1",
        "coordinates": {
            "latitude": 23.9207494,
            "longitude": 72.3672314
        }
    },
    {
        "name": "Masjid Sukun society",
        "main_category": "Mosque",
        "address": "Masjid Sukun society, Sukun Residency, Umru Chokdi, Chokdi, Umru, Siddhpur, Gujarat 384151",
        "detailed_address": {
            "ward": "Chokdi",
            "street": "Sukun Residency, Umru Chokdi",
            "city": "Umru, Siddhpur",
            "postal_code": "384151",
            "state": "Gujarat",
            "country_code": "IN"
        },
        "images": [
            {
                "about": "All",
                "link": "https://lh5.googleusercontent.com/p/AF1QipPIUzNBPm6zcP5YEFe12mN0IO-z9SzyYtYeK7Xz=w645-h298-k-no"
            }
        ],
        "link": "https://www.google.com/maps/place/Masjid+Sukun+society/data=!4m7!3m6!1s0x395cf3fab36410d1:0x81d5ccbc55d8a6dc!8m2!3d23.9619929!4d72.3432843!16s%2Fg%2F11j8qv9kk6!19sChIJ0RBks_rzXDkR3KbYVbzM1YE?authuser=0&hl=en&rclk=1",
        "coordinates": {
            "latitude": 23.9619929,
            "longitude": 72.3432843
        }
    },
    {
        "name": "Juni Jumma Masjid - Sidhpur",
        "main_category": "Mosque",
        "address": "W99H+PJG Juni Jumma Masjid - Sidhpur, near Rang fali, Ambavadi, Siddhpur, Gujarat 384151",
        "detailed_address": {
            "ward": "Ambavadi",
            "street": "W99H+PJG, near Rang fali",
            "city": "Siddhpur",
            "postal_code": "384151",
            "state": "Gujarat",
            "country_code": "IN"
        },
        "images": [],
        "link": "https://www.google.com/maps/place/Juni+Jumma+Masjid+-+Sidhpur/data=!4m7!3m6!1s0x395cf5c8a783f221:0xc5e2d257234ae4ce!8m2!3d23.9193186!4d72.3790643!16s%2Fg%2F11v0bqff9d!19sChIJIfKDp8j1XDkRzuRKI1fS4sU?authuser=0&hl=en&rclk=1",
        "coordinates": {
            "latitude": 23.9193186,
            "longitude": 72.3790643
        }
    },
    {
        "name": "Badri Masjid",
        "main_category": "Mosque",
        "address": "W99H+7QV Badri Masjid, Ambavadi, Siddhpur, Gujarat 384151",
        "detailed_address": {
            "ward": "Ambavadi",
            "street": "W99H+7QV",
            "city": "Siddhpur",
            "postal_code": "384151",
            "state": "Gujarat",
            "country_code": "IN"
        },
        "images": [],
        "link": "https://www.google.com/maps/place/Badri+Masjid/data=!4m7!3m6!1s0x395cf5a7acecb8a3:0xddbd462110b0b50c!8m2!3d23.9182396!4d72.3794346!16s%2Fg%2F11pqzklmmv!19sChIJo7jsrKf1XDkRDLWwECFGvd0?authuser=0&hl=en&rclk=1",
        "coordinates": {
            "latitude": 23.9182396,
            "longitude": 72.3794346
        }
    },
    {
        "name": "MASJID-E-ABUBAKAR R.D.",
        "main_category": "Mosque",
        "address": "MASJID-E-ABUBAKAR R.D., Patel Estate, Green Park Society, Siddhpur, Gujarat 384151",
        "detailed_address": {
            "ward": "Green Park Society",
            "street": "Patel Estate",
            "city": "Siddhpur",
            "postal_code": "384151",
            "state": "Gujarat",
            "country_code": "IN"
        },
        "images": [],
        "link": "https://www.google.com/maps/place/MASJID-E-ABUBAKAR+R.D./data=!4m7!3m6!1s0x395cf54d51029cf7:0x53b0dcdc4f0f0b00!8m2!3d23.9222067!4d72.3632127!16s%2Fg%2F11l6qgv9gn!19sChIJ95wCUU31XDkRAAsPT9zcsFM?authuser=0&hl=en&rclk=1",
        "coordinates": {
            "latitude": 23.9222067,
            "longitude": 72.36321269999999
        }
    },
    {
        "name": "Zama Masjid",
        "main_category": "Mosque",
        "address": "Zama Masjid, Ambavadi, Siddhpur, Gujarat 384151",
        "detailed_address": {
            "ward": "Ambavadi",
            "street": "Zama Masjid",
            "city": "Siddhpur",
            "postal_code": null,
            "state": "Gujarat",
            "country_code": "IN"
        },
        "images": [
            {
                "about": "All",
                "link": "https://lh5.googleusercontent.com/p/AF1QipNwz8wI8pO5f3KuWuC-7PYs1W9G25zi5Wagbmog=w224-h398-k-no"
            }
        ],
        "link": "https://www.google.com/maps/place/Zama+Masjid/data=!4m7!3m6!1s0x395cf50ab228132b:0xd8968abc69a407a1!8m2!3d23.9192991!4d72.3790163!16s%2Fg%2F11sp6kxqkz!19sChIJKxMosgr1XDkRoQekabyKltg?authuser=0&hl=en&rclk=1",
        "coordinates": {
            "latitude": 23.9192991,
            "longitude": 72.3790163
        }
    },
    {
        "name": "Bargahe sahe vilayat imamvada",
        "main_category": "Mosque",
        "address": "Bargahe sahe vilayat imamvada, samarth complex, g37, Market Yard, Siddhpur, Gujarat 384151",
        "detailed_address": {
            "ward": "Market Yard",
            "street": "samarth complex, g37",
            "city": "Siddhpur",
            "postal_code": "384151",
            "state": "Gujarat",
            "country_code": "IN"
        },
        "images": [
            {
                "about": "All",
                "link": "https://lh5.googleusercontent.com/p/AF1QipMvJEja0nKoibFR2zpuQXZAef8wmmjqkLzdWd71=w224-h298-k-no"
            }
        ],
        "link": "https://www.google.com/maps/place/Bargahe+sahe+vilayat+imamvada/data=!4m7!3m6!1s0x395cf560c50a766f:0xd463dfd86153f6d!8m2!3d23.9248639!4d72.36411!16s%2Fg%2F11rxyb1nmd!19sChIJb3YKxWD1XDkRbT8Vhv09Rg0?authuser=0&hl=en&rclk=1",
        "coordinates": {
            "latitude": 23.9248639,
            "longitude": 72.36411
        }
    },
    {
        "name": "Masjid Abu bakr",
        "main_category": "Mosque",
        "address": "V9R8+HFF Masjid Abu bakr, GJ SH 10, Gujarat 384215",
        "detailed_address": {
            "ward": null,
            "street": "V9R8+HFF, GJ SH 10",
            "city": null,
            "postal_code": "384215",
            "state": "Gujarat",
            "country_code": "IN"
        },
        "images": [
            {
                "about": "All",
                "link": "https://lh5.googleusercontent.com/p/AF1QipPIpwm0ofXlwSMxKRkzeXspR__hKfV_9Q9-4Eb7=w529-h298-k-no"
            },
            {
                "about": "Latest",
                "link": "https://streetviewpixels-pa.googleapis.com/v1/thumbnail?panoid=WkHn2ZKAATODEp5BHqdssA&cb_client=maps_sv.tactile.gps&w=224&h=298&yaw=39.47229&pitch=0&thumbfov=100"
            },
            {
                "about": "Street View & 360deg",
                "link": "https://streetviewpixels-pa.googleapis.com/v1/thumbnail?panoid=WkHn2ZKAATODEp5BHqdssA&cb_client=maps_sv.tactile.gps&w=224&h=298&yaw=39.47229&pitch=0&thumbfov=100"
            }
        ],
        "link": "https://www.google.com/maps/place/Masjid+Abu+bakr/data=!4m7!3m6!1s0x395cf5040c55c17d:0x4d40f6d57c33023!8m2!3d23.8914369!4d72.3661803!16s%2Fg%2F11fsml4yz_!19sChIJfcFVDAT1XDkRIzDDV20P1AQ?authuser=0&hl=en&rclk=1",
        "coordinates": {
            "latitude": 23.8914369,
            "longitude": 72.3661803
        }
    }
]