[
    {
        "name": "JAMA MASJID ACHNERA",
        "main_category": "Mosque",
        "address": "5QJ4+6J8 JAMA MASJID ACHNERA, MOHALLA SEKHAN, Achhnera, Uttar Pradesh 283101",
        "detailed_address": {
            "ward": "MOHALLA SEKHAN",
            "street": "5QJ4+6J8",
            "city": "Achhnera",
            "postal_code": "283101",
            "state": "Uttar Pradesh",
            "country_code": "IN"
        },
        "images": [
            {
                "about": "All",
                "link": "https://lh5.googleusercontent.com/p/AF1QipPGqkz1QtwKa5_WAZwWYNmeHUybtGrak_b3oN4M=w529-h298-k-no"
            },
            {
                "about": "Videos",
                "link": "https://lh5.googleusercontent.com/p/AF1QipN0efeK01FqWdO-A8dRckFn90PEt3MofEDOdA29=w224-h407-k-no"
            }
        ],
        "link": "https://www.google.com/maps/place/JAMA+MASJID+ACHNERA/data=!4m7!3m6!1s0x39738fe5fff8f80d:0x13b506eef0d5990f!8m2!3d27.1805369!4d77.7565633!16s%2Fg%2F11gg92ztjr!19sChIJDfj4_-WPczkRD5nV8O4GtRM?authuser=0&hl=en&rclk=1",
        "coordinates": {
            "latitude": 27.1805369,
            "longitude": 77.7565633
        }
    },
    {
        "name": "Nuri Masjid",
        "main_category": "Mosque",
        "address": "5QG6+7HG Nuri Masjid, Achhnera, Thapi, Uttar Pradesh 283101",
        "detailed_address": {
            "ward": null,
            "street": "5QG6+7HG",
            "city": "Achhnera, Thapi",
            "postal_code": "283101",
            "state": "Uttar Pradesh",
            "country_code": "IN"
        },
        "images": [
            {
                "about": "All",
                "link": "https://streetviewpixels-pa.googleapis.com/v1/thumbnail?panoid=PCC5wIK1J_RaEIuustrA1w&cb_client=maps_sv.tactile.gps&w=224&h=298&yaw=236.43144&pitch=0&thumbfov=100"
            },
            {
                "about": "Street View & 360deg",
                "link": "https://streetviewpixels-pa.googleapis.com/v1/thumbnail?panoid=PCC5wIK1J_RaEIuustrA1w&cb_client=maps_sv.tactile.gps&w=224&h=298&yaw=236.43144&pitch=0&thumbfov=100"
            }
        ],
        "link": "https://www.google.com/maps/place/Nuri+Masjid/data=!4m7!3m6!1s0x39738fe9e4538395:0x475d28d93a040862!8m2!3d27.1756814!4d77.7614558!16s%2Fg%2F11gdhb3q72!19sChIJlYNT5OmPczkRYggEOtkoXUc?authuser=0&hl=en&rclk=1",
        "coordinates": {
            "latitude": 27.1756814,
            "longitude": 77.7614558
        }
    },
    {
        "name": "IDGAH MASJID SARAYA",
        "main_category": "Religious destination",
        "address": "5QH5+6P5 IDGAH MASJID SARAYA, Achhnera, Uttar Pradesh 283101",
        "detailed_address": {
            "ward": null,
            "street": "5QH5+6P5",
            "city": "Achhnera",
            "postal_code": "283101",
            "state": "Uttar Pradesh",
            "country_code": "IN"
        },
        "images": [],
        "link": "https://www.google.com/maps/place/IDGAH+MASJID+SARAYA/data=!4m7!3m6!1s0x39738f5d2ba60131:0x18a882406143501c!8m2!3d27.1780058!4d77.7593522!16s%2Fg%2F11lfh8gb1l!19sChIJMQGmK12PczkRHFBDYUCCqBg?authuser=0&hl=en&rclk=1",
        "coordinates": {
            "latitude": 27.178005799999998,
            "longitude": 77.7593522
        }
    },
    {
        "name": "Faijan E Raza Sandali Madarsa",
        "main_category": "Mosque",
        "address": "5QJ4+4QC Faijan E Raza Sandali Madarsa, mohalla shekhan, Achhnera, Uttar Pradesh 283101",
        "detailed_address": {
            "ward": "mohalla shekhan",
            "street": "5QJ4+4QC",
            "city": "Achhnera",
            "postal_code": null,
            "state": "Uttar Pradesh",
            "country_code": "IN"
        },
        "images": [],
        "link": "https://www.google.com/maps/place/Faijan+E+Raza+Sandali+Madarsa/data=!4m7!3m6!1s0x39738fe8abbf6f73:0x5b75b0646fb9b136!8m2!3d27.1803167!4d77.7569027!16s%2Fg%2F11hchrnwtv!19sChIJc2-_q-iPczkRNrG5b2SwdVs?authuser=0&hl=en&rclk=1",
        "coordinates": {
            "latitude": 27.1803167,
            "longitude": 77.7569027
        }
    },
    {
        "name": "Madina Masjid",
        "main_category": "Mosque",
        "address": "5QG3+XG2 Madina Masjid, biara, Achhnera, Uttar Pradesh 283101",
        "detailed_address": {
            "ward": "biara",
            "street": "5QG3+XG2",
            "city": "Achhnera",
            "postal_code": "283101",
            "state": "Uttar Pradesh",
            "country_code": "IN"
        },
        "images": [
            {
                "about": "All",
                "link": "https://streetviewpixels-pa.googleapis.com/v1/thumbnail?panoid=3JC_ODs6JpFR3rguoo1sgg&cb_client=maps_sv.tactile.gps&w=224&h=298&yaw=173.71278&pitch=0&thumbfov=100"
            },
            {
                "about": "Street View & 360deg",
                "link": "https://streetviewpixels-pa.googleapis.com/v1/thumbnail?panoid=3JC_ODs6JpFR3rguoo1sgg&cb_client=maps_sv.tactile.gps&w=224&h=298&yaw=173.71278&pitch=0&thumbfov=100"
            }
        ],
        "link": "https://www.google.com/maps/place/Madina+Masjid/data=!4m7!3m6!1s0x39738fe6ffffffff:0x23f19a1dcf969d41!8m2!3d27.1773864!4d77.7537502!16s%2Fg%2F11fzlzgv7q!19sChIJ_____-aPczkRQZ2Wzx2a8SM?authuser=0&hl=en&rclk=1",
        "coordinates": {
            "latitude": 27.1773864,
            "longitude": 77.7537502
        }
    }
]