[
    {
        "name": "sunni hanfi masjid",
        "main_category": "Mosque",
        "address": "8274+XF3 sunni hanfi masjid, Padampur Rd, Chhattisgarh 493558",
        "detailed_address": {
            "ward": null,
            "street": "8274+XF3, Padampur Rd",
            "city": null,
            "postal_code": "493558",
            "state": "Chhattisgarh",
            "country_code": "IN"
        },
        "images": [
            {
                "about": "All",
                "link": "https://streetviewpixels-pa.googleapis.com/v1/thumbnail?panoid=x535DxGZfIvUX1Xh_fXCwA&cb_client=maps_sv.tactile.gps&w=224&h=298&yaw=265.71555&pitch=0&thumbfov=100"
            },
            {
                "about": "Street View & 360deg",
                "link": "https://streetviewpixels-pa.googleapis.com/v1/thumbnail?panoid=x535DxGZfIvUX1Xh_fXCwA&cb_client=maps_sv.tactile.gps&w=224&h=298&yaw=265.71555&pitch=0&thumbfov=100"
            }
        ],
        "link": "https://www.google.com/maps/place/sunni+hanfi+masjid/data=!4m7!3m6!1s0x3a268cbb02f91783:0x613b498cb0d084a0!8m2!3d21.3148787!4d83.0061668!16s%2Fg%2F11c2l3vs1j!19sChIJgxf5AruMJjoRoITQsIxJO2E?authuser=0&hl=en&rclk=1",
        "coordinates": {
            "latitude": 21.314878699999998,
            "longitude": 83.0061668
        }
    },
    {
        "name": "Jama Masjid Basna (Badi Masjid)",
        "main_category": "Mosque",
        "address": "7RGH+VWR Jama Masjid Basna (Badi Masjid), Basna, Chhattisgarh 493554",
        "detailed_address": {
            "ward": null,
            "street": "7RGH+VWR",
            "city": "Basna",
            "postal_code": "493554",
            "state": "Chhattisgarh",
            "country_code": "IN"
        },
        "images": [
            {
                "about": "All",
                "link": "https://lh5.googleusercontent.com/p/AF1QipMjBD99TK5PvCUTNjks3PXI5OG3B4Ni1y3uVwea=w412-h298-k-no"
            }
        ],
        "link": "https://www.google.com/maps/place/Jama+Masjid+Basna+%28Badi+Masjid%29/data=!4m7!3m6!1s0x3a2660d7baae6f2b:0x1f10333de0451399!8m2!3d21.2772479!4d82.8297633!16s%2Fg%2F1ptyfch9g!19sChIJK2-uutdgJjoRmRNF4D0zEB8?authuser=0&hl=en&rclk=1",
        "coordinates": {
            "latitude": 21.2772479,
            "longitude": 82.8297633
        }
    },
    {
        "name": "Durga mandir",
        "main_category": "Place of worship",
        "address": "8XJW+RX4 Durga mandir, Saraipali, Chhattisgarh 493558",
        "detailed_address": {
            "ward": null,
            "street": "8XJW+RX4",
            "city": "Saraipali",
            "postal_code": "493558",
            "state": "Chhattisgarh",
            "country_code": "IN"
        },
        "images": [
            {
                "about": "All",
                "link": "https://lh5.googleusercontent.com/p/AF1QipN82sV4n7-25G8qIB2RYGmvnF0uLujVYUxkHEAa=w397-h298-k-no"
            },
            {
                "about": "Street View & 360deg",
                "link": "https://streetviewpixels-pa.googleapis.com/v1/thumbnail?panoid=F6NXDs_brvEOfmS8pl2E1Q&cb_client=maps_sv.tactile.gps&w=224&h=298&yaw=6.041652&pitch=0&thumbfov=100"
            }
        ],
        "link": "https://www.google.com/maps/place/Durga+mandir/data=!4m7!3m6!1s0x3a26f3ab22fbb971:0xf83d20aebc64772c!8m2!3d21.3320233!4d82.9974681!16s%2Fg%2F11hzhv5tzx!19sChIJcbn7IqvzJjoRLHdkvK4gPfg?authuser=0&hl=en&rclk=1",
        "coordinates": {
            "latitude": 21.3320233,
            "longitude": 82.99746809999999
        }
    },
    {
        "name": "Masjid-E-Gausul Aazam Teka (Sunni Hanfi Masjid)",
        "main_category": "Mosque",
        "address": "7H5G+C92 Masjid-E-Gausul Aazam Teka (Sunni Hanfi Masjid), Chhattisgarh 493112",
        "detailed_address": {
            "ward": null,
            "street": "7H5G+C92",
            "city": null,
            "postal_code": "493112",
            "state": "Chhattisgarh",
            "country_code": "IN"
        },
        "images": [
            {
                "about": "All",
                "link": "https://lh5.googleusercontent.com/p/AF1QipNqYc6BczW3xfixvHStpHRQkLvqO66OBBMNbT4X=w224-h398-k-no"
            },
            {
                "about": "Videos",
                "link": "https://lh5.googleusercontent.com/p/AF1QipNqYc6BczW3xfixvHStpHRQkLvqO66OBBMNbT4X=w224-h398-k-no"
            }
        ],
        "link": "https://www.google.com/maps/place/Masjid-E-Gausul+Aazam+Teka+%28Sunni+Hanfi+Masjid%29/data=!4m7!3m6!1s0x3a266b22b73f2933:0xa9e6ab117f8d571c!8m2!3d21.2585109!4d82.5758861!16s%2Fg%2F11nnph2vgs!19sChIJMyk_tyJrJjoRHFeNfxGr5qk?authuser=0&hl=en&rclk=1",
        "coordinates": {
            "latitude": 21.258510899999997,
            "longitude": 82.57588609999999
        }
    },
    {
        "name": "Ahmadiyya mosque basna",
        "main_category": "Mosque",
        "address": "7RHJ+J5V Ahmadiyya mosque basna, Basna, Saraipali, Chhattisgarh 493554",
        "detailed_address": {
            "ward": null,
            "street": "7RHJ+J5V",
            "city": "Basna, Saraipali",
            "postal_code": "493554",
            "state": "Chhattisgarh",
            "country_code": "IN"
        },
        "images": [
            {
                "about": "All",
                "link": "https://lh5.googleusercontent.com/p/AF1QipOlOIEtMt6kygt4RQsgoovoSjNln0eCLplzlpLF=w529-h298-k-no"
            }
        ],
        "link": "https://www.google.com/maps/place/Ahmadiyya+mosque+basna/data=!4m7!3m6!1s0x3a26614abd20e03b:0x849273bc161bd740!8m2!3d21.2790402!4d82.8302494!16s%2Fg%2F11rz9kgxfm!19sChIJO-AgvUphJjoRQNcbFrxzkoQ?authuser=0&hl=en&rclk=1",
        "coordinates": {
            "latitude": 21.2790402,
            "longitude": 82.8302494
        }
    },
    {
        "name": "Islam Mohalla",
        "main_category": null,
        "address": "Islam Mohalla, Saraipali, Chhattisgarh 493558",
        "detailed_address": {
            "ward": "Islam Mohalla",
            "street": null,
            "city": "Saraipali",
            "postal_code": null,
            "state": "Chhattisgarh",
            "country_code": "IN"
        },
        "images": [],
        "link": "https://www.google.com/maps/place/Islam+Mohalla/data=!4m7!3m6!1s0x3a268cba60348435:0x902fb61291d92113!8m2!3d21.3169602!4d83.0069298!16s%2Fg%2F1q67qgypv!19sChIJNYQ0YLqMJjoREyHZkRK2L5A?authuser=0&hl=en&rclk=1",
        "coordinates": {
            "latitude": 21.3169602,
            "longitude": 83.0069298
        }
    }
]