[
    {
        "name": "Urdu Bhavan Masjid",
        "main_category": "Mosque",
        "address": "6RM3+J93 Urdu Bhavan Masjid, Nallakunta, Gadwal, Telangana 509125",
        "detailed_address": {
            "ward": "Nallakunta",
            "street": "6RM3+J93",
            "city": "Gadwal",
            "postal_code": "509125",
            "state": "Telangana",
            "country_code": "IN"
        },
        "images": [
            {
                "about": "All",
                "link": "https://lh5.googleusercontent.com/p/AF1QipPuHjqo13gxCTvK3FpAFV9ZLamGcKaZFu7nrVNS=w529-h298-k-no"
            }
        ],
        "link": "https://www.google.com/maps/place/Urdu+Bhavan+Masjid/data=!4m7!3m6!1s0x3bc9fc4de279511d:0xec02deced191511a!8m2!3d16.2340116!4d77.803429!16s%2Fg%2F11bwp6l6mm!19sChIJHVF54k38yTsRGlGR0c7eAuw?authuser=0&hl=en&rclk=1",
        "coordinates": {
            "latitude": 16.2340116,
            "longitude": 77.803429
        }
    },
    {
        "name": "Masjid-e-Gulzar",
        "main_category": "Mosque",
        "address": "6QMW+54P Masjid-e-Gulzar, Camels Back Rd, The Mall Road, Mussoorie, Gadwal, Uttarakhand 248179",
        "detailed_address": {
            "ward": "The Mall Road",
            "street": "6QMW+54P, Camels Back Rd",
            "city": "Mussoorie, Gadwal",
            "postal_code": "248179",
            "state": "Uttarakhand",
            "country_code": "IN"
        },
        "images": [
            {
                "about": "All",
                "link": "https://lh5.googleusercontent.com/p/AF1QipMKbXgAebYZEDN2z5Ri3KRQUEEcRMon5orWLM80=w397-h298-k-no"
            }
        ],
        "link": "https://www.google.com/maps/place/Masjid-e-Gulzar/data=!4m7!3m6!1s0x3bc9fc56a00e9787:0x332e9b6679269e07!8m2!3d16.2329732!4d77.7953313!16s%2Fg%2F11c1xc9ntj!19sChIJh5cOoFb8yTsRB54meWabLjM?authuser=0&hl=en&rclk=1",
        "coordinates": {
            "latitude": 16.2329732,
            "longitude": 77.7953313
        }
    },
    {
        "name": "Jamia Masjid",
        "main_category": "Mosque",
        "address": "6QQV+7FX Jamia Masjid, Raichur Rd, Rajaveedhi, Momin Mohalla, Gadwal, Telangana 509125",
        "detailed_address": {
            "ward": "Rajaveedhi, Momin Mohalla",
            "street": "6QQV+7FX, Raichur Rd",
            "city": "Gadwal",
            "postal_code": "509125",
            "state": "Telangana",
            "country_code": "IN"
        },
        "images": [
            {
                "about": "All",
                "link": "https://lh5.googleusercontent.com/p/AF1QipMzoqx-ve00R81fzqDovWphLYoTfg8xQZk3HqVr=w397-h298-k-no"
            },
            {
                "about": "Street View & 360deg",
                "link": "https://streetviewpixels-pa.googleapis.com/v1/thumbnail?panoid=1YsbEq17z3W_qtksOrJTeQ&cb_client=maps_sv.tactile.gps&w=224&h=298&yaw=171.48526&pitch=0&thumbfov=100"
            }
        ],
        "link": "https://www.google.com/maps/place/Jamia+Masjid/data=!4m7!3m6!1s0x3bc9fc5778a2440b:0x8906c99b6b795c2c!8m2!3d16.2382488!4d77.7937241!16s%2Fg%2F11bzyplgfj!19sChIJC0SieFf8yTsRLFx5a5vJBok?authuser=0&hl=en&rclk=1",
        "coordinates": {
            "latitude": 16.2382488,
            "longitude": 77.79372409999999
        }
    },
    {
        "name": "Madina Masjid Ahle Hadees",
        "main_category": "Mosque",
        "address": "6QPQ+M6G Madina Masjid Ahle Hadees, Near Water Tank, Momin Mahella, Dharur Rd, Gadwal, Telangana 509125",
        "detailed_address": {
            "ward": "Momin Mohalla",
            "street": "6QPQ+M6G, Near Water Tank, Momin Mahella, Dharur Rd",
            "city": "Gadwal",
            "postal_code": "509125",
            "state": "Telangana",
            "country_code": "IN"
        },
        "images": [
            {
                "about": "All",
                "link": "https://lh5.googleusercontent.com/p/AF1QipMhGiTaJbDh2QnYrGY4IuOxAdko0-CCRuVANvyz=w529-h298-k-no"
            },
            {
                "about": "Videos",
                "link": "https://lh5.googleusercontent.com/p/AF1QipNFg5MX3axP9Tf4PcZXbxhK5aWmhgRo_K8c2a3f=w529-h298-k-no"
            }
        ],
        "link": "https://www.google.com/maps/place/Madina+Masjid+Ahle+Hadees/data=!4m7!3m6!1s0x3bc9fcf9b53760c3:0xa189be621c9eb742!8m2!3d16.2366799!4d77.788074!16s%2Fg%2F1hhgm_0dr!19sChIJw2A3tfn8yTsRQreeHGK-iaE?authuser=0&hl=en&rclk=1",
        "coordinates": {
            "latitude": 16.2366799,
            "longitude": 77.788074
        }
    },
    {
        "name": "Masjid -e- Kalan",
        "main_category": "Mosque",
        "address": "6QPQ+MHW Masjid -e- Kalan, Near Unni Kota, Momin Mahella, Dharur Rd, Gadwal, Telangana 509125",
        "detailed_address": {
            "ward": "Momin Mohalla",
            "street": "6QPQ+MHW, Near Unni Kota, Momin Mahella, Dharur Rd",
            "city": "Gadwal",
            "postal_code": "509125",
            "state": "Telangana",
            "country_code": "IN"
        },
        "images": [
            {
                "about": "All",
                "link": "https://lh5.googleusercontent.com/p/AF1QipMjFLD0vykFV5JJ9J77maf5KkuwcdZBGqruyZ1Q=w397-h298-k-no"
            }
        ],
        "link": "https://www.google.com/maps/place/Masjid+-e-+Kalan/data=!4m7!3m6!1s0x3bc9fcf846c025b1:0xe0555ee755955d4c!8m2!3d16.2367468!4d77.7889667!16s%2Fg%2F1hhng8yms!19sChIJsSXARvj8yTsRTF2VVedeVeA?authuser=0&hl=en&rclk=1",
        "coordinates": {
            "latitude": 16.2367468,
            "longitude": 77.7889667
        }
    },
    {
        "name": "Masjid-e-swaliheen",
        "main_category": "Mosque",
        "address": "Masjid-e-swaliheen, Masood bhai muhalla, Ganta veedhi, Ganjipeta, Gadwal, Telangana 509125",
        "detailed_address": {
            "ward": "Ganjipeta",
            "street": "Masood bhai muhalla, Ganta veedhi",
            "city": "Gadwal",
            "postal_code": "509125",
            "state": "Telangana",
            "country_code": "IN"
        },
        "images": [
            {
                "about": "All",
                "link": "https://lh5.googleusercontent.com/p/AF1QipNfQEW-lTHHvrVaE1zd2a2p0xTh3NmLu-FN4RWo=w224-h298-k-no"
            },
            {
                "about": "Street View & 360deg",
                "link": "https://streetviewpixels-pa.googleapis.com/v1/thumbnail?panoid=JBMz6uFm7sehi2SVe8nHGA&cb_client=maps_sv.tactile.gps&w=224&h=298&yaw=33.582874&pitch=0&thumbfov=100"
            }
        ],
        "link": "https://www.google.com/maps/place/Masjid-e-swaliheen/data=!4m7!3m6!1s0x3bc9fc580789bc13:0x5b5665071347d0df!8m2!3d16.2389654!4d77.7910684!16s%2Fg%2F11cm09kq47!19sChIJE7yJB1j8yTsR39BHEwdlVls?authuser=0&hl=en&rclk=1",
        "coordinates": {
            "latitude": 16.238965399999998,
            "longitude": 77.7910684
        }
    },
    {
        "name": "Hussaini Masjid",
        "main_category": "Mosque",
        "address": "6QQW+PP4 Hussaini Masjid, Burdapet, Gadwal, Telangana 509125",
        "detailed_address": {
            "ward": "Burdapet",
            "street": "6QQW+PP4",
            "city": "Gadwal",
            "postal_code": "509125",
            "state": "Telangana",
            "country_code": "IN"
        },
        "images": [
            {
                "about": "All",
                "link": "https://lh5.googleusercontent.com/p/AF1QipNz7q4DRWtJfI0TeNjVQQ1ixJ1r9CUBtgcThCqE=w224-h298-k-no"
            },
            {
                "about": "Videos",
                "link": "https://lh5.googleusercontent.com/p/AF1QipPFvBHvOvKF1rCNqRnecZJ9yIX_bFcm44KRfC-p=w224-h398-k-no"
            }
        ],
        "link": "https://www.google.com/maps/place/Hussaini+Masjid/data=!4m7!3m6!1s0x3bc9fc5a0249730d:0x9f3c3ce16a05614c!8m2!3d16.2392525!4d77.7968382!16s%2Fg%2F11bzypskz3!19sChIJDXNJAlr8yTsRTGEFauE8PJ8?authuser=0&hl=en&rclk=1",
        "coordinates": {
            "latitude": 16.2392525,
            "longitude": 77.7968382
        }
    },
    {
        "name": "Noori Masjid Gadwal",
        "main_category": "Mosque",
        "address": "6QPW+FVV Noori Masjid Gadwal, Bijjawaram Main Rd, Momin Mohalla, Gadwal, Telangana 509125",
        "detailed_address": {
            "ward": "Momin Mohalla",
            "street": "6QPW+FVV, Bijjawaram Main Rd",
            "city": "Gadwal",
            "postal_code": "509125",
            "state": "Telangana",
            "country_code": "IN"
        },
        "images": [
            {
                "about": "All",
                "link": "https://lh5.googleusercontent.com/p/AF1QipM_KAQEg3ZqM6TXOerQ_-09d0NSEOy3wvysZlJg=w529-h298-k-no"
            }
        ],
        "link": "https://www.google.com/maps/place/Noori+Masjid+Gadwal/data=!4m7!3m6!1s0x3bc9fc50d1529c77:0x7ffd020922cbae3b!8m2!3d16.2362313!4d77.7971725!16s%2Fg%2F11c6s92glh!19sChIJd5xS0VD8yTsRO67LIgkC_X8?authuser=0&hl=en&rclk=1",
        "coordinates": {
            "latitude": 16.2362313,
            "longitude": 77.7971725
        }
    },
    {
        "name": "Nayee Masjid",
        "main_category": "Mosque",
        "address": "6QPR+G2P Nayee Masjid, Momin St, Vednagar, Momin Mohalla, Gadwal, Telangana 509125",
        "detailed_address": {
            "ward": "Vednagar, Momin Mohalla",
            "street": "6QPR+G2P, Momin St",
            "city": "Gadwal",
            "postal_code": "509125",
            "state": "Telangana",
            "country_code": "IN"
        },
        "images": [
            {
                "about": "All",
                "link": "https://lh5.googleusercontent.com/p/AF1QipMpQYqQQjpcss40WnYeTys7w7gfb9M3nZYzdRCh=w398-h298-k-no"
            }
        ],
        "link": "https://www.google.com/maps/place/Nayee+Masjid/data=!4m7!3m6!1s0x3bc9fcf86faa3c0d:0x3c92ae0cbcd8b85c!8m2!3d16.2363358!4d77.7900843!16s%2Fg%2F11c20t3gts!19sChIJDTyqb_j8yTsRXLjYvAyukjw?authuser=0&hl=en&rclk=1",
        "coordinates": {
            "latitude": 16.2363358,
            "longitude": 77.79008429999999
        }
    },
    {
        "name": "Rahamaniya Masjid",
        "main_category": "Mosque",
        "address": "6RP4+J84 Rahamaniya Masjid, Nallakunta, Gadwal, Telangana 509125",
        "detailed_address": {
            "ward": "Nallakunta",
            "street": "6RP4+J84",
            "city": "Gadwal",
            "postal_code": "509125",
            "state": "Telangana",
            "country_code": "IN"
        },
        "images": [
            {
                "about": "All",
                "link": "https://lh5.googleusercontent.com/p/AF1QipMLxPScMht1MLv-QMFrHohmuGLKEY1Kv3VnKUEN=w529-h298-k-no"
            }
        ],
        "link": "https://www.google.com/maps/place/Rahamaniya+Masjid/data=!4m7!3m6!1s0x3bc9fc4f02f53fbf:0x6b66ba681be3c6e8!8m2!3d16.2365109!4d77.8058188!16s%2Fg%2F11cn3pg05k!19sChIJvz_1Ak_8yTsR6MbjG2i6Zms?authuser=0&hl=en&rclk=1",
        "coordinates": {
            "latitude": 16.2365109,
            "longitude": 77.8058188
        }
    },
    {
        "name": "Fatima masjid",
        "main_category": "Mosque",
        "address": "Fatima masjid, HB Colony, Gadwal, Telangana 509125",
        "detailed_address": {
            "ward": "HB Colony",
            "street": null,
            "city": "Gadwal",
            "postal_code": null,
            "state": "Telangana",
            "country_code": "IN"
        },
        "images": [
            {
                "about": "All",
                "link": "https://lh5.googleusercontent.com/p/AF1QipP7f-V86SByqSuL4aOWIGDQnavFapMet8yuhW_J=w529-h298-k-no"
            }
        ],
        "link": "https://www.google.com/maps/place/Fatima+masjid/data=!4m7!3m6!1s0x3bc9fd765de89011:0x693b80ace5d08208!8m2!3d16.2390207!4d77.8126246!16s%2Fg%2F11q8tmztwr!19sChIJEZDoXXb9yTsRCILQ5ayAO2k?authuser=0&hl=en&rclk=1",
        "coordinates": {
            "latitude": 16.239020699999998,
            "longitude": 77.81262459999999
        }
    },
    {
        "name": "Masjid-e-ayesha msjd.`.`ysh",
        "main_category": "Mosque",
        "address": "6RJ5+WM4 Masjid-e-ayesha msjd.`.`ysh, SHAIK HUSSAIN Colony, Aarons Christian Colony, Gadwal, Telangana 509125",
        "detailed_address": {
            "ward": "Aarons Christian Colony",
            "street": "6RJ5+WM4, SHAIK HUSSAIN Colony",
            "city": "Gadwal",
            "postal_code": "509125",
            "state": "Telangana",
            "country_code": "IN"
        },
        "images": [
            {
                "about": "All",
                "link": "https://lh5.googleusercontent.com/p/AF1QipPS44wSLf2Rcb_g4Z19Uw9487V15B565HOYY1LQ=w224-h298-k-no"
            }
        ],
        "link": "https://www.google.com/maps/place/Masjid-e-ayesha+%D9%85%D8%B3%D8%AC%D8%AF%DB%94%D8%B9%DB%94%D8%B9%DB%8C%D8%B4%E2%80%AD/data=!4m7!3m6!1s0x3bc9fc4b94ab82e1:0xfadddfb9f670c6d9!8m2!3d16.232267!4d77.8092028!16s%2Fg%2F11bw2fp4_k!19sChIJ4YKrlEv8yTsR2cZw9rnf3fo?authuser=0&hl=en&rclk=1",
        "coordinates": {
            "latitude": 16.232267,
            "longitude": 77.8092028
        }
    },
    {
        "name": "kousar masjid",
        "main_category": "Mosque",
        "address": "6QRX+V3P kousar masjid, Ganjipeta, Gadwal, Telangana 509125",
        "detailed_address": {
            "ward": "Ganjipeta",
            "street": "6QRX+V3P",
            "city": "Gadwal",
            "postal_code": "509125",
            "state": "Telangana",
            "country_code": "IN"
        },
        "images": [
            {
                "about": "All",
                "link": "https://lh5.googleusercontent.com/p/AF1QipM4yS8OTcfbn09hqbHQa9WzSnLSVlW17IbubJVD=w529-h298-k-no"
            }
        ],
        "link": "https://www.google.com/maps/place/kousar+masjid/data=!4m7!3m6!1s0x3bc9fc5bcec326c1:0xb32ceb98b76ad832!8m2!3d16.2422181!4d77.7976928!16s%2Fg%2F11c1zrbw4z!19sChIJwSbDzlv8yTsRMthqt5jrLLM?authuser=0&hl=en&rclk=1",
        "coordinates": {
            "latitude": 16.2422181,
            "longitude": 77.7976928
        }
    },
    {
        "name": "Masjid -e- Abdul Rehman",
        "main_category": "Mosque",
        "address": "6RC8+9M9 Masjid -e- Abdul Rehman, HB Colony, Gadwal, Telangana 509125",
        "detailed_address": {
            "ward": "HB Colony",
            "street": "6RC8+9M9",
            "city": "Gadwal",
            "postal_code": "509125",
            "state": "Telangana",
            "country_code": "IN"
        },
        "images": [
            {
                "about": "All",
                "link": "https://lh5.googleusercontent.com/p/AF1QipOly2eRrtf9RwnGc1D1MIW9EGRiXVoD3vTwUBT0=w397-h298-k-no"
            },
            {
                "about": "Videos",
                "link": "https://lh5.googleusercontent.com/p/AF1QipP8l63NIlvOo98lrlVZQhRkTCVEcjz8Uu-C7ffh=w224-h398-k-no"
            }
        ],
        "link": "https://www.google.com/maps/place/Masjid+-e-+Abdul+Rehman/data=!4m7!3m6!1s0x3bc9fdc90a76f26d:0x5ca5b54f42a92905!8m2!3d16.2209069!4d77.8167284!16s%2Fg%2F11fx8rgjwg!19sChIJbfJ2Csn9yTsRBSmpQk-1pVw?authuser=0&hl=en&rclk=1",
        "coordinates": {
            "latitude": 16.2209069,
            "longitude": 77.8167284
        }
    },
    {
        "name": "Masjid E Mohammadia",
        "main_category": "Mosque",
        "address": "6RR4+RJP Masjid E Mohammadia, Bheem Nagar, Gadwal, Telangana 509125",
        "detailed_address": {
            "ward": "Bheem Nagar",
            "street": "6RR4+RJP",
            "city": "Gadwal",
            "postal_code": "509125",
            "state": "Telangana",
            "country_code": "IN"
        },
        "images": [
            {
                "about": "All",
                "link": "https://lh5.googleusercontent.com/p/AF1QipN6FBCMCHETUzwq0JSbvsMXYrOmQkKJpA0uFjQD=w397-h298-k-no"
            }
        ],
        "link": "https://www.google.com/maps/place/Masjid+E+Mohammadia/data=!4m7!3m6!1s0x3bc9fc45b572d6dd:0xe567c966376a2108!8m2!3d16.2420768!4d77.8065769!16s%2Fg%2F11csrwf1rb!19sChIJ3dZytUX8yTsRCCFqN2bJZ-U?authuser=0&hl=en&rclk=1",
        "coordinates": {
            "latitude": 16.2420768,
            "longitude": 77.8065769
        }
    },
    {
        "name": "Masjid-E-Masahaba",
        "main_category": "Mosque",
        "address": "6QVX+6CP Masjid-E-Masahaba, Ganjipeta, Gadwal, Telangana 509125",
        "detailed_address": {
            "ward": "Ganjipeta",
            "street": "6QVX+6CP",
            "city": "Gadwal",
            "postal_code": "509125",
            "state": "Telangana",
            "country_code": "IN"
        },
        "images": [
            {
                "about": "All",
                "link": "https://lh5.googleusercontent.com/p/AF1QipOTRhf7wSRQzBMfwd8980odgcwm3hKGdXfSfUwa=w624-h298-k-no"
            }
        ],
        "link": "https://www.google.com/maps/place/Masjid-E-Masahaba/data=!4m7!3m6!1s0x3bc9fc5bbdb8f7bd:0xb44d2b77e479f851!8m2!3d16.2430985!4d77.7985822!16s%2Fg%2F11cs8kh_5l!19sChIJvfe4vVv8yTsRUfh55HcrTbQ?authuser=0&hl=en&rclk=1",
        "coordinates": {
            "latitude": 16.2430985,
            "longitude": 77.7985822
        }
    },
    {
        "name": "Masjid-e-makkha",
        "main_category": "Mosque",
        "address": "6QPM+XV5 Masjid-e-makkha, Raghavendra Colony, Gadwal, Telangana 509125",
        "detailed_address": {
            "ward": "Raghavendra Colony",
            "street": "6QPM+XV5",
            "city": "Gadwal",
            "postal_code": "509125",
            "state": "Telangana",
            "country_code": "IN"
        },
        "images": [
            {
                "about": "All",
                "link": "https://lh5.googleusercontent.com/p/AF1QipOFqnRjD2coRQGbQDG_l6pQoZpOzVAAxNYSCS7J=w224-h298-k-no"
            },
            {
                "about": "Street View & 360deg",
                "link": "https://streetviewpixels-pa.googleapis.com/v1/thumbnail?panoid=YJ8-2RyD3wHOaXhNH49VzA&cb_client=maps_sv.tactile.gps&w=224&h=298&yaw=200.38618&pitch=0&thumbfov=100"
            },
            {
                "about": "Videos",
                "link": "https://lh5.googleusercontent.com/p/AF1QipMnt_DU4jpB9QBp2IDR87l09_vxyx_FMjpnNGMF=w224-h398-k-no"
            }
        ],
        "link": "https://www.google.com/maps/place/Masjid-e-makkha/data=!4m7!3m6!1s0x3bc9fcf970000001:0x2e5a67a8b0fc9b1d!8m2!3d16.2373835!4d77.7847424!16s%2Fg%2F11dyp5796v!19sChIJAQAAcPn8yTsRHZv8sKhnWi4?authuser=0&hl=en&rclk=1",
        "coordinates": {
            "latitude": 16.2373835,
            "longitude": 77.7847424
        }
    },
    {
        "name": "Masjid E Madni",
        "main_category": "Mosque",
        "address": "Masjid E Madni, Momin Mohalla, Gadwal, Telangana 509125",
        "detailed_address": {
            "ward": "Momin Mohalla",
            "street": null,
            "city": "Gadwal",
            "postal_code": "509125",
            "state": "Telangana",
            "country_code": "IN"
        },
        "images": [
            {
                "about": "All",
                "link": "https://lh5.googleusercontent.com/p/AF1QipPwpIQn4RFhKcx0GxxCkUL9Mn2zYyezo4namkQZ=w224-h497-k-no"
            }
        ],
        "link": "https://www.google.com/maps/place/Masjid+E+Madni/data=!4m7!3m6!1s0x3bc9fd0ae2626d65:0x7e9acdb5607c0816!8m2!3d16.2345828!4d77.7962439!16s%2Fg%2F11j91p0s4p!19sChIJZW1i4gr9yTsRFgh8YLXNmn4?authuser=0&hl=en&rclk=1",
        "coordinates": {
            "latitude": 16.2345828,
            "longitude": 77.7962439
        }
    },
    {
        "name": "Masjid Al Aqsa",
        "main_category": "Mosque",
        "address": "6QMV+P7F Masjid Al Aqsa, Gadwal, Telangana 509125",
        "detailed_address": {
            "ward": "Gadwal",
            "street": "6QMV+P7F",
            "city": "Gadwal",
            "postal_code": "509125",
            "state": "Telangana",
            "country_code": "IN"
        },
        "images": [
            {
                "about": "All",
                "link": "https://lh5.googleusercontent.com/p/AF1QipMfOF-uugDWZdLWbPQ15kwJuaGYf2c352LKEEBm=w397-h298-k-no"
            },
            {
                "about": "Dome",
                "link": "https://lh5.googleusercontent.com/p/AF1QipMfOF-uugDWZdLWbPQ15kwJuaGYf2c352LKEEBm=w397-h298-k-no"
            }
        ],
        "link": "https://www.google.com/maps/place/Masjid+Al+Aqsa/data=!4m7!3m6!1s0x3bc9fc565d465be7:0x32fa9f0f3d2d863b!8m2!3d16.2343113!4d77.7931769!16s%2Fg%2F11f40ppmkl!19sChIJ51tGXVb8yTsRO4YtPQ-f-jI?authuser=0&hl=en&rclk=1",
        "coordinates": {
            "latitude": 16.234311299999998,
            "longitude": 77.79317689999999
        }
    },
    {
        "name": "Fathima masjid",
        "main_category": "Mosque",
        "address": "Fathima masjid, Ganjipeta, Gadwal, Telangana 509125",
        "detailed_address": {
            "ward": "Ganjipeta",
            "street": null,
            "city": "Gadwal",
            "postal_code": "509125",
            "state": "Telangana",
            "country_code": "IN"
        },
        "images": [
            {
                "about": "All",
                "link": "https://lh5.googleusercontent.com/p/AF1QipO550YQs6J2uqq1Y8lyP-zR-SdUa7GcBrk1G5cx=w529-h298-k-no"
            }
        ],
        "link": "https://www.google.com/maps/place/Fathima+masjid/data=!4m7!3m6!1s0x3bc9fd8c65be7663:0xe5cc1be4b13c975c!8m2!3d16.2407458!4d77.7982408!16s%2Fg%2F11h60fbvl8!19sChIJY3a-ZYz9yTsRXJc8seQbzOU?authuser=0&hl=en&rclk=1",
        "coordinates": {
            "latitude": 16.2407458,
            "longitude": 77.7982408
        }
    },
    {
        "name": "Gadwal khabrastaan",
        "main_category": "Mosque",
        "address": "6QRP+82C Gadwal khabrastaan, Ganjipeta, Gadwal, Telangana 509125",
        "detailed_address": {
            "ward": "Ganjipeta",
            "street": "6QRP+82C",
            "city": "Gadwal",
            "postal_code": "509125",
            "state": "Telangana",
            "country_code": "IN"
        },
        "images": [],
        "link": "https://www.google.com/maps/place/Gadwal+khabrastaan/data=!4m7!3m6!1s0x3bc9fd9eba723445:0xec9ade0d443fc6af!8m2!3d16.2408008!4d77.7850042!16s%2Fg%2F11j78lyvyp!19sChIJRTRyup79yTsRr8Y_RA3emuw?authuser=0&hl=en&rclk=1",
        "coordinates": {
            "latitude": 16.2408008,
            "longitude": 77.7850042
        }
    },
    {
        "name": "Gadwal",
        "main_category": "Mosque",
        "address": "6QPV+H72 Gadwal, Momin Mohalla, Gadwal, Telangana 509125",
        "detailed_address": {
            "ward": "Momin Mohalla",
            "street": "6QPV+H72",
            "city": "Gadwal",
            "postal_code": "509125",
            "state": "Telangana",
            "country_code": "IN"
        },
        "images": [],
        "link": "https://www.google.com/maps/place/Gadwal/data=!4m7!3m6!1s0x3bc9fdcf6f3f31fd:0x9f0ee82f39e7035d!8m2!3d16.2363969!4d77.7931407!16s%2Fg%2F11stvtmwzq!19sChIJ_TE_b8_9yTsRXQPnOS_oDp8?authuser=0&hl=en&rclk=1",
        "coordinates": {
            "latitude": 16.2363969,
            "longitude": 77.7931407
        }
    },
    {
        "name": "Quba Masjid",
        "main_category": "Mosque",
        "address": "6QMQ+G8F Quba Masjid, Raghavendra Colony, Gadwal, Telangana 509125",
        "detailed_address": {
            "ward": "Raghavendra Colony",
            "street": "6QMQ+G8F",
            "city": "Gadwal",
            "postal_code": "509125",
            "state": "Telangana",
            "country_code": "IN"
        },
        "images": [],
        "link": "https://www.google.com/maps/place/Quba+Masjid/data=!4m7!3m6!1s0x3bc9fdf58755dda1:0x3f8e946d090b1b1c!8m2!3d16.2339775!4d77.7880073!16s%2Fg%2F11s5njs9_l!19sChIJod1Vh_X9yTsRHBsLCW2Ujj8?authuser=0&hl=en&rclk=1",
        "coordinates": {
            "latitude": 16.233977499999998,
            "longitude": 77.78800729999999
        }
    },
    {
        "name": "Anwar masjid",
        "main_category": "Mosque",
        "address": "6QPR+6M3 Anwar masjid, Momin Mohalla, Gadwal, Telangana 509125",
        "detailed_address": {
            "ward": "Momin Mohalla",
            "street": "6QPR+6M3",
            "city": "Gadwal",
            "postal_code": "509125",
            "state": "Telangana",
            "country_code": "IN"
        },
        "images": [],
        "link": "https://www.google.com/maps/place/Anwar+masjid/data=!4m7!3m6!1s0x3bc9fd8395501129:0x24e192ef0fefa31!8m2!3d16.2355175!4d77.7916638!16s%2Fg%2F11k9hf2xr_!19sChIJKRFQlYP9yTsRMfr-8C4ZTgI?authuser=0&hl=en&rclk=1",
        "coordinates": {
            "latitude": 16.2355175,
            "longitude": 77.7916638
        }
    },
    {
        "name": "Masjid A arfath",
        "main_category": "Mosque",
        "address": "6QJP+4FH Masjid A arfath, Gadwal, Telangana 509125",
        "detailed_address": {
            "ward": "Gadwal",
            "street": "6QJP+4FH",
            "city": "Gadwal",
            "postal_code": null,
            "state": "Telangana",
            "country_code": "IN"
        },
        "images": [],
        "link": "https://www.google.com/maps/place/Masjid+A+arfath/data=!4m7!3m6!1s0x3bc9fd1c11494a05:0xcbaa038b533cb0c3!8m2!3d16.2303234!4d77.7862209!16s%2Fg%2F11sd_zxqk_!19sChIJBUpJERz9yTsRw7A8U4sDqss?authuser=0&hl=en&rclk=1",
        "coordinates": {
            "latitude": 16.2303234,
            "longitude": 77.7862209
        }
    },
    {
        "name": "Masjide-E-Tauheed",
        "main_category": "Mosque",
        "address": "6RM5+F76 Masjide-E-Tauheed, Shaik hussain colony, Aarons Christian Colony, Gadwal, Telangana 509125",
        "detailed_address": {
            "ward": "Aarons Christian Colony",
            "street": "6RM5+F76, Shaik hussain colony",
            "city": "Gadwal",
            "postal_code": "509125",
            "state": "Telangana",
            "country_code": "IN"
        },
        "images": [
            {
                "about": "All",
                "link": "https://streetviewpixels-pa.googleapis.com/v1/thumbnail?panoid=qOqPTh56UuS-n7LkFxOwiQ&cb_client=maps_sv.tactile.gps&w=224&h=298&yaw=112.01052&pitch=0&thumbfov=100"
            },
            {
                "about": "Street View & 360deg",
                "link": "https://streetviewpixels-pa.googleapis.com/v1/thumbnail?panoid=qOqPTh56UuS-n7LkFxOwiQ&cb_client=maps_sv.tactile.gps&w=224&h=298&yaw=112.01052&pitch=0&thumbfov=100"
            }
        ],
        "link": "https://www.google.com/maps/place/Masjide-E-Tauheed/data=!4m7!3m6!1s0x3bc9fd564fb2b669:0x21af3cae9ee1c7f7!8m2!3d16.2336589!4d77.8081363!16s%2Fg%2F11swqth4xh!19sChIJabayT1b9yTsR98fhnq48ryE?authuser=0&hl=en&rclk=1",
        "coordinates": {
            "latitude": 16.2336589,
            "longitude": 77.8081363
        }
    }
]