[
    {
        "name": "Katra Masjid msjd",
        "main_category": "Mosque",
        "address": "5WXX+5RM Katra Masjid msjd, Unnamed Road, Mansarovar Colony, Adhartal, Jabalpur, Madhya Pradesh 482004",
        "detailed_address": {
            "ward": "Mansarovar Colony, Adhartal",
            "street": "5WXX+5RM, Unnamed Road",
            "city": "Jabalpur",
            "postal_code": "482004",
            "state": "Madhya Pradesh",
            "country_code": "IN"
        },
        "images": [
            {
                "about": "All",
                "link": "https://lh5.googleusercontent.com/p/AF1QipPcDVy6UZzGMxCS1WarKBKx90jRXTDRybLwdA2k=w224-h298-k-no"
            },
            {
                "about": "Dome",
                "link": "https://lh5.googleusercontent.com/p/AF1QipPsO7003OTqlugw3jbibkkyFhGskTvgQza12OYu=w224-h298-k-no"
            },
            {
                "about": "Videos",
                "link": "https://lh5.googleusercontent.com/p/AF1QipNwiFGXiXFDTiRNM60NqvJDwdRjHdTYzrexhw3_=w224-h398-k-no"
            },
            {
                "about": "Street View & 360deg",
                "link": "https://lh5.googleusercontent.com/p/AF1QipNRp4h6lafF3FuLf3d9dczXAy4QDK0PtT6byYEI=w224-h298-k-no-pi-13.167203-ya16.318333-ro-0-fo100"
            }
        ],
        "link": "https://www.google.com/maps/place/Katra+Masjid+%D9%85%D8%B3%D8%AC%D8%AF%E2%80%AD/data=!4m7!3m6!1s0x3981ae4c3aa350d3:0x106d654c9d4265ed!8m2!3d23.1975685!4d79.9493068!16s%2Fg%2F1260b37g6!19sChIJ01CjOkyugTkR7WVCnUxlbRA?authuser=0&hl=en&rclk=1",
        "coordinates": {
            "latitude": 23.1975685,
            "longitude": 79.9493068
        }
    },
    {
        "name": "Bagh wali masjid",
        "main_category": "Mosque",
        "address": "J64X+WVH Bagh wali masjid, Naka Majiari, 185211",
        "detailed_address": {
            "ward": null,
            "street": "J64X+WVH",
            "city": "Naka Majiari",
            "postal_code": null,
            "state": null,
            "country_code": "IN"
        },
        "images": [
            {
                "about": "All",
                "link": "https://lh5.googleusercontent.com/p/AF1QipMAgQsqWe8C1HBUQ8-l6KIx2pGW-bnddA1f8jU3=w397-h298-k-no"
            }
        ],
        "link": "https://www.google.com/maps/place/Bagh+wali+masjid/data=!4m7!3m6!1s0x38e1d37b7f1f9997:0xaebdd96bf86cd4db!8m2!3d33.6073164!4d74.2497223!16s%2Fg%2F11rn5dn87x!19sChIJl5kff3vT4TgR29Rs-GvZva4?authuser=0&hl=en&rclk=1",
        "coordinates": {
            "latitude": 33.6073164,
            "longitude": 74.2497223
        }
    },
    {
        "name": "Jama Masjid Bhatiya Mohalla",
        "main_category": "Mosque",
        "address": "9PQW+239 Jama Masjid Bhatiya Mohalla, Kymore, Kaimori, Madhya Pradesh 483113",
        "detailed_address": {
            "ward": null,
            "street": "9PQW+239",
            "city": "Kymore, Kaimori",
            "postal_code": null,
            "state": "Madhya Pradesh",
            "country_code": "IN"
        },
        "images": [],
        "link": "https://www.google.com/maps/place/Jama+Masjid+Bhatiya+Mohalla/data=!4m7!3m6!1s0x3981bf5141753385:0xb22c92add2be3891!8m2!3d23.387531!4d79.7452447!16s%2Fg%2F11h2byc93b!19sChIJhTN1QVG_gTkRkTi-0q2SLLI?authuser=0&hl=en&rclk=1",
        "coordinates": {
            "latitude": 23.387531,
            "longitude": 79.7452447
        }
    },
    {
        "name": "Zuma Masjid",
        "main_category": "Museum",
        "address": "9PMR+9HH Zuma Masjid, Kymore, Kaimori, Madhya Pradesh 483113",
        "detailed_address": {
            "ward": null,
            "street": "9PMR+9HH",
            "city": "Kymore, Kaimori",
            "postal_code": "483113",
            "state": "Madhya Pradesh",
            "country_code": "IN"
        },
        "images": [],
        "link": "https://www.google.com/maps/place/Zuma+Masjid/data=!4m7!3m6!1s0x3981bf6e09e3c27d:0x863b59f9e48b30c!8m2!3d23.3834491!4d79.7414959!16s%2Fg%2F11j91_yntc!19sChIJfcLjCW6_gTkRDLNInp-1Ywg?authuser=0&hl=en&rclk=1",
        "coordinates": {
            "latitude": 23.3834491,
            "longitude": 79.74149589999999
        }
    },
    {
        "name": "Nayi Masjid, ACC Colony, Kymore",
        "main_category": "Mosque",
        "address": "9PPV+2MJ Nayi Masjid, ACC Colony, Kymore, Kymore, Kaimori, Madhya Pradesh 483113",
        "detailed_address": {
            "ward": null,
            "street": "9PPV+2MJ",
            "city": "Kymore, Kaimori",
            "postal_code": null,
            "state": "Madhya Pradesh",
            "country_code": "IN"
        },
        "images": [],
        "link": "https://www.google.com/maps/place/Nayi+Masjid,+ACC+Colony,+Kymore/data=!4m7!3m6!1s0x3981bf68e8cd3c29:0x3aa9861067b5ec2e!8m2!3d23.385095!4d79.7441531!16s%2Fg%2F11h77m28f7!19sChIJKTzN6Gi_gTkRLuy1ZxCGqTo?authuser=0&hl=en&rclk=1",
        "coordinates": {
            "latitude": 23.385095,
            "longitude": 79.74415309999999
        }
    },
    {
        "name": "Kaimori",
        "main_category": null,
        "address": "Kaimori, Madhya Pradesh",
        "detailed_address": {
            "ward": null,
            "street": null,
            "city": "Kaimori",
            "postal_code": null,
            "state": "Madhya Pradesh",
            "country_code": "IN"
        },
        "images": [
            {
                "about": "All",
                "link": "https://lh5.googleusercontent.com/p/AF1QipP4hPaWOJUgeMVq9a1sn0jhs8HMiZufoAuqQeOb=w224-h298-k-no"
            }
        ],
        "link": "https://www.google.com/maps/place/Kaimori/data=!4m7!3m6!1s0x3981bf811d40e69f:0xac47aecd32f65495!8m2!3d23.3809375!4d79.7483995!16s%2Fg%2F12hkd7tkf!19sChIJn-ZAHYG_gTkRlVT2Ms2uR6w?authuser=0&hl=en&rclk=1",
        "coordinates": {
            "latitude": 23.380937499999998,
            "longitude": 79.74839949999999
        }
    }
]