[
    {
        "name": "Noori Masjid msjd nwry",
        "main_category": "Mosque",
        "address": "G73C+QH8 Noori Masjid msjd nwry, Naradana, Tughlakabad, New Delhi, Delhi 110044",
        "detailed_address": {
            "ward": "Naradana, Tughlakabad",
            "street": "G73C+QH8",
            "city": "New Delhi",
            "postal_code": "110044",
            "state": "Delhi",
            "country_code": "IN"
        },
        "images": [
            {
                "about": "All",
                "link": "https://lh5.googleusercontent.com/p/AF1QipNYFI3HFg5X6BfMjLHiCXOZJ6Mbh6QYDA4uVHo=w224-h298-k-no"
            },
            {
                "about": "Videos",
                "link": "https://lh5.googleusercontent.com/p/AF1QipP8G4E0WgwIWCEu1HX0HotXNFH5zQOu9alt3Ne0=w224-h407-k-no"
            }
        ],
        "link": "https://www.google.com/maps/place/Noori+Masjid+%D9%85%D8%B3%D8%AC%D8%AF+%D9%86%D9%88%D8%B1%DB%8C%E2%80%AD/data=!4m7!3m6!1s0x390ce13b1a9df373:0x4d5df7efb9b6b685!8m2!3d28.5044077!4d77.271438!16s%2Fg%2F11c6rx64ml!19sChIJc_OdGjvhDDkRhba2ue_3XU0?authuser=0&hl=en&rclk=1",
        "coordinates": {
            "latitude": 28.504407699999998,
            "longitude": 77.271438
        }
    },
    {
        "name": "Madina masjid (madina mosque)",
        "main_category": "Mosque",
        "address": "C3J8+2Q7 Madina masjid (madina mosque), Patel tibi ki dhani lalwari, Niwai, Rajasthan",
        "detailed_address": {
            "ward": null,
            "street": "C3J8+2Q7, Patel tibi ki dhani lalwari",
            "city": "Niwai, Dahlod",
            "postal_code": null,
            "state": "Rajasthan",
            "country_code": "IN"
        },
        "images": [
            {
                "about": "All",
                "link": "https://lh5.googleusercontent.com/p/AF1QipPJ0Lym-ESiEdC3K0AOH0fVz6lsXq9qnrJ-VHo7=w224-h398-k-no"
            }
        ],
        "link": "https://www.google.com/maps/place/Madina+masjid+%28madina+mosque%29/data=!4m7!3m6!1s0x396e751d0651cf91:0xd0a79f4a68f13f67!8m2!3d26.4300297!4d76.0669275!16s%2Fg%2F11h1jv868g!19sChIJkc9RBh11bjkRZz_xaEqfp9A?authuser=0&hl=en&rclk=1",
        "coordinates": {
            "latitude": 26.4300297,
            "longitude": 76.06692749999999
        }
    },
    {
        "name": "Macca Masjid",
        "main_category": "Mosque",
        "address": "9W6H+X3C Macca Masjid, Caypur, Road, Sangam colony, Niwai, Rajasthan",
        "detailed_address": {
            "ward": "Sangam colony",
            "street": "9W6H+X3C, Caypur, Road",
            "city": "Niwai",
            "postal_code": null,
            "state": "Rajasthan",
            "country_code": "IN"
        },
        "images": [
            {
                "about": "All",
                "link": "https://streetviewpixels-pa.googleapis.com/v1/thumbnail?panoid=MHLGmhj40MWCnZKPQzSc1A&cb_client=maps_sv.tactile.gps&w=224&h=298&yaw=155.18523&pitch=0&thumbfov=100"
            },
            {
                "about": "Latest",
                "link": "https://lh5.googleusercontent.com/p/AF1QipOF_p8X9hrkrXAM-W14F4OdODlBgi3dI-Qzl86O=w224-h298-k-no"
            },
            {
                "about": "Street View & 360deg",
                "link": "https://streetviewpixels-pa.googleapis.com/v1/thumbnail?panoid=MHLGmhj40MWCnZKPQzSc1A&cb_client=maps_sv.tactile.gps&w=224&h=298&yaw=155.18523&pitch=0&thumbfov=100"
            }
        ],
        "link": "https://www.google.com/maps/place/Macca+Masjid/data=!4m7!3m6!1s0x396e712cf2175c71:0x761c84dab9e95b6e!8m2!3d26.3624403!4d75.9276452!16s%2Fg%2F11f5_kx_wg!19sChIJcVwX8ixxbjkRblvpudqEHHY?authuser=0&hl=en&rclk=1",
        "coordinates": {
            "latitude": 26.3624403,
            "longitude": 75.9276452
        }
    },
    {
        "name": "drgaah shriiph",
        "main_category": "Mosque",
        "address": "drgaah shriiph, Newai Fort, Niwai, Rajasthan 304021",
        "detailed_address": {
            "ward": null,
            "street": "Newai Fort",
            "city": "Niwai",
            "postal_code": "304021",
            "state": "Rajasthan",
            "country_code": "IN"
        },
        "images": [],
        "link": "https://www.google.com/maps/place/%E0%A4%A6%E0%A4%B0%E0%A4%97%E0%A4%BE%E0%A4%B9+%E0%A4%B6%E0%A4%B0%E0%A5%80%E0%A4%AB/data=!4m7!3m6!1s0x396e71a0210e2f35:0xdb93edfe1c1a7b9a!8m2!3d26.3593977!4d75.9202165!16s%2Fg%2F11h8l6txqf!19sChIJNS8OIaBxbjkRmnsaHP7tk9s?authuser=0&hl=en&rclk=1",
        "coordinates": {
            "latitude": 26.3593977,
            "longitude": 75.9202165
        }
    },
    {
        "name": "Jama Masjid Bahrla Kund Newai",
        "main_category": "Religious destination",
        "address": "9W8F+HW2 Jama Masjid Bahrla Kund Newai, Banajaro Ka Mohalla, Niwai, Rajasthan 304021",
        "detailed_address": {
            "ward": "Banajaro Ka Mohalla",
            "street": "9W8F+HW2",
            "city": "Niwai",
            "postal_code": "304021",
            "state": "Rajasthan",
            "country_code": "IN"
        },
        "images": [],
        "link": "https://www.google.com/maps/place/Jama+Masjid+Bahrla+Kund+Newai/data=!4m7!3m6!1s0x396e719948c75bf3:0x4dc98b35d5a7f733!8m2!3d26.366375!4d75.9247709!16s%2Fg%2F11g1gry9_l!19sChIJ81vHSJlxbjkRM_en1TWLyU0?authuser=0&hl=en&rclk=1",
        "coordinates": {
            "latitude": 26.366374999999998,
            "longitude": 75.9247709
        }
    },
    {
        "name": "Macca masjid niwai",
        "main_category": "Mosque",
        "address": "9WJM+7PW Macca masjid niwai, Niwai, Maharajpura, Rajasthan 304021",
        "detailed_address": {
            "ward": null,
            "street": "9WJM+7PW",
            "city": "Niwai, Maharajpura",
            "postal_code": null,
            "state": "Rajasthan",
            "country_code": "IN"
        },
        "images": [
            {
                "about": "All",
                "link": "https://lh5.googleusercontent.com/p/AF1QipN1L8EJCkcmLJCT9AM50wVeZp2GMvrCuIMrC_GZ=w224-h298-k-no"
            },
            {
                "about": "Street View & 360deg",
                "link": "https://streetviewpixels-pa.googleapis.com/v1/thumbnail?panoid=vT-NFCSBnhCI-6QrJer7Jw&cb_client=maps_sv.tactile.gps&w=224&h=298&yaw=4.889083&pitch=0&thumbfov=100"
            }
        ],
        "link": "https://www.google.com/maps/place/Macca+masjid+niwai/data=!4m7!3m6!1s0x396e777886d812c1:0x2dee6f26405607d9!8m2!3d26.3807455!4d75.9343341!16s%2Fg%2F11sdb7gvvm!19sChIJwRLYhnh3bjkR2QdWQCZv7i0?authuser=0&hl=en&rclk=1",
        "coordinates": {
            "latitude": 26.3807455,
            "longitude": 75.9343341
        }
    },
    {
        "name": "Luharo ki masjid",
        "main_category": "Mosque",
        "address": "9W6F+6XP Luharo ki masjid, Banajaro Ka Mohalla, Niwai, Rajasthan 304021",
        "detailed_address": {
            "ward": "Banajaro Ka Mohalla",
            "street": "9W6F+6XP",
            "city": "Niwai",
            "postal_code": null,
            "state": "Rajasthan",
            "country_code": "IN"
        },
        "images": [],
        "link": "https://www.google.com/maps/place/Luharo+ki+masjid/data=!4m7!3m6!1s0x396e715b5f8a16ad:0x56d43c44987e92da!8m2!3d26.3605898!4d75.9249422!16s%2Fg%2F11sq_dhpmg!19sChIJrRaKX1txbjkR2pJ-mEQ81FY?authuser=0&hl=en&rclk=1",
        "coordinates": {
            "latitude": 26.3605898,
            "longitude": 75.92494219999999
        }
    },
    {
        "name": "Mdina Mewat Masjid Niwali Mod",
        "main_category": "Mosque",
        "address": "JR7G+MXC Mdina Mewat Masjid Niwali Mod, Niwali, Khilora, Niwali, Rajasthan 301026",
        "detailed_address": {
            "ward": "Niwali",
            "street": "JR7G+MXC",
            "city": "Khilora, Niwali",
            "postal_code": "301026",
            "state": "Rajasthan",
            "country_code": "IN"
        },
        "images": [
            {
                "about": "All",
                "link": "https://streetviewpixels-pa.googleapis.com/v1/thumbnail?panoid=H8f-oEFHs9_1MSij1yxKsA&cb_client=maps_sv.tactile.gps&w=224&h=298&yaw=111.262344&pitch=0&thumbfov=100"
            },
            {
                "about": "Street View & 360deg",
                "link": "https://streetviewpixels-pa.googleapis.com/v1/thumbnail?panoid=H8f-oEFHs9_1MSij1yxKsA&cb_client=maps_sv.tactile.gps&w=224&h=298&yaw=111.262344&pitch=0&thumbfov=100"
            }
        ],
        "link": "https://www.google.com/maps/place/Mdina+Mewat+Masjid+Niwali+Mod/data=!4m7!3m6!1s0x3972ebb92b99814d:0x4da74ba05d6d1d9!8m2!3d27.6141217!4d76.8273373!16s%2Fg%2F11sqnzrsqq!19sChIJTYGZK7nrcjkR2dHWBbp02gQ?authuser=0&hl=en&rclk=1",
        "coordinates": {
            "latitude": 27.6141217,
            "longitude": 76.8273373
        }
    },
    {
        "name": "Madina masjid gali no. 1",
        "main_category": "Mosque",
        "address": "9W9H+95C Madina masjid gali no. 1, Shivaji Colony, Niwai, Rajasthan 304021",
        "detailed_address": {
            "ward": "Shivaji Colony",
            "street": "9W9H+95C",
            "city": "Niwai",
            "postal_code": "304021",
            "state": "Rajasthan",
            "country_code": "IN"
        },
        "images": [
            {
                "about": "All",
                "link": "https://streetviewpixels-pa.googleapis.com/v1/thumbnail?panoid=lwpr0X3AqZ9ONn-te6GcRw&cb_client=maps_sv.tactile.gps&w=224&h=298&yaw=18.682184&pitch=0&thumbfov=100"
            },
            {
                "about": "Street View & 360deg",
                "link": "https://streetviewpixels-pa.googleapis.com/v1/thumbnail?panoid=lwpr0X3AqZ9ONn-te6GcRw&cb_client=maps_sv.tactile.gps&w=224&h=298&yaw=18.682184&pitch=0&thumbfov=100"
            }
        ],
        "link": "https://www.google.com/maps/place/Madina+masjid+gali+no.+1/data=!4m7!3m6!1s0x396e71c76f634927:0xaa904ec220c07230!8m2!3d26.3684413!4d75.9278929!16s%2Fg%2F11kjlvy_ng!19sChIJJ0ljb8dxbjkRMHLAIMJOkKo?authuser=0&hl=en&rclk=1",
        "coordinates": {
            "latitude": 26.368441299999997,
            "longitude": 75.9278929
        }
    },
    {
        "name": "Peer Baba",
        "main_category": "Mosque",
        "address": "9W7M+P84 Peer Baba, Shivaji Colony, Niwai, Rajasthan 304021",
        "detailed_address": {
            "ward": "Shivaji Colony",
            "street": "9W7M+P84",
            "city": "Niwai",
            "postal_code": "304021",
            "state": "Rajasthan",
            "country_code": "IN"
        },
        "images": [],
        "link": "https://www.google.com/maps/place/Peer+Baba/data=!4m7!3m6!1s0x396e7178273fefd3:0x281c2b6a15cfd3d2!8m2!3d26.3637507!4d75.9334686!16s%2Fg%2F11ty14gfnk!19sChIJ0-8_J3hxbjkR0tPPFWorHCg?authuser=0&hl=en&rclk=1",
        "coordinates": {
            "latitude": 26.363750699999997,
            "longitude": 75.9334686
        }
    }
]