[
    {
        "name": "Abraar Beebi Mosque",
        "main_category": "Mosque",
        "address": "Abraar Beebi Mosque, maanda mohalla, near gohel mosque, Maudaha, Uttar Pradesh 210507",
        "detailed_address": {
            "ward": null,
            "street": "maanda mohalla, near gohel mosque",
            "city": "Maudaha",
            "postal_code": "210507",
            "state": "Uttar Pradesh",
            "country_code": "IN"
        },
        "images": [
            {
                "about": "All",
                "link": "https://lh5.googleusercontent.com/p/AF1QipNRi2Qi5E42pp99_srRSnoMrZ4uKGXprNDoZW5W=w224-h298-k-no"
            }
        ],
        "link": "https://www.google.com/maps/place/Abraar+Beebi+Mosque/data=!4m7!3m6!1s0x399cdf43e41a2017:0x7ae85bc98d2ded06!8m2!3d25.6856676!4d80.117!16s%2Fg%2F11jpz0v8wk!19sChIJFyAa5EPfnDkRBu0tjclb6Ho?authuser=0&hl=en&rclk=1",
        "coordinates": {
            "latitude": 25.6856676,
            "longitude": 80.11699999999999
        }
    },
    {
        "name": "Masjid Station Road",
        "main_category": "Mosque",
        "address": "M4MF+QFG Masjid Station Road, Maudaha, Uttar Pradesh 210507",
        "detailed_address": {
            "ward": null,
            "street": "M4MF+QFG",
            "city": "Maudaha",
            "postal_code": "210507",
            "state": "Uttar Pradesh",
            "country_code": "IN"
        },
        "images": [
            {
                "about": "All",
                "link": "https://lh5.googleusercontent.com/p/AF1QipO_aR0tlmooz9-ijW9WfhNDPaR3p8KharM2uRlL=w397-h298-k-no"
            },
            {
                "about": "Videos",
                "link": "https://lh5.googleusercontent.com/p/AF1QipMZ7rCGI-wePrZMZRPZMrhIx6hCrovFzsIT1GFI=w224-h407-k-no"
            }
        ],
        "link": "https://www.google.com/maps/place/Masjid+Station+Road/data=!4m7!3m6!1s0x399cdfc0fa2c732d:0xd0338fd98ad05dfb!8m2!3d25.6844401!4d80.1236902!16s%2Fg%2F11fx_5wky4!19sChIJLXMs-sDfnDkR-13QitmPM9A?authuser=0&hl=en&rclk=1",
        "coordinates": {
            "latitude": 25.6844401,
            "longitude": 80.1236902
        }
    },
    {
        "name": "Noori Masjid",
        "main_category": "Mosque",
        "address": "Noori Masjid, M3PX+864, Unnamed Road, Ragaul, Maudaha, Uttar Pradesh 210507",
        "detailed_address": {
            "ward": null,
            "street": "M3PX+864, Unnamed Road, Ragaul",
            "city": "Maudaha, Ragaul",
            "postal_code": "210507",
            "state": "Uttar Pradesh",
            "country_code": "IN"
        },
        "images": [
            {
                "about": "All",
                "link": "https://lh5.googleusercontent.com/p/AF1QipPQ8Q3u_opfiChwgbMPDNvlBuDkEQw-oSJs5yEr=w224-h381-k-no"
            },
            {
                "about": "Street View & 360deg",
                "link": "https://streetviewpixels-pa.googleapis.com/v1/thumbnail?panoid=_Cy9SiXNMElrKw0LQeszSg&cb_client=maps_sv.tactile.gps&w=224&h=298&yaw=261.22235&pitch=0&thumbfov=100"
            },
            {
                "about": "Videos",
                "link": "https://lh5.googleusercontent.com/p/AF1QipMT7BsuBxnVzc1X7YMgGN8ccPXrfF06CCx1uAzl=w224-h398-k-no"
            }
        ],
        "link": "https://www.google.com/maps/place/Noori+Masjid/data=!4m7!3m6!1s0x399d2123fdf9cfb9:0xfe93c90d0f1efa17!8m2!3d25.6855953!4d80.0980316!16s%2Fg%2F11f631d_pf!19sChIJuc_5_SMhnTkRF_oeDw3Jk_4?authuser=0&hl=en&rclk=1",
        "coordinates": {
            "latitude": 25.6855953,
            "longitude": 80.0980316
        }
    },
    {
        "name": "Madina Masjid",
        "main_category": "Mosque",
        "address": "M3QR+H5X Madina Masjid, Hazrat baba nizami chauraha, Ragaul, Maudaha, Uttar Pradesh 210507",
        "detailed_address": {
            "ward": null,
            "street": "M3QR+H5X, Hazrat baba nizami chauraha, Ragaul",
            "city": "Maudaha, Ragaul",
            "postal_code": "210507",
            "state": "Uttar Pradesh",
            "country_code": "IN"
        },
        "images": [
            {
                "about": "All",
                "link": "https://lh5.googleusercontent.com/p/AF1QipOJCm7Dg6r-j_Ya_p32hBV9vy-O9x6qQhUrkl9a=w397-h298-k-no"
            },
            {
                "about": "Street View & 360deg",
                "link": "https://streetviewpixels-pa.googleapis.com/v1/thumbnail?panoid=JFfkSncbYJDkB-4dpBZ4vA&cb_client=maps_sv.tactile.gps&w=224&h=298&yaw=327.17368&pitch=0&thumbfov=100"
            }
        ],
        "link": "https://www.google.com/maps/place/Madina+Masjid/data=!4m7!3m6!1s0x399d200f1ca1f163:0x6f88e3cf993342d1!8m2!3d25.6889965!4d80.0904943!16s%2Fg%2F11d_wnvwdh!19sChIJY_GhHA8gnTkR0UIzmc_jiG8?authuser=0&hl=en&rclk=1",
        "coordinates": {
            "latitude": 25.6889965,
            "longitude": 80.0904943
        }
    },
    {
        "name": "Abrar Baby Masjid",
        "main_category": "Mosque",
        "address": "M4M8+W26 Abrar Baby Masjid, Manda Mohalla, Maudaha, Uttar Pradesh 210507",
        "detailed_address": {
            "ward": null,
            "street": "M4M8+W26, Manda Mohalla",
            "city": "Maudaha",
            "postal_code": "210507",
            "state": "Uttar Pradesh",
            "country_code": "IN"
        },
        "images": [
            {
                "about": "All",
                "link": "https://lh5.googleusercontent.com/p/AF1QipMu7cPnA30HUfGhmRBXwenKxbWtRr2qclTyhnw3=w224-h298-k-no"
            },
            {
                "about": "Street View & 360deg",
                "link": "https://streetviewpixels-pa.googleapis.com/v1/thumbnail?panoid=uhWxfl611Xn1qF0WkuL0cg&cb_client=maps_sv.tactile.gps&w=224&h=298&yaw=239.15196&pitch=0&thumbfov=100"
            }
        ],
        "link": "https://www.google.com/maps/place/Abrar+Baby+Masjid/data=!4m7!3m6!1s0x399cdfeb874c899b:0x759525005b6c7561!8m2!3d25.6847922!4d80.115003!16s%2Fg%2F11c58sjbcg!19sChIJm4lMh-vfnDkRYXVsWwAllXU?authuser=0&hl=en&rclk=1",
        "coordinates": {
            "latitude": 25.6847922,
            "longitude": 80.115003
        }
    },
    {
        "name": "Masjid Malikua",
        "main_category": "Mosque",
        "address": "M4M5+89G Masjid Malikua, Marathipura, Maudaha, Uttar Pradesh 210507",
        "detailed_address": {
            "ward": "Marathipura",
            "street": "M4M5+89G",
            "city": "Maudaha",
            "postal_code": "210507",
            "state": "Uttar Pradesh",
            "country_code": "IN"
        },
        "images": [
            {
                "about": "All",
                "link": "https://streetviewpixels-pa.googleapis.com/v1/thumbnail?panoid=rnuCBSUTzlhYEGe67oWznA&cb_client=maps_sv.tactile.gps&w=224&h=298&yaw=251.98318&pitch=0&thumbfov=100"
            },
            {
                "about": "Street View & 360deg",
                "link": "https://streetviewpixels-pa.googleapis.com/v1/thumbnail?panoid=rnuCBSUTzlhYEGe67oWznA&cb_client=maps_sv.tactile.gps&w=224&h=298&yaw=251.98318&pitch=0&thumbfov=100"
            }
        ],
        "link": "https://www.google.com/maps/place/Masjid+Malikua/data=!4m7!3m6!1s0x399cdff28e37f145:0x9e238815e598e436!8m2!3d25.683324!4d80.1084423!16s%2Fg%2F11f03r55v5!19sChIJRfE3jvLfnDkRNuSY5RWII54?authuser=0&hl=en&rclk=1",
        "coordinates": {
            "latitude": 25.683324,
            "longitude": 80.1084423
        }
    },
    {
        "name": "Pahari Bawa Masjid Maudaha",
        "main_category": "Mosque",
        "address": "M4M7+4R4 Pahari Bawa Masjid Maudaha, Maudaha, Uttar Pradesh 210507",
        "detailed_address": {
            "ward": null,
            "street": "M4M7+4R4",
            "city": "Maudaha",
            "postal_code": "210507",
            "state": "Uttar Pradesh",
            "country_code": "IN"
        },
        "images": [
            {
                "about": "All",
                "link": "https://lh5.googleusercontent.com/p/AF1QipMffVstVh9agYFAusa11sHRMsNk3PoGxspiWLG-=w397-h298-k-no"
            },
            {
                "about": "Videos",
                "link": "https://lh5.googleusercontent.com/p/AF1QipNYbHcVTZtvE5JC3rDh8J5CWK3wMLrW9X30Nmmi=w529-h298-k-no"
            }
        ],
        "link": "https://www.google.com/maps/place/Pahari+Bawa+Masjid+Maudaha/data=!4m7!3m6!1s0x399cdf9e11847e69:0xb1cb5cb2b695f4b2!8m2!3d25.6827699!4d80.1145893!16s%2Fg%2F11f64c10n4!19sChIJaX6EEZ7fnDkRsvSVtrJcy7E?authuser=0&hl=en&rclk=1",
        "coordinates": {
            "latitude": 25.6827699,
            "longitude": 80.11458929999999
        }
    },
    {
        "name": "shahi masjid",
        "main_category": "Religious destination",
        "address": "M4P8+FCM shahi masjid, Maudaha, Uttar Pradesh 210507",
        "detailed_address": {
            "ward": null,
            "street": "M4P8+FCM",
            "city": "Maudaha",
            "postal_code": "210507",
            "state": "Uttar Pradesh",
            "country_code": "IN"
        },
        "images": [
            {
                "about": "All",
                "link": "https://lh5.googleusercontent.com/p/AF1QipM5hU8evgfudBQjja8K80Sn02oFIa0KS5UsU3aQ=w224-h448-k-no"
            },
            {
                "about": "Street View & 360deg",
                "link": "https://streetviewpixels-pa.googleapis.com/v1/thumbnail?panoid=ab7QRyLHh0uA6nZS8HbYdw&cb_client=maps_sv.tactile.gps&w=224&h=298&yaw=324.57123&pitch=0&thumbfov=100"
            }
        ],
        "link": "https://www.google.com/maps/place/shahi+masjid/data=!4m7!3m6!1s0x399cdfebeb923851:0xb71f37ae2ce25735!8m2!3d25.6862068!4d80.1160501!16s%2Fg%2F11g9m9rhk7!19sChIJUTiS6-vfnDkRNVfiLK43H7c?authuser=0&hl=en&rclk=1",
        "coordinates": {
            "latitude": 25.686206799999997,
            "longitude": 80.1160501
        }
    },
    {
        "name": "Masjid Rahmaniya",
        "main_category": "Religious destination",
        "address": "M4J6+8X7 Masjid Rahmaniya, Kapsa Rd, Maudaha, Uttar Pradesh 210507",
        "detailed_address": {
            "ward": null,
            "street": "M4J6+8X7, Kapsa Rd",
            "city": "Maudaha",
            "postal_code": "210507",
            "state": "Uttar Pradesh",
            "country_code": "IN"
        },
        "images": [
            {
                "about": "All",
                "link": "https://lh5.googleusercontent.com/p/AF1QipMdwb8BA754iR_tyTnwpcYkAU_vJr0Wddnoz-fA=w386-h298-k-no"
            },
            {
                "about": "Street View & 360deg",
                "link": "https://streetviewpixels-pa.googleapis.com/v1/thumbnail?panoid=THpKhVntMFOlACAo7aQE8g&cb_client=maps_sv.tactile.gps&w=224&h=298&yaw=214.1374&pitch=0&thumbfov=100"
            }
        ],
        "link": "https://www.google.com/maps/place/Masjid+Rahmaniya/data=!4m7!3m6!1s0x399cdf93291f5329:0xd50d0c506ac6da32!8m2!3d25.680784!4d80.112409!16s%2Fg%2F11fy4nxbcv!19sChIJKVMfKZPfnDkRMtrGalAMDdU?authuser=0&hl=en&rclk=1",
        "coordinates": {
            "latitude": 25.680784,
            "longitude": 80.112409
        }
    },
    {
        "name": "Masjid Baghu",
        "main_category": "Mosque",
        "address": "M4M8+5QH Masjid Baghu, Unnamed Road, Maudaha, Uttar Pradesh 210507",
        "detailed_address": {
            "ward": null,
            "street": "M4M8+5QH, Unnamed Road",
            "city": "Maudaha",
            "postal_code": "210507",
            "state": "Uttar Pradesh",
            "country_code": "IN"
        },
        "images": [
            {
                "about": "All",
                "link": "https://lh5.googleusercontent.com/p/AF1QipNxpi62CbqdyMI6rBYajNpKz4qHKJjlj4ukzHnK=w224-h398-k-no"
            },
            {
                "about": "Dome",
                "link": "https://lh5.googleusercontent.com/p/AF1QipPFIiPWA258NVX2XnCMGb8sIGmnnykFIsOkKjeg=w224-h298-k-no"
            },
            {
                "about": "Videos",
                "link": "https://lh5.googleusercontent.com/p/AF1QipNCA3bpsJeq9WbwiIz7B6s4fcpvkTSvtJvCtJrN=w529-h298-k-no"
            },
            {
                "about": "Street View & 360deg",
                "link": "https://streetviewpixels-pa.googleapis.com/v1/thumbnail?panoid=0J65TJ6QVwdcv_9JGLpx7Q&cb_client=maps_sv.tactile.gps&w=224&h=298&yaw=257.28937&pitch=0&thumbfov=100"
            }
        ],
        "link": "https://www.google.com/maps/place/Masjid+Baghu/data=!4m7!3m6!1s0x399cdfeb3d2387a3:0x9782522a375be324!8m2!3d25.682934!4d80.1169697!16s%2Fg%2F11df80_46x!19sChIJo4cjPevfnDkRJONbNypSgpc?authuser=0&hl=en&rclk=1",
        "coordinates": {
            "latitude": 25.682934,
            "longitude": 80.1169697
        }
    },
    {
        "name": "JUMA MASJID MAUDAHA",
        "main_category": "Mosque",
        "address": "M4P7+M2R JUMA MASJID MAUDAHA, Maudaha, Uttar Pradesh 210507",
        "detailed_address": {
            "ward": null,
            "street": "M4P7+M2R",
            "city": "Maudaha",
            "postal_code": "210507",
            "state": "Uttar Pradesh",
            "country_code": "IN"
        },
        "images": [
            {
                "about": "All",
                "link": "https://streetviewpixels-pa.googleapis.com/v1/thumbnail?panoid=sRHj7gN6H19nUNr7Ra1LAg&cb_client=maps_sv.tactile.gps&w=224&h=298&yaw=332.54526&pitch=0&thumbfov=100"
            },
            {
                "about": "Street View & 360deg",
                "link": "https://streetviewpixels-pa.googleapis.com/v1/thumbnail?panoid=sRHj7gN6H19nUNr7Ra1LAg&cb_client=maps_sv.tactile.gps&w=224&h=298&yaw=332.54526&pitch=0&thumbfov=100"
            },
            {
                "about": "Videos",
                "link": "https://lh5.googleusercontent.com/p/AF1QipMA8UZNRDXfIduoHdlvs03sJK-eAh8OFCqgFDi3=w224-h398-k-no"
            }
        ],
        "link": "https://www.google.com/maps/place/JUMA+MASJID+MAUDAHA/data=!4m7!3m6!1s0x399cdfec2ea25729:0x98344b181fbf034!8m2!3d25.6867269!4d80.1125298!16s%2Fg%2F11dyltmdxj!19sChIJKVeiLuzfnDkRNPD7gbFEgwk?authuser=0&hl=en&rclk=1",
        "coordinates": {
            "latitude": 25.6867269,
            "longitude": 80.11252979999999
        }
    },
    {
        "name": "Masjid Bhakku Baba",
        "main_category": "Mosque",
        "address": "M4M6+69Q Masjid Bhakku Baba, Maudaha, Uttar Pradesh 210507",
        "detailed_address": {
            "ward": null,
            "street": "M4M6+69Q",
            "city": "Maudaha",
            "postal_code": "210507",
            "state": "Uttar Pradesh",
            "country_code": "IN"
        },
        "images": [],
        "link": "https://www.google.com/maps/place/Masjid+Bhakku+Baba/data=!4m7!3m6!1s0x399cdfed13904ca5:0x89c44b7b555b0cda!8m2!3d25.6830965!4d80.110982!16s%2Fg%2F11g9q9kl68!19sChIJpUyQE-3fnDkR2gxbVXtLxIk?authuser=0&hl=en&rclk=1",
        "coordinates": {
            "latitude": 25.683096499999998,
            "longitude": 80.11098199999999
        }
    },
    {
        "name": "Masjid Hazrat Panchi Peer Baba",
        "main_category": "Mosque",
        "address": "M4M9+Q2F Masjid Hazrat Panchi Peer Baba, Unnamed Road, Maudaha, Uttar Pradesh 210507",
        "detailed_address": {
            "ward": null,
            "street": "M4M9+Q2F, Unnamed Road",
            "city": "Maudaha",
            "postal_code": "210507",
            "state": "Uttar Pradesh",
            "country_code": "IN"
        },
        "images": [],
        "link": "https://www.google.com/maps/place/Masjid+Hazrat+Panchi+Peer+Baba/data=!4m7!3m6!1s0x399cdfeb008dbe8b:0xc64f8c4a9c9b2658!8m2!3d25.6844378!4d80.1175382!16s%2Fg%2F11f5jq1y6y!19sChIJi76NAOvfnDkRWCabnEqMT8Y?authuser=0&hl=en&rclk=1",
        "coordinates": {
            "latitude": 25.684437799999998,
            "longitude": 80.1175382
        }
    },
    {
        "name": "Masjid Sajan Talab",
        "main_category": "Mosque",
        "address": "M4H9+P6V Masjid Sajan Talab, Maudaha, Uttar Pradesh 210507",
        "detailed_address": {
            "ward": null,
            "street": "M4H9+P6V",
            "city": "Maudaha",
            "postal_code": "210507",
            "state": "Uttar Pradesh",
            "country_code": "IN"
        },
        "images": [
            {
                "about": "All",
                "link": "https://lh5.googleusercontent.com/p/AF1QipMLstIWbfuO-mXHRHHiuvUBOLLauna8vu6QOXxq=w224-h398-k-no"
            },
            {
                "about": "Dome",
                "link": "https://lh5.googleusercontent.com/p/AF1QipP4maSiLb-m6HdgbryIxAy-87mBY6g3LqKAiDp5=w397-h298-k-no"
            },
            {
                "about": "Street View & 360deg",
                "link": "https://streetviewpixels-pa.googleapis.com/v1/thumbnail?panoid=lKIVZSvWdpcO0RGvhuXdGg&cb_client=maps_sv.tactile.gps&w=224&h=298&yaw=78.47697&pitch=0&thumbfov=100"
            }
        ],
        "link": "https://www.google.com/maps/place/Masjid+Sajan+Talab/data=!4m7!3m6!1s0x399cdf9503645909:0x64f331a665763b13!8m2!3d25.6793733!4d80.1180533!16s%2Fg%2F11fxx74vjs!19sChIJCVlkA5XfnDkREzt2ZaYx82Q?authuser=0&hl=en&rclk=1",
        "coordinates": {
            "latitude": 25.679373299999998,
            "longitude": 80.1180533
        }
    },
    {
        "name": "Khinni Ghat Masjid",
        "main_category": "Religious destination",
        "address": "M4P8+PG6 Khinni Ghat Masjid, Maudaha, Uttar Pradesh 210507",
        "detailed_address": {
            "ward": null,
            "street": "M4P8+PG6",
            "city": "Maudaha",
            "postal_code": "210507",
            "state": "Uttar Pradesh",
            "country_code": "IN"
        },
        "images": [],
        "link": "https://www.google.com/maps/place/Khinni+Ghat+Masjid/data=!4m7!3m6!1s0x399cdfebe7978857:0x855d9a2e04abbd50!8m2!3d25.6867967!4d80.1162618!16s%2Fg%2F11fx_5nnc7!19sChIJV4iX5-vfnDkRUL2rBC6aXYU?authuser=0&hl=en&rclk=1",
        "coordinates": {
            "latitude": 25.6867967,
            "longitude": 80.11626179999999
        }
    },
    {
        "name": "Mosque",
        "main_category": "Mosque",
        "address": "M4M3+PQV Mosque, Marathipura, Maudaha, Uttar Pradesh 210507",
        "detailed_address": {
            "ward": "Marathipura",
            "street": "M4M3+PQV",
            "city": "Maudaha",
            "postal_code": "210507",
            "state": "Uttar Pradesh",
            "country_code": "IN"
        },
        "images": [
            {
                "about": "All",
                "link": "https://lh5.googleusercontent.com/p/AF1QipMu905m--MsNgRSYYrX1pPNCCYoGyBWMJEPq9yS=w224-h389-k-no"
            },
            {
                "about": "Dome",
                "link": "https://lh5.googleusercontent.com/p/AF1QipMu905m--MsNgRSYYrX1pPNCCYoGyBWMJEPq9yS=w224-h389-k-no"
            }
        ],
        "link": "https://www.google.com/maps/place/Mosque/data=!4m7!3m6!1s0x399cdff385450ce3:0xa34ee05150c9f34f!8m2!3d25.6843716!4d80.1044207!16s%2Fg%2F11dylzv166!19sChIJ4wxFhfPfnDkRT_PJUFHgTqM?authuser=0&hl=en&rclk=1",
        "coordinates": {
            "latitude": 25.6843716,
            "longitude": 80.10442069999999
        }
    },
    {
        "name": "Masjid Peer Baba",
        "main_category": "Religious destination",
        "address": "M4M7+38C Masjid Peer Baba, Maudaha, Uttar Pradesh 210507",
        "detailed_address": {
            "ward": null,
            "street": "M4M7+38C",
            "city": "Maudaha",
            "postal_code": "210507",
            "state": "Uttar Pradesh",
            "country_code": "IN"
        },
        "images": [
            {
                "about": "All",
                "link": "https://lh5.googleusercontent.com/p/AF1QipMvXPo74mNeFjlbMkF6-plJEsLCLvScW__NSwVd=w529-h298-k-no"
            },
            {
                "about": "Videos",
                "link": "https://lh5.googleusercontent.com/p/AF1QipN9iKiTgcvisZkheGmQP68QPrO-cV0PRchwqYDA=w224-h398-k-no"
            }
        ],
        "link": "https://www.google.com/maps/place/Masjid+Peer+Baba/data=!4m7!3m6!1s0x399cdfecc1976077:0xf37cc5054f7c875e!8m2!3d25.6826962!4d80.1132673!16s%2Fg%2F11g9j5z_fp!19sChIJd2CXwezfnDkRXod8TwXFfPM?authuser=0&hl=en&rclk=1",
        "coordinates": {
            "latitude": 25.6826962,
            "longitude": 80.11326729999999
        }
    },
    {
        "name": "Masjid Station",
        "main_category": "Religious destination",
        "address": "M4PH+C7G Masjid Station, Maudaha, Uttar Pradesh 210507",
        "detailed_address": {
            "ward": null,
            "street": "M4PH+C7G",
            "city": "Maudaha",
            "postal_code": "210507",
            "state": "Uttar Pradesh",
            "country_code": "IN"
        },
        "images": [
            {
                "about": "All",
                "link": "https://lh5.googleusercontent.com/p/AF1QipOXx0NBjPhjvKNc8cTwiH_2Kc8lqzZ5vQNXLhvH=w224-h298-k-no"
            }
        ],
        "link": "https://www.google.com/maps/place/Masjid+Station/data=!4m7!3m6!1s0x399cdfc6f000ed3b:0xb10ab356445ad8f7!8m2!3d25.6860521!4d80.1282172!16s%2Fg%2F11g9jymklv!19sChIJO-0A8MbfnDkR99haRFazCrE?authuser=0&hl=en&rclk=1",
        "coordinates": {
            "latitude": 25.686052099999998,
            "longitude": 80.1282172
        }
    },
    {
        "name": "Choti Masjid Fazil Miya",
        "main_category": "Religious destination",
        "address": "M4J8+27Q Choti Masjid Fazil Miya, Maudaha, Uttar Pradesh 210507",
        "detailed_address": {
            "ward": null,
            "street": "M4J8+27Q",
            "city": "Maudaha",
            "postal_code": "210507",
            "state": "Uttar Pradesh",
            "country_code": "IN"
        },
        "images": [
            {
                "about": "All",
                "link": "https://streetviewpixels-pa.googleapis.com/v1/thumbnail?panoid=kYTB9TAKSQT43Oz2K_uZDA&cb_client=maps_sv.tactile.gps&w=224&h=298&yaw=359.55377&pitch=0&thumbfov=100"
            },
            {
                "about": "Street View & 360deg",
                "link": "https://streetviewpixels-pa.googleapis.com/v1/thumbnail?panoid=kYTB9TAKSQT43Oz2K_uZDA&cb_client=maps_sv.tactile.gps&w=224&h=298&yaw=359.55377&pitch=0&thumbfov=100"
            }
        ],
        "link": "https://www.google.com/maps/place/Choti+Masjid+Fazil+Miya/data=!4m7!3m6!1s0x399cdf9497fa1f87:0xa20673410b6dc8f0!8m2!3d25.6800901!4d80.1157236!16s%2Fg%2F11f00bq50w!19sChIJhx_6l5TfnDkR8MhtC0FzBqI?authuser=0&hl=en&rclk=1",
        "coordinates": {
            "latitude": 25.680090099999997,
            "longitude": 80.1157236
        }
    },
    {
        "name": "Nizamiya Jama Masjid, Subedar Masjid",
        "main_category": "Religious destination",
        "address": "M4H8+Q4F Nizamiya Jama Masjid, Subedar Masjid, Maudaha, Uttar Pradesh 210507",
        "detailed_address": {
            "ward": null,
            "street": "M4H8+Q4F",
            "city": "Maudaha",
            "postal_code": "210507",
            "state": "Uttar Pradesh",
            "country_code": "IN"
        },
        "images": [
            {
                "about": "All",
                "link": "https://streetviewpixels-pa.googleapis.com/v1/thumbnail?panoid=mQVajIShByKuZwBbHyPDhQ&cb_client=maps_sv.tactile.gps&w=224&h=298&yaw=196.48973&pitch=0&thumbfov=100"
            },
            {
                "about": "Street View & 360deg",
                "link": "https://streetviewpixels-pa.googleapis.com/v1/thumbnail?panoid=mQVajIShByKuZwBbHyPDhQ&cb_client=maps_sv.tactile.gps&w=224&h=298&yaw=196.48973&pitch=0&thumbfov=100"
            }
        ],
        "link": "https://www.google.com/maps/place/Nizamiya+Jama+Masjid,+Subedar+Masjid/data=!4m7!3m6!1s0x399cdf949b631561:0x35b381f22969cc4d!8m2!3d25.6794428!4d80.1153064!16s%2Fg%2F11g9j4wx3d!19sChIJYRVjm5TfnDkRTcxpKfKBszU?authuser=0&hl=en&rclk=1",
        "coordinates": {
            "latitude": 25.6794428,
            "longitude": 80.1153064
        }
    },
    {
        "name": "Jama Masjid Kamraha",
        "main_category": "Mosque",
        "address": "M4J7+GFJ Jama Masjid Kamraha, Maudaha, Uttar Pradesh 210507",
        "detailed_address": {
            "ward": null,
            "street": "M4J7+GFJ",
            "city": "Maudaha",
            "postal_code": "210507",
            "state": "Uttar Pradesh",
            "country_code": "IN"
        },
        "images": [
            {
                "about": "All",
                "link": "https://lh5.googleusercontent.com/p/AF1QipNslmgXa8C0o8tZjey2B_IyadpDrgBnUOPhafAs=w224-h398-k-no"
            },
            {
                "about": "Dome",
                "link": "https://lh5.googleusercontent.com/p/AF1QipNslmgXa8C0o8tZjey2B_IyadpDrgBnUOPhafAs=w224-h398-k-no"
            }
        ],
        "link": "https://www.google.com/maps/place/Jama+Masjid+Kamraha/data=!4m7!3m6!1s0x399cdf934ac76a89:0x59cb90a46c0f57a7!8m2!3d25.6813313!4d80.1136374!16s%2Fg%2F11d_8szr79!19sChIJiWrHSpPfnDkRp1cPbKSQy1k?authuser=0&hl=en&rclk=1",
        "coordinates": {
            "latitude": 25.6813313,
            "longitude": 80.1136374
        }
    },
    {
        "name": "Masjid H.HakimBaba",
        "main_category": "Mosque",
        "address": "M4J6+WH2 Masjid H.HakimBaba, Maudaha, Uttar Pradesh 210507",
        "detailed_address": {
            "ward": null,
            "street": "M4J6+WH2",
            "city": "Maudaha",
            "postal_code": "210507",
            "state": "Uttar Pradesh",
            "country_code": "IN"
        },
        "images": [
            {
                "about": "All",
                "link": "https://lh5.googleusercontent.com/p/AF1QipOoCNwNLHlITRLyRoikzS5kyJdKv5q9xqV9Ze2m=w224-h398-k-no"
            }
        ],
        "link": "https://www.google.com/maps/place/Masjid+H.HakimBaba/data=!4m7!3m6!1s0x399cdfed3b40e0db:0xc5fb21dab7149fb8!8m2!3d25.6822571!4d80.1113797!16s%2Fg%2F11fyxbv_rb!19sChIJ2-BAO-3fnDkRuJ8Ut9oh-8U?authuser=0&hl=en&rclk=1",
        "coordinates": {
            "latitude": 25.682257099999998,
            "longitude": 80.1113797
        }
    },
    {
        "name": "Masjid Quresi",
        "main_category": "Religious destination",
        "address": "M4J6+V3F Masjid Quresi, Maudaha, Uttar Pradesh 210507",
        "detailed_address": {
            "ward": null,
            "street": "M4J6+V3F",
            "city": "Maudaha",
            "postal_code": "210507",
            "state": "Uttar Pradesh",
            "country_code": "IN"
        },
        "images": [
            {
                "about": "All",
                "link": "https://lh5.googleusercontent.com/p/AF1QipM_D4YIaaYhFfAQTpUgDY_u_IV1xPUHYhhVTsBM=w224-h398-k-no"
            },
            {
                "about": "Latest",
                "link": "https://lh5.googleusercontent.com/p/AF1QipM_D4YIaaYhFfAQTpUgDY_u_IV1xPUHYhhVTsBM=w224-h398-k-no"
            },
            {
                "about": "Videos",
                "link": "https://lh5.googleusercontent.com/p/AF1QipPH2oBkKsl-FBgCP7qlGNRtnw6UbzlabzRAYvMT=w224-h398-k-no"
            },
            {
                "about": "Street View & 360deg",
                "link": "https://streetviewpixels-pa.googleapis.com/v1/thumbnail?panoid=mc2-ViswyH6c2agjYadxWA&cb_client=maps_sv.tactile.gps&w=224&h=298&yaw=250.83183&pitch=0&thumbfov=100"
            }
        ],
        "link": "https://www.google.com/maps/place/Masjid+Quresi/data=!4m7!3m6!1s0x399cdfed449199e3:0x4a5d5facd2197c48!8m2!3d25.6821925!4d80.1101777!16s%2Fg%2F11g9q751vh!19sChIJ45mRRO3fnDkRSHwZ0qxfXUo?authuser=0&hl=en&rclk=1",
        "coordinates": {
            "latitude": 25.6821925,
            "longitude": 80.1101777
        }
    },
    {
        "name": "Masjid National",
        "main_category": "Mosque",
        "address": "Masjid National, Hazrat Diler, Khan Road, Maudaha, Uttar Pradesh 210507",
        "detailed_address": {
            "ward": null,
            "street": "Hazrat Diler, Khan Road",
            "city": "Maudaha",
            "postal_code": "210507",
            "state": "Uttar Pradesh",
            "country_code": "IN"
        },
        "images": [
            {
                "about": "All",
                "link": "https://streetviewpixels-pa.googleapis.com/v1/thumbnail?panoid=rc1O8BW5ky4KGFanVbSZMw&cb_client=maps_sv.tactile.gps&w=224&h=298&yaw=135.96048&pitch=0&thumbfov=100"
            },
            {
                "about": "Street View & 360deg",
                "link": "https://streetviewpixels-pa.googleapis.com/v1/thumbnail?panoid=rc1O8BW5ky4KGFanVbSZMw&cb_client=maps_sv.tactile.gps&w=224&h=298&yaw=135.96048&pitch=0&thumbfov=100"
            }
        ],
        "link": "https://www.google.com/maps/place/Masjid+National/data=!4m7!3m6!1s0x399cdfef43ffb7ef:0xac8b182ca1bc29d2!8m2!3d25.692032!4d80.1138874!16s%2Fg%2F11fy2lm6dw!19sChIJ77f_Q-_fnDkR0im8oSwYi6w?authuser=0&hl=en&rclk=1",
        "coordinates": {
            "latitude": 25.692031999999998,
            "longitude": 80.1138874
        }
    },
    {
        "name": "Masjid Gohel",
        "main_category": "Religious destination",
        "address": "M4M8+R4J Masjid Gohel, Maudaha, Uttar Pradesh 210507",
        "detailed_address": {
            "ward": null,
            "street": "M4M8+R4J",
            "city": "Maudaha",
            "postal_code": "210507",
            "state": "Uttar Pradesh",
            "country_code": "IN"
        },
        "images": [
            {
                "about": "All",
                "link": "https://lh5.googleusercontent.com/p/AF1QipMkFXQN9mU6P2MFM3Y4YHICyKsJ-dJgP5605mDP=w224-h298-k-no"
            },
            {
                "about": "Street View & 360deg",
                "link": "https://streetviewpixels-pa.googleapis.com/v1/thumbnail?panoid=uhWxfl611Xn1qF0WkuL0cg&cb_client=maps_sv.tactile.gps&w=224&h=298&yaw=175.9052&pitch=0&thumbfov=100"
            }
        ],
        "link": "https://www.google.com/maps/place/Masjid+Gohel/data=!4m7!3m6!1s0x399cdfeb8233a753:0x150f7a8dbb6dfc34!8m2!3d25.6845921!4d80.1152668!16s%2Fg%2F11g9jgg8r0!19sChIJU6czguvfnDkRNPxtu416DxU?authuser=0&hl=en&rclk=1",
        "coordinates": {
            "latitude": 25.6845921,
            "longitude": 80.1152668
        }
    },
    {
        "name": "Masjid chhote baba",
        "main_category": "Religious destination",
        "address": "M4M7+528 Masjid chhote baba, Unnamed Road, Maudaha, Uttar Pradesh 210507",
        "detailed_address": {
            "ward": null,
            "street": "M4M7+528, Unnamed Road",
            "city": "Maudaha",
            "postal_code": "210507",
            "state": "Uttar Pradesh",
            "country_code": "IN"
        },
        "images": [],
        "link": "https://www.google.com/maps/place/Masjid+chhote+baba/data=!4m7!3m6!1s0x399cdf4514fc7119:0x4cd4fbcbc7cd2289!8m2!3d25.6829152!4d80.1125887!16s%2Fg%2F11fplwl_r5!19sChIJGXH8FEXfnDkRiSLNx8v71Ew?authuser=0&hl=en&rclk=1",
        "coordinates": {
            "latitude": 25.6829152,
            "longitude": 80.1125887
        }
    },
    {
        "name": "Masjid Hakki Baba",
        "main_category": "Mosque",
        "address": "M4P8+F58 Masjid Hakki Baba, Maudaha, Uttar Pradesh 210507",
        "detailed_address": {
            "ward": null,
            "street": "M4P8+F58",
            "city": "Maudaha",
            "postal_code": "210507",
            "state": "Uttar Pradesh",
            "country_code": "IN"
        },
        "images": [
            {
                "about": "All",
                "link": "https://streetviewpixels-pa.googleapis.com/v1/thumbnail?panoid=ueeFfViCxHfQjbA59fl-Ig&cb_client=maps_sv.tactile.gps&w=224&h=298&yaw=328.63522&pitch=0&thumbfov=100"
            },
            {
                "about": "Street View & 360deg",
                "link": "https://streetviewpixels-pa.googleapis.com/v1/thumbnail?panoid=ueeFfViCxHfQjbA59fl-Ig&cb_client=maps_sv.tactile.gps&w=224&h=298&yaw=328.63522&pitch=0&thumbfov=100"
            }
        ],
        "link": "https://www.google.com/maps/place/Masjid+Hakki+Baba/data=!4m7!3m6!1s0x399cdf6cc6180a3b:0x6d0dc64a5b13c21d!8m2!3d25.6861734!4d80.1154381!16s%2Fg%2F11vcw8ylcb!19sChIJOwoYxmzfnDkRHcITW0rGDW0?authuser=0&hl=en&rclk=1",
        "coordinates": {
            "latitude": 25.686173399999998,
            "longitude": 80.11543809999999
        }
    },
    {
        "name": "Jama masjid Nizami Khankah Husaingunj",
        "main_category": "Mosque",
        "address": "M4H7+XHP Jama masjid Nizami Khankah Husaingunj, Maudaha, Uttar Pradesh 210507",
        "detailed_address": {
            "ward": null,
            "street": "M4H7+XHP",
            "city": "Maudaha",
            "postal_code": "210507",
            "state": "Uttar Pradesh",
            "country_code": "IN"
        },
        "images": [
            {
                "about": "All",
                "link": "https://streetviewpixels-pa.googleapis.com/v1/thumbnail?panoid=J47j243rvQePlA0hiraOLA&cb_client=maps_sv.tactile.gps&w=224&h=298&yaw=239.30237&pitch=0&thumbfov=100"
            },
            {
                "about": "Street View & 360deg",
                "link": "https://streetviewpixels-pa.googleapis.com/v1/thumbnail?panoid=J47j243rvQePlA0hiraOLA&cb_client=maps_sv.tactile.gps&w=224&h=298&yaw=239.30237&pitch=0&thumbfov=100"
            }
        ],
        "link": "https://www.google.com/maps/place/Jama+masjid+Nizami+Khankah+Husaingunj/data=!4m7!3m6!1s0x399cdfb77944f445:0x5fb4702c19a62ae3!8m2!3d25.6799928!4d80.1138812!16s%2Fg%2F11scrrgyzp!19sChIJRfREebffnDkR4yqmGSxwtF8?authuser=0&hl=en&rclk=1",
        "coordinates": {
            "latitude": 25.679992799999997,
            "longitude": 80.1138812
        }
    },
    {
        "name": "Maszid bhueya rani",
        "main_category": "Mosque",
        "address": "M4M7+F47 Maszid bhueya rani, Unnamed Road, Maudaha, Uttar Pradesh 210507",
        "detailed_address": {
            "ward": null,
            "street": "M4M7+F47, Unnamed Road",
            "city": "Maudaha",
            "postal_code": "210507",
            "state": "Uttar Pradesh",
            "country_code": "IN"
        },
        "images": [],
        "link": "https://www.google.com/maps/place/Maszid+bhueya+rani/data=!4m7!3m6!1s0x399cdf13abedabb1:0x432eaa283bff68e9!8m2!3d25.6836643!4d80.1127971!16s%2Fg%2F11q8g87k4d!19sChIJsavtqxPfnDkR6Wj_OyiqLkM?authuser=0&hl=en&rclk=1",
        "coordinates": {
            "latitude": 25.6836643,
            "longitude": 80.1127971
        }
    },
    {
        "name": "Masjid khankah",
        "main_category": "Religious destination",
        "address": "Masjid khankah, Khankah nezami, Maudaha, Uttar Pradesh 210507",
        "detailed_address": {
            "ward": null,
            "street": "Khankah nezami",
            "city": "Maudaha",
            "postal_code": "210507",
            "state": "Uttar Pradesh",
            "country_code": "IN"
        },
        "images": [
            {
                "about": "All",
                "link": "https://streetviewpixels-pa.googleapis.com/v1/thumbnail?panoid=ueeFfViCxHfQjbA59fl-Ig&cb_client=maps_sv.tactile.gps&w=224&h=298&yaw=328.6036&pitch=0&thumbfov=100"
            },
            {
                "about": "Street View & 360deg",
                "link": "https://streetviewpixels-pa.googleapis.com/v1/thumbnail?panoid=ueeFfViCxHfQjbA59fl-Ig&cb_client=maps_sv.tactile.gps&w=224&h=298&yaw=328.6036&pitch=0&thumbfov=100"
            }
        ],
        "link": "https://www.google.com/maps/place/Masjid+khankah/data=!4m7!3m6!1s0x399cdfe97f570df5:0xdfb814450547a9cc!8m2!3d25.6861733!4d80.1154381!16s%2Fg%2F11rg8m8x8l!19sChIJ9Q1Xf-nfnDkRzKlHBUUUuN8?authuser=0&hl=en&rclk=1",
        "coordinates": {
            "latitude": 25.6861733,
            "longitude": 80.11543809999999
        }
    },
    {
        "name": "Hafiz ji",
        "main_category": "Mosque",
        "address": "M4P8+F58 Hafiz ji, Maudaha, Uttar Pradesh 210507",
        "detailed_address": {
            "ward": null,
            "street": "M4P8+F58",
            "city": "Maudaha",
            "postal_code": "210507",
            "state": "Uttar Pradesh",
            "country_code": "IN"
        },
        "images": [
            {
                "about": "All",
                "link": "https://streetviewpixels-pa.googleapis.com/v1/thumbnail?panoid=ueeFfViCxHfQjbA59fl-Ig&cb_client=maps_sv.tactile.gps&w=224&h=298&yaw=328.6036&pitch=0&thumbfov=100"
            },
            {
                "about": "Street View & 360deg",
                "link": "https://streetviewpixels-pa.googleapis.com/v1/thumbnail?panoid=ueeFfViCxHfQjbA59fl-Ig&cb_client=maps_sv.tactile.gps&w=224&h=298&yaw=328.6036&pitch=0&thumbfov=100"
            }
        ],
        "link": "https://www.google.com/maps/place/Hafiz+ji/data=!4m7!3m6!1s0x399cdf18d88a2a19:0xa87eb1ff4286850c!8m2!3d25.6861733!4d80.1154381!16s%2Fg%2F11s54h8h9l!19sChIJGSqK2BjfnDkRDIWGQv-xfqg?authuser=0&hl=en&rclk=1",
        "coordinates": {
            "latitude": 25.6861733,
            "longitude": 80.11543809999999
        }
    },
    {
        "name": "kmhriyaa",
        "main_category": "Mosque",
        "address": "kmhriyaa, graam kmhriyaa bloNk, Maudaha, Uttar Pradesh 210507",
        "detailed_address": {
            "ward": null,
            "street": "graam kmhriyaa bloNk",
            "city": "Maudaha",
            "postal_code": "210507",
            "state": "Uttar Pradesh",
            "country_code": "IN"
        },
        "images": [
            {
                "about": "All",
                "link": "https://streetviewpixels-pa.googleapis.com/v1/thumbnail?panoid=ueeFfViCxHfQjbA59fl-Ig&cb_client=maps_sv.tactile.gps&w=224&h=298&yaw=328.6036&pitch=0&thumbfov=100"
            },
            {
                "about": "Street View & 360deg",
                "link": "https://streetviewpixels-pa.googleapis.com/v1/thumbnail?panoid=ueeFfViCxHfQjbA59fl-Ig&cb_client=maps_sv.tactile.gps&w=224&h=298&yaw=328.6036&pitch=0&thumbfov=100"
            }
        ],
        "link": "https://www.google.com/maps/place/%E0%A4%95%E0%A4%AE%E0%A5%8D%E0%A4%B9%E0%A4%B0%E0%A4%BF%E0%A4%AF%E0%A4%BE/data=!4m7!3m6!1s0x399cdfddb6c59b93:0x7b2a50aecd04149f!8m2!3d25.6861733!4d80.1154381!16s%2Fg%2F11kjy6h10v!19sChIJk5vFtt3fnDkRnxQEza5QKns?authuser=0&hl=en&rclk=1",
        "coordinates": {
            "latitude": 25.6861733,
            "longitude": 80.11543809999999
        }
    }
]