[
    {
        "name": "Moti Masjid",
        "main_category": "Mosque",
        "address": "V8PJ+V7X Moti Masjid, MP Nagar, Subhash Ganj, Dabra, Madhya Pradesh 475110",
        "detailed_address": {
            "ward": "MP Nagar, Subhash Ganj",
            "street": "V8PJ+V7X",
            "city": "Dabra",
            "postal_code": "475110",
            "state": "Madhya Pradesh",
            "country_code": "IN"
        },
        "images": [],
        "link": "https://www.google.com/maps/place/Moti+Masjid/data=!4m7!3m6!1s0x39771f04d2d6a5cd:0xda3b2917f50d64df!8m2!3d25.8872377!4d78.3307245!16s%2Fg%2F1ptyvs7p6!19sChIJzaXW0gQfdzkR32QN9RcpO9o?authuser=0&hl=en&rclk=1",
        "coordinates": {
            "latitude": 25.8872377,
            "longitude": 78.3307245
        }
    },
    {
        "name": "Masjid Miyanpur",
        "main_category": "Mosque",
        "address": "P4F9+6JX Masjid Miyanpur, Kerua, Madhya Pradesh 475220",
        "detailed_address": {
            "ward": null,
            "street": "P4F9+6JX",
            "city": "Kerua",
            "postal_code": "475220",
            "state": "Madhya Pradesh",
            "country_code": "IN"
        },
        "images": [
            {
                "about": "All",
                "link": "https://lh5.googleusercontent.com/p/AF1QipNpiIoKiCbPOwwghZXBWu1p-nFX1XoW2a0H-_Ch=w425-h298-k-no"
            },
            {
                "about": "Dome",
                "link": "https://lh5.googleusercontent.com/p/AF1QipNHeRERSG5rsDzWyaj_dG6xnn5r-j3dipHRct2r=w397-h298-k-no"
            }
        ],
        "link": "https://www.google.com/maps/place/Masjid+Miyanpur/data=!4m7!3m6!1s0x39773aa39eb54709:0xfa0af202ddf6a255!8m2!3d25.7231114!4d78.1191236!16s%2Fg%2F11ddt3853l!19sChIJCUe1nqM6dzkRVaL23QLyCvo?authuser=0&hl=en&rclk=1",
        "coordinates": {
            "latitude": 25.7231114,
            "longitude": 78.1191236
        }
    },
    {
        "name": "Masjid Sunari",
        "main_category": "Mosque",
        "address": "M5PW+F6C Masjid Sunari, Sunari, Madhya Pradesh 473662",
        "detailed_address": {
            "ward": null,
            "street": "M5PW+F6C",
            "city": "Sunari",
            "postal_code": "473662",
            "state": "Madhya Pradesh",
            "country_code": "IN"
        },
        "images": [
            {
                "about": "All",
                "link": "https://lh5.googleusercontent.com/p/AF1QipMxPZ1pOjzi0s7kut9W1x7hFvjeGMQrfYFbaIip=w224-h398-k-no"
            },
            {
                "about": "Street View & 360deg",
                "link": "https://streetviewpixels-pa.googleapis.com/v1/thumbnail?panoid=BX1YccOVnv46KsrGdg1kig&cb_client=maps_sv.tactile.gps&w=224&h=298&yaw=88.84642&pitch=0&thumbfov=100"
            },
            {
                "about": "Videos",
                "link": "https://lh5.googleusercontent.com/p/AF1QipP7RrJoDRjzOQjxgGC1w-1evI5gim4rRtOjdLYU=w224-h398-k-no"
            }
        ],
        "link": "https://www.google.com/maps/place/Masjid+Sunari/data=!4m7!3m6!1s0x39773b8edac38797:0x172be3f492669b59!8m2!3d25.6861959!4d78.1955079!16s%2Fg%2F11c606wpb5!19sChIJl4fD2o47dzkRWZtmkvTjKxc?authuser=0&hl=en&rclk=1",
        "coordinates": {
            "latitude": 25.686195899999998,
            "longitude": 78.1955079
        }
    },
    {
        "name": "Noorani Masjid",
        "main_category": "Mosque",
        "address": "Q4V7+W4F Noorani Masjid, Bhitarwar, Madhya Pradesh 475220",
        "detailed_address": {
            "ward": null,
            "street": "Q4V7+W4F",
            "city": "Bhitarwar",
            "postal_code": "475220",
            "state": "Madhya Pradesh",
            "country_code": "IN"
        },
        "images": [
            {
                "about": "All",
                "link": "https://streetviewpixels-pa.googleapis.com/v1/thumbnail?panoid=VkfXERMsuUtaGN3e3Iw0ig&cb_client=maps_sv.tactile.gps&w=224&h=298&yaw=180.23695&pitch=0&thumbfov=100"
            },
            {
                "about": "Street View & 360deg",
                "link": "https://streetviewpixels-pa.googleapis.com/v1/thumbnail?panoid=VkfXERMsuUtaGN3e3Iw0ig&cb_client=maps_sv.tactile.gps&w=224&h=298&yaw=180.23695&pitch=0&thumbfov=100"
            }
        ],
        "link": "https://www.google.com/maps/place/Noorani+Masjid/data=!4m7!3m6!1s0x3977258715aaa467:0xb001535f2c2407d6!8m2!3d25.7948139!4d78.112797!16s%2Fg%2F11gjyp0ksl!19sChIJZ6SqFYcldzkR1gckLF9TAbA?authuser=0&hl=en&rclk=1",
        "coordinates": {
            "latitude": 25.794813899999998,
            "longitude": 78.112797
        }
    },
    {
        "name": "Masjide Markaj",
        "main_category": "Mosque",
        "address": "R429+VVV Masjide Markaj, Bhitarwar, Madhya Pradesh 475220",
        "detailed_address": {
            "ward": null,
            "street": "R429+VVV",
            "city": "Bhitarwar",
            "postal_code": "475220",
            "state": "Madhya Pradesh",
            "country_code": "IN"
        },
        "images": [
            {
                "about": "All",
                "link": "https://lh5.googleusercontent.com/p/AF1QipOXuodZRNHqjZZvf4VfuV2O8oaozg2fN5hiOe0b=w298-h298-k-no"
            },
            {
                "about": "Videos",
                "link": "https://lh5.googleusercontent.com/p/AF1QipPB7nlBPfbo9_WqkMWPnZfKRNINLJyEmgPTxrh5=w529-h298-k-no"
            }
        ],
        "link": "https://www.google.com/maps/place/Masjide+Markaj/data=!4m7!3m6!1s0x3977258fa60eb8d1:0x4eb4eb821a528189!8m2!3d25.8022376!4d78.1196848!16s%2Fg%2F11f3trjwr4!19sChIJ0bgOpo8ldzkRiYFSGoLrtE4?authuser=0&hl=en&rclk=1",
        "coordinates": {
            "latitude": 25.802237599999998,
            "longitude": 78.1196848
        }
    },
    {
        "name": "The noorani masjid",
        "main_category": "Musalla",
        "address": "W38X+736 The noorani masjid, Daulatpur, Madhya Pradesh 475220",
        "detailed_address": {
            "ward": null,
            "street": "W38X+736",
            "city": "Daulatpur",
            "postal_code": null,
            "state": "Madhya Pradesh",
            "country_code": "IN"
        },
        "images": [
            {
                "about": "All",
                "link": "https://lh5.googleusercontent.com/p/AF1QipOUkEDXk-01fencWSV7Sz3-ZAhNuEHqfa9SsFiY=w224-h481-k-no"
            }
        ],
        "link": "https://www.google.com/maps/place/The+noorani+masjid/data=!4m7!3m6!1s0x3977296b8072d625:0x8e61da21d71dc708!8m2!3d25.9156517!4d78.0976274!16s%2Fg%2F11txf440y8!19sChIJJdZygGspdzkRCMcd1yHaYY4?authuser=0&hl=en&rclk=1",
        "coordinates": {
            "latitude": 25.915651699999998,
            "longitude": 78.0976274
        }
    },
    {
        "name": "Masjid Usman Gani RA",
        "main_category": "Mosque",
        "address": "V4VG+37G Masjid Usman Gani RA, Berkheda, Madhya Pradesh 475220",
        "detailed_address": {
            "ward": null,
            "street": "V4VG+37G",
            "city": "Berkheda",
            "postal_code": null,
            "state": "Madhya Pradesh",
            "country_code": "IN"
        },
        "images": [],
        "link": "https://www.google.com/maps/place/Masjid+Usman+Gani+RA/data=!4m7!3m6!1s0x397727ecf8b1da3b:0xa3f33c783d04e641!8m2!3d25.8926941!4d78.1257142!16s%2Fg%2F11t6xjd8k4!19sChIJO9qx-OwndzkRQeYEPXg886M?authuser=0&hl=en&rclk=1",
        "coordinates": {
            "latitude": 25.8926941,
            "longitude": 78.12571419999999
        }
    },
    {
        "name": "Zaama masjid mastura",
        "main_category": "Religious institution",
        "address": "R26H+226 Zaama masjid mastura, Mastura, Madhya Pradesh 475220",
        "detailed_address": {
            "ward": null,
            "street": "R26H+226",
            "city": "Mastura",
            "postal_code": "475220",
            "state": "Madhya Pradesh",
            "country_code": "IN"
        },
        "images": [],
        "link": "https://www.google.com/maps/place/Zaama+masjid+mastura/data=!4m7!3m6!1s0x39772fd183659c55:0x2c01c6049e31eaae!8m2!3d25.8099157!4d78.0274655!16s%2Fg%2F11kpn6h64y!19sChIJVZxlg9EvdzkRruoxngTGASw?authuser=0&hl=en&rclk=1",
        "coordinates": {
            "latitude": 25.809915699999998,
            "longitude": 78.02746549999999
        }
    },
    {
        "name": "Bhitarwar",
        "main_category": null,
        "address": "Bhitarwar, Madhya Pradesh 475220",
        "detailed_address": {
            "ward": null,
            "street": null,
            "city": "Bhitarwar",
            "postal_code": null,
            "state": "Madhya Pradesh",
            "country_code": "IN"
        },
        "images": [
            {
                "about": "All",
                "link": "https://lh5.googleusercontent.com/p/AF1QipP0Bsr9hXGX_lJ5X6FZxzfTVQ-gqX9wjhAoK4o=w529-h298-k-no"
            }
        ],
        "link": "https://www.google.com/maps/place/Bhitarwar/data=!4m7!3m6!1s0x39772f7beaf4fe21:0x95b88a3a71db7c39!8m2!3d25.7940343!4d78.1165309!16zL20vMGYwZ3l3!19sChIJIf706nsvdzkROXzbcTqKuJU?authuser=0&hl=en&rclk=1",
        "coordinates": {
            "latitude": 25.7940343,
            "longitude": 78.1165309
        }
    },
    {
        "name": "Jama Masjid",
        "main_category": "Mosque",
        "address": "Q4R6+352 Jama Masjid, Bhitarwar, Madhya Pradesh 475220",
        "detailed_address": {
            "ward": null,
            "street": "Q4R6+352",
            "city": "Bhitarwar",
            "postal_code": "475220",
            "state": "Madhya Pradesh",
            "country_code": "IN"
        },
        "images": [],
        "link": "https://www.google.com/maps/place/Jama+Masjid/data=!4m7!3m6!1s0x39772f7fd13bb4df:0xe2cf22cf50d42c1!8m2!3d25.7901362!4d78.1104052!16s%2Fg%2F11f3tvvbnq!19sChIJ37Q70X8vdzkRwUIN9SzyLA4?authuser=0&hl=en&rclk=1",
        "coordinates": {
            "latitude": 25.7901362,
            "longitude": 78.1104052
        }
    },
    {
        "name": "PANKAJSONI",
        "main_category": "Association or organization",
        "address": "PANKAJSONI, Bhitarwar Masjid ke samne ward no.07, Madhya Pradesh 475220",
        "detailed_address": {
            "ward": null,
            "street": "Bhitarwar Masjid ke samne ward no.07",
            "city": "Bhitarwar",
            "postal_code": "475220",
            "state": "Madhya Pradesh",
            "country_code": "IN"
        },
        "images": [
            {
                "about": "All",
                "link": "https://streetviewpixels-pa.googleapis.com/v1/thumbnail?panoid=VkfXERMsuUtaGN3e3Iw0ig&cb_client=maps_sv.tactile.gps&w=224&h=298&yaw=274.1457&pitch=0&thumbfov=100"
            },
            {
                "about": "Street View & 360deg",
                "link": "https://streetviewpixels-pa.googleapis.com/v1/thumbnail?panoid=VkfXERMsuUtaGN3e3Iw0ig&cb_client=maps_sv.tactile.gps&w=224&h=298&yaw=274.1457&pitch=0&thumbfov=100"
            }
        ],
        "link": "https://www.google.com/maps/place/PANKAJSONI/data=!4m7!3m6!1s0x397725e0f3e1bbd7:0xc35b3d419ae88d9!8m2!3d25.795164!4d78.1126853!16s%2Fg%2F11tnn6lwjk!19sChIJ17vh8-AldzkR2YiuGdSzNQw?authuser=0&hl=en&rclk=1",
        "coordinates": {
            "latitude": 25.795164,
            "longitude": 78.1126853
        }
    }
]