[
    {
        "name": "Bade Miya Dargah Sharif Dhebar",
        "main_category": "Mosque",
        "address": "VPV2+6QW Bade Miya Dargah Sharif Dhebar, Bhanvad - Porbandar Rd, Dhebar, Gujarat 360510",
        "detailed_address": {
            "ward": null,
            "street": "VPV2+6QW, Bhanvad - Porbandar Rd",
            "city": "Dhebar",
            "postal_code": "360510",
            "state": "Gujarat",
            "country_code": "IN"
        },
        "images": [
            {
                "about": "All",
                "link": "https://lh5.googleusercontent.com/p/AF1QipOk8rOYEb_hcvRRJ9cWnLSqO0gi7uzVGkSqEWOY=w395-h298-k-no"
            },
            {
                "about": "Dome",
                "link": "https://lh5.googleusercontent.com/p/AF1QipO71tjfi6D_5iuDa3tS6LvvzG5mXxJxLhdbH_yH=w298-h298-k-no"
            },
            {
                "about": "Videos",
                "link": "https://lh5.googleusercontent.com/p/AF1QipMhg4V0wXguDv7atoxZsypFhlLJIu6irpElZ35D=w224-h407-k-no"
            }
        ],
        "link": "https://www.google.com/maps/place/Bade+Miya+Dargah+Sharif+Dhebar/data=!4m7!3m6!1s0x3957ad62f576d595:0x93b79f030fbe1bcc!8m2!3d21.8931196!4d69.7019434!16s%2Fg%2F11c6f9pp3f!19sChIJldV29WKtVzkRzBu-DwOft5M?authuser=0&hl=en&rclk=1",
        "coordinates": {
            "latitude": 21.8931196,
            "longitude": 69.70194339999999
        }
    },
    {
        "name": "Masjid Dhebar",
        "main_category": "Mosque",
        "address": "VPV3+MF9 Masjid Dhebar, Bhanvad - Porbandar Rd, Dhebar, Gujarat 360510",
        "detailed_address": {
            "ward": null,
            "street": "VPV3+MF9, Bhanvad - Porbandar Rd",
            "city": "Dhebar",
            "postal_code": "360510",
            "state": "Gujarat",
            "country_code": "IN"
        },
        "images": [
            {
                "about": "All",
                "link": "https://lh5.googleusercontent.com/p/AF1QipN-aFyn3eshkkOlzmDFIrriWxTM7ozjVzyknLFi=w529-h298-k-no"
            },
            {
                "about": "Dome",
                "link": "https://lh5.googleusercontent.com/p/AF1QipMsUUFeFzw98NFDC9mjMr7cZ31q7fIY2HDUB7wt=w224-h398-k-no"
            }
        ],
        "link": "https://www.google.com/maps/place/Masjid+Dhebar/data=!4m7!3m6!1s0x3957ad62dc7f7e8b:0xb387b7ce958ea69a!8m2!3d21.8941507!4d69.7037416!16s%2Fg%2F11c6pr3r0g!19sChIJi35_3GKtVzkRmqaOlc63h7M?authuser=0&hl=en&rclk=1",
        "coordinates": {
            "latitude": 21.894150699999997,
            "longitude": 69.7037416
        }
    },
    {
        "name": "Samdani Masjid Bhenakvad",
        "main_category": "Mosque",
        "address": "WP4C+G4C Samdani Masjid Bhenakvad, GJ SH 95, Mokhana, Gujarat 360510",
        "detailed_address": {
            "ward": null,
            "street": "WP4C+G4C, GJ SH 95",
            "city": "Mokhana",
            "postal_code": "360510",
            "state": "Gujarat",
            "country_code": "IN"
        },
        "images": [
            {
                "about": "All",
                "link": "https://lh5.googleusercontent.com/p/AF1QipMn0eJwumnpXa-CK-d8l26ABB1PLrW1aHnYUhai=w224-h298-k-no"
            },
            {
                "about": "Dome",
                "link": "https://lh5.googleusercontent.com/p/AF1QipMKzsudCi5XjM9JCtSa4HcA5q1PaT7pCvV7vIYj=w529-h298-k-no"
            }
        ],
        "link": "https://www.google.com/maps/place/Samdani+Masjid+Bhenakvad/data=!4m7!3m6!1s0x3957ad9cdb866401:0xf10369ec67aceb0a!8m2!3d21.9063194!4d69.720279!16s%2Fg%2F11c2npw0sc!19sChIJAWSG25ytVzkRCuusZ-xpA_E?authuser=0&hl=en&rclk=1",
        "coordinates": {
            "latitude": 21.906319399999997,
            "longitude": 69.72027899999999
        }
    },
    {
        "name": "New Masjid",
        "main_category": "Mosque",
        "address": "WQMH+5GW New Masjid, Bhanvad, Gujarat 360510",
        "detailed_address": {
            "ward": null,
            "street": "WQMH+5GW",
            "city": "Bhanvad",
            "postal_code": "360510",
            "state": "Gujarat",
            "country_code": "IN"
        },
        "images": [
            {
                "about": "All",
                "link": "https://lh5.googleusercontent.com/p/AF1QipPbK317TG3uTZHfrq_An0W7E6IZ4bfDzBGmtNW0=w224-h320-k-no"
            }
        ],
        "link": "https://www.google.com/maps/place/New+Masjid/data=!4m7!3m6!1s0x3957ae6fac3ae5b7:0x180d7623361c469f!8m2!3d21.9329807!4d69.7788249!16s%2Fg%2F11cmqzthv4!19sChIJt-U6rG-uVzkRn0YcNiN2DRg?authuser=0&hl=en&rclk=1",
        "coordinates": {
            "latitude": 21.932980699999998,
            "longitude": 69.7788249
        }
    },
    {
        "name": "Jumma Masjid Bhanvad",
        "main_category": "Mosque",
        "address": "WQHJ+92Q Jumma Masjid Bhanvad, Bhagwati Street, Bhanvad, Gujarat 360510",
        "detailed_address": {
            "ward": null,
            "street": "WQHJ+92Q, Bhagwati Street",
            "city": "Bhanvad",
            "postal_code": "360510",
            "state": "Gujarat",
            "country_code": "IN"
        },
        "images": [
            {
                "about": "All",
                "link": "https://lh5.googleusercontent.com/p/AF1QipO3cxVY5aVDiZBkOE0QkI5FOfW4JyBcw36v0-Ts=w397-h298-k-no"
            }
        ],
        "link": "https://www.google.com/maps/place/Jumma+Masjid+Bhanvad/data=!4m7!3m6!1s0x3957ae6c47db8e69:0x1b23f4230561e514!8m2!3d21.9284558!4d69.7800986!16s%2Fg%2F11c32qs8sc!19sChIJaY7bR2yuVzkRFOVhBSP0Ixs?authuser=0&hl=en&rclk=1",
        "coordinates": {
            "latitude": 21.9284558,
            "longitude": 69.7800986
        }
    },
    {
        "name": "Hajrat bibima dargah sharif",
        "main_category": "Mosque",
        "address": "WQGH+FJC Hajrat bibima dargah sharif, Bhanvad, Gujarat 360510",
        "detailed_address": {
            "ward": null,
            "street": "WQGH+FJC",
            "city": "Bhanvad",
            "postal_code": "360510",
            "state": "Gujarat",
            "country_code": "IN"
        },
        "images": [
            {
                "about": "All",
                "link": "https://lh5.googleusercontent.com/p/AF1QipPO6dhAcRfAcyv3ZiIi_zJHHmK-7brH4ycbFYCJ=w224-h298-k-no"
            }
        ],
        "link": "https://www.google.com/maps/place/Hajrat+bibima+dargah+sharif/data=!4m7!3m6!1s0x3957af209484d557:0xc10cf282f891c93d!8m2!3d21.9261911!4d69.7790195!16s%2Fg%2F11rnj_x40y!19sChIJV9WElCCvVzkRPcmR-ILyDME?authuser=0&hl=en&rclk=1",
        "coordinates": {
            "latitude": 21.9261911,
            "longitude": 69.77901949999999
        }
    },
    {
        "name": "MASJIDE MOLA ALI",
        "main_category": "Mosque",
        "address": "WQC9+73J MASJIDE MOLA ALI, Bhanvad, Gujarat 360510",
        "detailed_address": {
            "ward": null,
            "street": "WQC9+73J",
            "city": "Bhanvad",
            "postal_code": "360510",
            "state": "Gujarat",
            "country_code": "IN"
        },
        "images": [],
        "link": "https://www.google.com/maps/place/MASJIDE+MOLA+ALI/data=!4m7!3m6!1s0x3957af921defd6d1:0x85e8999a3a6daf32!8m2!3d21.9207184!4d69.767643!16s%2Fg%2F11l2kf9f61!19sChIJ0dbvHZKvVzkRMq9tOpqZ6IU?authuser=0&hl=en&rclk=1",
        "coordinates": {
            "latitude": 21.9207184,
            "longitude": 69.76764299999999
        }
    }
]