[
    {
        "name": "JAMA MASJID & MAKTAB DARE ARQAM",
        "main_category": "Mosque",
        "address": "C55V+FX4 JAMA MASJID & MAKTAB DARE ARQAM, Vetal Peth, Karmala, Maharashtra 413203",
        "detailed_address": {
            "ward": "Vetal Peth",
            "street": "C55V+FX4",
            "city": "Karmala",
            "postal_code": "413203",
            "state": "Maharashtra",
            "country_code": "IN"
        },
        "images": [
            {
                "about": "All",
                "link": "https://lh5.googleusercontent.com/p/AF1QipOCNJcOK2O5j5nUqfz8SyyVVKRGSOBqs3fjHJw0=w397-h298-k-no"
            },
            {
                "about": "Videos",
                "link": "https://lh5.googleusercontent.com/p/AF1QipNlGF4uSwyTZiLqnbzMWh4C5Ff0DFrNn0WoUZ7w=w224-h398-k-no"
            }
        ],
        "link": "https://www.google.com/maps/place/JAMA+MASJID+%26+MAKTAB+DARE+ARQAM/data=!4m7!3m6!1s0x3bc48fd673738923:0x8e747ff27edfaa47!8m2!3d18.4086309!4d75.1949526!16s%2Fg%2F11fy4jvhw0!19sChIJI4lzc9aPxDsRR6rffvJ_dI4?authuser=0&hl=en&rclk=1",
        "coordinates": {
            "latitude": 18.4086309,
            "longitude": 75.1949526
        }
    },
    {
        "name": "piiruukaa msjid",
        "main_category": "Mosque",
        "address": "JXMR+M2H piiruukaa msjid, Munpur Karmala, Rajasthan 321204",
        "detailed_address": {
            "ward": null,
            "street": "JXMR+M2H",
            "city": "Munpur Karmala",
            "postal_code": "321204",
            "state": "Rajasthan",
            "country_code": "IN"
        },
        "images": [],
        "link": "https://www.google.com/maps/place/%E0%A4%AA%E0%A5%80%E0%A4%B0%E0%A5%82%E0%A4%95%E0%A4%BE+%E0%A4%AE%E0%A4%B8%E0%A5%8D%E0%A4%9C%E0%A4%BF%E0%A4%A6/data=!4m7!3m6!1s0x3972e9472cb57d7d:0xfb13588bf87095c8!8m2!3d27.6341921!4d76.9901242!16s%2Fg%2F11lgzb5vk7!19sChIJfX21LEfpcjkRyJVw-ItYE_s?authuser=0&hl=en&rclk=1",
        "coordinates": {
            "latitude": 27.6341921,
            "longitude": 76.9901242
        }
    },
    {
        "name": "Nooraani Masjid (Karmala)",
        "main_category": "Mosque",
        "address": "C53W+M2J Nooraani Masjid (Karmala), Karmala, Maharashtra 413203",
        "detailed_address": {
            "ward": null,
            "street": "C53W+M2J",
            "city": "Karmala",
            "postal_code": "413203",
            "state": "Maharashtra",
            "country_code": "IN"
        },
        "images": [
            {
                "about": "All",
                "link": "https://lh5.googleusercontent.com/p/AF1QipOgz48lkINxV56xZLdt6mmKI3YqC6oAIkQFIafH=w531-h298-k-no"
            },
            {
                "about": "Dome",
                "link": "https://lh5.googleusercontent.com/p/AF1QipNFicJCFwtHh1N3O2ns1Ah3o7er2lbPm9eHFImT=w224-h399-k-no"
            },
            {
                "about": "Street View & 360deg",
                "link": "https://streetviewpixels-pa.googleapis.com/v1/thumbnail?panoid=KDFAmuij0msbs1G7OQbfTQ&cb_client=maps_sv.tactile.gps&w=224&h=298&yaw=192.68347&pitch=0&thumbfov=100"
            }
        ],
        "link": "https://www.google.com/maps/place/Nooraani+Masjid+%28Karmala%29/data=!4m7!3m6!1s0x3bc48ffc4531b185:0xb531f7641375610c!8m2!3d18.4042139!4d75.195019!16s%2Fg%2F11hdl4lyx8!19sChIJhbExRfyPxDsRDGF1E2T3MbU?authuser=0&hl=en&rclk=1",
        "coordinates": {
            "latitude": 18.4042139,
            "longitude": 75.195019
        }
    },
    {
        "name": "Ma aayesha masjid",
        "main_category": "Mosque",
        "address": "C56V+368 Ma aayesha masjid, Vetal Peth, Karmala, Maharashtra 413203",
        "detailed_address": {
            "ward": "Vetal Peth",
            "street": "C56V+368",
            "city": "Karmala",
            "postal_code": "413203",
            "state": "Maharashtra",
            "country_code": "IN"
        },
        "images": [
            {
                "about": "All",
                "link": "https://lh5.googleusercontent.com/p/AF1QipNzNzqNYA5CtlIDEbYo7vR8b88pb0_S6BFjEpE9=w224-h298-k-no"
            }
        ],
        "link": "https://www.google.com/maps/place/Ma+aayesha+masjid/data=!4m7!3m6!1s0x3bc49100c18ccac9:0x173e04884be220f1!8m2!3d18.410168!4d75.1930884!16s%2Fg%2F11ll7ckt8m!19sChIJycqMwQCRxDsR8SDiS4gEPhc?authuser=0&hl=en&rclk=1",
        "coordinates": {
            "latitude": 18.410168,
            "longitude": 75.1930884
        }
    },
    {
        "name": "Makka Masjid,Markaj",
        "main_category": "Mosque",
        "address": "C54W+6W2 Makka Masjid,Markaj, Gawandi, Gujar Galli, Karmala, Maharashtra 413203",
        "detailed_address": {
            "ward": "Ganeshnagar",
            "street": "C54W+6W2, Gawandi, Gujar Galli",
            "city": "Karmala",
            "postal_code": "413203",
            "state": "Maharashtra",
            "country_code": "IN"
        },
        "images": [
            {
                "about": "All",
                "link": "https://streetviewpixels-pa.googleapis.com/v1/thumbnail?panoid=Zec-ItgCAnt8itl8bdoJ9A&cb_client=maps_sv.tactile.gps&w=224&h=298&yaw=325.41293&pitch=0&thumbfov=100"
            },
            {
                "about": "Street View & 360deg",
                "link": "https://streetviewpixels-pa.googleapis.com/v1/thumbnail?panoid=Zec-ItgCAnt8itl8bdoJ9A&cb_client=maps_sv.tactile.gps&w=224&h=298&yaw=325.41293&pitch=0&thumbfov=100"
            }
        ],
        "link": "https://www.google.com/maps/place/Makka+Masjid,Markaj/data=!4m7!3m6!1s0x3bc48f7cf9d38deb:0xbd2901058e01394f!8m2!3d18.4055131!4d75.1972612!16s%2Fg%2F11h5qsxvzr!19sChIJ643T-XyPxDsRTzkBjgUBKb0?authuser=0&hl=en&rclk=1",
        "coordinates": {
            "latitude": 18.4055131,
            "longitude": 75.1972612
        }
    },
    {
        "name": "Sulaimaniya Masjid, Karmala",
        "main_category": "Mosque",
        "address": "C632+MW3 Sulaimaniya Masjid, Karmala, Shahu nagar, Karmala, Maharashtra 413203",
        "detailed_address": {
            "ward": "Shahu nagar",
            "street": "C632+MW3",
            "city": "Karmala",
            "postal_code": "413203",
            "state": "Maharashtra",
            "country_code": "IN"
        },
        "images": [
            {
                "about": "All",
                "link": "https://lh5.googleusercontent.com/p/AF1QipMqtrRNajwUImoKWFPnuRGrtyg2jVppeFoeSMdo=w653-h298-k-no"
            }
        ],
        "link": "https://www.google.com/maps/place/Sulaimaniya+Masjid,+Karmala/data=!4m7!3m6!1s0x3bc48f1cef73362b:0xd6eea5689d0317c7!8m2!3d18.4042057!4d75.2022074!16s%2Fg%2F11s7c7yg92!19sChIJKzZz7xyPxDsRxxcDnWil7tY?authuser=0&hl=en&rclk=1",
        "coordinates": {
            "latitude": 18.4042057,
            "longitude": 75.20220739999999
        }
    },
    {
        "name": "Madina Masjid(Dargaah),Karmala",
        "main_category": "Mosque",
        "address": "95WR+93V Madina Masjid(Dargaah),Karmala, Tembhurni - Karmala Rd, Karmala, Maharashtra 413203",
        "detailed_address": {
            "ward": null,
            "street": "95WR+93V, Tembhurni - Karmala Rd",
            "city": "Karmala",
            "postal_code": "413203",
            "state": "Maharashtra",
            "country_code": "IN"
        },
        "images": [
            {
                "about": "All",
                "link": "https://lh5.googleusercontent.com/p/AF1QipNLeRosVgfF5_s3KS7BpU6QR8aU2AfRgpNityRS=w224-h298-k-no"
            }
        ],
        "link": "https://www.google.com/maps/place/Madina+Masjid%28Dargaah%29,Karmala/data=!4m7!3m6!1s0x3bc48fa225ea8365:0x17fff849521cde05!8m2!3d18.395985!4d75.1901682!16s%2Fg%2F11j13jjy0q!19sChIJZYPqJaKPxDsRBd4cUkn4_xc?authuser=0&hl=en&rclk=1",
        "coordinates": {
            "latitude": 18.395985,
            "longitude": 75.1901682
        }
    }
]