[
    {
        "name": "Mohammadi Masjid Dataganj",
        "main_category": "Mosque",
        "address": "2CG5+MVW Mohammadi Masjid Dataganj, Dataganj, Uttar Pradesh 243635",
        "detailed_address": {
            "ward": null,
            "street": "2CG5+MVW",
            "city": "Dataganj",
            "postal_code": "243635",
            "state": "Uttar Pradesh",
            "country_code": "IN"
        },
        "images": [
            {
                "about": "All",
                "link": "https://lh5.googleusercontent.com/p/AF1QipO-DbGXXkjw8m7ObzG-78Sh743HpVB0H6Kdz_Hg=w397-h298-k-no"
            }
        ],
        "link": "https://www.google.com/maps/place/Mohammadi+Masjid+Dataganj/data=!4m7!3m6!1s0x399fe258deeeb403:0xd64528331b0c2aa8!8m2!3d28.0267374!4d79.4096926!16s%2Fg%2F11g9m96kzn!19sChIJA7Tu3ljinzkRqCoMGzMoRdY?authuser=0&hl=en&rclk=1",
        "coordinates": {
            "latitude": 28.0267374,
            "longitude": 79.4096926
        }
    },
    {
        "name": "Arela Masjid wali Gali",
        "main_category": "Mosque",
        "address": "2CG5+PG6 Arela Masjid wali Gali, Dataganj, Uttar Pradesh 243635",
        "detailed_address": {
            "ward": null,
            "street": "2CG5+PG6",
            "city": "Dataganj",
            "postal_code": "243635",
            "state": "Uttar Pradesh",
            "country_code": "IN"
        },
        "images": [
            {
                "about": "All",
                "link": "https://lh5.googleusercontent.com/p/AF1QipPmlYiLmESZTEJRRh1NIFzyrbO3FiAwwglj-z5c=w224-h298-k-no"
            },
            {
                "about": "Latest",
                "link": "https://lh5.googleusercontent.com/p/AF1QipOACk2WBPctzG_i32Y5a0B8vvc4Zzh3vGVAC_6C=w224-h389-k-no"
            },
            {
                "about": "Videos",
                "link": "https://lh5.googleusercontent.com/p/AF1QipMSlPj4hGQW-VP8sLe5ft5m5WCTjuu7zP4fnO1o=w224-h316-k-no"
            }
        ],
        "link": "https://www.google.com/maps/place/Arela+Masjid+wali+Gali/data=!4m7!3m6!1s0x399fe258d441cb27:0xd7952eb9285d69d3!8m2!3d28.0267912!4d79.408776!16s%2Fg%2F11c6fbrdnp!19sChIJJ8tB1FjinzkR02ldKLkuldc?authuser=0&hl=en&rclk=1",
        "coordinates": {
            "latitude": 28.026791199999998,
            "longitude": 79.408776
        }
    },
    {
        "name": "Ansarian Maszid",
        "main_category": "Mosque",
        "address": "2CG5+JG8 Ansarian Maszid, Dataganj, Uttar Pradesh 243635",
        "detailed_address": {
            "ward": null,
            "street": "2CG5+JG8",
            "city": "Dataganj",
            "postal_code": "243635",
            "state": "Uttar Pradesh",
            "country_code": "IN"
        },
        "images": [
            {
                "about": "All",
                "link": "https://streetviewpixels-pa.googleapis.com/v1/thumbnail?panoid=oJediA77UlORkWZKsWmU_Q&cb_client=maps_sv.tactile.gps&w=224&h=298&yaw=2.0923653&pitch=0&thumbfov=100"
            },
            {
                "about": "Street View & 360deg",
                "link": "https://streetviewpixels-pa.googleapis.com/v1/thumbnail?panoid=oJediA77UlORkWZKsWmU_Q&cb_client=maps_sv.tactile.gps&w=224&h=298&yaw=2.0923653&pitch=0&thumbfov=100"
            }
        ],
        "link": "https://www.google.com/maps/place/Ansarian+Maszid/data=!4m7!3m6!1s0x399fe330f9dfbd2b:0x50734d965fbab989!8m2!3d28.02653!4d79.4088195!16s%2Fg%2F11j0ww3sbh!19sChIJK73f-TDjnzkRibm6X5ZNc1A?authuser=0&hl=en&rclk=1",
        "coordinates": {
            "latitude": 28.026529999999998,
            "longitude": 79.40881949999999
        }
    },
    {
        "name": "Barqaati masjid muhalla gaus nagar dataganj brk'aatii msjid muhllaa gaus ngr daataagNj",
        "main_category": "Mosque",
        "address": "2CJ4+52J Barqaati masjid muhalla gaus nagar dataganj brk'aatii msjid muhllaa gaus ngr daataagNj, Dataganj, Arela Urf Dataganj, Uttar Pradesh 243635",
        "detailed_address": {
            "ward": null,
            "street": "2CJ4+52J",
            "city": "Dataganj, Arela Urf Dataganj",
            "postal_code": null,
            "state": "Uttar Pradesh",
            "country_code": "IN"
        },
        "images": [],
        "link": "https://www.google.com/maps/place/Barqaati+masjid+muhalla+gaus+nagar+dataganj+%E0%A4%AC%E0%A4%B0%E0%A4%95%E0%A4%BC%E0%A4%BE%E0%A4%A4%E0%A5%80+%E0%A4%AE%E0%A4%B8%E0%A5%8D%E0%A4%9C%E0%A4%BF%E0%A4%A6+%E0%A4%AE%E0%A5%81%E0%A4%B9%E0%A4%B2%E0%A5%8D%E0%A4%B2%E0%A4%BE+%E0%A4%97%E0%A5%8C%E0%A4%B8+%E0%A4%A8%E0%A4%97%E0%A4%B0+%E0%A4%A6%E0%A4%BE%E0%A4%A4%E0%A4%BE%E0%A4%97%E0%A4%82%E0%A4%9C/data=!4m7!3m6!1s0x399fe377b513ae15:0x99fddd23edafcedf!8m2!3d28.0304601!4d79.4050162!16s%2Fg%2F11syrfr_q8!19sChIJFa4TtXfjnzkR386v7SPd_Zk?authuser=0&hl=en&rclk=1",
        "coordinates": {
            "latitude": 28.0304601,
            "longitude": 79.40501619999999
        }
    },
    {
        "name": "BARQATI MASJID",
        "main_category": "Mosque",
        "address": "2CH3+9X9 BARQATI MASJID, Tehsil Rd., Dataganj, Arela Urf Dataganj, Uttar Pradesh 243635",
        "detailed_address": {
            "ward": null,
            "street": "2CH3+9X9, Tehsil Rd.",
            "city": "Dataganj, Arela Urf Dataganj",
            "postal_code": "243635",
            "state": "Uttar Pradesh",
            "country_code": "IN"
        },
        "images": [
            {
                "about": "All",
                "link": "https://lh5.googleusercontent.com/p/AF1QipO-qTf6HIAU01sG8_l78ZQaSwP9RN6WCYDb2Zpk=w397-h298-k-no"
            }
        ],
        "link": "https://www.google.com/maps/place/BARQATI+MASJID/data=!4m7!3m6!1s0x399fe3d4fe09e245:0x137ae697e98464df!8m2!3d28.0284224!4d79.4049859!16s%2Fg%2F11s3c6j6cr!19sChIJReIJ_tTjnzkR32SE6ZfmehM?authuser=0&hl=en&rclk=1",
        "coordinates": {
            "latitude": 28.0284224,
            "longitude": 79.4049859
        }
    }
]