[
    {
        "name": "Shiya Jama Masjid, Manjhanpur",
        "main_category": "Mosque",
        "address": "G9JG+5WW Shiya Jama Masjid, Manjhanpur, Goura, Manjhanpur, Uttar Pradesh 212207",
        "detailed_address": {
            "ward": "Goura",
            "street": "G9JG+5WW",
            "city": "Manjhanpur",
            "postal_code": "212207",
            "state": "Uttar Pradesh",
            "country_code": "IN"
        },
        "images": [
            {
                "about": "All",
                "link": "https://lh5.googleusercontent.com/p/AF1QipPYum55Q0agkeArYS2XLMVHNiIeQpnW-_0czSES=w397-h298-k-no"
            },
            {
                "about": "Dome",
                "link": "https://lh5.googleusercontent.com/p/AF1QipMQXfzbg3dXleO1jjGy81fMXRkTD0yyl34ZoLxd=w551-h298-k-no"
            },
            {
                "about": "Street View & 360deg",
                "link": "https://streetviewpixels-pa.googleapis.com/v1/thumbnail?panoid=1KTZHroV0Pkx9k8BtxGLCQ&cb_client=maps_sv.tactile.gps&w=224&h=298&yaw=233.5863&pitch=0&thumbfov=100"
            }
        ],
        "link": "https://www.google.com/maps/place/Shiya+Jama+Masjid,+Manjhanpur/data=!4m7!3m6!1s0x399b2e5c36d8d8ef:0x95537cff7d929012!8m2!3d25.5304927!4d81.3773434!16s%2Fg%2F11f_by_t73!19sChIJ79jYNlwumzkREpCSff98U5U?authuser=0&hl=en&rclk=1",
        "coordinates": {
            "latitude": 25.5304927,
            "longitude": 81.3773434
        }
    },
    {
        "name": "Jama Masjid",
        "main_category": "Mosque",
        "address": "G9JF+6R9 Jama Masjid, Moyaiyanpur, Manjhanpur, Uttar Pradesh 212207",
        "detailed_address": {
            "ward": "Moyaiyanpur",
            "street": "G9JF+6R9",
            "city": "Manjhanpur",
            "postal_code": "212207",
            "state": "Uttar Pradesh",
            "country_code": "IN"
        },
        "images": [
            {
                "about": "All",
                "link": "https://lh5.googleusercontent.com/p/AF1QipPvtRc3neQUbII26ox-HhcJ3NuxT5yEQbL3N0B4=w529-h298-k-no"
            },
            {
                "about": "Street View & 360deg",
                "link": "https://streetviewpixels-pa.googleapis.com/v1/thumbnail?panoid=McKv9yii66keVxkcSlMyzA&cb_client=maps_sv.tactile.gps&w=224&h=298&yaw=195.97726&pitch=0&thumbfov=100"
            },
            {
                "about": "Videos",
                "link": "https://lh5.googleusercontent.com/p/AF1QipPSC_P7yV9XpkMHppWrAWlajCxD14UVC3oeqa-C=w224-h398-k-no"
            }
        ],
        "link": "https://www.google.com/maps/place/Jama+Masjid/data=!4m7!3m6!1s0x399b2e5ce8a9ece1:0x37798be9bec82983!8m2!3d25.5305344!4d81.3745945!16s%2Fg%2F11g7z0m1k6!19sChIJ4eyp6FwumzkRgynIvumLeTc?authuser=0&hl=en&rclk=1",
        "coordinates": {
            "latitude": 25.5305344,
            "longitude": 81.3745945
        }
    },
    {
        "name": "Masjid Turtipur",
        "main_category": "Mosque",
        "address": "FC86+G78 Masjid Turtipur, karari - Manjhanpur Rd, Rahimpur, Uttar Pradesh 212206",
        "detailed_address": {
            "ward": null,
            "street": "FC86+G78, karari - Manjhanpur Rd",
            "city": "Rahimpur",
            "postal_code": "212206",
            "state": "Uttar Pradesh",
            "country_code": "IN"
        },
        "images": [
            {
                "about": "All",
                "link": "https://streetviewpixels-pa.googleapis.com/v1/thumbnail?panoid=BdbneRbUB7wHpxUio9B5eg&cb_client=maps_sv.tactile.gps&w=224&h=298&yaw=51.339947&pitch=0&thumbfov=100"
            },
            {
                "about": "Street View & 360deg",
                "link": "https://streetviewpixels-pa.googleapis.com/v1/thumbnail?panoid=BdbneRbUB7wHpxUio9B5eg&cb_client=maps_sv.tactile.gps&w=224&h=298&yaw=51.339947&pitch=0&thumbfov=100"
            }
        ],
        "link": "https://www.google.com/maps/place/Masjid+Turtipur/data=!4m7!3m6!1s0x399b2dd9bb30dbef:0x96ce747dd38eb4aa!8m2!3d25.4662797!4d81.4107065!16s%2Fg%2F11jd8crt_0!19sChIJ79swu9ktmzkRqrSO0310zpY?authuser=0&hl=en&rclk=1",
        "coordinates": {
            "latitude": 25.466279699999998,
            "longitude": 81.4107065
        }
    },
    {
        "name": "Masjid e ali",
        "main_category": "Musalla",
        "address": "G9MH+WV Masjid e ali, Korron, Manjhanpur, Uttar Pradesh 212207",
        "detailed_address": {
            "ward": "Korron",
            "street": "G9MH+WV",
            "city": "Manjhanpur",
            "postal_code": null,
            "state": "Uttar Pradesh",
            "country_code": "IN"
        },
        "images": [],
        "link": "https://www.google.com/maps/place/Masjid+e+ali/data=!4m7!3m6!1s0x399b2f1633b38cf3:0xcb414d8747c324a3!8m2!3d25.5347521!4d81.3796481!16s%2Fg%2F11rn4qgldf!19sChIJ84yzMxYvmzkRoyTDR4dNQcs?authuser=0&hl=en&rclk=1",
        "coordinates": {
            "latitude": 25.5347521,
            "longitude": 81.3796481
        }
    },
    {
        "name": "Imam Chauk Anjuman Gulshane Husaini",
        "main_category": "Mosque",
        "address": "G9HF+CV7 Imam Chauk Anjuman Gulshane Husaini, Som Raj Tripathi, Road, Goura, Manjhanpur, Uttar Pradesh 212207",
        "detailed_address": {
            "ward": "Goura",
            "street": "G9HF+CV7 Som Raj Tripathi, Road",
            "city": "Manjhanpur",
            "postal_code": "212207",
            "state": "Uttar Pradesh",
            "country_code": "IN"
        },
        "images": [
            {
                "about": "All",
                "link": "https://lh5.googleusercontent.com/p/AF1QipPo9H7fDpk8JMwZfebvKA872JJBvXEviieRrqIx=w224-h496-k-no"
            },
            {
                "about": "Street View & 360deg",
                "link": "https://streetviewpixels-pa.googleapis.com/v1/thumbnail?panoid=agyY_RNBRomnqsWZB1BPzg&cb_client=maps_sv.tactile.gps&w=224&h=298&yaw=79.56871&pitch=0&thumbfov=100"
            }
        ],
        "link": "https://www.google.com/maps/place/Imam+Chauk+Anjuman+Gulshane+Husaini/data=!4m7!3m6!1s0x399b2f80f79eafe1:0xb22dd739ef92737b!8m2!3d25.5285324!4d81.3746645!16s%2Fg%2F11trgvk76h!19sChIJ4a-e94AvmzkRe3OS7znXLbI?authuser=0&hl=en&rclk=1",
        "coordinates": {
            "latitude": 25.5285324,
            "longitude": 81.3746645
        }
    },
    {
        "name": "Babura Masjid",
        "main_category": "Religious destination",
        "address": "G9HX+WJ3 Babura Masjid, Babura, Manjhanpur",
        "detailed_address": {
            "ward": null,
            "street": "G9HX+WJ3, Babura",
            "city": "Manjhanpur, Babura",
            "postal_code": null,
            "state": "Uttar Pradesh",
            "country_code": "IN"
        },
        "images": [],
        "link": "https://www.google.com/maps/place/Babura+Masjid/data=!4m7!3m6!1s0x399b2facef36da7f:0xf3bb4114973f4715!8m2!3d25.5297626!4d81.3990487!16s%2Fg%2F11fq8s8xw5!19sChIJf9o276wvmzkRFUc_lxRBu_M?authuser=0&hl=en&rclk=1",
        "coordinates": {
            "latitude": 25.529762599999998,
            "longitude": 81.3990487
        }
    },
    {
        "name": "Jama masjid",
        "main_category": "Mosque",
        "address": "J87P+JP4 Jama masjid, Manjhanpur - Sirathu Rd, Madhawamay, Uttar Pradesh 212217",
        "detailed_address": {
            "ward": null,
            "street": "J87P+JP4, Manjhanpur - Sirathu Rd",
            "city": "Madhawamay",
            "postal_code": "212217",
            "state": "Uttar Pradesh",
            "country_code": "IN"
        },
        "images": [],
        "link": "https://www.google.com/maps/place/Jama+masjid/data=!4m7!3m6!1s0x399b3bf7e0cb2133:0x5085b25306ff2b6a!8m2!3d25.6140137!4d81.3368197!16s%2Fg%2F11jxyzp8pr!19sChIJMyHL4Pc7mzkRaiv_BlOyhVA?authuser=0&hl=en&rclk=1",
        "coordinates": {
            "latitude": 25.614013699999997,
            "longitude": 81.33681969999999
        }
    },
    {
        "name": "Masjid-e-Ehsani",
        "main_category": "Mosque",
        "address": "F8FH+46M Masjid-e-Ehsani, Sharifpur post osa manjhanpur, Tewa, Uttar Pradesh",
        "detailed_address": {
            "ward": null,
            "street": "F8FH+46M, Sharifpur post osa manjhanpur",
            "city": "Tewa",
            "postal_code": null,
            "state": "Uttar Pradesh",
            "country_code": "IN"
        },
        "images": [
            {
                "about": "All",
                "link": "https://lh5.googleusercontent.com/p/AF1QipNbOWnhY32mRY3378_HnEJ_Qcw7FEwBNxyagemC=w529-h298-k-no"
            },
            {
                "about": "Street View & 360deg",
                "link": "https://streetviewpixels-pa.googleapis.com/v1/thumbnail?panoid=nbNsE6p7urWO1OYYAyH9MQ&cb_client=maps_sv.tactile.gps&w=224&h=298&yaw=281.40717&pitch=0&thumbfov=100"
            },
            {
                "about": "Videos",
                "link": "https://lh5.googleusercontent.com/p/AF1QipNbOWnhY32mRY3378_HnEJ_Qcw7FEwBNxyagemC=w529-h298-k-no"
            }
        ],
        "link": "https://www.google.com/maps/place/Masjid-e-Ehsani/data=!4m7!3m6!1s0x399b339092545ad7:0x3bc1246c5350ef69!8m2!3d25.4728469!4d81.3280523!16s%2Fg%2F11h2ll5rr_!19sChIJ11pUkpAzmzkRae9QU2wkwTs?authuser=0&hl=en&rclk=1",
        "coordinates": {
            "latitude": 25.4728469,
            "longitude": 81.3280523
        }
    },
    {
        "name": "Nizamiya Masjid",
        "main_category": "Mosque",
        "address": "G9JH+C78 Nizamiya Masjid, Azad Nagar, Manjhanpur, Uttar Pradesh 212207",
        "detailed_address": {
            "ward": "Azad Nagar",
            "street": "G9JH+C78",
            "city": "Manjhanpur",
            "postal_code": "212207",
            "state": "Uttar Pradesh",
            "country_code": "IN"
        },
        "images": [],
        "link": "https://www.google.com/maps/place/Nizamiya+Masjid/data=!4m7!3m6!1s0x399b2f79139dbb4b:0x7b48f85e6bbfafcc!8m2!3d25.53122!4d81.3787459!16s%2Fg%2F11l29cdkjq!19sChIJS7udE3kvmzkRzK-_a174SHs?authuser=0&hl=en&rclk=1",
        "coordinates": {
            "latitude": 25.531219999999998,
            "longitude": 81.3787459
        }
    },
    {
        "name": "Shia Jama masjid Ideal pathology",
        "main_category": "Pathologist",
        "address": "G9HG+W8C Shia Jama masjid Ideal pathology, Goura, Manjhanpur, Uttar Pradesh 212207",
        "detailed_address": {
            "ward": "Goura",
            "street": "G9HG+W8C",
            "city": "Manjhanpur",
            "postal_code": "212207",
            "state": "Uttar Pradesh",
            "country_code": "IN"
        },
        "images": [
            {
                "about": "All",
                "link": "https://streetviewpixels-pa.googleapis.com/v1/thumbnail?panoid=y4xbSw6jryj1fTbeWpWSSA&cb_client=maps_sv.tactile.gps&w=224&h=298&yaw=141.97131&pitch=0&thumbfov=100"
            },
            {
                "about": "Street View & 360deg",
                "link": "https://streetviewpixels-pa.googleapis.com/v1/thumbnail?panoid=y4xbSw6jryj1fTbeWpWSSA&cb_client=maps_sv.tactile.gps&w=224&h=298&yaw=141.97131&pitch=0&thumbfov=100"
            }
        ],
        "link": "https://www.google.com/maps/place/Shia+Jama+masjid+Ideal+pathology/data=!4m7!3m6!1s0x399b2fb746574173:0x2b17275369d1f3b8!8m2!3d25.5298165!4d81.3757746!16s%2Fg%2F11stvd3l0p!19sChIJc0FXRrcvmzkRuPPRaVMnFys?authuser=0&hl=en&rclk=1",
        "coordinates": {
            "latitude": 25.5298165,
            "longitude": 81.3757746
        }
    }
]