[
    {
        "name": "Lal Masjid",
        "main_category": "Mosque",
        "address": "Lal Masjid, BHIWANI STAND, Quilla Rd, Babra Mohalla, Rohtak, Haryana 124001",
        "detailed_address": {
            "ward": "Babra Mohalla",
            "street": "BHIWANI STAND, Quilla Rd",
            "city": "Rohtak",
            "postal_code": "124001",
            "state": "Haryana",
            "country_code": "IN"
        },
        "images": [
            {
                "about": "All",
                "link": "https://lh5.googleusercontent.com/p/AF1QipMQvOaYVdqEE7A4KDGjQIxjw1hcEtXzA2Zusyqd=w397-h298-k-no"
            },
            {
                "about": "Street View & 360deg",
                "link": "https://streetviewpixels-pa.googleapis.com/v1/thumbnail?panoid=Y_SEAjTq_JHbYbEQx_55Bw&cb_client=maps_sv.tactile.gps&w=224&h=298&yaw=275.2105&pitch=0&thumbfov=100"
            },
            {
                "about": "Videos",
                "link": "https://lh5.googleusercontent.com/p/AF1QipOZlebXkPRStJ_nQp_iVNCOAS8swWbXKvCQWzEh=w224-h398-k-no"
            }
        ],
        "link": "https://www.google.com/maps/place/Lal+Masjid/data=!4m7!3m6!1s0x390d85bb93c615c1:0xb2b4dbf78f3f80f1!8m2!3d28.897572!4d76.5794456!16s%2Fg%2F1hjh6p95f!19sChIJwRXGk7uFDTkR8YA_j_fbtLI?authuser=0&hl=en&rclk=1",
        "coordinates": {
            "latitude": 28.897572,
            "longitude": 76.5794456
        }
    },
    {
        "name": "Shishe Wali Masjid",
        "main_category": "Mosque",
        "address": "VHXG+XRC Shishe Wali Masjid, Pahara Mohalla, Rohtak, Haryana 124001",
        "detailed_address": {
            "ward": "Pahara Mohalla",
            "street": "VHXG+XRC",
            "city": "Rohtak",
            "postal_code": "124001",
            "state": "Haryana",
            "country_code": "IN"
        },
        "images": [
            {
                "about": "All",
                "link": "https://lh5.googleusercontent.com/p/AF1QipMzbzVSaE-zkSriYiBUq1Lumum-WGQjJVxJhFdz=w291-h298-k-no"
            },
            {
                "about": "Dome",
                "link": "https://lh5.googleusercontent.com/p/AF1QipOFR4YADaqCxelAFxt9Oi7kztOst2fjYiaOTq02=w224-h298-k-no"
            },
            {
                "about": "Videos",
                "link": "https://lh5.googleusercontent.com/p/AF1QipPWg_jr5cnALDKYDkECpN1NWIU2vpj_fegZlUB_=w529-h298-k-no"
            }
        ],
        "link": "https://www.google.com/maps/place/Shishe+Wali+Masjid/data=!4m7!3m6!1s0x390d85be99da164b:0xfa7d5b6ec333636f!8m2!3d28.8999383!4d76.5770015!16s%2Fg%2F11clzvgbz5!19sChIJSxbamb6FDTkRb2Mzw25bffo?authuser=0&hl=en&rclk=1",
        "coordinates": {
            "latitude": 28.8999383,
            "longitude": 76.5770015
        }
    },
    {
        "name": "MD Shadaab",
        "main_category": "Mosque",
        "address": "MD Shadaab, Rohtak Station Diary Mohalla, Rohtak, Haryana 124001",
        "detailed_address": {
            "ward": "Rohtak Station Diary Mohalla",
            "street": null,
            "city": "Rohtak",
            "postal_code": "124001",
            "state": "Haryana",
            "country_code": "IN"
        },
        "images": [
            {
                "about": "All",
                "link": "https://streetviewpixels-pa.googleapis.com/v1/thumbnail?panoid=c0R--e9440rXLkVP6vBHLg&cb_client=maps_sv.tactile.gps&w=224&h=298&yaw=183.02737&pitch=0&thumbfov=100"
            },
            {
                "about": "Street View & 360deg",
                "link": "https://streetviewpixels-pa.googleapis.com/v1/thumbnail?panoid=c0R--e9440rXLkVP6vBHLg&cb_client=maps_sv.tactile.gps&w=224&h=298&yaw=183.02737&pitch=0&thumbfov=100"
            }
        ],
        "link": "https://www.google.com/maps/place/MD+Shadaab/data=!4m7!3m6!1s0x390d85b8f073206f:0x1ce11ab422e109c4!8m2!3d28.8959919!4d76.5740508!16s%2Fg%2F1pyqmp_j1!19sChIJbyBz8LiFDTkRxAnhIrQa4Rw?authuser=0&hl=en&rclk=1",
        "coordinates": {
            "latitude": 28.8959919,
            "longitude": 76.5740508
        }
    },
    {
        "name": "Noorani Mosque",
        "main_category": "Mosque",
        "address": "Noorani Mosque, 124001, Jind-Gohana Rd, Kabir Colony, Rohtak, Haryana",
        "detailed_address": {
            "ward": "Kabir Colony, Singhpura Khurd",
            "street": "124001, Jind-Gohana Rd",
            "city": "Rohtak",
            "postal_code": null,
            "state": "Haryana",
            "country_code": "IN"
        },
        "images": [
            {
                "about": "All",
                "link": "https://lh5.googleusercontent.com/p/AF1QipNGvX5DRUxOJDkGwg-ZmYXA4PcLuV_2rA3gPSeN=w397-h298-k-no"
            },
            {
                "about": "Dome",
                "link": "https://lh5.googleusercontent.com/p/AF1QipMdCxI7zn3Sx9MAgg3IIehkC1sJt8H9C6-JlSsW=w224-h320-k-no"
            }
        ],
        "link": "https://www.google.com/maps/place/Noorani+Mosque/data=!4m7!3m6!1s0x390d8594acbcc2ed:0x9f18a4bfe8af3786!8m2!3d28.9087622!4d76.5720171!16s%2Fg%2F11f00j1sfm!19sChIJ7cK8rJSFDTkRhjev6L-kGJ8?authuser=0&hl=en&rclk=1",
        "coordinates": {
            "latitude": 28.908762199999998,
            "longitude": 76.5720171
        }
    },
    {
        "name": "Dargah Sareef Hajrat Saah Gulam Jilani Rah",
        "main_category": "Mosque",
        "address": "Dargah Sareef Hajrat Saah Gulam Jilani Rah, 642/6, Quilla Rd, quilla Mohalla, Rohtak, Haryana 124001",
        "detailed_address": {
            "ward": "quilla Mohalla",
            "street": "642/6, Quilla Rd",
            "city": "Rohtak",
            "postal_code": "124001",
            "state": "Haryana",
            "country_code": "IN"
        },
        "images": [
            {
                "about": "All",
                "link": "//lh3.googleusercontent.com/1GFKBfy270X8xqFXMLFDo39YQ4dhZzAK5XPCIE1oNx2ONIxIkfraXrrehhCN4J5eIQ=w529-h298-k-no"
            }
        ],
        "link": "https://www.google.com/maps/place/Dargah+Sareef+Hajrat+Saah+Gulam+Jilani+Rah/data=!4m7!3m6!1s0x390d85bc7b9978f9:0x806da633a78e54ee!8m2!3d28.8990675!4d76.5801787!16s%2Fg%2F11c2pldg17!19sChIJ-XiZe7yFDTkR7lSOpzOmbYA?authuser=0&hl=en&rclk=1",
        "coordinates": {
            "latitude": 28.899067499999997,
            "longitude": 76.58017869999999
        }
    },
    {
        "name": "Dargah Shareef Kamal Shah",
        "main_category": "Mosque",
        "address": "VHXJ+W2J Dargah Shareef Kamal Shah, Patang Wali Gali, Quilla Rd, Rohtak, Haryana 124001",
        "detailed_address": {
            "ward": "Salara Mohalla, Babra Mohalla",
            "street": "VHXJ+W2J, Patang Wali Gali, Quilla Rd",
            "city": "Rohtak",
            "postal_code": "124001",
            "state": "Haryana",
            "country_code": "IN"
        },
        "images": [
            {
                "about": "All",
                "link": "//lh4.googleusercontent.com/vDIscorx4PwBY2gQxASB8IsewxOgDcmbj_Cp9vCqNpppoVGFo-Yf5m3IkgXhE5M=w529-h298-k-no"
            }
        ],
        "link": "https://www.google.com/maps/place/Dargah+Shareef+Kamal+Shah/data=!4m7!3m6!1s0x390d85bc67b0a59b:0xd1b8b6792979e3b!8m2!3d28.8998397!4d76.5800033!16s%2Fg%2F11c602stq4!19sChIJm6WwZ7yFDTkRO56XkmeLGw0?authuser=0&hl=en&rclk=1",
        "coordinates": {
            "latitude": 28.899839699999998,
            "longitude": 76.5800033
        }
    },
    {
        "name": "Masjid e Rehmania",
        "main_category": "Mosque",
        "address": "VHXH+FJC Masjid e Rehmania, Partap Chowk St, Babra Mohalla, Rohtak, Haryana 124001",
        "detailed_address": {
            "ward": "Babra Mohalla",
            "street": "VHXH+FJC, Partap Chowk St",
            "city": "Rohtak",
            "postal_code": "124001",
            "state": "Haryana",
            "country_code": "IN"
        },
        "images": [],
        "link": "https://www.google.com/maps/place/Masjid+e+Rehmania/data=!4m7!3m6!1s0x390d8546374ea845:0x799f826cb47846c1!8m2!3d28.8986865!4d76.5790194!16s%2Fg%2F11s7m0fk4g!19sChIJRahON0aFDTkRwUZ4tGyCn3k?authuser=0&hl=en&rclk=1",
        "coordinates": {
            "latitude": 28.8986865,
            "longitude": 76.57901939999999
        }
    }
]