[
    {
        "name": "Masjid Banur",
        "main_category": "Religious organization",
        "address": "HP3C+2PH Masjid Banur, Banur, Punjab 140601",
        "detailed_address": {
            "ward": null,
            "street": "HP3C+2PH",
            "city": "Banur",
            "postal_code": "140601",
            "state": "Punjab",
            "country_code": "IN"
        },
        "images": [
            {
                "about": "All",
                "link": "https://lh5.googleusercontent.com/p/AF1QipM0XvcxKN97LD_0D93TKN_czYO2yVtxfBjpqyi7=w529-h298-k-no"
            },
            {
                "about": "Videos",
                "link": "https://lh5.googleusercontent.com/p/AF1QipO_6wcqIZa6CLuS0PvxLvqSb5p60fOiBiNj-h_l=w224-h398-k-no"
            }
        ],
        "link": "https://www.google.com/maps/place/Masjid+Banur/data=!4m7!3m6!1s0x390fc23cd46951d3:0x3f310065dd26312e!8m2!3d30.552551!4d76.7218629!16s%2Fg%2F11d_8xw60m!19sChIJ01Fp1DzCDzkRLjEm3WUAMT8?authuser=0&hl=en&rclk=1",
        "coordinates": {
            "latitude": 30.552550999999998,
            "longitude": 76.72186289999999
        }
    },
    {
        "name": "Old Masjid",
        "main_category": "Mosque",
        "address": "HP2C+HFM Old Masjid, Banur, Punjab 140601",
        "detailed_address": {
            "ward": null,
            "street": "HP2C+HFM",
            "city": "Banur",
            "postal_code": "140601",
            "state": "Punjab",
            "country_code": "IN"
        },
        "images": [
            {
                "about": "All",
                "link": "https://lh5.googleusercontent.com/p/AF1QipP3h2G1biJXZx6oIepMFHNa6OKvkPL2qtlRapCM=w397-h298-k-no"
            }
        ],
        "link": "https://www.google.com/maps/place/Old+Masjid/data=!4m7!3m6!1s0x390fc23cc70fc8d7:0x34ea9093393f21e1!8m2!3d30.5514746!4d76.7211656!16s%2Fg%2F11dfnn017b!19sChIJ18gPxzzCDzkR4SE_OZOQ6jQ?authuser=0&hl=en&rclk=1",
        "coordinates": {
            "latitude": 30.5514746,
            "longitude": 76.72116559999999
        }
    },
    {
        "name": "Aashya Jama Masjid",
        "main_category": "Mosque",
        "address": "HP57+JM6 Aashya Jama Masjid, Bandian Bassi, Banur, Punjab 140601",
        "detailed_address": {
            "ward": "Bandian Bassi",
            "street": "HP57+JM6",
            "city": "Banur",
            "postal_code": "140601",
            "state": "Punjab",
            "country_code": "IN"
        },
        "images": [
            {
                "about": "All",
                "link": "https://lh5.googleusercontent.com/p/AF1QipPL1jL8UusU54Ym-Q0hqGdbQr9irUe4T_XJcu-_=w528-h298-k-no"
            },
            {
                "about": "Videos",
                "link": "https://lh5.googleusercontent.com/p/AF1QipPeuespd0Xg4NPL6-KlLVyEsb5Ey9CZlhjHl6Fd=w529-h298-k-no"
            }
        ],
        "link": "https://www.google.com/maps/place/Aashya+Jama+Masjid/data=!4m7!3m6!1s0x390fc3a9300944f9:0xaf2b9de6ebbc1614!8m2!3d30.5590263!4d76.7141286!16s%2Fg%2F11g4l7rw1j!19sChIJ-UQJMKnDDzkRFBa86-adK68?authuser=0&hl=en&rclk=1",
        "coordinates": {
            "latitude": 30.5590263,
            "longitude": 76.7141286
        }
    },
    {
        "name": "Masjid Bandian Bassi Banur",
        "main_category": "Religious institution",
        "address": "HP57+HPP Masjid Bandian Bassi Banur, Bandian Bassi, Banur, Punjab 140601",
        "detailed_address": {
            "ward": "Bandian Bassi",
            "street": "HP57+HPP",
            "city": "Banur",
            "postal_code": "140601",
            "state": "Punjab",
            "country_code": "IN"
        },
        "images": [
            {
                "about": "All",
                "link": "https://lh5.googleusercontent.com/p/AF1QipMXX2cFXkg1jqtccEA0cI9L2dV2kuyxsY56hrhW=w224-h398-k-no"
            },
            {
                "about": "Videos",
                "link": "https://lh5.googleusercontent.com/p/AF1QipMxKu-il9QiQxbt-i36w9TzEbiX_I06qPlb6z4D=w224-h398-k-no"
            }
        ],
        "link": "https://www.google.com/maps/place/Masjid+Bandian+Bassi+Banur/data=!4m7!3m6!1s0x390fc21442e0fdd1:0xcce2a11d84e6631f!8m2!3d30.5589651!4d76.7143224!16s%2Fg%2F11fy7cb0xw!19sChIJ0f3gQhTCDzkRH2PmhB2h4sw?authuser=0&hl=en&rclk=1",
        "coordinates": {
            "latitude": 30.558965099999998,
            "longitude": 76.7143224
        }
    }
]