[
    {
        "name": "Jama Masjid Bhandaridih",
        "main_category": "Mosque",
        "address": "57RW+3F5 Jama Masjid Bhandaridih, Main Rd, Bhandaridih, Giridih, Jharkhand 815301",
        "detailed_address": {
            "ward": "Bhandaridih",
            "street": "57RW+3F5, Main Rd",
            "city": "Giridih",
            "postal_code": "815301",
            "state": "Jharkhand",
            "country_code": "IN"
        },
        "images": [
            {
                "about": "All",
                "link": "https://lh5.googleusercontent.com/p/AF1QipOvakfrIsAsljXDi4o3ma2k2D0UoxjEbtksAzx9=w224-h398-k-no"
            },
            {
                "about": "Street View & 360deg",
                "link": "https://streetviewpixels-pa.googleapis.com/v1/thumbnail?panoid=y5RzkbU5WzijmJ_KJDtodA&cb_client=maps_sv.tactile.gps&w=224&h=298&yaw=10.219122&pitch=0&thumbfov=100"
            },
            {
                "about": "Videos",
                "link": "https://lh5.googleusercontent.com/p/AF1QipP1l9ookchP0OybcTemcqnCIAGfy-rX3otrLulu=w224-h398-k-no"
            }
        ],
        "link": "https://www.google.com/maps/place/Jama+Masjid+Bhandaridih/data=!4m7!3m6!1s0x39f155d4c6a1bc91:0x52279dca92aaa0b0!8m2!3d24.1901383!4d86.2962207!16s%2Fg%2F1tdl93qt!19sChIJkbyhxtRV8TkRsKCqksqdJ1I?authuser=0&hl=en&rclk=1",
        "coordinates": {
            "latitude": 24.190138299999997,
            "longitude": 86.29622069999999
        }
    },
    {
        "name": "Ghousulwara Line Masjid",
        "main_category": "Mosque",
        "address": "58M5+JGV Ghousulwara Line Masjid, Station Rd, Giridih, Jharkhand 815301",
        "detailed_address": {
            "ward": null,
            "street": "58M5+JGV, Station Rd",
            "city": "Giridih",
            "postal_code": "815301",
            "state": "Jharkhand",
            "country_code": "IN"
        },
        "images": [
            {
                "about": "All",
                "link": "https://lh5.googleusercontent.com/p/AF1QipOyVhV_4S5G57zliWNIXyGl1tLF6w15Rn4OHvbs=w528-h298-k-no"
            },
            {
                "about": "Street View & 360deg",
                "link": "https://streetviewpixels-pa.googleapis.com/v1/thumbnail?panoid=6X8xmI5vMMYP5rWNqO26mw&cb_client=maps_sv.tactile.gps&w=224&h=298&yaw=60.840866&pitch=0&thumbfov=100"
            },
            {
                "about": "Videos",
                "link": "https://lh5.googleusercontent.com/p/AF1QipMYgn4tFU1NtopEpgTZ1C9J7xp9vViumoVOi2I=w397-h298-k-no"
            }
        ],
        "link": "https://www.google.com/maps/place/Ghousulwara+Line+Masjid/data=!4m7!3m6!1s0x39f154253dfcc1ff:0x21fb6b43a749da0f!8m2!3d24.1841227!4d86.3088088!16s%2Fg%2F12618c7_x!19sChIJ_8H8PSVU8TkRD9pJp0Nr-yE?authuser=0&hl=en&rclk=1",
        "coordinates": {
            "latitude": 24.1841227,
            "longitude": 86.3088088
        }
    },
    {
        "name": "Koldiha Masjid",
        "main_category": "Mosque",
        "address": "57GW+F8X Koldiha Masjid, Kuldiha, Giridih, Jharkhand 815301",
        "detailed_address": {
            "ward": "Kuldiha",
            "street": "57GW+F8X",
            "city": "Giridih",
            "postal_code": "815301",
            "state": "Jharkhand",
            "country_code": "IN"
        },
        "images": [
            {
                "about": "All",
                "link": "https://lh5.googleusercontent.com/p/AF1QipO6Xlw3mJFy48ibwDArXgPS7Wlb5Ax-zcpb9CFf=w529-h298-k-no"
            },
            {
                "about": "Street View & 360deg",
                "link": "https://streetviewpixels-pa.googleapis.com/v1/thumbnail?panoid=f0vfOlN0Up_N-mdCvaLzPA&cb_client=maps_sv.tactile.gps&w=224&h=298&yaw=174.09702&pitch=0&thumbfov=100"
            },
            {
                "about": "Videos",
                "link": "https://lh5.googleusercontent.com/p/AF1QipNbc5_9yGAR4QGFoklpI08CVaDyweAze8--A2jL=w529-h298-k-no"
            }
        ],
        "link": "https://www.google.com/maps/place/Koldiha+Masjid/data=!4m7!3m6!1s0x39f155cb5e2caa37:0xecdb5a58b0ade05!8m2!3d24.1762322!4d86.2958656!16s%2Fg%2F11g7z0hg24!19sChIJN6osXstV8TkRBd4Ki6W1zQ4?authuser=0&hl=en&rclk=1",
        "coordinates": {
            "latitude": 24.176232199999998,
            "longitude": 86.2958656
        }
    },
    {
        "name": "Mohanpur Masjid",
        "main_category": "Mosque",
        "address": "Mohanpur Masjid, Forest Colony, Mohanpur, Giridih, Jharkhand 815316",
        "detailed_address": {
            "ward": "Forest Colony",
            "street": null,
            "city": "Mohanpur, Giridih",
            "postal_code": "815316",
            "state": "Jharkhand",
            "country_code": "IN"
        },
        "images": [
            {
                "about": "All",
                "link": "https://lh5.googleusercontent.com/p/AF1QipNsPjAjSn7u-Xr5JGcw4fpYxmfYJje5DI_GvDKb=w397-h298-k-no"
            },
            {
                "about": "Street View & 360deg",
                "link": "https://streetviewpixels-pa.googleapis.com/v1/thumbnail?panoid=oDQSqRK4DWBcu5ywbWq6bw&cb_client=maps_sv.tactile.gps&w=224&h=298&yaw=46.650074&pitch=0&thumbfov=100"
            },
            {
                "about": "Videos",
                "link": "https://lh5.googleusercontent.com/p/AF1QipMSzyAVh0m_GvaTEI-zlwWPDBhTOgOVKyARaLec=w529-h298-k-no"
            }
        ],
        "link": "https://www.google.com/maps/place/Mohanpur+Masjid/data=!4m7!3m6!1s0x39f1567813df0643:0x1d27805706f6add2!8m2!3d24.1951499!4d86.2879971!16s%2Fg%2F11c32g0_5n!19sChIJQwbfE3hW8TkR0q32BleAJx0?authuser=0&hl=en&rclk=1",
        "coordinates": {
            "latitude": 24.1951499,
            "longitude": 86.2879971
        }
    },
    {
        "name": "Makkah Masjid",
        "main_category": "Mosque",
        "address": "57VW+8J3 Makkah Masjid, New Road, Bhandaridih, Giridih, Jharkhand 815301",
        "detailed_address": {
            "ward": "Bhandaridih",
            "street": "57VW+8J3, New Road",
            "city": "Giridih",
            "postal_code": "815301",
            "state": "Jharkhand",
            "country_code": "IN"
        },
        "images": [
            {
                "about": "All",
                "link": "https://lh5.googleusercontent.com/p/AF1QipNmG5_v9Gm7-nAmSVaGnkmGKkilH50i0xWEXANw=w397-h298-k-no"
            },
            {
                "about": "Street View & 360deg",
                "link": "https://streetviewpixels-pa.googleapis.com/v1/thumbnail?panoid=Bf3LGzpIslppygTNdixgZg&cb_client=maps_sv.tactile.gps&w=224&h=298&yaw=116.83758&pitch=0&thumbfov=100"
            },
            {
                "about": "Videos",
                "link": "https://lh5.googleusercontent.com/p/AF1QipOAwgbWu712-edfftF9xhHEo8UA8cmCFrC3skr-=w224-h407-k-no"
            }
        ],
        "link": "https://www.google.com/maps/place/Makkah+Masjid/data=!4m7!3m6!1s0x39f155d54f12cff9:0xcaf20f4548c4393!8m2!3d24.1932724!4d86.2965438!16s%2Fg%2F11dft1rny9!19sChIJ-c8ST9VV8TkRk0OMVPQgrww?authuser=0&hl=en&rclk=1",
        "coordinates": {
            "latitude": 24.193272399999998,
            "longitude": 86.2965438
        }
    },
    {
        "name": "Ahle hadees masjid",
        "main_category": "Mosque",
        "address": "58J5+WQ4 Ahle hadees masjid, Giridih, Jharkhand 815301",
        "detailed_address": {
            "ward": null,
            "street": "58J5+WQ4",
            "city": "Giridih",
            "postal_code": null,
            "state": "Jharkhand",
            "country_code": "IN"
        },
        "images": [
            {
                "about": "All",
                "link": "https://lh5.googleusercontent.com/p/AF1QipOLh88Yx_9HAlLO7sMNg-JzFFwMdUfixyWuzqrc=w298-h298-k-no"
            }
        ],
        "link": "https://www.google.com/maps/place/Ahle+hadees+masjid/data=!4m7!3m6!1s0x39f155a172797311:0xf771f529a4eb9ace!8m2!3d24.1822637!4d86.3094591!16s%2Fg%2F11hdxgwg7z!19sChIJEXN5cqFV8TkRzprrpCn1cfc?authuser=0&hl=en&rclk=1",
        "coordinates": {
            "latitude": 24.1822637,
            "longitude": 86.3094591
        }
    },
    {
        "name": "Madina Masjid Barwadih",
        "main_category": "Mosque",
        "address": "58C8+2MH Madina Masjid Barwadih, Giridih, Jharkhand 815301",
        "detailed_address": {
            "ward": null,
            "street": "58C8+2MH",
            "city": "Giridih",
            "postal_code": "815301",
            "state": "Jharkhand",
            "country_code": "IN"
        },
        "images": [
            {
                "about": "All",
                "link": "https://lh5.googleusercontent.com/p/AF1QipMmXhKgANHqKGwavM-ky6T-cPT7UfC3oZUdFJfS=w224-h398-k-no"
            }
        ],
        "link": "https://www.google.com/maps/place/Madina+Masjid+Barwadih/data=!4m7!3m6!1s0x39f15440107dbb1b:0xc0aa258a18206b78!8m2!3d24.1700665!4d86.3167312!16s%2Fg%2F11c2nvhcn5!19sChIJG7t9EEBU8TkReGsgGIolqsA?authuser=0&hl=en&rclk=1",
        "coordinates": {
            "latitude": 24.170066499999997,
            "longitude": 86.31673119999999
        }
    },
    {
        "name": "AL-Habib Raza masjid Sunni",
        "main_category": "Mosque",
        "address": "57RW+XVR AL-Habib Raza masjid Sunni, Bhandaridih, Giridih, Jharkhand 815301",
        "detailed_address": {
            "ward": "Bhandaridih",
            "street": "57RW+XVR",
            "city": "Giridih",
            "postal_code": "815301",
            "state": "Jharkhand",
            "country_code": "IN"
        },
        "images": [
            {
                "about": "All",
                "link": "https://lh5.googleusercontent.com/p/AF1QipNkDJ7QZgksfy6tc_h3AvDJYGL5aw1DcWkQn0WI=w397-h298-k-no"
            }
        ],
        "link": "https://www.google.com/maps/place/AL-Habib+Raza+masjid+Sunni/data=!4m7!3m6!1s0x39f1542acb490685:0xe6c46a116cb47c37!8m2!3d24.1924821!4d86.2971278!16s%2Fg%2F11dxd0hnyc!19sChIJhQZJyypU8TkRN3y0bBFqxOY?authuser=0&hl=en&rclk=1",
        "coordinates": {
            "latitude": 24.1924821,
            "longitude": 86.2971278
        }
    },
    {
        "name": "Moti Masjid , Budhiakhad.",
        "main_category": "Mosque",
        "address": "5868+3V8 Moti Masjid , Budhiakhad., Budhiakhad Rd, Giridih, Jharkhand 815301",
        "detailed_address": {
            "ward": null,
            "street": "5868+3V8, Budhiakhad Rd",
            "city": "Giridih",
            "postal_code": "815301",
            "state": "Jharkhand",
            "country_code": "IN"
        },
        "images": [
            {
                "about": "All",
                "link": "https://lh5.googleusercontent.com/p/AF1QipODZV5zZBUFaYdWGsp2NdXAFmCxXuP7JqpFi3Qw=w298-h298-k-no"
            },
            {
                "about": "Videos",
                "link": "https://lh5.googleusercontent.com/p/AF1QipOOTFiwIWpFmAAQq2R-6SerfIzY9KJ4U2uk_aOo=w224-h407-k-no"
            }
        ],
        "link": "https://www.google.com/maps/place/Moti+Masjid+,+Budhiakhad./data=!4m7!3m6!1s0x39f15442a75a70af:0x543f222bdb25913d!8m2!3d24.1601693!4d86.317203!16s%2Fg%2F11c6crz2cz!19sChIJr3Bap0JU8TkRPZEl2ysiP1Q?authuser=0&hl=en&rclk=1",
        "coordinates": {
            "latitude": 24.1601693,
            "longitude": 86.31720299999999
        }
    },
    {
        "name": "Purani masjid 6 No.",
        "main_category": "Mosque",
        "address": "57MV+J5W Purani masjid 6 No., Unnamed Road, Buxidih, Giridih, Pasrabahiar, Jharkhand 815301",
        "detailed_address": {
            "ward": "Buxidih",
            "street": "57MV+J5W, Unnamed Road",
            "city": "Giridih, Pasrabahiar",
            "postal_code": "815301",
            "state": "Jharkhand",
            "country_code": "IN"
        },
        "images": [
            {
                "about": "All",
                "link": "https://lh5.googleusercontent.com/p/AF1QipMsbySJBImsutrISvcEH6KkkxUvuC5tmjwazBjH=w660-h298-k-no"
            },
            {
                "about": "Latest",
                "link": "https://lh5.googleusercontent.com/p/AF1QipMmG8gd8jvx4C8i0ecR4T38ybln_NJQNGB-qynm=w298-h298-k-no"
            },
            {
                "about": "Videos",
                "link": "https://lh5.googleusercontent.com/p/AF1QipNNs_qVdMD6bZ69knrGwhnsS1Qtw2HJZ24jiuaR=w224-h407-k-no"
            }
        ],
        "link": "https://www.google.com/maps/place/Purani+masjid+6+No./data=!4m7!3m6!1s0x39f155ae8e5e706d:0x74c1c6f8f440d933!8m2!3d24.184105!4d86.2929534!16s%2Fg%2F11ffk9lbl7!19sChIJbXBejq5V8TkRM9lA9PjGwXQ?authuser=0&hl=en&rclk=1",
        "coordinates": {
            "latitude": 24.184105,
            "longitude": 86.2929534
        }
    },
    {
        "name": "Noorani Masjid",
        "main_category": "Mosque",
        "address": "57PW+C9P Noorani Masjid, Bus Stand Rd, Azad Nagar, Bhandaridih, Giridih, Jharkhand 815301",
        "detailed_address": {
            "ward": "Azad Nagar, Bhandaridih",
            "street": "57PW+C9P, Bus Stand Rd",
            "city": "Giridih",
            "postal_code": "815301",
            "state": "Jharkhand",
            "country_code": "IN"
        },
        "images": [
            {
                "about": "All",
                "link": "https://lh5.googleusercontent.com/p/AF1QipMljcemd4oxwUpHPXRLffunAfOMQeL2nJj5o2-g=w224-h398-k-no"
            }
        ],
        "link": "https://www.google.com/maps/place/Noorani+Masjid/data=!4m7!3m6!1s0x39f155d324db26b5:0xc0e0327df4de6d56!8m2!3d24.1860865!4d86.2959434!16s%2Fg%2F11f3csw7wc!19sChIJtSbbJNNV8TkRVm3e9H0y4MA?authuser=0&hl=en&rclk=1",
        "coordinates": {
            "latitude": 24.1860865,
            "longitude": 86.2959434
        }
    },
    {
        "name": "Masjid-e-ghosia",
        "main_category": "Mosque",
        "address": "58H3+PH4 Masjid-e-ghosia, Paratdih, Giridih, Jharkhand 815301",
        "detailed_address": {
            "ward": "Paratdih",
            "street": "58H3+PH4",
            "city": "Giridih",
            "postal_code": "815301",
            "state": "Jharkhand",
            "country_code": "IN"
        },
        "images": [
            {
                "about": "All",
                "link": "https://lh5.googleusercontent.com/p/AF1QipPOg3E7uekTzS69ikC52VTM1jTMbNaStTuz6znp=w397-h298-k-no"
            }
        ],
        "link": "https://www.google.com/maps/place/Masjid-e-ghosia/data=!4m7!3m6!1s0x39f1555df5c6a065:0xb5656f12c01bbca7!8m2!3d24.1792632!4d86.3039411!16s%2Fg%2F11fnw04v1p!19sChIJZaDG9V1V8TkRp7wbwBJvZbU?authuser=0&hl=en&rclk=1",
        "coordinates": {
            "latitude": 24.179263199999998,
            "longitude": 86.3039411
        }
    },
    {
        "name": "Darzi Mohalla Masjid",
        "main_category": "Mosque",
        "address": "58H7+H78 Darzi Mohalla Masjid, Giridih, Jharkhand 815301",
        "detailed_address": {
            "ward": null,
            "street": "58H7+H78",
            "city": "Giridih",
            "postal_code": "815301",
            "state": "Jharkhand",
            "country_code": "IN"
        },
        "images": [
            {
                "about": "All",
                "link": "https://lh5.googleusercontent.com/p/AF1QipPZ6VWnJQEHKf8irNdzOHIABlVRtjY9BF0HCmOT=w529-h298-k-no"
            }
        ],
        "link": "https://www.google.com/maps/place/Darzi+Mohalla+Masjid/data=!4m7!3m6!1s0x39f1543c6f1a38a5:0x33958a0d8890ba47!8m2!3d24.1789142!4d86.3131944!16s%2Fg%2F12q4vp_y1!19sChIJpTgabzxU8TkRR7qQiA2KlTM?authuser=0&hl=en&rclk=1",
        "coordinates": {
            "latitude": 24.178914199999998,
            "longitude": 86.3131944
        }
    },
    {
        "name": "Noori Jama Masjid",
        "main_category": "Mosque",
        "address": "57VQ+X42 Noori Jama Masjid, Kodarma - Giridih - Tundi - Gobindpur Rd, Forest Colony, Giridih, Jharkhand 815311",
        "detailed_address": {
            "ward": "Forest Colony",
            "street": "57VQ+X42, Kodarma - Giridih - Tundi - Gobindpur Rd",
            "city": "Giridih",
            "postal_code": "815311",
            "state": "Jharkhand",
            "country_code": "IN"
        },
        "images": [
            {
                "about": "All",
                "link": "https://lh5.googleusercontent.com/p/AF1QipNlgaiYk-1ARAoo3wJqbSxr_ajPKR0oaxrIJ8ij=w224-h298-k-no"
            },
            {
                "about": "Street View & 360deg",
                "link": "https://streetviewpixels-pa.googleapis.com/v1/thumbnail?panoid=zgs1aSrrGzArLJqsBXkptQ&cb_client=maps_sv.tactile.gps&w=224&h=298&yaw=122.5543&pitch=0&thumbfov=100"
            },
            {
                "about": "Videos",
                "link": "https://lh5.googleusercontent.com/p/AF1QipMX6ak1_Nwl005s_-UDK7YtYG3khGg0BtAFarkE=w224-h403-k-no"
            }
        ],
        "link": "https://www.google.com/maps/place/Noori+Jama+Masjid/data=!4m7!3m6!1s0x39f1567811b3eac3:0x5412ace7bc92ab75!8m2!3d24.1948935!4d86.2877588!16s%2Fg%2F11c1v24mj2!19sChIJw-qzEXhW8TkRdauSvOesElQ?authuser=0&hl=en&rclk=1",
        "coordinates": {
            "latitude": 24.1948935,
            "longitude": 86.28775879999999
        }
    },
    {
        "name": "Masjid-E-Taiyaba",
        "main_category": "Mosque",
        "address": "57XC+CQH Masjid-E-Taiyaba, Alkapuri, Bishunpur, Giridih, Jharkhand 815311",
        "detailed_address": {
            "ward": "Alkapuri",
            "street": "57XC+CQH",
            "city": "Bishunpur, Giridih",
            "postal_code": "815311",
            "state": "Jharkhand",
            "country_code": "IN"
        },
        "images": [
            {
                "about": "All",
                "link": "https://lh5.googleusercontent.com/p/AF1QipNtEocWrb-uC-88Vv0AK1bA5dPqeuq31jR7yKff=w298-h298-k-no"
            },
            {
                "about": "Videos",
                "link": "https://lh5.googleusercontent.com/p/AF1QipP4eRe6rBr02WHsrTIiiLbh9-mWMbiUfDxB1e43=w224-h398-k-no"
            }
        ],
        "link": "https://www.google.com/maps/place/Masjid-E-Taiyaba/data=!4m7!3m6!1s0x39f1560be38b241f:0x4f539ba7e752931d!8m2!3d24.198566!4d86.271986!16s%2Fg%2F11cjhhp3lc!19sChIJHySL4wtW8TkRHZNS56ebU08?authuser=0&hl=en&rclk=1",
        "coordinates": {
            "latitude": 24.198566,
            "longitude": 86.271986
        }
    },
    {
        "name": "Masjid-e-Abu Bakr",
        "main_category": "Mosque",
        "address": "57GX+F3V Masjid-e-Abu Bakr, Talavpatti, Koldiha, Giridih, Jharkhand 815301",
        "detailed_address": {
            "ward": "Koldiha",
            "street": "57GX+F3V, Talavpatti",
            "city": "Giridih",
            "postal_code": null,
            "state": "Jharkhand",
            "country_code": "IN"
        },
        "images": [],
        "link": "https://www.google.com/maps/place/Masjid-e-Abu+Bakr/data=!4m7!3m6!1s0x39f155699199a41f:0x40aea54072a1ce28!8m2!3d24.176233!4d86.2976601!16s%2Fg%2F11g0hjkl_b!19sChIJH6SZkWlV8TkRKM6hckClrkA?authuser=0&hl=en&rclk=1",
        "coordinates": {
            "latitude": 24.176233,
            "longitude": 86.2976601
        }
    },
    {
        "name": "Masjid E Rasheed",
        "main_category": "Mosque",
        "address": "57RV+MX8 Masjid E Rasheed, Bhandaridih, Giridih, Jharkhand 815301",
        "detailed_address": {
            "ward": "Bhandaridih",
            "street": "57RV+MX8",
            "city": "Giridih",
            "postal_code": "815301",
            "state": "Jharkhand",
            "country_code": "IN"
        },
        "images": [
            {
                "about": "All",
                "link": "https://streetviewpixels-pa.googleapis.com/v1/thumbnail?panoid=hDkkvW4C3dcS2iqJ47I6QA&cb_client=maps_sv.tactile.gps&w=224&h=298&yaw=121.63855&pitch=0&thumbfov=100"
            },
            {
                "about": "Street View & 360deg",
                "link": "https://streetviewpixels-pa.googleapis.com/v1/thumbnail?panoid=hDkkvW4C3dcS2iqJ47I6QA&cb_client=maps_sv.tactile.gps&w=224&h=298&yaw=121.63855&pitch=0&thumbfov=100"
            }
        ],
        "link": "https://www.google.com/maps/place/Masjid+E+Rasheed/data=!4m7!3m6!1s0x39f1556252e03a49:0x5de935255be77d88!8m2!3d24.1916581!4d86.2949657!16s%2Fg%2F11gw1kncpv!19sChIJSTrgUmJV8TkRiH3nWyU16V0?authuser=0&hl=en&rclk=1",
        "coordinates": {
            "latitude": 24.191658099999998,
            "longitude": 86.29496569999999
        }
    },
    {
        "name": "Jama Masjid",
        "main_category": "Mosque",
        "address": "58J6+945 Jama Masjid, Mathadih, Giridih, Jharkhand 815301",
        "detailed_address": {
            "ward": null,
            "street": "58J6+945",
            "city": "Mathadih, Giridih",
            "postal_code": "815301",
            "state": "Jharkhand",
            "country_code": "IN"
        },
        "images": [],
        "link": "https://www.google.com/maps/place/Jama+Masjid/data=!4m7!3m6!1s0x39f155aa3eb14517:0x30ef923df49cc940!8m2!3d24.1811328!4d86.3106069!16s%2Fg%2F11k9p6dwtj!19sChIJF0WxPqpV8TkRQMmc9D2S7zA?authuser=0&hl=en&rclk=1",
        "coordinates": {
            "latitude": 24.1811328,
            "longitude": 86.3106069
        }
    },
    {
        "name": "Jama Masjid Ahle Hadees Koyridih",
        "main_category": "Mosque",
        "address": "Jama Masjid Ahle Hadees Koyridih, Unnamed Road, Shastri Nagar, Koiridih, Giridih, Jharkhand 815352",
        "detailed_address": {
            "ward": "Shastri Nagar",
            "street": "Unnamed Road",
            "city": "Koiridih, Giridih",
            "postal_code": "815352",
            "state": "Jharkhand",
            "country_code": "IN"
        },
        "images": [],
        "link": "https://www.google.com/maps/place/Jama+Masjid+Ahle+Hadees+Koyridih/data=!4m7!3m6!1s0x39f14bddaadcab0f:0xd9a761dd3dfa5987!8m2!3d24.19135!4d86.2996368!16s%2Fg%2F11h7c9l86v!19sChIJD6vcqt1L8TkRh1n6Pd1hp9k?authuser=0&hl=en&rclk=1",
        "coordinates": {
            "latitude": 24.19135,
            "longitude": 86.2996368
        }
    },
    {
        "name": "Bhandaridih masjid",
        "main_category": "Mosque",
        "address": "57QW+CMX Bhandaridih masjid, Buxidih, Giridih, Jharkhand 815301",
        "detailed_address": {
            "ward": "Buxidih",
            "street": "57QW+CMX",
            "city": "Giridih",
            "postal_code": "815301",
            "state": "Jharkhand",
            "country_code": "IN"
        },
        "images": [
            {
                "about": "All",
                "link": "https://streetviewpixels-pa.googleapis.com/v1/thumbnail?panoid=4orK7aHIxDGAavltxVvv5Q&cb_client=maps_sv.tactile.gps&w=224&h=298&yaw=310.9386&pitch=0&thumbfov=100"
            },
            {
                "about": "Street View & 360deg",
                "link": "https://streetviewpixels-pa.googleapis.com/v1/thumbnail?panoid=4orK7aHIxDGAavltxVvv5Q&cb_client=maps_sv.tactile.gps&w=224&h=298&yaw=310.9386&pitch=0&thumbfov=100"
            }
        ],
        "link": "https://www.google.com/maps/place/Bhandaridih+masjid/data=!4m7!3m6!1s0x39f15559f08d6b0d:0x9aa263801989c55d!8m2!3d24.188643!4d86.2967369!16s%2Fg%2F11rvfw9qp7!19sChIJDWuN8FlV8TkRXcWJGYBjopo?authuser=0&hl=en&rclk=1",
        "coordinates": {
            "latitude": 24.188643,
            "longitude": 86.2967369
        }
    }
]