[
    {
        "name": "Hazrat Amirpir Dargah Sharif",
        "main_category": "Mosque",
        "address": "693Q+M58 Hazrat Amirpir Dargah Sharif, Mota Bhadukiya Rd, Panjetan Nagar, Kalavad, Gujarat 361160",
        "detailed_address": {
            "ward": "Panjetan Nagar",
            "street": "693Q+M58, Mota Bhadukiya Rd",
            "city": "Kalavad",
            "postal_code": "361160",
            "state": "Gujarat",
            "country_code": "IN"
        },
        "images": [
            {
                "about": "All",
                "link": "https://lh5.googleusercontent.com/p/AF1QipPx5id_ASVkk7OwEMcjMq_ON__r_kjOwcwqON8F=w298-h298-k-no"
            },
            {
                "about": "Dome",
                "link": "https://lh5.googleusercontent.com/p/AF1QipMFoG2KFaKnsZcG7WGJuX7zTLEouujyxTq_eYdU=w397-h298-k-no"
            },
            {
                "about": "Videos",
                "link": "https://lh5.googleusercontent.com/p/AF1QipPJnMC0msZraQYB9_JoRh0sTi2V1ERcmuUI8Too=w298-h298-k-no"
            }
        ],
        "link": "https://www.google.com/maps/place/Hazrat+Amirpir+Dargah+Sharif/data=!4m7!3m6!1s0x39577fab0d7e3421:0x21c41bb81d3302d0!8m2!3d22.204172!4d70.3879532!16s%2Fg%2F1hm5m4snw!19sChIJITR-Dat_VzkR0AIzHbgbxCE?authuser=0&hl=en&rclk=1",
        "coordinates": {
            "latitude": 22.204172,
            "longitude": 70.3879532
        }
    },
    {
        "name": "Jumma Masjid kalavad (jm`@msjd)",
        "main_category": "Mosque",
        "address": "695M+P8R Jumma Masjid kalavad (jm`@msjd), Kalavad, Gujarat 361160",
        "detailed_address": {
            "ward": null,
            "street": "695M+P8R",
            "city": "Kalavad",
            "postal_code": "361160",
            "state": "Gujarat",
            "country_code": "IN"
        },
        "images": [
            {
                "about": "All",
                "link": "https://lh5.googleusercontent.com/p/AF1QipNK1-IiUp7d6gRLfkphdHAXO6pE0c9rqX3pkt2e=w224-h398-k-no"
            },
            {
                "about": "Videos",
                "link": "https://lh5.googleusercontent.com/p/AF1QipMT8L9MDW5wXgkQXDrzTT9tdof7rH5Hg790XP52=w529-h298-k-no"
            }
        ],
        "link": "https://www.google.com/maps/place/Jumma+Masjid+kalavad+%28%D8%AC%D9%85%D8%B9%D8%A9%D9%85%D8%B3%D8%AC%D8%AF%29%E2%80%AD/data=!4m7!3m6!1s0x39577f58ffb431a9:0xf5cc0ced14086bbe!8m2!3d22.2093592!4d70.3832597!16s%2Fg%2F11gnsqd79n!19sChIJqTG0_1h_VzkRvmsIFO0MzPU?authuser=0&hl=en&rclk=1",
        "coordinates": {
            "latitude": 22.209359199999998,
            "longitude": 70.3832597
        }
    },
    {
        "name": "Usmaniya masjid (kalavad)",
        "main_category": "Mosque",
        "address": "696J+2W5 Usmaniya masjid (kalavad), Kalavad, Gujarat 361160",
        "detailed_address": {
            "ward": null,
            "street": "696J+2W5",
            "city": "Kalavad",
            "postal_code": "361160",
            "state": "Gujarat",
            "country_code": "IN"
        },
        "images": [
            {
                "about": "All",
                "link": "https://lh5.googleusercontent.com/p/AF1QipOk0cBR3JL3XriVS6jEnHEoaLv0jCww0IgngbU=w224-h485-k-no"
            },
            {
                "about": "Dome",
                "link": "https://lh5.googleusercontent.com/p/AF1QipOppAYQ3A-DRUkFqZhBGmLz7eeNpSP_DC_cBWzb=w224-h485-k-no"
            }
        ],
        "link": "https://www.google.com/maps/place/Usmaniya+masjid+%28kalavad%29/data=!4m7!3m6!1s0x39577f51c4394135:0x570ed2ff7ee81175!8m2!3d22.2100226!4d70.3823726!16s%2Fg%2F11q8vmtmy3!19sChIJNUE5xFF_VzkRdRHofv_SDlc?authuser=0&hl=en&rclk=1",
        "coordinates": {
            "latitude": 22.2100226,
            "longitude": 70.3823726
        }
    },
    {
        "name": "Eid masjid",
        "main_category": "Mosque",
        "address": "695H+CC9 Eid masjid, Kalavad, Gujarat 361160",
        "detailed_address": {
            "ward": null,
            "street": "695H+CC9",
            "city": "Kalavad",
            "postal_code": "361160",
            "state": "Gujarat",
            "country_code": "IN"
        },
        "images": [],
        "link": "https://www.google.com/maps/place/Eid+masjid/data=!4m7!3m6!1s0x39577fe94ae0ad13:0x24f7e4c9ad8ff71f!8m2!3d22.2084932!4d70.3779804!16s%2Fg%2F11jsl78b1p!19sChIJE63gSul_VzkRH_ePrcnk9yQ?authuser=0&hl=en&rclk=1",
        "coordinates": {
            "latitude": 22.2084932,
            "longitude": 70.3779804
        }
    },
    {
        "name": "Musa masjid",
        "main_category": "Mosque",
        "address": "693P+HXV Musa masjid, Panjetan Nagar, Kalavad, Gujarat 361160",
        "detailed_address": {
            "ward": "Panjetan Nagar",
            "street": "693P+HXV",
            "city": "Kalavad",
            "postal_code": "361160",
            "state": "Gujarat",
            "country_code": "IN"
        },
        "images": [],
        "link": "https://www.google.com/maps/place/Musa+masjid/data=!4m7!3m6!1s0x39577fe38c5461db:0x54cec55312c02954!8m2!3d22.2039858!4d70.3874252!16s%2Fg%2F11l59j1t6s!19sChIJ22FUjON_VzkRVCnAElPFzlQ?authuser=0&hl=en&rclk=1",
        "coordinates": {
            "latitude": 22.203985799999998,
            "longitude": 70.3874252
        }
    },
    {
        "name": "Ezzy Masjid",
        "main_category": "Mosque",
        "address": "695M+CXP Ezzy Masjid, Vhoravad, Kalavad, Gujarat 361160",
        "detailed_address": {
            "ward": "Vhoravad",
            "street": "695M+CXP",
            "city": "Kalavad",
            "postal_code": "361160",
            "state": "Gujarat",
            "country_code": "IN"
        },
        "images": [
            {
                "about": "All",
                "link": "https://lh5.googleusercontent.com/p/AF1QipPS8pmGkpRepEsKYUlZueKVwFMWhY1RxM1Wibc3=w224-h497-k-no"
            }
        ],
        "link": "https://www.google.com/maps/place/Ezzy+Masjid/data=!4m7!3m6!1s0x39577fdf8365f771:0xb44371f6fe23c3b1!8m2!3d22.2085935!4d70.3849453!16s%2Fg%2F11v5_2m0y3!19sChIJcfdlg99_VzkRscMj_vZxQ7Q?authuser=0&hl=en&rclk=1",
        "coordinates": {
            "latitude": 22.2085935,
            "longitude": 70.3849453
        }
    }
]