[
    {
        "name": "Rauze Wali Masjid",
        "main_category": "Mosque",
        "address": "Rauze Wali Masjid, 10A/58, Prayagraj, Uttar Pradesh 211019",
        "detailed_address": {
            "ward": null,
            "street": "10A/58",
            "city": "Prayagraj",
            "postal_code": "211019",
            "state": "Uttar Pradesh",
            "country_code": "IN"
        },
        "images": [
            {
                "about": "All",
                "link": "https://lh5.googleusercontent.com/p/AF1QipNSZro-3CKCwfNR46bxpFOP_nSOxgX79oVciU6e=w224-h298-k-no"
            },
            {
                "about": "Videos",
                "link": "https://lh5.googleusercontent.com/p/AF1QipNfUl2SYh6sbXwV98jeWh19kxDJjHGZfP2qheLu=w224-h407-k-no"
            }
        ],
        "link": "https://www.google.com/maps/place/Rauze+Wali+Masjid/data=!4m7!3m6!1s0x39854ada6cd8ff7d:0x3017adb249d3897!8m2!3d25.426788!4d81.9027966!16s%2Fg%2F11dfsn5vyt!19sChIJff_YbNpKhTkRlzidJNt6AQM?authuser=0&hl=en&rclk=1",
        "coordinates": {
            "latitude": 25.426788,
            "longitude": 81.9027966
        }
    },
    {
        "name": "Shahi Masjid msjd",
        "main_category": "Mosque",
        "address": "Shahi Masjid msjd, Jhusi, Prayagraj, Uttar Pradesh 211019",
        "detailed_address": {
            "ward": null,
            "street": null,
            "city": "Jhusi, Prayagraj",
            "postal_code": "211019",
            "state": "Uttar Pradesh",
            "country_code": "IN"
        },
        "images": [
            {
                "about": "All",
                "link": "https://lh5.googleusercontent.com/p/AF1QipNW9B8Xao1pTbjv7gqjvqSMnsxXxI2oB50euyN-=w397-h298-k-no"
            },
            {
                "about": "Dome",
                "link": "https://lh5.googleusercontent.com/p/AF1QipMu6rEJhTEYQO0aRnSQwg4apg-KiwFldwLLRnvB=w224-h298-k-no"
            },
            {
                "about": "Street View & 360deg",
                "link": "https://streetviewpixels-pa.googleapis.com/v1/thumbnail?panoid=wRu4I6WI0kAawH5XaQVOZg&cb_client=maps_sv.tactile.gps&w=224&h=298&yaw=27.671793&pitch=0&thumbfov=100"
            }
        ],
        "link": "https://www.google.com/maps/place/Shahi+Masjid+%D9%85%D8%B3%D8%AC%D8%AF%E2%80%AD/data=!4m7!3m6!1s0x39854ad0829a82dd:0x9844b3859327528a!8m2!3d25.4276876!4d81.9022004!16s%2Fg%2F11b90fz_bm!19sChIJ3YKagtBKhTkRilInk4WzRJg?authuser=0&hl=en&rclk=1",
        "coordinates": {
            "latitude": 25.4276876,
            "longitude": 81.9022004
        }
    },
    {
        "name": "Masjid Anwar Market",
        "main_category": "Mosque",
        "address": "CWJ5+79W Masjid Anwar Market, Jhusi, Prayagraj, Uttar Pradesh 211019",
        "detailed_address": {
            "ward": null,
            "street": "CWJ5+79W",
            "city": "Jhusi, Prayagraj",
            "postal_code": "211019",
            "state": "Uttar Pradesh",
            "country_code": "IN"
        },
        "images": [
            {
                "about": "All",
                "link": "https://lh5.googleusercontent.com/p/AF1QipMuhQ5gf9ZFDRp3xriBKlH83Wh2azrrEm3fJB6C=w224-h298-k-no"
            },
            {
                "about": "Street View & 360deg",
                "link": "https://streetviewpixels-pa.googleapis.com/v1/thumbnail?panoid=kqpBi9O9EEBUV7HIlL5gzw&cb_client=maps_sv.tactile.gps&w=224&h=298&yaw=18.034958&pitch=0&thumbfov=100"
            },
            {
                "about": "Videos",
                "link": "https://lh5.googleusercontent.com/p/AF1QipP-OGMPxVDVpY60F-PJDqS4jyzeGhqHOFG2QQmC=w224-h398-k-no"
            }
        ],
        "link": "https://www.google.com/maps/place/Masjid+Anwar+Market/data=!4m7!3m6!1s0x39854b3b743d3c95:0x8f4423621814e422!8m2!3d25.4307419!4d81.9084439!16s%2Fg%2F11mhzm9v95!19sChIJlTw9dDtLhTkRIuQUGGIjRI8?authuser=0&hl=en&rclk=1",
        "coordinates": {
            "latitude": 25.430741899999997,
            "longitude": 81.9084439
        }
    },
    {
        "name": "Yunus Masjid",
        "main_category": "Mosque",
        "address": "CWP4+VPP Yunus Masjid, New Gangeli Sivala, New Jhusi, Jhusi, Uttar Pradesh 211019",
        "detailed_address": {
            "ward": "Jhusi",
            "street": "CWP4+VPP, New Gangeli Sivala, New Jhusi",
            "city": "Jhusi, Prayagraj",
            "postal_code": "211019",
            "state": "Uttar Pradesh",
            "country_code": "IN"
        },
        "images": [
            {
                "about": "All",
                "link": "https://lh5.googleusercontent.com/p/AF1QipNBSAy4dyQ2G-6vmmDUf6K6bCbDx-ctWXrakgGR=w529-h298-k-no"
            }
        ],
        "link": "https://www.google.com/maps/place/Yunus+Masjid/data=!4m7!3m6!1s0x39854ad4fc427239:0x213803da92b0627d!8m2!3d25.4372109!4d81.906843!16s%2Fg%2F11bycl2ywd!19sChIJOXJC_NRKhTkRfWKwktoDOCE?authuser=0&hl=en&rclk=1",
        "coordinates": {
            "latitude": 25.4372109,
            "longitude": 81.906843
        }
    },
    {
        "name": "Jhunsi Masjid",
        "main_category": "Mosque",
        "address": "CWFC+FWM Jhunsi Masjid, Jhusi, Prayagraj, Uttar Pradesh 211019",
        "detailed_address": {
            "ward": null,
            "street": "CWFC+FWM",
            "city": "Jhusi, Prayagraj",
            "postal_code": "211019",
            "state": "Uttar Pradesh",
            "country_code": "IN"
        },
        "images": [
            {
                "about": "All",
                "link": "https://lh5.googleusercontent.com/p/AF1QipNg6nh8-qiJ5fONkfXuRWgrrhcDwH9JfwcqLLrt=w529-h298-k-no"
            }
        ],
        "link": "https://www.google.com/maps/place/Jhunsi+Masjid/data=!4m7!3m6!1s0x39854b3b6855994d:0xf8d851264d9ec6d6!8m2!3d25.42371!4d81.9223079!16s%2Fg%2F11fx89xs7w!19sChIJTZlVaDtLhTkR1saeTSZR2Pg?authuser=0&hl=en&rclk=1",
        "coordinates": {
            "latitude": 25.42371,
            "longitude": 81.92230789999999
        }
    },
    {
        "name": "Pathnai wali Masjid ( Raza masjid)",
        "main_category": "Mosque",
        "address": "CWG2+CXP Pathnai wali Masjid ( Raza masjid), Haveliya, Jhusi, Prayagraj, Uttar Pradesh 211019",
        "detailed_address": {
            "ward": "Haveliya",
            "street": "CWG2+CXP",
            "city": "Jhusi, Prayagraj",
            "postal_code": "211019",
            "state": "Uttar Pradesh",
            "country_code": "IN"
        },
        "images": [
            {
                "about": "All",
                "link": "https://lh5.googleusercontent.com/p/AF1QipMhqywWCKWXV76WQmuxLx-J0dgcbxPI6H12W_Vb=w224-h299-k-no"
            }
        ],
        "link": "https://www.google.com/maps/place/Pathnai+wali+Masjid+%28+Raza+masjid%29/data=!4m7!3m6!1s0x39854ada6d4c70ed:0xb6e05428d44e12f1!8m2!3d25.4260843!4d81.9024542!16s%2Fg%2F11g8wh3k0c!19sChIJ7XBMbdpKhTkR8RJO1ChU4LY?authuser=0&hl=en&rclk=1",
        "coordinates": {
            "latitude": 25.4260843,
            "longitude": 81.9024542
        }
    },
    {
        "name": "Zakir Shah Masjid",
        "main_category": "Religious destination",
        "address": "CWH2+9X6 Zakir Shah Masjid, Jhusi, Prayagraj, Uttar Pradesh 211019",
        "detailed_address": {
            "ward": null,
            "street": "CWH2+9X6",
            "city": "Jhusi, Prayagraj",
            "postal_code": "211019",
            "state": "Uttar Pradesh",
            "country_code": "IN"
        },
        "images": [
            {
                "about": "All",
                "link": "https://lh5.googleusercontent.com/p/AF1QipPvnpO6nYD77zAmILiILbCV3Zut8_eVnMPHey_l=w224-h298-k-no"
            },
            {
                "about": "Street View & 360deg",
                "link": "https://streetviewpixels-pa.googleapis.com/v1/thumbnail?panoid=KutyvCf40ZXJ_mf3HeqFHQ&cb_client=maps_sv.tactile.gps&w=224&h=298&yaw=69.50397&pitch=0&thumbfov=100"
            },
            {
                "about": "Videos",
                "link": "https://lh5.googleusercontent.com/p/AF1QipPSI1FdZBWHy_sKdwte7qV-3MDSRaRBF3hCm2CP=w541-h298-k-no"
            }
        ],
        "link": "https://www.google.com/maps/place/Zakir+Shah+Masjid/data=!4m7!3m6!1s0x39854ad0900bf3ef:0x4bf7e95a8b90985b!8m2!3d25.4284092!4d81.9023882!16s%2Fg%2F11g8kw73d8!19sChIJ7_MLkNBKhTkRW5iQi1rp90s?authuser=0&hl=en&rclk=1",
        "coordinates": {
            "latitude": 25.428409199999997,
            "longitude": 81.90238819999999
        }
    },
    {
        "name": "Jhunsi Eid Gaah",
        "main_category": "Mosque",
        "address": "CWM2+GFX Jhunsi Eid Gaah, Jhusi, Prayagraj, Uttar Pradesh 211019",
        "detailed_address": {
            "ward": null,
            "street": "CWM2+GFX",
            "city": "Jhusi, Prayagraj",
            "postal_code": "211019",
            "state": "Uttar Pradesh",
            "country_code": "IN"
        },
        "images": [
            {
                "about": "All",
                "link": "https://lh5.googleusercontent.com/p/AF1QipOah6PSMkAU7BFCM0ElVuHRZYH0RGqFkI8YKUJt=w397-h298-k-no"
            },
            {
                "about": "Dome",
                "link": "https://lh5.googleusercontent.com/p/AF1QipNUlE4uLExw9IuPbNR16rBkusfKvlEcQNfM2cla=w397-h298-k-no"
            }
        ],
        "link": "https://www.google.com/maps/place/Jhunsi+Eid+Gaah/data=!4m7!3m6!1s0x39854ad22eb6b58b:0x38de6b352bff5873!8m2!3d25.4338672!4d81.9012315!16s%2Fg%2F11dxf12qp4!19sChIJi7W2LtJKhTkRc1j_KzVr3jg?authuser=0&hl=en&rclk=1",
        "coordinates": {
            "latitude": 25.433867199999998,
            "longitude": 81.9012315
        }
    },
    {
        "name": "Turkana masjid",
        "main_category": "Mosque",
        "address": "CWQ3+PVH Turkana masjid, Jhusi, Prayagraj, Uttar Pradesh 211019",
        "detailed_address": {
            "ward": null,
            "street": "CWQ3+PVH",
            "city": "Jhusi, Prayagraj",
            "postal_code": "211019",
            "state": "Uttar Pradesh",
            "country_code": "IN"
        },
        "images": [
            {
                "about": "All",
                "link": "https://lh5.googleusercontent.com/p/AF1QipPdBYjk1cC-OP6efGyw5xyxC7L4zzs1A-3FaXLW=w224-h298-k-no"
            },
            {
                "about": "Street View & 360deg",
                "link": "https://streetviewpixels-pa.googleapis.com/v1/thumbnail?panoid=si4l4hajd3MlQnTo6cPt3w&cb_client=maps_sv.tactile.gps&w=224&h=298&yaw=233.61687&pitch=0&thumbfov=100"
            },
            {
                "about": "Videos",
                "link": "https://lh5.googleusercontent.com/p/AF1QipMQsnymrAjN_LYHWuLNp70EXhij5VfcWn2PfjaV=w224-h426-k-no"
            }
        ],
        "link": "https://www.google.com/maps/place/Turkana+masjid/data=!4m7!3m6!1s0x39854b9a4610e53f:0x9b5a517340685949!8m2!3d25.4393183!4d81.9047296!16s%2Fg%2F11fnbfqyy0!19sChIJP-UQRppLhTkRSVloQHNRWps?authuser=0&hl=en&rclk=1",
        "coordinates": {
            "latitude": 25.4393183,
            "longitude": 81.9047296
        }
    },
    {
        "name": "Real Qasba Masjid",
        "main_category": "Mosque",
        "address": "CWH3+862 Real Qasba Masjid, Jhusi, Prayagraj, Uttar Pradesh 211019",
        "detailed_address": {
            "ward": null,
            "street": "CWH3+862",
            "city": "Jhusi, Prayagraj",
            "postal_code": "211019",
            "state": "Uttar Pradesh",
            "country_code": "IN"
        },
        "images": [
            {
                "about": "All",
                "link": "https://lh5.googleusercontent.com/p/AF1QipN6X121dv_IMU-g83tYHUZYljq55sLge3kcnhg2=w645-h298-k-no"
            }
        ],
        "link": "https://www.google.com/maps/place/Real+Qasba+Masjid/data=!4m7!3m6!1s0x39854b798a8d2253:0xd17a9cc4aafa1ed2!8m2!3d25.4282747!4d81.9030061!16s%2Fg%2F11f631ckhm!19sChIJUyKNinlLhTkR0h76qsScetE?authuser=0&hl=en&rclk=1",
        "coordinates": {
            "latitude": 25.4282747,
            "longitude": 81.9030061
        }
    }
]