[
    {
        "name": "Jumma Masjid",
        "main_category": "Mosque",
        "address": "8CCQ+GVV Jumma Masjid, Chatariya Najapur, Mendarda, Devgadh, Gujarat 362260",
        "detailed_address": {
            "ward": "Chatariya Najapur",
            "street": "8CCQ+GVV",
            "city": "Mendarda, Devgadh",
            "postal_code": "362260",
            "state": "Gujarat",
            "country_code": "IN"
        },
        "images": [
            {
                "about": "All",
                "link": "https://lh5.googleusercontent.com/p/AF1QipMmHdSuyKngYfdDZBX2YyU9dwC0gwQAcHzPHLGX=w529-h298-k-no"
            },
            {
                "about": "Dome",
                "link": "https://lh5.googleusercontent.com/p/AF1QipNP4PmDJ0XXXENeVKTsU0IAD7bGH9Le4n5xsmoG=w224-h398-k-no"
            }
        ],
        "link": "https://www.google.com/maps/place/Jumma+Masjid/data=!4m7!3m6!1s0x3be2acc9d16c2d75:0x6856cf58adb37338!8m2!3d21.3213631!4d70.4396743!16s%2Fg%2F11bzx1kltj!19sChIJdS1s0cms4jsROHOzrVjPVmg?authuser=0&hl=en&rclk=1",
        "coordinates": {
            "latitude": 21.3213631,
            "longitude": 70.4396743
        }
    },
    {
        "name": "Masjid_e_ Makki",
        "main_category": "Mosque",
        "address": "7C6M+RWQ Masjid_e_ Makki, Lilva, Mendarda, 362260",
        "detailed_address": {
            "ward": null,
            "street": "7C6M+RWQ, Lilva",
            "city": "Mendarda, Khijadiya",
            "postal_code": "362260",
            "state": "Gujarat",
            "country_code": "IN"
        },
        "images": [
            {
                "about": "All",
                "link": "https://lh5.googleusercontent.com/p/AF1QipPGv8Kj_ZC8yc5M0OIjuw7sCm8xLPzNpADA-Wjk=w224-h400-k-no"
            },
            {
                "about": "Videos",
                "link": "https://lh5.googleusercontent.com/p/AF1QipMJVZou8to8JM5q1oePCHIayBbkTMn2zR03VDVH=w224-h397-k-no"
            }
        ],
        "link": "https://www.google.com/maps/place/Masjid_e_+Makki/data=!4m7!3m6!1s0x3be2ad1e3db7ce3f:0x8a649d7cb894ef25!8m2!3d21.2620771!4d70.4348599!16s%2Fg%2F11h93sq6md!19sChIJP863PR6t4jsRJe-UuHydZIo?authuser=0&hl=en&rclk=1",
        "coordinates": {
            "latitude": 21.2620771,
            "longitude": 70.43485989999999
        }
    },
    {
        "name": "dawoodi bohra masjid",
        "main_category": "Mosque",
        "address": "8CCR+225 dawoodi bohra masjid, Chatariya Najapur, Mendarda, Devgadh, Gujarat 362260",
        "detailed_address": {
            "ward": "Chatariya Najapur",
            "street": "8CCR+225",
            "city": "Mendarda, Devgadh",
            "postal_code": "362260",
            "state": "Gujarat",
            "country_code": "IN"
        },
        "images": [],
        "link": "https://www.google.com/maps/place/dawoodi+bohra+masjid/data=!4m7!3m6!1s0x3be2adeeeb226ec7:0xdbdaa4cae280426f!8m2!3d21.3200013!4d70.4401034!16s%2Fg%2F11fc8s21b8!19sChIJx24i6-6t4jsRb0KA4sqk2ts?authuser=0&hl=en&rclk=1",
        "coordinates": {
            "latitude": 21.320001299999998,
            "longitude": 70.4401034
        }
    }
]