[
    {
        "name": "Madari Masjid",
        "main_category": "Mosque",
        "address": "Madari Masjid, Khan Zada mohalla, GT Road, NH-91, District Kanpur, Bilhaur, Uttar Pradesh 209202",
        "detailed_address": {
            "ward": null,
            "street": "Khan Zada mohalla, GT Road, NH-91, District Kanpur",
            "city": "Bilhaur",
            "postal_code": "209202",
            "state": "Uttar Pradesh",
            "country_code": "IN"
        },
        "images": [
            {
                "about": "All",
                "link": "https://lh5.googleusercontent.com/p/AF1QipO-p9BeQOgp7RDLaIZtKRhpsR-VryIp33hjzrnL=w224-h298-k-no"
            },
            {
                "about": "Videos",
                "link": "https://lh5.googleusercontent.com/p/AF1QipMgRr6NIMi3uvRJYNcaNXRk4OAsxf-ifYRBKxwI=w224-h398-k-no"
            }
        ],
        "link": "https://www.google.com/maps/place/Madari+Masjid/data=!4m7!3m6!1s0x399e7f99c43c7e79:0x1e9fc93b8ce9f880!8m2!3d26.8426886!4d80.0636015!16s%2Fg%2F11bvt53lc8!19sChIJeX48xJl_njkRgPjpjDvJnx4?authuser=0&hl=en&rclk=1",
        "coordinates": {
            "latitude": 26.8426886,
            "longitude": 80.06360149999999
        }
    },
    {
        "name": "Shahi Masjid",
        "main_category": "Mosque",
        "address": "R3V7+F82 Shahi Masjid, Bilhaur, Uttar Pradesh 209202",
        "detailed_address": {
            "ward": null,
            "street": "R3V7+F82",
            "city": "Bilhaur",
            "postal_code": "209202",
            "state": "Uttar Pradesh",
            "country_code": "IN"
        },
        "images": [
            {
                "about": "All",
                "link": "https://lh5.googleusercontent.com/p/AF1QipOJ8q1bTTbvpmHAVHmIYpaBV_FZxu3AhOjDZfHy=w397-h298-k-no"
            }
        ],
        "link": "https://www.google.com/maps/place/Shahi+Masjid/data=!4m7!3m6!1s0x399e7f99cab4944d:0x7cc47d0336b8883!8m2!3d26.8436491!4d80.0632604!16s%2Fg%2F11cnkjptlk!19sChIJTZS0ypl_njkRg4hrM9BHzAc?authuser=0&hl=en&rclk=1",
        "coordinates": {
            "latitude": 26.8436491,
            "longitude": 80.06326039999999
        }
    },
    {
        "name": "Gulshan Mosque",
        "main_category": "Mosque",
        "address": "R3V8+V77 Gulshan Mosque, Bilhaur, Uttar Pradesh 209202",
        "detailed_address": {
            "ward": null,
            "street": "R3V8+V77",
            "city": "Bilhaur",
            "postal_code": "209202",
            "state": "Uttar Pradesh",
            "country_code": "IN"
        },
        "images": [
            {
                "about": "All",
                "link": "https://lh5.googleusercontent.com/p/AF1QipPJZLLBwrdL5DGOUEb7Pu7Po13jxN4FV5-6g0Ap=w529-h298-k-no"
            },
            {
                "about": "Dome",
                "link": "https://lh5.googleusercontent.com/p/AF1QipP7ZMJXNT_JAE2uBHvWVHRWp3u6f30czHfNmRWq=w298-h298-k-no"
            },
            {
                "about": "Videos",
                "link": "https://lh5.googleusercontent.com/p/AF1QipNUqe0t0JHjyxpg3EC2IZXUsV1V4TWEYkpIhuUH=w224-h398-k-no"
            }
        ],
        "link": "https://www.google.com/maps/place/Gulshan+Mosque/data=!4m7!3m6!1s0x399e7f9790ac437d:0x59b4b85dff033a1b!8m2!3d26.8446531!4d80.0656653!16s%2Fg%2F11b8_v7n76!19sChIJfUOskJd_njkRGzoD_124tFk?authuser=0&hl=en&rclk=1",
        "coordinates": {
            "latitude": 26.8446531,
            "longitude": 80.06566529999999
        }
    },
    {
        "name": "Juma Masjid (A.A)",
        "main_category": "Mosque",
        "address": "R3V8+386 Juma Masjid (A.A), Bilhaur, Uttar Pradesh 209202",
        "detailed_address": {
            "ward": null,
            "street": "R3V8+386",
            "city": "Bilhaur",
            "postal_code": "209202",
            "state": "Uttar Pradesh",
            "country_code": "IN"
        },
        "images": [
            {
                "about": "All",
                "link": "https://lh5.googleusercontent.com/p/AF1QipMS7Y5sFlbTOJh_5DyvHg1_5mF8FsN6pYcmHKFx=w397-h298-k-no"
            }
        ],
        "link": "https://www.google.com/maps/place/Juma+Masjid+%28A.A%29/data=!4m7!3m6!1s0x399e7f976beeb9f3:0x90edffdd46872d2e!8m2!3d26.8426621!4d80.0657771!16s%2Fg%2F11crzrcx9y!19sChIJ87nua5d_njkRLi2HRt3_7ZA?authuser=0&hl=en&rclk=1",
        "coordinates": {
            "latitude": 26.8426621,
            "longitude": 80.06577709999999
        }
    },
    {
        "name": "Nurani Masjid (A.a)",
        "main_category": "Mosque",
        "address": "R3W9+G3Q Nurani Masjid (A.a), Bilhaur, Uttar Pradesh 209202",
        "detailed_address": {
            "ward": null,
            "street": "R3W9+G3Q",
            "city": "Bilhaur",
            "postal_code": "209202",
            "state": "Uttar Pradesh",
            "country_code": "IN"
        },
        "images": [
            {
                "about": "All",
                "link": "https://lh5.googleusercontent.com/p/AF1QipP7FQFyxKEjq6r6BZwfY7Ddp_EHqBgxwaH44hmK=w297-h298-k-no"
            }
        ],
        "link": "https://www.google.com/maps/place/Nurani+Masjid+%28A.a%29/data=!4m7!3m6!1s0x399e7f962c5278ab:0x283daadac1da1053!8m2!3d26.8463368!4d80.067721!16s%2Fg%2F11cly42hgd!19sChIJq3hSLJZ_njkRUxDawdqqPSg?authuser=0&hl=en&rclk=1",
        "coordinates": {
            "latitude": 26.8463368,
            "longitude": 80.06772099999999
        }
    },
    {
        "name": "Lal Masjid",
        "main_category": "Mosque",
        "address": "R3R6+3R4 Lal Masjid, Bilhaur, Uttar Pradesh 209202",
        "detailed_address": {
            "ward": null,
            "street": "R3R6+3R4",
            "city": "Bilhaur",
            "postal_code": "209202",
            "state": "Uttar Pradesh",
            "country_code": "IN"
        },
        "images": [],
        "link": "https://www.google.com/maps/place/Lal+Masjid/data=!4m7!3m6!1s0x399e7f9a2c5aa9e3:0xdb6dc61494d111b3!8m2!3d26.8401447!4d80.0620911!16s%2Fg%2F11clvcz7z8!19sChIJ46laLJp_njkRsxHRlBTGbds?authuser=0&hl=en&rclk=1",
        "coordinates": {
            "latitude": 26.8401447,
            "longitude": 80.06209109999999
        }
    },
    {
        "name": "Sunhairi Masjid (A.A)",
        "main_category": "Mosque",
        "address": "R3V8+84Q Sunhairi Masjid (A.A), Bilhaur, Uttar Pradesh 209202",
        "detailed_address": {
            "ward": null,
            "street": "R3V8+84Q",
            "city": "Bilhaur",
            "postal_code": "209202",
            "state": "Uttar Pradesh",
            "country_code": "IN"
        },
        "images": [],
        "link": "https://www.google.com/maps/place/Sunhairi+Masjid+%28A.A%29/data=!4m7!3m6!1s0x399e7f9770a0671d:0x6025de0b706079d4!8m2!3d26.8433456!4d80.0653714!16s%2Fg%2F11c1n6p5l_!19sChIJHWegcJd_njkR1HlgcAveJWA?authuser=0&hl=en&rclk=1",
        "coordinates": {
            "latitude": 26.8433456,
            "longitude": 80.06537139999999
        }
    },
    {
        "name": "Noori Masjid",
        "main_category": "Mosque",
        "address": "R3R5+RJ3 Noori Masjid, Bilhaur, Uttar Pradesh 209202",
        "detailed_address": {
            "ward": null,
            "street": "R3R5+RJ3",
            "city": "Bilhaur",
            "postal_code": "209202",
            "state": "Uttar Pradesh",
            "country_code": "IN"
        },
        "images": [
            {
                "about": "All",
                "link": "https://lh5.googleusercontent.com/p/AF1QipNttzoj0LD6pOwzKx-i1t0Z2M3gg4rKI34df6YG=w529-h298-k-no"
            },
            {
                "about": "Videos",
                "link": "https://lh5.googleusercontent.com/p/AF1QipOuXS4xwGC5KrUksK7_QFkuyw5IZnHV8ZpsJ1V4=w224-h398-k-no"
            }
        ],
        "link": "https://www.google.com/maps/place/Noori+Masjid/data=!4m7!3m6!1s0x399e7f9ecb7369f7:0x1f99eca878337b5f!8m2!3d26.8420036!4d80.0590336!16s%2Fg%2F11d_v6j0lf!19sChIJ92lzy55_njkRX3szeKjsmR8?authuser=0&hl=en&rclk=1",
        "coordinates": {
            "latitude": 26.842003599999998,
            "longitude": 80.05903359999999
        }
    },
    {
        "name": "Bilal Masjid",
        "main_category": "Mosque",
        "address": "Bilal Masjid, Bilhaur, Uttar Pradesh 209202",
        "detailed_address": {
            "ward": null,
            "street": null,
            "city": "Bilhaur",
            "postal_code": "209202",
            "state": "Uttar Pradesh",
            "country_code": "IN"
        },
        "images": [
            {
                "about": "All",
                "link": "https://lh5.googleusercontent.com/p/AF1QipMHeNHyBjd_EibSdyhm4vR0hZ_Se5STWrFjKsRZ=w224-h398-k-no"
            },
            {
                "about": "Videos",
                "link": "https://lh5.googleusercontent.com/p/AF1QipMHeNHyBjd_EibSdyhm4vR0hZ_Se5STWrFjKsRZ=w224-h398-k-no"
            }
        ],
        "link": "https://www.google.com/maps/place/Bilal+Masjid/data=!4m7!3m6!1s0x399e7f9b0a16ab57:0x976a590bb571d690!8m2!3d26.8467733!4d80.0640854!16s%2Fg%2F11vdxv3d52!19sChIJV6sWCpt_njkRkNZxtQtZapc?authuser=0&hl=en&rclk=1",
        "coordinates": {
            "latitude": 26.8467733,
            "longitude": 80.0640854
        }
    },
    {
        "name": "Katra Bazar Masjid",
        "main_category": "Mosque",
        "address": "R3Q8+52V Katra Bazar Masjid, Uttampur, Bilhaur, Uttar Pradesh 209202",
        "detailed_address": {
            "ward": "Uttampur",
            "street": "R3Q8+52V",
            "city": "Bilhaur",
            "postal_code": "209202",
            "state": "Uttar Pradesh",
            "country_code": "IN"
        },
        "images": [
            {
                "about": "All",
                "link": "https://lh5.googleusercontent.com/p/AF1QipOcD2HApNhAG2u1LqioHc7xY0m_sns4YkEg8w2f=w569-h298-k-no"
            },
            {
                "about": "Dome",
                "link": "https://lh5.googleusercontent.com/p/AF1QipOQ7LbXGUGIi4GCCCSe0QF4F9ZjimhU__vSw-sO=w588-h298-k-no"
            }
        ],
        "link": "https://www.google.com/maps/place/Katra+Bazar+Masjid/data=!4m7!3m6!1s0x399e7fa967f7ee43:0xfa68cc094b6b9ff4!8m2!3d26.8379812!4d80.0650368!16s%2Fg%2F11p06p0cvv!19sChIJQ-73Z6l_njkR9J9rSwnMaPo?authuser=0&hl=en&rclk=1",
        "coordinates": {
            "latitude": 26.837981199999998,
            "longitude": 80.0650368
        }
    }
]