[
    {
        "name": "JAMA MASJID",
        "main_category": "Mosque",
        "address": "WR34+JP7 JAMA MASJID, Koratla - Raikal Rd, Raikal, Telangana 505460",
        "detailed_address": {
            "ward": null,
            "street": "WR34+JP7, Koratla - Raikal Rd",
            "city": "Raikal",
            "postal_code": "505460",
            "state": "Telangana",
            "country_code": "IN"
        },
        "images": [
            {
                "about": "All",
                "link": "https://lh5.googleusercontent.com/p/AF1QipMa4aR2Je2CGVBaW2rVRudMAd288iYsbqoKEtjn=w505-h298-k-no"
            },
            {
                "about": "Street View & 360deg",
                "link": "https://streetviewpixels-pa.googleapis.com/v1/thumbnail?panoid=C4W2UowydIdb-rSQimQ0VA&cb_client=maps_sv.tactile.gps&w=224&h=298&yaw=273.53128&pitch=0&thumbfov=100"
            }
        ],
        "link": "https://www.google.com/maps/place/JAMA+MASJID/data=!4m7!3m6!1s0x3bcd725a51968305:0x4ff669ad93eff2fb!8m2!3d18.904045!4d78.8067829!16s%2Fg%2F11b6s3d7th!19sChIJBYOWUVpyzTsR-_Lvk61p9k8?authuser=0&hl=en&rclk=1",
        "coordinates": {
            "latitude": 18.904045,
            "longitude": 78.8067829
        }
    },
    {
        "name": "Jama Masjid",
        "main_category": "Mosque",
        "address": "4XCX+W6R Jama Masjid, Jannaram, Telangana 504205",
        "detailed_address": {
            "ward": null,
            "street": "4XCX+W6R",
            "city": "Jannaram",
            "postal_code": "504205",
            "state": "Telangana",
            "country_code": "IN"
        },
        "images": [
            {
                "about": "All",
                "link": "https://lh5.googleusercontent.com/p/AF1QipOLEOYVV60s5Qieo-Pl7Q1nzW9P6YiLst4UdojE=w662-h298-k-no"
            },
            {
                "about": "Videos",
                "link": "https://lh5.googleusercontent.com/p/AF1QipNGT76G3tD1jGH7BzfV5dbzQAKhvh1Sr8OkCwRh=w224-h396-k-no"
            }
        ],
        "link": "https://www.google.com/maps/place/Jama+Masjid/data=!4m7!3m6!1s0x3bcd67409343a49f:0xacb4e0cdbc72e535!8m2!3d19.1223711!4d78.9980289!16s%2Fg%2F11bwkyz4lp!19sChIJn6RDk0BnzTsRNeVyvM3gtKw?authuser=0&hl=en&rclk=1",
        "coordinates": {
            "latitude": 19.1223711,
            "longitude": 78.9980289
        }
    },
    {
        "name": "Masjid",
        "main_category": "Mosque",
        "address": "Masjid, Masjid Area, Allipur, Telangana 505460",
        "detailed_address": {
            "ward": "Masjid Area",
            "street": null,
            "city": "Allipur",
            "postal_code": "505460",
            "state": "Telangana",
            "country_code": "IN"
        },
        "images": [
            {
                "about": "All",
                "link": "https://lh5.googleusercontent.com/p/AF1QipMuHYSfpFOTqtmrsxYRdCDKmUxVvRqTl8qf9Zr5=w224-h298-k-no"
            },
            {
                "about": "Street View & 360deg",
                "link": "https://streetviewpixels-pa.googleapis.com/v1/thumbnail?panoid=JNT8ZVYpCWBAV5vsqYD2vw&cb_client=maps_sv.tactile.gps&w=224&h=298&yaw=349.494&pitch=0&thumbfov=100"
            }
        ],
        "link": "https://www.google.com/maps/place/Masjid/data=!4m7!3m6!1s0x3bcd6d2e36a3f90b:0x2b14f3eb5563439d!8m2!3d18.861378!4d78.8733175!16s%2Fg%2F1pp2tx0rj!19sChIJC_mjNi5tzTsRnUNjVevzFCs?authuser=0&hl=en&rclk=1",
        "coordinates": {
            "latitude": 18.861378,
            "longitude": 78.8733175
        }
    },
    {
        "name": "jama masjid",
        "main_category": "Mosque",
        "address": "3P2J+4RC jama masjid, Yelagadapa, Telangana 504202",
        "detailed_address": {
            "ward": null,
            "street": "3P2J+4RC",
            "city": "Yelagadapa",
            "postal_code": "504202",
            "state": "Telangana",
            "country_code": "IN"
        },
        "images": [
            {
                "about": "All",
                "link": "https://lh5.googleusercontent.com/p/AF1QipO7cPLYui7C6UudwUVw6MRBPllCPeLh8JyKdNzw=w529-h298-k-no"
            },
            {
                "about": "Dome",
                "link": "https://lh5.googleusercontent.com/p/AF1QipPzjIl6Jm0F__TjrtjKjxDKVJroE005VvewekiR=w328-h298-k-no"
            },
            {
                "about": "Videos",
                "link": "https://lh5.googleusercontent.com/p/AF1QipMrE73PQgGYT0thdoboMJ7BfOKP679aZviGf1G8=w224-h398-k-no"
            },
            {
                "about": "Street View & 360deg",
                "link": "https://streetviewpixels-pa.googleapis.com/v1/thumbnail?panoid=WZuRZH5CceJn0YArfbAZQw&cb_client=maps_sv.tactile.gps&w=224&h=298&yaw=315.44012&pitch=0&thumbfov=100"
            }
        ],
        "link": "https://www.google.com/maps/place/jama+masjid/data=!4m7!3m6!1s0x3bcd79ec3d5fa82f:0x5849790fa812b908!8m2!3d19.0503033!4d78.7320086!16s%2Fg%2F11g6_c9vpr!19sChIJL6hfPex5zTsRCLkSqA95SVg?authuser=0&hl=en&rclk=1",
        "coordinates": {
            "latitude": 19.0503033,
            "longitude": 78.7320086
        }
    },
    {
        "name": "Masjid-E-Mohammadiya",
        "main_category": "Mosque",
        "address": "Masjid-E-Mohammadiya, 1, Nirmal - Mancherial Rd, Jannaram, Telangana 504205",
        "detailed_address": {
            "ward": null,
            "street": "1, Nirmal - Mancherial Rd",
            "city": "Jannaram",
            "postal_code": "504205",
            "state": "Telangana",
            "country_code": "IN"
        },
        "images": [],
        "link": "https://www.google.com/maps/place/Masjid-E-Mohammadiya/data=!4m7!3m6!1s0x3bcd673fccaa4f81:0xf85ddfa7fa77cdbb!8m2!3d19.1192404!4d78.9938765!16s%2Fg%2F11byvwzk4r!19sChIJgU-qzD9nzTsRu813-qffXfg?authuser=0&hl=en&rclk=1",
        "coordinates": {
            "latitude": 19.1192404,
            "longitude": 78.9938765
        }
    },
    {
        "name": "Jama Masjid",
        "main_category": "Mosque",
        "address": "Jama Masjid, Bus Station, Old, Utnur, Telangana 504311",
        "detailed_address": {
            "ward": "Sevadas Nagar",
            "street": "Bus Station, Old",
            "city": "Utnur",
            "postal_code": "504311",
            "state": "Telangana",
            "country_code": "IN"
        },
        "images": [
            {
                "about": "All",
                "link": "https://lh5.googleusercontent.com/p/AF1QipNgXmzFIiNb7KaR81NcbxAJRB6oTxPerNoIubTa=w224-h398-k-no"
            },
            {
                "about": "Street View & 360deg",
                "link": "https://streetviewpixels-pa.googleapis.com/v1/thumbnail?panoid=nj6ibS_16-ovKF3omhppBw&cb_client=maps_sv.tactile.gps&w=224&h=298&yaw=312.1434&pitch=0&thumbfov=100"
            }
        ],
        "link": "https://www.google.com/maps/place/Jama+Masjid/data=!4m7!3m6!1s0x3bd285b42543f7db:0xfbc9083caa3eda41!8m2!3d19.3679744!4d78.7738921!16s%2Fg%2F11c2p12cr7!19sChIJ2_dDJbSF0jsRQdo-qjwIyfs?authuser=0&hl=en&rclk=1",
        "coordinates": {
            "latitude": 19.367974399999998,
            "longitude": 78.7738921
        }
    },
    {
        "name": "Masjid-E-Noor",
        "main_category": "Mosque",
        "address": "9Q8G+JJX Masjid-E-Noor, Mominpura, Sevadas Nagar, Utnur, Telangana 504311",
        "detailed_address": {
            "ward": "Mominpura, Sevadas Nagar",
            "street": "9Q8G+JJX",
            "city": "Utnur",
            "postal_code": null,
            "state": "Telangana",
            "country_code": "IN"
        },
        "images": [
            {
                "about": "All",
                "link": "https://lh5.googleusercontent.com/p/AF1QipNajQqlfnJmgDhkLWN5j0qMRT74Wqxx1B-QTcM=w529-h298-k-no"
            }
        ],
        "link": "https://www.google.com/maps/place/Masjid-E-Noor/data=!4m7!3m6!1s0x3bd285b3f2afb185:0x2ec78038b9f918ae!8m2!3d19.3675545!4d78.7769558!16s%2Fg%2F1pp2tk8bd!19sChIJhbGv8rOF0jsRrhj5uTiAxy4?authuser=0&hl=en&rclk=1",
        "coordinates": {
            "latitude": 19.3675545,
            "longitude": 78.7769558
        }
    },
    {
        "name": "MADINA MASJID",
        "main_category": "Mosque",
        "address": "WR54+PPR MADINA MASJID, Koratla - Raikal Rd, Raikal, Telangana 505460",
        "detailed_address": {
            "ward": null,
            "street": "WR54+PPR, Koratla - Raikal Rd",
            "city": "Raikal",
            "postal_code": "505460",
            "state": "Telangana",
            "country_code": "IN"
        },
        "images": [
            {
                "about": "All",
                "link": "https://streetviewpixels-pa.googleapis.com/v1/thumbnail?panoid=e5m2uI8wyuWda6t31lc4-w&cb_client=maps_sv.tactile.gps&w=224&h=298&yaw=182.1024&pitch=0&thumbfov=100"
            },
            {
                "about": "Street View & 360deg",
                "link": "https://streetviewpixels-pa.googleapis.com/v1/thumbnail?panoid=e5m2uI8wyuWda6t31lc4-w&cb_client=maps_sv.tactile.gps&w=224&h=298&yaw=182.1024&pitch=0&thumbfov=100"
            }
        ],
        "link": "https://www.google.com/maps/place/MADINA+MASJID/data=!4m7!3m6!1s0x3bcd724519552b49:0x197d4f7574cfd45a!8m2!3d18.9093503!4d78.8067678!16s%2Fg%2F11b6sn2_xq!19sChIJSStVGUVyzTsRWtTPdHVPfRk?authuser=0&hl=en&rclk=1",
        "coordinates": {
            "latitude": 18.9093503,
            "longitude": 78.8067678
        }
    },
    {
        "name": "Masjid Al Imaan ( Kallur )",
        "main_category": "Mosque",
        "address": "VP7P+CVX Masjid Al Imaan ( Kallur ), Karimnagar, Telangana 505330",
        "detailed_address": {
            "ward": null,
            "street": "VP7P+CVX",
            "city": "Karimnagar",
            "postal_code": "505330",
            "state": "Telangana",
            "country_code": "IN"
        },
        "images": [
            {
                "about": "All",
                "link": "https://lh5.googleusercontent.com/p/AF1QipPtKmcJcFawZh2igPhh-miOJGHZ9rfVIqh28U8S=w529-h298-k-no"
            },
            {
                "about": "Dome",
                "link": "https://lh5.googleusercontent.com/p/AF1QipNEX4ewnWk2l-IkbUdSeaf0bGiBORArwCrbTBmD=w224-h298-k-no"
            }
        ],
        "link": "https://www.google.com/maps/place/Masjid+Al+Imaan+%28+Kallur+%29/data=!4m7!3m6!1s0x3bcd74a346e366e9:0x6eb0042ce8842f5b!8m2!3d18.8636111!4d78.7372209!16s%2Fg%2F11fxb44_cc!19sChIJ6WbjRqN0zTsRWy-E6CwEsG4?authuser=0&hl=en&rclk=1",
        "coordinates": {
            "latitude": 18.8636111,
            "longitude": 78.7372209
        }
    },
    {
        "name": "Katkapur Mosque (kttkaapuur msiidu)",
        "main_category": "Mosque",
        "address": "XVVG+5RF Katkapur Mosque (kttkaapuur msiidu), near pond ( ceruvu dggr, Katkapur, Telangana 505460",
        "detailed_address": {
            "ward": null,
            "street": "XVVG+5RF, near pond ( ceruvu dggr",
            "city": "Katkapur",
            "postal_code": "505460",
            "state": "Telangana",
            "country_code": "IN"
        },
        "images": [
            {
                "about": "All",
                "link": "https://lh5.googleusercontent.com/p/AF1QipOCR9j9_LnbnAuultd6Yzgww-hDWgIraZIaWvGL=w529-h298-k-no"
            },
            {
                "about": "Dome",
                "link": "https://lh5.googleusercontent.com/p/AF1QipNYD2zZDYmXmTy1r4ReVJChyOc35PT_T3YXsKd3=w529-h298-k-no"
            },
            {
                "about": "By owner",
                "link": "https://lh5.googleusercontent.com/p/AF1QipNqkc1Yv-rBSyo4FhkdgOVMYVq9G1r5tzRrdaO8=w529-h298-k-no"
            }
        ],
        "link": "https://www.google.com/maps/place/Katkapur+Mosque+%28%E0%B0%95%E0%B0%9F%E0%B1%8D%E0%B0%95%E0%B0%BE%E0%B0%AA%E0%B1%82%E0%B0%B0%E0%B1%8D+%E0%B0%AE%E0%B0%B8%E0%B1%80%E0%B0%A6%E0%B1%81%29/data=!4m7!3m6!1s0x3bcd6fb4c94e53ab:0xa93ccc3c7b6ec293!8m2!3d18.9894705!4d78.8750372!16s%2Fg%2F11fhr7tfd0!19sChIJq1NOybRvzTsRk8JuezzMPKk?authuser=0&hl=en&rclk=1",
        "coordinates": {
            "latitude": 18.9894705,
            "longitude": 78.8750372
        }
    },
    {
        "name": "Veerapur Mosque ( Masjid )",
        "main_category": "Mosque",
        "address": "Veerapur Mosque ( Masjid ), Veerapur, Telangana 505460",
        "detailed_address": {
            "ward": null,
            "street": null,
            "city": "Veerapur",
            "postal_code": null,
            "state": "Telangana",
            "country_code": "IN"
        },
        "images": [
            {
                "about": "All",
                "link": "https://lh5.googleusercontent.com/p/AF1QipPGHoFd5l2y8HaA_01hCEdz9EcUYfsGGIGxbKik=w397-h298-k-no"
            },
            {
                "about": "Street View & 360deg",
                "link": "https://streetviewpixels-pa.googleapis.com/v1/thumbnail?panoid=2Jl6pzE837heYQz-cMGqQA&cb_client=maps_sv.tactile.gps&w=224&h=298&yaw=112.53967&pitch=0&thumbfov=100"
            }
        ],
        "link": "https://www.google.com/maps/place/Veerapur+Mosque+%28+Masjid+%29/data=!4m7!3m6!1s0x3bcd6d9200071201:0x301f751968b31cdf!8m2!3d18.9160391!4d78.8495851!16s%2Fg%2F1pp2twn2b!19sChIJARIHAJJtzTsR3xyzaBl1HzA?authuser=0&hl=en&rclk=1",
        "coordinates": {
            "latitude": 18.9160391,
            "longitude": 78.8495851
        }
    },
    {
        "name": "MASJID - E - WASIL",
        "main_category": "Mosque",
        "address": "9Q7C+W9C MASJID - E - WASIL, Utnur, Telangana 504311",
        "detailed_address": {
            "ward": null,
            "street": "9Q7C+W9C",
            "city": "Utnur",
            "postal_code": "504311",
            "state": "Telangana",
            "country_code": "IN"
        },
        "images": [
            {
                "about": "All",
                "link": "https://streetviewpixels-pa.googleapis.com/v1/thumbnail?panoid=fNt09RUbHhdpvJ5DR8frqw&cb_client=maps_sv.tactile.gps&w=224&h=298&yaw=153.74368&pitch=0&thumbfov=100"
            },
            {
                "about": "Street View & 360deg",
                "link": "https://streetviewpixels-pa.googleapis.com/v1/thumbnail?panoid=fNt09RUbHhdpvJ5DR8frqw&cb_client=maps_sv.tactile.gps&w=224&h=298&yaw=153.74368&pitch=0&thumbfov=100"
            }
        ],
        "link": "https://www.google.com/maps/place/MASJID+-+E+-+WASIL/data=!4m7!3m6!1s0x3bd285b568212b3b:0xd48a9da29da1160e!8m2!3d19.3648093!4d78.7708923!16s%2Fg%2F11g6q_z_ty!19sChIJOyshaLWF0jsRDhahnaKditQ?authuser=0&hl=en&rclk=1",
        "coordinates": {
            "latitude": 19.364809299999997,
            "longitude": 78.7708923
        }
    },
    {
        "name": "Masjid",
        "main_category": "Mosque",
        "address": "WP3W+C42 Masjid, Sataram, Telangana 505331",
        "detailed_address": {
            "ward": null,
            "street": "WP3W+C42",
            "city": "Sataram",
            "postal_code": "505331",
            "state": "Telangana",
            "country_code": "IN"
        },
        "images": [
            {
                "about": "All",
                "link": "https://lh5.googleusercontent.com/p/AF1QipOuOjYw0UUyv7x8wz4KPd9t6FGEWD0PumCExFZc=w529-h298-k-no"
            }
        ],
        "link": "https://www.google.com/maps/place/Masjid/data=!4m7!3m6!1s0x3bcd750bef8fa8f5:0xd921bbcf20a822e2!8m2!3d18.9035073!4d78.7452518!16s%2Fg%2F11fn8q0x5f!19sChIJ9aiP7wt1zTsR4iKoIM-7Idk?authuser=0&hl=en&rclk=1",
        "coordinates": {
            "latitude": 18.903507299999998,
            "longitude": 78.74525179999999
        }
    },
    {
        "name": "Masjid-E-Zohra",
        "main_category": "Mosque",
        "address": "Masjid-E-Zohra, Masjid-E- Zohra, Ambedkar Nagar, Khanapur, Telangana 504001",
        "detailed_address": {
            "ward": "Ambedkar Nagar",
            "street": "Masjid-E- Zohra",
            "city": "Khanapur",
            "postal_code": "504001",
            "state": "Telangana",
            "country_code": "IN"
        },
        "images": [
            {
                "about": "All",
                "link": "https://streetviewpixels-pa.googleapis.com/v1/thumbnail?panoid=cU37AtR5lklRE-7zqgIS3w&cb_client=maps_sv.tactile.gps&w=224&h=298&yaw=112.76119&pitch=0&thumbfov=100"
            },
            {
                "about": "Street View & 360deg",
                "link": "https://streetviewpixels-pa.googleapis.com/v1/thumbnail?panoid=cU37AtR5lklRE-7zqgIS3w&cb_client=maps_sv.tactile.gps&w=224&h=298&yaw=112.76119&pitch=0&thumbfov=100"
            }
        ],
        "link": "https://www.google.com/maps/place/Masjid-E-Zohra/data=!4m7!3m6!1s0x3bd25dbaced23b33:0xe16af2c30b24656!8m2!3d19.6729258!4d78.5447961!16s%2Fg%2F11j000cqb1!19sChIJMzvSzrpd0jsRVkayMCyvFg4?authuser=0&hl=en&rclk=1",
        "coordinates": {
            "latitude": 19.672925799999998,
            "longitude": 78.5447961
        }
    },
    {
        "name": "Masjid Mohammadia",
        "main_category": "Mosque",
        "address": "9QCG+VR7 Masjid Mohammadia, Utnoor Rd, Utnur, Telangana 504311",
        "detailed_address": {
            "ward": null,
            "street": "9QCG+VR7, Utnoor Rd",
            "city": "Utnur",
            "postal_code": "504311",
            "state": "Telangana",
            "country_code": "IN"
        },
        "images": [
            {
                "about": "All",
                "link": "https://streetviewpixels-pa.googleapis.com/v1/thumbnail?panoid=UTx5zHUs27dZJQMMQPMbhQ&cb_client=maps_sv.tactile.gps&w=224&h=298&yaw=140.78342&pitch=0&thumbfov=100"
            },
            {
                "about": "Street View & 360deg",
                "link": "https://streetviewpixels-pa.googleapis.com/v1/thumbnail?panoid=UTx5zHUs27dZJQMMQPMbhQ&cb_client=maps_sv.tactile.gps&w=224&h=298&yaw=140.78342&pitch=0&thumbfov=100"
            }
        ],
        "link": "https://www.google.com/maps/place/Masjid+Mohammadia/data=!4m7!3m6!1s0x3bd285b0dc0d26a7:0xf6fa3333ae2948b7!8m2!3d19.3721507!4d78.7770528!16s%2Fg%2F11c2p105cs!19sChIJpyYN3LCF0jsRt0gprjMz-vY?authuser=0&hl=en&rclk=1",
        "coordinates": {
            "latitude": 19.3721507,
            "longitude": 78.77705279999999
        }
    },
    {
        "name": "MASJID E MOHAMMADIA Lachakkapet",
        "main_category": "Mosque",
        "address": "VW86+GPF MASJID E MOHAMMADIA Lachakkapet, Lachakkapet, Telangana 505529",
        "detailed_address": {
            "ward": null,
            "street": "VW86+GPF",
            "city": "Lachakkapet",
            "postal_code": "505529",
            "state": "Telangana",
            "country_code": "IN"
        },
        "images": [
            {
                "about": "All",
                "link": "https://lh5.googleusercontent.com/p/AF1QipO0TnA0QBum1mV4Er-9aTz1NstowRtncLoLRPHw=w397-h298-k-no"
            }
        ],
        "link": "https://www.google.com/maps/place/MASJID+E+MOHAMMADIA+Lachakkapet/data=!4m7!3m6!1s0x3bcd6d3f383d71ab:0x4c34ef7d93c9c2db!8m2!3d18.866323!4d78.9118033!16s%2Fg%2F11stj50ww5!19sChIJq3E9OD9tzTsR28LJk33vNEw?authuser=0&hl=en&rclk=1",
        "coordinates": {
            "latitude": 18.866322999999998,
            "longitude": 78.9118033
        }
    },
    {
        "name": "Masjid-e-Abdullah",
        "main_category": "Mosque",
        "address": "3XR2+J23 Masjid-e-Abdullah, Jannaram - Kalamadugu Rd, Kalmadagu, Telangana 504205",
        "detailed_address": {
            "ward": null,
            "street": "3XR2+J23, Jannaram - Kalamadugu Rd",
            "city": "Kalmadagu",
            "postal_code": "504205",
            "state": "Telangana",
            "country_code": "IN"
        },
        "images": [
            {
                "about": "All",
                "link": "https://lh5.googleusercontent.com/p/AF1QipOvo_w25BNUkR6QwLBoSQWlYLE-F8vV2JpFpqZH=w529-h298-k-no"
            },
            {
                "about": "Videos",
                "link": "https://lh5.googleusercontent.com/p/AF1QipMp4uSDSodWbXNP4k8QvYtA62lWwcbTMV1okx9r=w298-h298-k-no"
            }
        ],
        "link": "https://www.google.com/maps/place/Masjid-e-Abdullah/data=!4m7!3m6!1s0x3bcd6660227f8177:0xe67839b827ba0ea4!8m2!3d19.0915155!4d78.9500358!16s%2Fg%2F11hbc1vfry!19sChIJd4F_ImBmzTsRpA66J7g5eOY?authuser=0&hl=en&rclk=1",
        "coordinates": {
            "latitude": 19.0915155,
            "longitude": 78.9500358
        }
    },
    {
        "name": "Masjid-e-Nabawi",
        "main_category": "Mosque",
        "address": "3M39+9HV Masjid-e-Nabawi, Dilawarpur Rd, Dilawarpur, Dilwarpur, Telangana 504203",
        "detailed_address": {
            "ward": null,
            "street": "3M39+9HV, Dilawarpur Rd",
            "city": "Dilawarpur, Dilwarpur",
            "postal_code": "504203",
            "state": "Telangana",
            "country_code": "IN"
        },
        "images": [
            {
                "about": "All",
                "link": "https://lh5.googleusercontent.com/p/AF1QipPpgIV5G_5tifIPRPNEPHzmpeau_bsK7vONX1mu=w397-h298-k-no"
            },
            {
                "about": "Street View & 360deg",
                "link": "https://streetviewpixels-pa.googleapis.com/v1/thumbnail?panoid=5hTwZmZr5c-KMUcWDMADGQ&cb_client=maps_sv.tactile.gps&w=224&h=298&yaw=171.65572&pitch=0&thumbfov=100"
            }
        ],
        "link": "https://www.google.com/maps/place/Masjid-e-Nabawi/data=!4m7!3m6!1s0x3bcd79c0659a9051:0xf6f7fe363db8997d!8m2!3d19.0534835!4d78.6689104!16s%2Fg%2F11jhygrlt6!19sChIJUZCaZcB5zTsRfZm4PTb-9_Y?authuser=0&hl=en&rclk=1",
        "coordinates": {
            "latitude": 19.0534835,
            "longitude": 78.6689104
        }
    },
    {
        "name": "mosque",
        "main_category": "Mosque",
        "address": "WQP8+PM6 mosque, Regunta, Telangana 505331",
        "detailed_address": {
            "ward": null,
            "street": "WQP8+PM6",
            "city": "Regunta",
            "postal_code": null,
            "state": "Telangana",
            "country_code": "IN"
        },
        "images": [],
        "link": "https://www.google.com/maps/place/mosque/data=!4m7!3m6!1s0x3bcd73e110000001:0xd250bf53bfc9418c!8m2!3d18.9367927!4d78.7666317!16s%2Fg%2F11gfm8l9dz!19sChIJAQAAEOFzzTsRjEHJv1O_UNI?authuser=0&hl=en&rclk=1",
        "coordinates": {
            "latitude": 18.936792699999998,
            "longitude": 78.76663169999999
        }
    },
    {
        "name": "MASJID-E-AQSA",
        "main_category": "Mosque",
        "address": "9QCM+6FG MASJID-E-AQSA, Utnur, Telangana 504311",
        "detailed_address": {
            "ward": null,
            "street": "9QCM+6FG",
            "city": "Utnur",
            "postal_code": "504311",
            "state": "Telangana",
            "country_code": "IN"
        },
        "images": [
            {
                "about": "All",
                "link": "https://streetviewpixels-pa.googleapis.com/v1/thumbnail?panoid=IXgpgQlQerBMieYgcT3MTA&cb_client=maps_sv.tactile.gps&w=224&h=298&yaw=49.387844&pitch=0&thumbfov=100"
            },
            {
                "about": "Street View & 360deg",
                "link": "https://streetviewpixels-pa.googleapis.com/v1/thumbnail?panoid=IXgpgQlQerBMieYgcT3MTA&cb_client=maps_sv.tactile.gps&w=224&h=298&yaw=49.387844&pitch=0&thumbfov=100"
            },
            {
                "about": "Videos",
                "link": "https://lh5.googleusercontent.com/p/AF1QipNXZOmOS7xdqsOtOQPShgE-euof87yNF4cAGRyb=w529-h298-k-no"
            }
        ],
        "link": "https://www.google.com/maps/place/MASJID-E-AQSA/data=!4m7!3m6!1s0x3bd285ae68120e2d:0x511a2112271c67ab!8m2!3d19.3705709!4d78.7836997!16s%2Fg%2F11d_8_t86t!19sChIJLQ4SaK6F0jsRq2ccJxIhGlE?authuser=0&hl=en&rclk=1",
        "coordinates": {
            "latitude": 19.3705709,
            "longitude": 78.7836997
        }
    },
    {
        "name": "Masjid E Imam E Azam",
        "main_category": "Mosque",
        "address": "2X2W+9H6 Masjid E Imam E Azam, Narsimlapalli, Telangana 505454",
        "detailed_address": {
            "ward": null,
            "street": "2X2W+9H6",
            "city": "Narsimlapalli",
            "postal_code": "505454",
            "state": "Telangana",
            "country_code": "IN"
        },
        "images": [
            {
                "about": "All",
                "link": "https://lh5.googleusercontent.com/p/AF1QipNKdF1DIcw9KbKH683zLXDajF7qTBZ3rXNmERKs=w224-h336-k-no"
            },
            {
                "about": "Dome",
                "link": "https://lh5.googleusercontent.com/p/AF1QipMGDl4mfob4RIteFgZr8OC4dY1_Lq5_h7Ps0Irl=w224-h336-k-no"
            }
        ],
        "link": "https://www.google.com/maps/place/Masjid+E+Imam+E+Azam/data=!4m7!3m6!1s0x3bcd6995d28d15b7:0xa8b1ff9dca1baa19!8m2!3d19.0009086!4d78.9963954!16s%2Fg%2F11j8hxt2lz!19sChIJtxWN0pVpzTsRGaobyp3_sag?authuser=0&hl=en&rclk=1",
        "coordinates": {
            "latitude": 19.0009086,
            "longitude": 78.9963954
        }
    },
    {
        "name": "Mosque",
        "main_category": "Mosque",
        "address": "Mosque, Kadam Project, Kannapur, Telangana 504202",
        "detailed_address": {
            "ward": null,
            "street": null,
            "city": "Kadam Project, Kannapur",
            "postal_code": null,
            "state": "Telangana",
            "country_code": "IN"
        },
        "images": [
            {
                "about": "All",
                "link": "https://lh5.googleusercontent.com/p/AF1QipO1OlYO9RzRQKlxFdXVS0yZ9KA9nft13EhotUjH=w397-h298-k-no"
            },
            {
                "about": "Street View & 360deg",
                "link": "https://streetviewpixels-pa.googleapis.com/v1/thumbnail?panoid=UoMifD-RlQsq1hWydNKGKA&cb_client=maps_sv.tactile.gps&w=224&h=298&yaw=347.81848&pitch=0&thumbfov=100"
            }
        ],
        "link": "https://www.google.com/maps/place/Mosque/data=!4m7!3m6!1s0x3bcd7bbcda484eed:0xe286da12f76e31fe!8m2!3d19.1018044!4d78.7807716!16s%2Fg%2F1hm2txbq6!19sChIJ7U5I2rx7zTsR_jFu9xLahuI?authuser=0&hl=en&rclk=1",
        "coordinates": {
            "latitude": 19.1018044,
            "longitude": 78.7807716
        }
    },
    {
        "name": "mohammadiya masjid",
        "main_category": "Mosque",
        "address": "2PXJ+CQ7 mohammadiya masjid, Yelagadapa, Telangana 504202",
        "detailed_address": {
            "ward": null,
            "street": "2PXJ+CQ7",
            "city": "Yelagadapa",
            "postal_code": "504202",
            "state": "Telangana",
            "country_code": "IN"
        },
        "images": [
            {
                "about": "All",
                "link": "https://streetviewpixels-pa.googleapis.com/v1/thumbnail?panoid=Ur1bh_SFJf0VqF6SP-sPZg&cb_client=maps_sv.tactile.gps&w=224&h=298&yaw=340.75418&pitch=0&thumbfov=100"
            },
            {
                "about": "Street View & 360deg",
                "link": "https://streetviewpixels-pa.googleapis.com/v1/thumbnail?panoid=Ur1bh_SFJf0VqF6SP-sPZg&cb_client=maps_sv.tactile.gps&w=224&h=298&yaw=340.75418&pitch=0&thumbfov=100"
            }
        ],
        "link": "https://www.google.com/maps/place/mohammadiya+masjid/data=!4m7!3m6!1s0x3bcd79eebda4377b:0xada75b3c1058bd41!8m2!3d19.0485421!4d78.7319151!16s%2Fg%2F11dxrwxb2j!19sChIJezekve55zTsRQb1YEDxbp60?authuser=0&hl=en&rclk=1",
        "coordinates": {
            "latitude": 19.0485421,
            "longitude": 78.7319151
        }
    },
    {
        "name": "MASJID E MAGHFIRATH",
        "main_category": "Mosque",
        "address": "2P84+648 MASJID E MAGHFIRATH, Ramrajupalli, Telangana 505331",
        "detailed_address": {
            "ward": null,
            "street": "2P84+648",
            "city": "Ramrajupalli",
            "postal_code": null,
            "state": "Telangana",
            "country_code": "IN"
        },
        "images": [
            {
                "about": "All",
                "link": "https://lh5.googleusercontent.com/p/AF1QipNFh9DVojCfMNN6FXLDI0zItxX_xX0WP9XvXJJm=w224-h473-k-no"
            },
            {
                "about": "Street View & 360deg",
                "link": "https://streetviewpixels-pa.googleapis.com/v1/thumbnail?panoid=ypTUzD3DiV-qhDJhzCjWkw&cb_client=maps_sv.tactile.gps&w=224&h=298&yaw=143.06729&pitch=0&thumbfov=100"
            }
        ],
        "link": "https://www.google.com/maps/place/MASJID+E+MAGHFIRATH/data=!4m7!3m6!1s0x3bcd7756ae1fb565:0xb332c29d5e6576f1!8m2!3d19.0155403!4d78.7053323!16s%2Fg%2F11ht6qybct!19sChIJZbUfrlZ3zTsR8XZlXp3CMrM?authuser=0&hl=en&rclk=1",
        "coordinates": {
            "latitude": 19.015540299999998,
            "longitude": 78.7053323
        }
    },
    {
        "name": "Choti Masjid",
        "main_category": "Mosque",
        "address": "Choti Masjid, 1, Nirmal - Mancherial Rd, Jannaram, Telangana 504205",
        "detailed_address": {
            "ward": null,
            "street": "1, Nirmal - Mancherial Rd",
            "city": "Jannaram",
            "postal_code": "504205",
            "state": "Telangana",
            "country_code": "IN"
        },
        "images": [
            {
                "about": "All",
                "link": "https://streetviewpixels-pa.googleapis.com/v1/thumbnail?panoid=Idh00paMelYeBIsU85mM7w&cb_client=maps_sv.tactile.gps&w=224&h=298&yaw=214.03764&pitch=0&thumbfov=100"
            },
            {
                "about": "Street View & 360deg",
                "link": "https://streetviewpixels-pa.googleapis.com/v1/thumbnail?panoid=Idh00paMelYeBIsU85mM7w&cb_client=maps_sv.tactile.gps&w=224&h=298&yaw=214.03764&pitch=0&thumbfov=100"
            }
        ],
        "link": "https://www.google.com/maps/place/Choti+Masjid/data=!4m7!3m6!1s0x3bcd673e34ac2f77:0xc32f71faf30d7a5f!8m2!3d19.1184965!4d78.9931769!16s%2Fg%2F11bw5mbvt0!19sChIJdy-sND5nzTsRX3oN8_pxL8M?authuser=0&hl=en&rclk=1",
        "coordinates": {
            "latitude": 19.1184965,
            "longitude": 78.9931769
        }
    },
    {
        "name": "Masjid E Ali",
        "main_category": "Place of worship",
        "address": "VMP6+R4H Masjid E Ali, Muthyampet, Telangana 505331",
        "detailed_address": {
            "ward": null,
            "street": "VMP6+R4H",
            "city": "Muthyampet",
            "postal_code": "505331",
            "state": "Telangana",
            "country_code": "IN"
        },
        "images": [],
        "link": "https://www.google.com/maps/place/Masjid+E+Ali/data=!4m7!3m6!1s0x3bcd75dd01ef683f:0x9d237937fa2dd973!8m2!3d18.8870577!4d78.6603586!16s%2Fg%2F11sx75jyn1!19sChIJP2jvAd11zTsRc9kt-jd5I50?authuser=0&hl=en&rclk=1",
        "coordinates": {
            "latitude": 18.8870577,
            "longitude": 78.6603586
        }
    },
    {
        "name": "masjid",
        "main_category": "Mosque",
        "address": "masjid, Maddipadaga, Telangana 504202",
        "detailed_address": {
            "ward": null,
            "street": null,
            "city": "Maddipadaga",
            "postal_code": "504202",
            "state": "Telangana",
            "country_code": "IN"
        },
        "images": [
            {
                "about": "All",
                "link": "https://lh5.googleusercontent.com/p/AF1QipPBAhATuAUiMM3bWDI2nhj_0pcfJo-TRC_99CxJ=w397-h298-k-no"
            },
            {
                "about": "By owner",
                "link": "https://lh5.googleusercontent.com/p/AF1QipPBAhATuAUiMM3bWDI2nhj_0pcfJo-TRC_99CxJ=w397-h298-k-no"
            },
            {
                "about": "Street View & 360deg",
                "link": "https://streetviewpixels-pa.googleapis.com/v1/thumbnail?panoid=cQMbSXPzICN93AxaMWA6zA&cb_client=maps_sv.tactile.gps&w=224&h=298&yaw=112.70996&pitch=0&thumbfov=100"
            }
        ],
        "link": "https://www.google.com/maps/place/masjid/data=!4m7!3m6!1s0x3bcd7a21c7cc2cbb:0xe9e11285f8ad7748!8m2!3d19.0577667!4d78.7512222!16s%2Fg%2F11fxxk97n4!19sChIJuyzMxyF6zTsRSHet-IUS4ek?authuser=0&hl=en&rclk=1",
        "coordinates": {
            "latitude": 19.0577667,
            "longitude": 78.7512222
        }
    },
    {
        "name": "Masjid E Fatima Yousuf",
        "main_category": "Mosque",
        "address": "3WG8+XMP Masjid E Fatima Yousuf, Revojipet New, Revojipet (Old), Telangana 504202",
        "detailed_address": {
            "ward": null,
            "street": "3WG8+XMP",
            "city": "Revojipet New, Revojipet (Old)",
            "postal_code": "504202",
            "state": "Telangana",
            "country_code": "IN"
        },
        "images": [
            {
                "about": "All",
                "link": "https://lh5.googleusercontent.com/p/AF1QipN1p7OTMjxWJivvD3RWPioNyKiqrk_1CdlBVI5s=w529-h298-k-no"
            }
        ],
        "link": "https://www.google.com/maps/place/Masjid+E+Fatima+Yousuf/data=!4m7!3m6!1s0x3bcd6551fa8de007:0x1f6da9a6fdded8d8!8m2!3d19.0776595!4d78.9174451!16s%2Fg%2F11rmz_sv6c!19sChIJB-CN-lFlzTsR2Nje_aapbR8?authuser=0&hl=en&rclk=1",
        "coordinates": {
            "latitude": 19.0776595,
            "longitude": 78.9174451
        }
    },
    {
        "name": "Jama Masjid Kaddam",
        "main_category": "Mosque",
        "address": "4Q2J+H79 Jama Masjid Kaddam, Market Road, Kadam Project, Telangana 504202",
        "detailed_address": {
            "ward": null,
            "street": "4Q2J+H79, Market Road",
            "city": "Kadam Project",
            "postal_code": "504202",
            "state": "Telangana",
            "country_code": "IN"
        },
        "images": [
            {
                "about": "All",
                "link": "https://lh5.googleusercontent.com/p/AF1QipO1OlYO9RzRQKlxFdXVS0yZ9KA9nft13EhotUjH=w397-h298-k-no"
            },
            {
                "about": "Street View & 360deg",
                "link": "https://streetviewpixels-pa.googleapis.com/v1/thumbnail?panoid=8KRJEsUMM-Qryt1YKfTnmw&cb_client=maps_sv.tactile.gps&w=224&h=298&yaw=63.53963&pitch=0&thumbfov=100"
            },
            {
                "about": "Videos",
                "link": "https://lh5.googleusercontent.com/p/AF1QipPt9Oils_LH2dmaFR4Irf05HzdIiUV9ZKce21so=w224-h442-k-no"
            }
        ],
        "link": "https://www.google.com/maps/place/Jama+Masjid+Kaddam/data=!4m7!3m6!1s0x3bcd7b8a08ff16e3:0x7cb5de71052ef6fa!8m2!3d19.1014217!4d78.7807301!16s%2Fg%2F11fb0p26qc!19sChIJ4xb_CIp7zTsR-vYuBXHetXw?authuser=0&hl=en&rclk=1",
        "coordinates": {
            "latitude": 19.1014217,
            "longitude": 78.7807301
        }
    },
    {
        "name": "AL SAYYEDA AMENA MOUSQUE",
        "main_category": "Mosque",
        "address": "2M4C+M5F AL SAYYEDA AMENA MOUSQUE, Obulapur, Telangana 505331",
        "detailed_address": {
            "ward": null,
            "street": "2M4C+M5F",
            "city": "Obulapur",
            "postal_code": "505331",
            "state": "Telangana",
            "country_code": "IN"
        },
        "images": [],
        "link": "https://www.google.com/maps/place/AL+SAYYEDA+AMENA+MOUSQUE/data=!4m7!3m6!1s0x3bcd77b049a964b7:0xa52f8598b0b6b09e!8m2!3d19.0066967!4d78.6704081!16s%2Fg%2F11qpy96v5q!19sChIJt2SpSbB3zTsRnrC2sJiFL6U?authuser=0&hl=en&rclk=1",
        "coordinates": {
            "latitude": 19.0066967,
            "longitude": 78.6704081
        }
    },
    {
        "name": "MASJID E QUBA",
        "main_category": "Religious organization",
        "address": "3MF9+XHQ MASJID E QUBA, Nirmal - Mancherial Rd, Sathnapalle, Patha Yellapur, Telangana 504203",
        "detailed_address": {
            "ward": null,
            "street": "3MF9+XHQ, Nirmal - Mancherial Rd",
            "city": "Sathnapalle, Patha Yellapur",
            "postal_code": "504203",
            "state": "Telangana",
            "country_code": "IN"
        },
        "images": [
            {
                "about": "All",
                "link": "https://streetviewpixels-pa.googleapis.com/v1/thumbnail?panoid=ZHNvpSLQgpASYpr_vTKtHQ&cb_client=maps_sv.tactile.gps&w=224&h=298&yaw=10.236848&pitch=0&thumbfov=100"
            },
            {
                "about": "Street View & 360deg",
                "link": "https://streetviewpixels-pa.googleapis.com/v1/thumbnail?panoid=ZHNvpSLQgpASYpr_vTKtHQ&cb_client=maps_sv.tactile.gps&w=224&h=298&yaw=10.236848&pitch=0&thumbfov=100"
            }
        ],
        "link": "https://www.google.com/maps/place/MASJID+E+QUBA/data=!4m7!3m6!1s0x3bcd79d4e1edfa03:0x39f1bc98d2663e23!8m2!3d19.074966!4d78.6689897!16s%2Fg%2F11jmh9d8st!19sChIJA_rt4dR5zTsRIz5m0pi88Tk?authuser=0&hl=en&rclk=1",
        "coordinates": {
            "latitude": 19.074966,
            "longitude": 78.6689897
        }
    },
    {
        "name": "Masjid",
        "main_category": "Mosque",
        "address": "CQ24+936 Masjid, X-Road, Nagapur, Telangana 504311",
        "detailed_address": {
            "ward": "X-Road",
            "street": "CQ24+936",
            "city": "Nagapur",
            "postal_code": "504311",
            "state": "Telangana",
            "country_code": "IN"
        },
        "images": [
            {
                "about": "All",
                "link": "https://lh5.googleusercontent.com/p/AF1QipP-HJ-SWwEPF0gg5wPLy1hw-bRGq38s_EaecECF=w224-h485-k-no"
            },
            {
                "about": "Street View & 360deg",
                "link": "https://streetviewpixels-pa.googleapis.com/v1/thumbnail?panoid=G4qocc19RwSyoA2hgClXMQ&cb_client=maps_sv.tactile.gps&w=224&h=298&yaw=58.483932&pitch=0&thumbfov=100"
            }
        ],
        "link": "https://www.google.com/maps/place/Masjid/data=!4m7!3m6!1s0x3bd28542302b9163:0x87197ab60c077a2c!8m2!3d19.4009106!4d78.7551464!16s%2Fg%2F11qnl8lv7j!19sChIJY5ErMEKF0jsRLHoHDLZ6GYc?authuser=0&hl=en&rclk=1",
        "coordinates": {
            "latitude": 19.4009106,
            "longitude": 78.7551464
        }
    },
    {
        "name": "Mosque masjid",
        "main_category": "Mosque",
        "address": "WQGG+643 Mosque masjid, Itikyala, Telangana 505460",
        "detailed_address": {
            "ward": null,
            "street": "WQGG+643",
            "city": "Itikyala",
            "postal_code": "505460",
            "state": "Telangana",
            "country_code": "IN"
        },
        "images": [
            {
                "about": "All",
                "link": "https://lh5.googleusercontent.com/p/AF1QipO1xvJVDQyNZORZxUZZ4DdlIBi5-XqH4zngydFt=w224-h398-k-no"
            },
            {
                "about": "Street View & 360deg",
                "link": "https://streetviewpixels-pa.googleapis.com/v1/thumbnail?panoid=Z3ygOlzPZVc22Quxisd6gw&cb_client=maps_sv.tactile.gps&w=224&h=298&yaw=93.29878&pitch=0&thumbfov=100"
            }
        ],
        "link": "https://www.google.com/maps/place/Mosque+masjid/data=!4m7!3m6!1s0x3bcd7370aa707a5b:0x885057fe07e7005b!8m2!3d18.9255019!4d78.7752818!16s%2Fg%2F11h01t7s6p!19sChIJW3pwqnBzzTsRWwDnB_5XUIg?authuser=0&hl=en&rclk=1",
        "coordinates": {
            "latitude": 18.9255019,
            "longitude": 78.7752818
        }
    },
    {
        "name": "Masjid",
        "main_category": "Mosque",
        "address": "WM27+H5P Masjid, Khanapur Rd, Hussen Nagar, Telangana 505331",
        "detailed_address": {
            "ward": null,
            "street": "WM27+H5P, Khanapur Rd",
            "city": "Hussen Nagar",
            "postal_code": "505331",
            "state": "Telangana",
            "country_code": "IN"
        },
        "images": [
            {
                "about": "All",
                "link": "https://streetviewpixels-pa.googleapis.com/v1/thumbnail?panoid=hKXJmO81ALdbwzY0e3HIxw&cb_client=maps_sv.tactile.gps&w=224&h=298&yaw=81.74761&pitch=0&thumbfov=100"
            },
            {
                "about": "Street View & 360deg",
                "link": "https://streetviewpixels-pa.googleapis.com/v1/thumbnail?panoid=hKXJmO81ALdbwzY0e3HIxw&cb_client=maps_sv.tactile.gps&w=224&h=298&yaw=81.74761&pitch=0&thumbfov=100"
            }
        ],
        "link": "https://www.google.com/maps/place/Masjid/data=!4m7!3m6!1s0x3bcd75e0b881e6ef:0x5f1e37d02cc852d7!8m2!3d18.9014598!4d78.6629432!16s%2Fg%2F11rsq9m10k!19sChIJ7-aBuOB1zTsR11LILNA3Hl8?authuser=0&hl=en&rclk=1",
        "coordinates": {
            "latitude": 18.901459799999998,
            "longitude": 78.6629432
        }
    },
    {
        "name": "DARGAH HAZRATH SYED SADIQ PUNJABI R.A.",
        "main_category": "Mosque",
        "address": "9QFH+82V DARGAH HAZRATH SYED SADIQ PUNJABI R.A., Utnoor Rd, Utnur, Telangana 504311",
        "detailed_address": {
            "ward": null,
            "street": "9QFH+82V, Utnoor Rd",
            "city": "Utnur",
            "postal_code": null,
            "state": "Telangana",
            "country_code": "IN"
        },
        "images": [
            {
                "about": "All",
                "link": "https://streetviewpixels-pa.googleapis.com/v1/thumbnail?panoid=U__JQMLRSgnzV4oUYcj0-w&cb_client=maps_sv.tactile.gps&w=224&h=298&yaw=314.9625&pitch=0&thumbfov=100"
            },
            {
                "about": "Street View & 360deg",
                "link": "https://streetviewpixels-pa.googleapis.com/v1/thumbnail?panoid=U__JQMLRSgnzV4oUYcj0-w&cb_client=maps_sv.tactile.gps&w=224&h=298&yaw=314.9625&pitch=0&thumbfov=100"
            }
        ],
        "link": "https://www.google.com/maps/place/DARGAH+HAZRATH+SYED+SADIQ+PUNJABI+R.A./data=!4m7!3m6!1s0x3bd285e8982a5b59:0xa6f27cae7e3b2eb8!8m2!3d19.37336!4d78.7775539!16s%2Fg%2F11q3lkmfrb!19sChIJWVsqmOiF0jsRuC47fq588qY?authuser=0&hl=en&rclk=1",
        "coordinates": {
            "latitude": 19.373359999999998,
            "longitude": 78.7775539
        }
    },
    {
        "name": "Masjid-e-umarfarooq",
        "main_category": "Mosque",
        "address": "9QCH+PGP Masjid-e-umarfarooq, Rahmathpura, Utnur, Telangana 504311",
        "detailed_address": {
            "ward": "Rahmathpura",
            "street": "9QCH+PGP",
            "city": "Utnur",
            "postal_code": null,
            "state": "Telangana",
            "country_code": "IN"
        },
        "images": [
            {
                "about": "All",
                "link": "https://streetviewpixels-pa.googleapis.com/v1/thumbnail?panoid=20a8il2BU3LCzc2rlaxjAg&cb_client=maps_sv.tactile.gps&w=224&h=298&yaw=248.90999&pitch=0&thumbfov=100"
            },
            {
                "about": "Street View & 360deg",
                "link": "https://streetviewpixels-pa.googleapis.com/v1/thumbnail?panoid=20a8il2BU3LCzc2rlaxjAg&cb_client=maps_sv.tactile.gps&w=224&h=298&yaw=248.90999&pitch=0&thumbfov=100"
            }
        ],
        "link": "https://www.google.com/maps/place/Masjid-e-umarfarooq/data=!4m7!3m6!1s0x3bd2857a91093a6b:0x26c68fcbfbdadda6!8m2!3d19.3718367!4d78.7788405!16s%2Fg%2F11g1bbd1gd!19sChIJazoJkXqF0jsRpt3a-8uPxiY?authuser=0&hl=en&rclk=1",
        "coordinates": {
            "latitude": 19.3718367,
            "longitude": 78.7788405
        }
    },
    {
        "name": "Eidgah Lachakkapet",
        "main_category": "Mosque",
        "address": "VW65+QJR Eidgah Lachakkapet, Laxmipur, Telangana 505529",
        "detailed_address": {
            "ward": null,
            "street": "VW65+QJR",
            "city": "Laxmipur",
            "postal_code": "505529",
            "state": "Telangana",
            "country_code": "IN"
        },
        "images": [
            {
                "about": "All",
                "link": "https://lh5.googleusercontent.com/p/AF1QipNSFhcVCfUBqyPQNCffqZI1tYHJtKZVnefbRSli=w397-h298-k-no"
            }
        ],
        "link": "https://www.google.com/maps/place/Eidgah+Lachakkapet/data=!4m7!3m6!1s0x3bcd6db11fa7a651:0x69cd98fc5e610e56!8m2!3d18.8619863!4d78.9090067!16s%2Fg%2F11h75zck1r!19sChIJUaanH7FtzTsRVg5hXvyYzWk?authuser=0&hl=en&rclk=1",
        "coordinates": {
            "latitude": 18.861986299999998,
            "longitude": 78.90900669999999
        }
    },
    {
        "name": "Masjid-E-Noor",
        "main_category": "Mosque",
        "address": "Masjid-E-Noor, #101 ,Rechapally, Jagtial, Telangana",
        "detailed_address": {
            "ward": null,
            "street": "#101 ,Rechapally",
            "city": "Jagtial, Rechapalli",
            "postal_code": null,
            "state": "Telangana",
            "country_code": "IN"
        },
        "images": [
            {
                "about": "All",
                "link": "https://lh5.googleusercontent.com/p/AF1QipM_n4jNYUFDrSwoM4gjEmYb7ca8vB4zSP5QOdm9=w224-h398-k-no"
            }
        ],
        "link": "https://www.google.com/maps/place/Masjid-E-Noor/data=!4m7!3m6!1s0x3bcd6be8cd809ef9:0x28c4237f1d69a774!8m2!3d18.9316153!4d78.9304784!16s%2Fg%2F11j8hhpjmy!19sChIJ-Z6AzehrzTsRdKdpHX8jxCg?authuser=0&hl=en&rclk=1",
        "coordinates": {
            "latitude": 18.9316153,
            "longitude": 78.9304784
        }
    },
    {
        "name": "MASJID",
        "main_category": "Mosque",
        "address": "2PW9+WP9 MASJID, Lingapur, Telangana 504202",
        "detailed_address": {
            "ward": null,
            "street": "2PW9+WP9",
            "city": "Lingapur",
            "postal_code": "504202",
            "state": "Telangana",
            "country_code": "IN"
        },
        "images": [],
        "link": "https://www.google.com/maps/place/MASJID/data=!4m7!3m6!1s0x3bcd79ab085b9819:0xd6538f30239f99c!8m2!3d19.0472775!4d78.7193685!16s%2Fg%2F11rkf1p6nc!19sChIJGZhbCKt5zTsRnPk5AvM4ZQ0?authuser=0&hl=en&rclk=1",
        "coordinates": {
            "latitude": 19.0472775,
            "longitude": 78.7193685
        }
    },
    {
        "name": "Masjid",
        "main_category": "Mosque",
        "address": "2M85+P5 Masjid, Badankurthy, Telangana 504203",
        "detailed_address": {
            "ward": null,
            "street": "2M85+P5",
            "city": "Badankurthy",
            "postal_code": null,
            "state": "Telangana",
            "country_code": "IN"
        },
        "images": [
            {
                "about": "All",
                "link": "https://streetviewpixels-pa.googleapis.com/v1/thumbnail?panoid=_hN44lbzeX9F5OuUmYtXDw&cb_client=maps_sv.tactile.gps&w=224&h=298&yaw=266.63605&pitch=0&thumbfov=100"
            },
            {
                "about": "Street View & 360deg",
                "link": "https://streetviewpixels-pa.googleapis.com/v1/thumbnail?panoid=_hN44lbzeX9F5OuUmYtXDw&cb_client=maps_sv.tactile.gps&w=224&h=298&yaw=266.63605&pitch=0&thumbfov=100"
            }
        ],
        "link": "https://www.google.com/maps/place/Masjid/data=!4m7!3m6!1s0x3bcd773e41058563:0xd5fb5238132b70c8!8m2!3d19.0167991!4d78.6579268!16s%2Fg%2F11q47zr4hf!19sChIJY4UFQT53zTsRyHArEzhS-9U?authuser=0&hl=en&rclk=1",
        "coordinates": {
            "latitude": 19.0167991,
            "longitude": 78.6579268
        }
    },
    {
        "name": "Maszid",
        "main_category": "Mosque",
        "address": "WRQJ+FV9 Maszid, Bhoopathipur, Telangana 505460",
        "detailed_address": {
            "ward": null,
            "street": "WRQJ+FV9",
            "city": "Bhoopathipur",
            "postal_code": "505460",
            "state": "Telangana",
            "country_code": "IN"
        },
        "images": [
            {
                "about": "All",
                "link": "https://streetviewpixels-pa.googleapis.com/v1/thumbnail?panoid=7qOGScMh4DZMvzBqfJTpAA&cb_client=maps_sv.tactile.gps&w=224&h=298&yaw=45.188793&pitch=0&thumbfov=100"
            },
            {
                "about": "Street View & 360deg",
                "link": "https://streetviewpixels-pa.googleapis.com/v1/thumbnail?panoid=7qOGScMh4DZMvzBqfJTpAA&cb_client=maps_sv.tactile.gps&w=224&h=298&yaw=45.188793&pitch=0&thumbfov=100"
            }
        ],
        "link": "https://www.google.com/maps/place/Maszid/data=!4m7!3m6!1s0x3bcd739cf323adb7:0xd43dafd32a372a54!8m2!3d18.9386736!4d78.8322355!16s%2Fg%2F11q_c6cq6l!19sChIJt60j85xzzTsRVCo3KtOvPdQ?authuser=0&hl=en&rclk=1",
        "coordinates": {
            "latitude": 18.938673599999998,
            "longitude": 78.8322355
        }
    },
    {
        "name": "Jame masjid ailapur",
        "main_category": "Mosque",
        "address": "Jame masjid ailapur, Near, Nehru road, Besthawada, Ailapur, Telangana 505330",
        "detailed_address": {
            "ward": "Besthawada",
            "street": "Near, Nehru road",
            "city": "Ailapur",
            "postal_code": null,
            "state": "Telangana",
            "country_code": "IN"
        },
        "images": [
            {
                "about": "All",
                "link": "https://lh5.googleusercontent.com/p/AF1QipO6XyR5RpEzXfeReyntIQsso15pMbc1HDUIbJ0B=w529-h298-k-no"
            }
        ],
        "link": "https://www.google.com/maps/place/Jame+masjid+ailapur/data=!4m7!3m6!1s0x3bcd75c30dfe83a9:0xf653dc0ed627e550!8m2!3d18.870281!4d78.6985201!16s%2Fg%2F11rv9160kx!19sChIJqYP-DcN1zTsRUOUn1g7cU_Y?authuser=0&hl=en&rclk=1",
        "coordinates": {
            "latitude": 18.870281,
            "longitude": 78.6985201
        }
    },
    {
        "name": "Community Hall",
        "main_category": "Mosque",
        "address": "2WW5+6JR Community Hall, Godserial, Telangana 504202",
        "detailed_address": {
            "ward": null,
            "street": "2WW5+6JR",
            "city": "Godserial",
            "postal_code": null,
            "state": "Telangana",
            "country_code": "IN"
        },
        "images": [],
        "link": "https://www.google.com/maps/place/Community+Hall/data=!4m7!3m6!1s0x3bcd6533481136a9:0x70724a69a268e136!8m2!3d19.0456115!4d78.9090214!16s%2Fg%2F11swmqtzks!19sChIJqTYRSDNlzTsRNuFoomlKcnA?authuser=0&hl=en&rclk=1",
        "coordinates": {
            "latitude": 19.0456115,
            "longitude": 78.9090214
        }
    },
    {
        "name": "masjid",
        "main_category": "Mosque",
        "address": "WQP8+PJH masjid, Regunta, Telangana 505331",
        "detailed_address": {
            "ward": null,
            "street": "WQP8+PJH",
            "city": "Regunta",
            "postal_code": "505331",
            "state": "Telangana",
            "country_code": "IN"
        },
        "images": [],
        "link": "https://www.google.com/maps/place/masjid/data=!4m7!3m6!1s0x3bcd73e10f087a0d:0xb743367ca6f6556b!8m2!3d18.9368128!4d78.7666167!16s%2Fg%2F11hbt4fzsw!19sChIJDXoID-FzzTsRa1X2pnw2Q7c?authuser=0&hl=en&rclk=1",
        "coordinates": {
            "latitude": 18.9368128,
            "longitude": 78.7666167
        }
    },
    {
        "name": "Madina Masjid",
        "main_category": "Mosque",
        "address": "9Q7H+P3C Madina Masjid, Mominpura, Utnur, Telangana 504311",
        "detailed_address": {
            "ward": "Mominpura",
            "street": "9Q7H+P3C",
            "city": "Utnur",
            "postal_code": "504311",
            "state": "Telangana",
            "country_code": "IN"
        },
        "images": [
            {
                "about": "All",
                "link": "https://streetviewpixels-pa.googleapis.com/v1/thumbnail?panoid=_mtMQm8xAHvWJqn8OTUdKg&cb_client=maps_sv.tactile.gps&w=224&h=298&yaw=357.7412&pitch=0&thumbfov=100"
            },
            {
                "about": "Street View & 360deg",
                "link": "https://streetviewpixels-pa.googleapis.com/v1/thumbnail?panoid=_mtMQm8xAHvWJqn8OTUdKg&cb_client=maps_sv.tactile.gps&w=224&h=298&yaw=357.7412&pitch=0&thumbfov=100"
            }
        ],
        "link": "https://www.google.com/maps/place/Madina+Masjid/data=!4m7!3m6!1s0x3bd285b33e155555:0x13e010187828103f!8m2!3d19.3643116!4d78.777638!16s%2Fg%2F11txmzdqbx!19sChIJVVUVPrOF0jsRPxAoeBgQ4BM?authuser=0&hl=en&rclk=1",
        "coordinates": {
            "latitude": 19.3643116,
            "longitude": 78.777638
        }
    },
    {
        "name": "Jama masjid kawal",
        "main_category": "Mosque",
        "address": "5X97+M8M Jama masjid kawal, Kawal, Telangana 504205",
        "detailed_address": {
            "ward": null,
            "street": "5X97+M8M",
            "city": "Kawal",
            "postal_code": "504205",
            "state": "Telangana",
            "country_code": "IN"
        },
        "images": [
            {
                "about": "All",
                "link": "https://lh5.googleusercontent.com/p/AF1QipMXusNH4XCR44lGjxWf8tLh2J_r4oCcA5suEn3j=w224-h510-k-no"
            },
            {
                "about": "By owner",
                "link": "https://lh5.googleusercontent.com/p/AF1QipMXusNH4XCR44lGjxWf8tLh2J_r4oCcA5suEn3j=w224-h510-k-no"
            }
        ],
        "link": "https://www.google.com/maps/place/Jama+masjid+kawal/data=!4m7!3m6!1s0x3bcd61db9faed409:0xc8e57351b72be292!8m2!3d19.1707652!4d78.9627696!16s%2Fg%2F11tgfrbxkx!19sChIJCdSun9thzTsRkuIrt1Fz5cg?authuser=0&hl=en&rclk=1",
        "coordinates": {
            "latitude": 19.170765199999998,
            "longitude": 78.9627696
        }
    },
    {
        "name": "Jama masjid sirpoor",
        "main_category": "Mosque",
        "address": "WMPH+GGF Jama masjid sirpoor, Sirpur, Telangana 505331",
        "detailed_address": {
            "ward": null,
            "street": "WMPH+GGF",
            "city": "Sirpur",
            "postal_code": "505331",
            "state": "Telangana",
            "country_code": "IN"
        },
        "images": [],
        "link": "https://www.google.com/maps/place/Jama+masjid+sirpoor/data=!4m7!3m6!1s0x3bcd776349ffa569:0xc822dce33540a4c4!8m2!3d18.9363041!4d78.678784!16s%2Fg%2F11kc4_hgmd!19sChIJaaX_SWN3zTsRxKRANePcIsg?authuser=0&hl=en&rclk=1",
        "coordinates": {
            "latitude": 18.936304099999997,
            "longitude": 78.678784
        }
    },
    {
        "name": "Jama-masjid",
        "main_category": "Mosque",
        "address": "8RG9+858 Jama-masjid, danthanpalli, Utnur, Danthanpalle, Telangana 504311",
        "detailed_address": {
            "ward": null,
            "street": "8RG9+858, danthanpalli",
            "city": "Utnur, Danthanpalle",
            "postal_code": "504311",
            "state": "Telangana",
            "country_code": "IN"
        },
        "images": [],
        "link": "https://www.google.com/maps/place/Jama-masjid/data=!4m7!3m6!1s0x3bd2854382fca6b1:0x7f6af6c9c5f66375!8m2!3d19.3257758!4d78.8177888!16s%2Fg%2F11t_m6qb3v!19sChIJsab8gkOF0jsRdWP2xcn2an8?authuser=0&hl=en&rclk=1",
        "coordinates": {
            "latitude": 19.3257758,
            "longitude": 78.8177888
        }
    },
    {
        "name": "Mootapally Masjid",
        "main_category": "Mosque",
        "address": "WRW3+85V Mootapally Masjid, Mootapalle, Telangana 505460",
        "detailed_address": {
            "ward": null,
            "street": "WRW3+85V",
            "city": "Mootapalle",
            "postal_code": "505460",
            "state": "Telangana",
            "country_code": "IN"
        },
        "images": [
            {
                "about": "All",
                "link": "https://streetviewpixels-pa.googleapis.com/v1/thumbnail?panoid=qPbQEd4ZtdkgXZFLwZ-iig&cb_client=maps_sv.tactile.gps&w=224&h=298&yaw=3.2574725&pitch=0&thumbfov=100"
            },
            {
                "about": "Street View & 360deg",
                "link": "https://streetviewpixels-pa.googleapis.com/v1/thumbnail?panoid=qPbQEd4ZtdkgXZFLwZ-iig&cb_client=maps_sv.tactile.gps&w=224&h=298&yaw=3.2574725&pitch=0&thumbfov=100"
            }
        ],
        "link": "https://www.google.com/maps/place/Mootapally+Masjid/data=!4m7!3m6!1s0x3bcd71db465b554b:0xddbad2d7da006c8b!8m2!3d18.9458573!4d78.8029347!16s%2Fg%2F11hz77v8xp!19sChIJS1VbRttxzTsRi2wA2tfSut0?authuser=0&hl=en&rclk=1",
        "coordinates": {
            "latitude": 18.9458573,
            "longitude": 78.8029347
        }
    },
    {
        "name": "Jama-masjid",
        "main_category": "Mosque",
        "address": "8RC9+GMX Jama-masjid, Danthanpalle, Telangana 504311",
        "detailed_address": {
            "ward": null,
            "street": "8RC9+GMX",
            "city": "Danthanpalle",
            "postal_code": "504311",
            "state": "Telangana",
            "country_code": "IN"
        },
        "images": [
            {
                "about": "All",
                "link": "https://streetviewpixels-pa.googleapis.com/v1/thumbnail?panoid=9CBQ63apH2ZSmnsB9MzKiA&cb_client=maps_sv.tactile.gps&w=224&h=298&yaw=67.555984&pitch=0&thumbfov=100"
            },
            {
                "about": "Street View & 360deg",
                "link": "https://streetviewpixels-pa.googleapis.com/v1/thumbnail?panoid=9CBQ63apH2ZSmnsB9MzKiA&cb_client=maps_sv.tactile.gps&w=224&h=298&yaw=67.555984&pitch=0&thumbfov=100"
            }
        ],
        "link": "https://www.google.com/maps/place/Jama-masjid/data=!4m7!3m6!1s0x3bd285b1acb03325:0xe09602827bfd9960!8m2!3d19.3213959!4d78.8191368!16s%2Fg%2F11t_k688fm!19sChIJJTOwrLGF0jsRYJn9e4ICluA?authuser=0&hl=en&rclk=1",
        "coordinates": {
            "latitude": 19.3213959,
            "longitude": 78.8191368
        }
    },
    {
        "name": "Masjid-E-Noor",
        "main_category": "Mosque",
        "address": "WWPH+HVQ Masjid-E-Noor, Rechapalli, Telangana 505454",
        "detailed_address": {
            "ward": null,
            "street": "WWPH+HVQ",
            "city": "Rechapalli",
            "postal_code": "505454",
            "state": "Telangana",
            "country_code": "IN"
        },
        "images": [
            {
                "about": "All",
                "link": "https://lh5.googleusercontent.com/p/AF1QipPAsPknI6k70ibrJP3ljbM4uqfs6C2pD1dnAzQM=w224-h398-k-no"
            }
        ],
        "link": "https://www.google.com/maps/place/Masjid-E-Noor/data=!4m7!3m6!1s0x3bcd6b7331514d5f:0xff45f99cdcb0ecc8!8m2!3d18.9364588!4d78.9297201!16s%2Fg%2F11fvgfnlsd!19sChIJX01RMXNrzTsRyOyw3Jz5Rf8?authuser=0&hl=en&rclk=1",
        "coordinates": {
            "latitude": 18.9364588,
            "longitude": 78.9297201
        }
    },
    {
        "name": "MASJID NAJAM-UN-NISA RAGHAVAPET",
        "main_category": "Mosque",
        "address": "WMF6+P8W MASJID NAJAM-UN-NISA RAGHAVAPET, Raghavapeta, Telangana 505331",
        "detailed_address": {
            "ward": null,
            "street": "WMF6+P8W",
            "city": "Raghavapeta",
            "postal_code": null,
            "state": "Telangana",
            "country_code": "IN"
        },
        "images": [
            {
                "about": "All",
                "link": "https://streetviewpixels-pa.googleapis.com/v1/thumbnail?panoid=v8lW-z7ZzfC-QQ05DsoXnA&cb_client=maps_sv.tactile.gps&w=224&h=298&yaw=137.55028&pitch=0&thumbfov=100"
            },
            {
                "about": "Street View & 360deg",
                "link": "https://streetviewpixels-pa.googleapis.com/v1/thumbnail?panoid=v8lW-z7ZzfC-QQ05DsoXnA&cb_client=maps_sv.tactile.gps&w=224&h=298&yaw=137.55028&pitch=0&thumbfov=100"
            }
        ],
        "link": "https://www.google.com/maps/place/MASJID+NAJAM-UN-NISA+RAGHAVAPET/data=!4m7!3m6!1s0x3bcd7521d90e6c43:0x9065cf8f12ebb814!8m2!3d18.9243651!4d78.6608246!16s%2Fg%2F11t9_tn2c2!19sChIJQ2wO2SF1zTsRFLjrEo_PZZA?authuser=0&hl=en&rclk=1",
        "coordinates": {
            "latitude": 18.9243651,
            "longitude": 78.6608246
        }
    },
    {
        "name": "Dharga",
        "main_category": "Mosque",
        "address": "VMPR+WPV Dharga, Chittapur, Telangana 505331",
        "detailed_address": {
            "ward": null,
            "street": "VMPR+WPV",
            "city": "Chittapur",
            "postal_code": "505331",
            "state": "Telangana",
            "country_code": "IN"
        },
        "images": [],
        "link": "https://www.google.com/maps/place/Dharga/data=!4m7!3m6!1s0x3bcd7500b426802d:0xabd81a01fbd44bd7!8m2!3d18.8873569!4d78.6917991!16s%2Fg%2F11ppmcnhn_!19sChIJLYAmtAB1zTsR10vU-wEa2Ks?authuser=0&hl=en&rclk=1",
        "coordinates": {
            "latitude": 18.8873569,
            "longitude": 78.6917991
        }
    },
    {
        "name": "Arpapalli Masjid",
        "main_category": "Mosque",
        "address": "VXG6+G6J Arpapalli Masjid, Arpapalli, Telangana 505454",
        "detailed_address": {
            "ward": null,
            "street": "VXG6+G6J",
            "city": "Arpapalli",
            "postal_code": "505454",
            "state": "Telangana",
            "country_code": "IN"
        },
        "images": [
            {
                "about": "All",
                "link": "https://lh5.googleusercontent.com/p/AF1QipOMvT0HAI1KjqKqeJroSq009ib0-01aeNCCHifj=w224-h298-k-no"
            }
        ],
        "link": "https://www.google.com/maps/place/Arpapalli+Masjid/data=!4m7!3m6!1s0x3bcd6b1e5bd2ca9f:0xf70c13b1b76ce353!8m2!3d18.8763476!4d78.9605286!16s%2Fg%2F11ptzvdrt1!19sChIJn8rSWx5rzTsRU-Nst7ETDPc?authuser=0&hl=en&rclk=1",
        "coordinates": {
            "latitude": 18.8763476,
            "longitude": 78.9605286
        }
    },
    {
        "name": "Namaj goda",
        "main_category": "Mosque",
        "address": "WR32+PMR Namaj goda, Telangana 505460",
        "detailed_address": {
            "ward": null,
            "street": "WR32+PMR",
            "city": null,
            "postal_code": "505460",
            "state": "Telangana",
            "country_code": "IN"
        },
        "images": [],
        "link": "https://www.google.com/maps/place/Namaj+goda/data=!4m7!3m6!1s0x3bcd733ce4006ec5:0x62c0d9c9a00ca39!8m2!3d18.905177!4d78.800847!16s%2Fg%2F11rn0c5k05!19sChIJxW4A5DxzzTsROcoAmpwNLAY?authuser=0&hl=en&rclk=1",
        "coordinates": {
            "latitude": 18.905177,
            "longitude": 78.80084699999999
        }
    },
    {
        "name": "COLONY MASJID - NDSL",
        "main_category": "Mosque",
        "address": "VMPG+7C5 COLONY MASJID - NDSL, NDSL Employees Colony, Muthyampet, Telangana 505331",
        "detailed_address": {
            "ward": "NDSL Employees Colony",
            "street": "VMPG+7C5",
            "city": "Muthyampet",
            "postal_code": null,
            "state": "Telangana",
            "country_code": "IN"
        },
        "images": [
            {
                "about": "All",
                "link": "https://lh5.googleusercontent.com/p/AF1QipPcWsm_noVv7Al-JSNzXjZX9jewCWdvLDmdY6FH=w224-h298-k-no"
            }
        ],
        "link": "https://www.google.com/maps/place/COLONY+MASJID+-+NDSL/data=!4m7!3m6!1s0x3bcd7525af5bae3b:0xd938b95f88dcfe4a!8m2!3d18.885636!4d78.6760971!16s%2Fg%2F11lfhc8x23!19sChIJO65bryV1zTsRSv7ciF-5ONk?authuser=0&hl=en&rclk=1",
        "coordinates": {
            "latitude": 18.885635999999998,
            "longitude": 78.67609709999999
        }
    },
    {
        "name": "Late Shakkar baap bhai's House",
        "main_category": "Mosque",
        "address": "9Q8G+XPH Late Shakkar baap bhai's House, Utnur, Telangana 504311",
        "detailed_address": {
            "ward": null,
            "street": "9Q8G+XPH",
            "city": "Utnur",
            "postal_code": null,
            "state": "Telangana",
            "country_code": "IN"
        },
        "images": [],
        "link": "https://www.google.com/maps/place/Late+Shakkar+baap+bhai%27s+House/data=!4m7!3m6!1s0x3bd28599f6383c27:0x19c105667d80cd2a!8m2!3d19.367426!4d78.7768553!16s%2Fg%2F11t7x70mz7!19sChIJJzw49pmF0jsRKs2AfWYFwRk?authuser=0&hl=en&rclk=1",
        "coordinates": {
            "latitude": 19.367426,
            "longitude": 78.7768553
        }
    }
]