[
    {
        "name": "Masjid E Taiba",
        "main_category": "Mosque",
        "address": "23VF+X7G Masjid E Taiba, Khilchipura, Madhya Pradesh 458002",
        "detailed_address": {
            "ward": null,
            "street": "23VF+X7G",
            "city": "Khilchipura",
            "postal_code": "458002",
            "state": "Madhya Pradesh",
            "country_code": "IN"
        },
        "images": [
            {
                "about": "All",
                "link": "https://lh5.googleusercontent.com/p/AF1QipNN-y5yEcSimRLJVMhaSoqeVEuCI39nVy9uQkz0=w224-h398-k-no"
            }
        ],
        "link": "https://www.google.com/maps/place/Masjid+E+Taiba/data=!4m7!3m6!1s0x39642ec7f94cb20f:0x18f9afa681ad324c!8m2!3d24.0449309!4d75.0731903!16s%2Fg%2F11dzdt8d2k!19sChIJD7JM-ccuZDkRTDKtgaav-Rg?authuser=0&hl=en&rclk=1",
        "coordinates": {
            "latitude": 24.0449309,
            "longitude": 75.0731903
        }
    },
    {
        "name": "Bandi Ji Ka Baug",
        "main_category": "Jain temple",
        "address": "Bandi Ji Ka Baug, 14, Kandoya Gali, Sarafa Bazar, Mandsaur, Madhya Pradesh 458002",
        "detailed_address": {
            "ward": "Sarafa Bazar",
            "street": "14, Kandoya Gali",
            "city": "Mandsaur",
            "postal_code": "458002",
            "state": "Madhya Pradesh",
            "country_code": "IN"
        },
        "images": [
            {
                "about": "All",
                "link": "https://lh5.googleusercontent.com/p/AF1QipPRCcJMVvNWRc3-8XZ7e6ngxxAdLorwcR0V90VZ=w397-h298-k-no"
            },
            {
                "about": "Videos",
                "link": "https://lh5.googleusercontent.com/p/AF1QipOCG4dwtMP6XN2lh905s_3XwL5k6Y0VqDzyjA_o=w529-h298-k-no"
            }
        ],
        "link": "https://www.google.com/maps/place/Bandi+Ji+Ka+Baug/data=!4m7!3m6!1s0x39642ea5f10ea719:0x9f6297951369355!8m2!3d24.0617664!4d75.0732972!16s%2Fg%2F1hm3bvmzh!19sChIJGacO8aUuZDkRVZM2UXkp9gk?authuser=0&hl=en&rclk=1",
        "coordinates": {
            "latitude": 24.0617664,
            "longitude": 75.0732972
        }
    },
    {
        "name": "Chhipa Masjid (Sunni)",
        "main_category": "Mosque",
        "address": "335C+24P Chhipa Masjid (Sunni), Chhipa Bakhal, Khanpura Gate, Mandsaur, Madhya Pradesh 458002",
        "detailed_address": {
            "ward": "Sarafa Bazar",
            "street": "335C+24P, Chhipa Bakhal, Khanpura Gate",
            "city": "Mandsaur",
            "postal_code": "458002",
            "state": "Madhya Pradesh",
            "country_code": "IN"
        },
        "images": [
            {
                "about": "All",
                "link": "https://streetviewpixels-pa.googleapis.com/v1/thumbnail?panoid=QfMc9M9TDu8Lmv0xdGZmUQ&cb_client=maps_sv.tactile.gps&w=224&h=298&yaw=78.138954&pitch=0&thumbfov=100"
            },
            {
                "about": "Street View & 360deg",
                "link": "https://streetviewpixels-pa.googleapis.com/v1/thumbnail?panoid=QfMc9M9TDu8Lmv0xdGZmUQ&cb_client=maps_sv.tactile.gps&w=224&h=298&yaw=78.138954&pitch=0&thumbfov=100"
            }
        ],
        "link": "https://www.google.com/maps/place/Chhipa+Masjid+%28Sunni%29/data=!4m7!3m6!1s0x39642eafce926667:0x992b2206ebc94908!8m2!3d24.0575901!4d75.070318!16s%2Fg%2F11bzyp6yfb!19sChIJZ2aSzq8uZDkRCEnJ6wYiK5k?authuser=0&hl=en&rclk=1",
        "coordinates": {
            "latitude": 24.0575901,
            "longitude": 75.070318
        }
    },
    {
        "name": "Hazrat Bilal Masjid",
        "main_category": "Mosque",
        "address": "33H8+55R Hazrat Bilal Masjid, Janta Colony, Mandsaur, Madhya Pradesh 458001",
        "detailed_address": {
            "ward": "Janta Colony",
            "street": "33H8+55R",
            "city": "Mandsaur",
            "postal_code": "458001",
            "state": "Madhya Pradesh",
            "country_code": "IN"
        },
        "images": [
            {
                "about": "All",
                "link": "https://lh5.googleusercontent.com/p/AF1QipOU8FhJW1DOiSRCFvDzIs9naOxWBKRf-rB4LMnp=w224-h298-k-no"
            },
            {
                "about": "Street View & 360deg",
                "link": "https://streetviewpixels-pa.googleapis.com/v1/thumbnail?panoid=MSVxwKX_Vjelxe_vFB3puA&cb_client=maps_sv.tactile.gps&w=224&h=298&yaw=277.352&pitch=0&thumbfov=100"
            }
        ],
        "link": "https://www.google.com/maps/place/Hazrat+Bilal+Masjid/data=!4m7!3m6!1s0x39642c063fa2a101:0xd9e4defc0ae0a86a!8m2!3d24.0779961!4d75.0653888!16s%2Fg%2F11c2qq328k!19sChIJAaGiPwYsZDkRaqjgCvze5Nk?authuser=0&hl=en&rclk=1",
        "coordinates": {
            "latitude": 24.0779961,
            "longitude": 75.0653888
        }
    },
    {
        "name": "Najmi Masjid",
        "main_category": "Mosque",
        "address": "336C+2PR Najmi Masjid, Sarafa Bazar, Mandsaur, Madhya Pradesh 458002",
        "detailed_address": {
            "ward": "Sarafa Bazar",
            "street": "336C+2PR",
            "city": "Mandsaur",
            "postal_code": "458002",
            "state": "Madhya Pradesh",
            "country_code": "IN"
        },
        "images": [],
        "link": "https://www.google.com/maps/place/Najmi+Masjid/data=!4m7!3m6!1s0x39642eaf7143a913:0x9caa8dd52ac22bd6!8m2!3d24.0601181!4d75.0717585!16s%2Fg%2F11b7vy7dxk!19sChIJE6lDca8uZDkR1ivCKtWNqpw?authuser=0&hl=en&rclk=1",
        "coordinates": {
            "latitude": 24.0601181,
            "longitude": 75.0717585
        }
    },
    {
        "name": "Mohammedi Masjid",
        "main_category": "Mosque",
        "address": "335C+JJ8 Mohammedi Masjid, Sarafa Bazar, Mandsaur, Madhya Pradesh 458002",
        "detailed_address": {
            "ward": "Sarafa Bazar",
            "street": "335C+JJ8",
            "city": "Mandsaur",
            "postal_code": "458002",
            "state": "Madhya Pradesh",
            "country_code": "IN"
        },
        "images": [],
        "link": "https://www.google.com/maps/place/Mohammedi+Masjid/data=!4m7!3m6!1s0x39642eafa2244d85:0x7d7c71c3bab0776f!8m2!3d24.0590437!4d75.0715649!16s%2Fg%2F124ycfwps!19sChIJhU0koq8uZDkRb3ewusNxfH0?authuser=0&hl=en&rclk=1",
        "coordinates": {
            "latitude": 24.0590437,
            "longitude": 75.0715649
        }
    },
    {
        "name": "Kanch Ki Masjid",
        "main_category": "Mosque",
        "address": "336G+3FJ Kanch Ki Masjid, kilaroad mandsaur, Mandsaur, 458002",
        "detailed_address": {
            "ward": "Sarafa Bazar",
            "street": "336G+3FJ, kilaroad mandsaur",
            "city": "Mandsaur",
            "postal_code": "458002",
            "state": "Madhya Pradesh",
            "country_code": "IN"
        },
        "images": [
            {
                "about": "All",
                "link": "https://lh5.googleusercontent.com/p/AF1QipPXSZ9fX-9YQusAqvC8oPnFcdYzQqU30lPDJso=w355-h298-k-no"
            },
            {
                "about": "Dome",
                "link": "https://lh5.googleusercontent.com/p/AF1QipMcgmfll4d2zTIZla1Rr-_-8ObEMTroObyomYE=w224-h298-k-no"
            },
            {
                "about": "Videos",
                "link": "https://lh5.googleusercontent.com/p/AF1QipP9I37-Y8jqg4oNdDqvM5EJGaNm079mGTX25Yy-=w224-h398-k-no"
            }
        ],
        "link": "https://www.google.com/maps/place/Kanch+Ki+Masjid/data=!4m7!3m6!1s0x39642ea4566ceb7f:0xb4df6a462a228f3c!8m2!3d24.0602107!4d75.0761428!16s%2Fg%2F11b6nq98wr!19sChIJf-tsVqQuZDkRPI8iKkZq37Q?authuser=0&hl=en&rclk=1",
        "coordinates": {
            "latitude": 24.0602107,
            "longitude": 75.0761428
        }
    },
    {
        "name": "Aala Hazrat Masjid caar minaaraa",
        "main_category": "Mosque",
        "address": "3335+X5P Aala Hazrat Masjid caar minaaraa, Mandsaur, Madhya Pradesh 458001",
        "detailed_address": {
            "ward": null,
            "street": "3335+X5P",
            "city": "Mandsaur",
            "postal_code": "458001",
            "state": "Madhya Pradesh",
            "country_code": "IN"
        },
        "images": [
            {
                "about": "All",
                "link": "https://lh5.googleusercontent.com/p/AF1QipOaNFa82LGm9TKC3k8jlHvZ5GtpG0o3zqp9VoF_=w397-h298-k-no"
            },
            {
                "about": "Street View & 360deg",
                "link": "https://streetviewpixels-pa.googleapis.com/v1/thumbnail?panoid=MpLrPT_EgrdwMcQ9Xun0RA&cb_client=maps_sv.tactile.gps&w=224&h=298&yaw=199.77623&pitch=0&thumbfov=100"
            },
            {
                "about": "Videos",
                "link": "https://lh5.googleusercontent.com/p/AF1QipN_n6y6ZK6dBwMgKnrdGY56UK1EFKMcivM9UPKR=w224-h318-k-no"
            }
        ],
        "link": "https://www.google.com/maps/place/Aala+Hazrat+Masjid+%E0%A4%9A%E0%A4%BE%E0%A4%B0+%E0%A4%AE%E0%A4%BF%E0%A4%A8%E0%A4%BE%E0%A4%B0%E0%A4%BE/data=!4m7!3m6!1s0x3964294d83c7ba79:0x8a5a2cc71753b478!8m2!3d24.0549538!4d75.0579609!16s%2Fg%2F11c6cg87bs!19sChIJebrHg00pZDkReLRTF8csWoo?authuser=0&hl=en&rclk=1",
        "coordinates": {
            "latitude": 24.0549538,
            "longitude": 75.0579609
        }
    },
    {
        "name": "Badi Masjid",
        "main_category": "Mosque",
        "address": "23VF+VF8 Badi Masjid, Khilchipura, Madhya Pradesh 458002",
        "detailed_address": {
            "ward": null,
            "street": "23VF+VF8",
            "city": "Khilchipura",
            "postal_code": "458002",
            "state": "Madhya Pradesh",
            "country_code": "IN"
        },
        "images": [
            {
                "about": "All",
                "link": "https://lh5.googleusercontent.com/p/AF1QipMf4IijZRuzl_BsLFa3Phf5hhWIkN3L7VJML5qz=w224-h398-k-no"
            },
            {
                "about": "Dome",
                "link": "https://lh5.googleusercontent.com/p/AF1QipPOVApGN6AAenFfM7iO_n1Bz9RxtwRBC2Plju8k=w224-h398-k-no"
            },
            {
                "about": "Videos",
                "link": "https://lh5.googleusercontent.com/p/AF1QipNgjqWnNeS_eY75ptgIKqhbnfrwYQqx_Xc5HfAh=w238-h298-k-no"
            }
        ],
        "link": "https://www.google.com/maps/place/Badi+Masjid/data=!4m7!3m6!1s0x39642ec7f1d37645:0xf4f3226fb127c710!8m2!3d24.0446682!4d75.0736998!16s%2Fg%2F11g8kxgnfq!19sChIJRXbT8ccuZDkREMcnsW8i8_Q?authuser=0&hl=en&rclk=1",
        "coordinates": {
            "latitude": 24.0446682,
            "longitude": 75.0736998
        }
    },
    {
        "name": "Saify Maszid",
        "main_category": "Mosque",
        "address": "335C+CGC Saify Maszid, Near sabeel 0, Sarafa Bazar, Mandsaur, Madhya Pradesh 458002",
        "detailed_address": {
            "ward": "Sarafa Bazar",
            "street": "335C+CGC, Near sabeel 0",
            "city": "Mandsaur",
            "postal_code": "458002",
            "state": "Madhya Pradesh",
            "country_code": "IN"
        },
        "images": [],
        "link": "https://www.google.com/maps/place/Saify+Maszid/data=!4m7!3m6!1s0x39642eafbde30c55:0x66bfb5a5c13b1a34!8m2!3d24.0585587!4d75.0712806!16s%2Fg%2F1hc54p_93!19sChIJVQzjva8uZDkRNBo7waW1v2Y?authuser=0&hl=en&rclk=1",
        "coordinates": {
            "latitude": 24.0585587,
            "longitude": 75.0712806
        }
    },
    {
        "name": "Chaman Chishti Dargah & Masjid",
        "main_category": "Mosque",
        "address": "336M+Q2X Chaman Chishti Dargah & Masjid, Mandsaur, Madhya Pradesh 458002",
        "detailed_address": {
            "ward": null,
            "street": "336M+Q2X",
            "city": "Mandsaur",
            "postal_code": "458002",
            "state": "Madhya Pradesh",
            "country_code": "IN"
        },
        "images": [
            {
                "about": "All",
                "link": "https://lh5.googleusercontent.com/p/AF1QipOc9GB6jFnTD8-KPGqa48V9U6ZhNW1pHqQQjerq=w397-h298-k-no"
            },
            {
                "about": "Street View & 360deg",
                "link": "https://streetviewpixels-pa.googleapis.com/v1/thumbnail?panoid=6LzK5OOmB1r2K_wcsuE_6g&cb_client=maps_sv.tactile.gps&w=224&h=298&yaw=266.24667&pitch=0&thumbfov=100"
            },
            {
                "about": "Videos",
                "link": "https://lh5.googleusercontent.com/p/AF1QipNW42xR41olrCVhexMP05zAVxpk9FxW9C97x4R6=w529-h298-k-no"
            }
        ],
        "link": "https://www.google.com/maps/place/Chaman+Chishti+Dargah+%26+Masjid/data=!4m7!3m6!1s0x39642ea2412e0009:0x9cebfaff707f39e8!8m2!3d24.0619951!4d75.0826134!16s%2Fg%2F11c61ddffy!19sChIJCQAuQaIuZDkR6Dl_cP_665w?authuser=0&hl=en&rclk=1",
        "coordinates": {
            "latitude": 24.061995099999997,
            "longitude": 75.0826134
        }
    },
    {
        "name": "Makkah Masjid",
        "main_category": "Mosque",
        "address": "338G+H36 Makkah Masjid, Sarafa Bazar, Mandsaur, Madhya Pradesh 458002",
        "detailed_address": {
            "ward": "Sarafa Bazar",
            "street": "338G+H36",
            "city": "Mandsaur",
            "postal_code": "458002",
            "state": "Madhya Pradesh",
            "country_code": "IN"
        },
        "images": [
            {
                "about": "All",
                "link": "https://lh5.googleusercontent.com/p/AF1QipPgyOFFAwOUp56O1iIszWUy0aBgjOImIT3GPsV1=w397-h298-k-no"
            },
            {
                "about": "Street View & 360deg",
                "link": "https://streetviewpixels-pa.googleapis.com/v1/thumbnail?panoid=RKqVwJHCE0jSnRBHZGPcxw&cb_client=maps_sv.tactile.gps&w=224&h=298&yaw=169.9781&pitch=0&thumbfov=100"
            }
        ],
        "link": "https://www.google.com/maps/place/Makkah+Masjid/data=!4m7!3m6!1s0x39642ea7af0ff7e3:0xf533ae38e3f6a78f!8m2!3d24.0664061!4d75.0751483!16s%2Fg%2F11c61l19fb!19sChIJ4_cPr6cuZDkRj6f24ziuM_U?authuser=0&hl=en&rclk=1",
        "coordinates": {
            "latitude": 24.0664061,
            "longitude": 75.0751483
        }
    },
    {
        "name": "Masjid Hazrat Sultan Shah Pir",
        "main_category": "Mosque",
        "address": "Masjid Hazrat Sultan Shah Pir, 458002, Karmachari Colony, Abhinandan Colony, Tigariya, Madhya Pradesh 458002",
        "detailed_address": {
            "ward": "Karmachari Colony, Abhinandan Colony",
            "street": "458002",
            "city": "Tigariya",
            "postal_code": "458002",
            "state": "Madhya Pradesh",
            "country_code": "IN"
        },
        "images": [
            {
                "about": "All",
                "link": "https://lh5.googleusercontent.com/p/AF1QipMCtWWz5KGmJVcPmyy348Mqq5XYnfSTPuLsmyit=w224-h398-k-no"
            },
            {
                "about": "Videos",
                "link": "https://lh5.googleusercontent.com/p/AF1QipOzr-k5Oz0kvtnC4lvumjuwEPt8SJrhjGqQWwdk=w224-h398-k-no"
            }
        ],
        "link": "https://www.google.com/maps/place/Masjid+Hazrat+Sultan+Shah+Pir/data=!4m7!3m6!1s0x39642c17047ee4d9:0x77c8d9fa36ae60e4!8m2!3d24.0834326!4d75.0810227!16s%2Fg%2F11g7_fl7y8!19sChIJ2eR-BBcsZDkR5GCuNvrZyHc?authuser=0&hl=en&rclk=1",
        "coordinates": {
            "latitude": 24.0834326,
            "longitude": 75.08102269999999
        }
    },
    {
        "name": "husainii msjid jaipuraa",
        "main_category": "Mosque",
        "address": "23VG+P9R husainii msjid jaipuraa, Khilchipura, Madhya Pradesh 458002",
        "detailed_address": {
            "ward": null,
            "street": "23VG+P9R",
            "city": "Khilchipura",
            "postal_code": "458002",
            "state": "Madhya Pradesh",
            "country_code": "IN"
        },
        "images": [
            {
                "about": "All",
                "link": "https://lh5.googleusercontent.com/p/AF1QipOIsaHuWZ4oV51L2Xzu7KmqoyokPGkx5Vd_Gywt=w397-h298-k-no"
            },
            {
                "about": "Dome",
                "link": "https://lh5.googleusercontent.com/p/AF1QipOCMBRzz0SxxQb5jE9-bx4aCwMIDGrGDEsWAsKS=w224-h398-k-no"
            },
            {
                "about": "Videos",
                "link": "https://lh5.googleusercontent.com/p/AF1QipOyTdojxQUXtSK46aGAGdZjrj1xP1e0PakTbEM2=w529-h298-k-no"
            },
            {
                "about": "Street View & 360deg",
                "link": "https://streetviewpixels-pa.googleapis.com/v1/thumbnail?panoid=9fGXfGehNA5xw0MVBINqOw&cb_client=maps_sv.tactile.gps&w=224&h=298&yaw=323.49985&pitch=0&thumbfov=100"
            }
        ],
        "link": "https://www.google.com/maps/place/%E0%A4%B9%E0%A5%81%E0%A4%B8%E0%A5%88%E0%A4%A8%E0%A5%80+%E0%A4%AE%E0%A4%B8%E0%A4%9C%E0%A4%BF%E0%A4%A6+%E0%A4%9C%E0%A5%88%E0%A4%AA%E0%A5%81%E0%A4%B0%E0%A4%BE/data=!4m7!3m6!1s0x39642f08ac708507:0x19c8cbf6e7841303!8m2!3d24.0443547!4d75.0759043!16s%2Fg%2F11f5t4sfl3!19sChIJB4VwrAgvZDkRAxOE5_bLyBk?authuser=0&hl=en&rclk=1",
        "coordinates": {
            "latitude": 24.0443547,
            "longitude": 75.07590429999999
        }
    },
    {
        "name": "Madina Masjid mdn msjd",
        "main_category": "Mosque",
        "address": "22R6+J9G Madina Masjid mdn msjd, Malyakhedi, Madhya Pradesh 458002",
        "detailed_address": {
            "ward": null,
            "street": "22R6+J9G",
            "city": "Malyakhedi",
            "postal_code": "458002",
            "state": "Madhya Pradesh",
            "country_code": "IN"
        },
        "images": [
            {
                "about": "All",
                "link": "https://lh5.googleusercontent.com/p/AF1QipO2VanZYEbhaOnTOnJdn1xvlkaGSN7MJmb4leiR=w529-h298-k-no"
            },
            {
                "about": "Videos",
                "link": "https://lh5.googleusercontent.com/p/AF1QipOmQK8EZSFIUXGkLi28lw_7qyjVDjfcvSgOR512=w224-h395-k-no"
            }
        ],
        "link": "https://www.google.com/maps/place/Madina+Masjid+%D9%85%D8%AF%D9%86%D8%A7+%D9%85%D8%B3%D8%AC%D8%AF%E2%80%AD/data=!4m7!3m6!1s0x3964299f046759bb:0x1af25b023a39e747!8m2!3d24.0415733!4d75.0109396!16s%2Fg%2F11c6ccpqw2!19sChIJu1lnBJ8pZDkRR-c5OgJb8ho?authuser=0&hl=en&rclk=1",
        "coordinates": {
            "latitude": 24.0415733,
            "longitude": 75.0109396
        }
    },
    {
        "name": "Sunni Ali Asger Masjid",
        "main_category": "Mosque",
        "address": "3346+PV3 Sunni Ali Asger Masjid, Ashok nager colony, Mandsaur, Madhya Pradesh",
        "detailed_address": {
            "ward": "Dhan Mandi",
            "street": "3346+PV3, Ashok nager colony",
            "city": "Mandsaur",
            "postal_code": null,
            "state": "Madhya Pradesh",
            "country_code": "IN"
        },
        "images": [
            {
                "about": "All",
                "link": "https://lh5.googleusercontent.com/p/AF1QipMvOUdONBYbZPl5OPf1TpF7YCl_6gzE-k7nqu9X=w541-h298-k-no"
            },
            {
                "about": "Videos",
                "link": "https://lh5.googleusercontent.com/p/AF1QipMvOUdONBYbZPl5OPf1TpF7YCl_6gzE-k7nqu9X=w541-h298-k-no"
            }
        ],
        "link": "https://www.google.com/maps/place/Sunni+Ali+Asger+Masjid/data=!4m7!3m6!1s0x39642ead447a4f91:0xb7185b72ff72c3d6!8m2!3d24.0567687!4d75.0621789!16s%2Fg%2F11g6rks_b7!19sChIJkU96RK0uZDkR1sNy_3JbGLc?authuser=0&hl=en&rclk=1",
        "coordinates": {
            "latitude": 24.0567687,
            "longitude": 75.06217889999999
        }
    },
    {
        "name": "Behro Ki Masjid",
        "main_category": "Mosque",
        "address": "3339+XFX Behro Ki Masjid, Dhan Mandi, Mandsaur, Madhya Pradesh 458002",
        "detailed_address": {
            "ward": "Dhan Mandi",
            "street": "3339+XFX",
            "city": "Mandsaur",
            "postal_code": "458002",
            "state": "Madhya Pradesh",
            "country_code": "IN"
        },
        "images": [
            {
                "about": "All",
                "link": "https://lh5.googleusercontent.com/p/AF1QipPHgpOIaHK9cc3v0Cb8ocVk6tGRAJp4rM-eUjY1=w397-h298-k-no"
            },
            {
                "about": "Videos",
                "link": "https://lh5.googleusercontent.com/p/AF1QipNkyfmVAsq9HQNkZCi-xBmDVLZc9jV1P8jnr1w_=w224-h327-k-no"
            }
        ],
        "link": "https://www.google.com/maps/place/Behro+Ki+Masjid/data=!4m7!3m6!1s0x39642eb1bf5b3c39:0x93cc62278e84b449!8m2!3d24.0549835!4d75.0687194!16s%2Fg%2F11c7s_bm8d!19sChIJOTxbv7EuZDkRSbSEjidizJM?authuser=0&hl=en&rclk=1",
        "coordinates": {
            "latitude": 24.0549835,
            "longitude": 75.06871939999999
        }
    },
    {
        "name": "Tayyebi Masjid",
        "main_category": "Mosque",
        "address": "335F+G49 Tayyebi Masjid, Sarafa Bazar, Mandsaur, Madhya Pradesh 458002",
        "detailed_address": {
            "ward": "Sarafa Bazar",
            "street": "335F+G49",
            "city": "Mandsaur",
            "postal_code": "458002",
            "state": "Madhya Pradesh",
            "country_code": "IN"
        },
        "images": [],
        "link": "https://www.google.com/maps/place/Tayyebi+Masjid/data=!4m7!3m6!1s0x39642ea56212565b:0xa2c3022a0d41d184!8m2!3d24.058777!4d75.0728507!16s%2Fg%2F11bxfk3ryv!19sChIJW1YSYqUuZDkRhNFBDSoCw6I?authuser=0&hl=en&rclk=1",
        "coordinates": {
            "latitude": 24.058777,
            "longitude": 75.0728507
        }
    },
    {
        "name": "Hazrat Miyaji Sarkar dargah Mosque",
        "main_category": "Mosque",
        "address": "336H+MC5 Hazrat Miyaji Sarkar dargah Mosque, Sarafa Bazar, Mandsaur, Madhya Pradesh 458002",
        "detailed_address": {
            "ward": "Sarafa Bazar",
            "street": "336H+MC5",
            "city": "Mandsaur",
            "postal_code": "458002",
            "state": "Madhya Pradesh",
            "country_code": "IN"
        },
        "images": [
            {
                "about": "All",
                "link": "https://lh5.googleusercontent.com/p/AF1QipNCVScEm8sN2iwm4YPmHYRZoA2xbe3B92f04qcB=w270-h298-k-no"
            },
            {
                "about": "Dome",
                "link": "https://lh5.googleusercontent.com/p/AF1QipNJG5SefVxTuOTMwQ306ELj46UcWEnSZn2sE6y-=w662-h298-k-no"
            },
            {
                "about": "Videos",
                "link": "https://lh5.googleusercontent.com/p/AF1QipNnn_k3nLBm9OF2L5lSF0Y45MfKcReCov0Tuvoa=w298-h298-k-no"
            }
        ],
        "link": "https://www.google.com/maps/place/Hazrat+Miyaji+Sarkar+dargah+Mosque/data=!4m7!3m6!1s0x39642fe22d59ebed:0xd2652acb5527116f!8m2!3d24.0616448!4d75.0785965!16s%2Fg%2F11f66gx83q!19sChIJ7etZLeIvZDkRbxEnVcsqZdI?authuser=0&hl=en&rclk=1",
        "coordinates": {
            "latitude": 24.0616448,
            "longitude": 75.0785965
        }
    },
    {
        "name": "Ayyubi Masjid Neem Chowk",
        "main_category": "Mosque",
        "address": "335F+JC9 Ayyubi Masjid Neem Chowk, Neem Chowk, Sarafa Bazar, Mandsaur, Madhya Pradesh 458002",
        "detailed_address": {
            "ward": "Sarafa Bazar",
            "street": "335F+JC9, Neem Chowk",
            "city": "Mandsaur",
            "postal_code": "458002",
            "state": "Madhya Pradesh",
            "country_code": "IN"
        },
        "images": [],
        "link": "https://www.google.com/maps/place/Ayyubi+Masjid+Neem+Chowk/data=!4m7!3m6!1s0x39642ea56fb55a4b:0x7bfc54059dde88dc!8m2!3d24.0590287!4d75.0736048!16s%2Fg%2F11ddxmm6jm!19sChIJS1q1b6UuZDkR3IjenQVU_Hs?authuser=0&hl=en&rclk=1",
        "coordinates": {
            "latitude": 24.0590287,
            "longitude": 75.0736048
        }
    },
    {
        "name": "EIDGAH MASJID",
        "main_category": "Mosque",
        "address": "3347+65M EIDGAH MASJID, Dhan Mandi, Kanpura, Mandsaur, Madhya Pradesh 458002",
        "detailed_address": {
            "ward": "Dhan Mandi",
            "street": "3347+65M",
            "city": "Kanpura, Mandsaur",
            "postal_code": "458002",
            "state": "Madhya Pradesh",
            "country_code": "IN"
        },
        "images": [
            {
                "about": "All",
                "link": "https://lh5.googleusercontent.com/p/AF1QipNWdun77Mfo0op_ynBNbRnCc9sXH6r3AlWm2APM=w529-h298-k-no"
            },
            {
                "about": "Dome",
                "link": "https://lh5.googleusercontent.com/p/AF1QipMYR0gBe-2sDG7_YS8zAjyHDhuIuzjbq-1dEC4x=w264-h298-k-no"
            },
            {
                "about": "Videos",
                "link": "https://lh5.googleusercontent.com/p/AF1QipMz54Vdd6bsp3MerCnIk3xw2WezATkZxY7QpIEh=w224-h398-k-no"
            },
            {
                "about": "Street View & 360deg",
                "link": "https://streetviewpixels-pa.googleapis.com/v1/thumbnail?panoid=LawulGYtS9oNF8kqelRjrw&cb_client=maps_sv.tactile.gps&w=224&h=298&yaw=153.70956&pitch=0&thumbfov=100"
            }
        ],
        "link": "https://www.google.com/maps/place/EIDGAH+MASJID/data=!4m7!3m6!1s0x39642eb29eaf58f9:0xb9751d5937fd4ae3!8m2!3d24.0555805!4d75.0629134!16s%2Fg%2F11dz57gqxt!19sChIJ-VivnrIuZDkR40r9N1kddbk?authuser=0&hl=en&rclk=1",
        "coordinates": {
            "latitude": 24.055580499999998,
            "longitude": 75.0629134
        }
    },
    {
        "name": "mewatipura masjid (Masjid-E-Gaus-E-Azam)",
        "main_category": "Mosque",
        "address": "3398+7PP mewatipura masjid (Masjid-E-Gaus-E-Azam), Bhatrewas, Mandsaur, Madhya Pradesh 458001",
        "detailed_address": {
            "ward": "Bhatrewas",
            "street": "3398+7PP",
            "city": "Mandsaur",
            "postal_code": "458001",
            "state": "Madhya Pradesh",
            "country_code": "IN"
        },
        "images": [
            {
                "about": "All",
                "link": "https://lh5.googleusercontent.com/p/AF1QipNhKhIM3LEQV5wpxcwVybVGROytOTg1BktylZKl=w224-h298-k-no"
            },
            {
                "about": "Street View & 360deg",
                "link": "https://streetviewpixels-pa.googleapis.com/v1/thumbnail?panoid=EJQONhxDfPVBRmz857NDnA&cb_client=maps_sv.tactile.gps&w=224&h=298&yaw=201.9173&pitch=0&thumbfov=100"
            },
            {
                "about": "Videos",
                "link": "https://lh5.googleusercontent.com/p/AF1QipNqoxT2Pmk32C9OTXttACyDLfsWTIeDOQ6FYld_=w259-h298-k-no"
            }
        ],
        "link": "https://www.google.com/maps/place/mewatipura+masjid+%28Masjid-E-Gaus-E-Azam%29/data=!4m7!3m6!1s0x39642c01ff254f1b:0xf419e6f4f7889547!8m2!3d24.0682049!4d75.0668161!16s%2Fg%2F11f1h9f5nt!19sChIJG08l_wEsZDkRR5WI9_TmGfQ?authuser=0&hl=en&rclk=1",
        "coordinates": {
            "latitude": 24.068204899999998,
            "longitude": 75.0668161
        }
    },
    {
        "name": "Dargaah Godaar Shah Baba",
        "main_category": "Mosque",
        "address": "32QH+C59 Dargaah Godaar Shah Baba, Mandsaur, Madhya Pradesh 458002",
        "detailed_address": {
            "ward": null,
            "street": "32QH+C59",
            "city": "Mandsaur",
            "postal_code": "458002",
            "state": "Madhya Pradesh",
            "country_code": "IN"
        },
        "images": [
            {
                "about": "All",
                "link": "https://lh5.googleusercontent.com/p/AF1QipPPcGNhjV9bw9hXZjPA7slm1bYdjEMG4COEMpA8=w397-h298-k-no"
            },
            {
                "about": "Dome",
                "link": "https://lh5.googleusercontent.com/p/AF1QipN5MEvQziqLe1jWXEkaX1gl9XEkeTChszi1HOi9=w397-h298-k-no"
            },
            {
                "about": "Videos",
                "link": "https://lh5.googleusercontent.com/p/AF1QipNtSstkfEhXwPsZURXUBPA-SpWhljvMH8wPKzcA=w224-h395-k-no"
            }
        ],
        "link": "https://www.google.com/maps/place/Dargaah+Godaar+Shah+Baba/data=!4m7!3m6!1s0x39642bb869a2dfd1:0xbf2937b86bbc4ece!8m2!3d24.0885473!4d75.0279944!16s%2Fg%2F11gbfgnp5s!19sChIJ0d-iabgrZDkRzk68a7g3Kb8?authuser=0&hl=en&rclk=1",
        "coordinates": {
            "latitude": 24.0885473,
            "longitude": 75.0279944
        }
    },
    {
        "name": "Imambada Purana Ksaiwada",
        "main_category": "Mosque",
        "address": "335C+8J4 Imambada Purana Ksaiwada, Sarafa Bazar, Mandsaur, Madhya Pradesh 458002",
        "detailed_address": {
            "ward": "Sarafa Bazar",
            "street": "335C+8J4",
            "city": "Mandsaur",
            "postal_code": "458002",
            "state": "Madhya Pradesh",
            "country_code": "IN"
        },
        "images": [
            {
                "about": "All",
                "link": "https://lh5.googleusercontent.com/p/AF1QipMvFTjw2hJ7BBGzuEl1pL2joK6iRlpNxscWc4Od=w224-h398-k-no"
            },
            {
                "about": "Videos",
                "link": "https://lh5.googleusercontent.com/p/AF1QipOFwWLO92Zadaym1of5XRZKtnnNxWiqAIMKmz-X=w224-h398-k-no"
            }
        ],
        "link": "https://www.google.com/maps/place/Imambada+Purana+Ksaiwada/data=!4m7!3m6!1s0x39642f9d927e1377:0xacff668c45754b3f!8m2!3d24.0582579!4d75.0715891!16s%2Fg%2F11h2h7mq35!19sChIJdxN-kp0vZDkRP0t1RYxm_6w?authuser=0&hl=en&rclk=1",
        "coordinates": {
            "latitude": 24.058257899999997,
            "longitude": 75.0715891
        }
    },
    {
        "name": "Sunni Barelvi Rahmani Masjid",
        "main_category": "Mosque",
        "address": "335C+X42 Sunni Barelvi Rahmani Masjid, Sarafa Bazar, Mandsaur, Madhya Pradesh 458002",
        "detailed_address": {
            "ward": "Sarafa Bazar",
            "street": "335C+X42",
            "city": "Mandsaur",
            "postal_code": "458002",
            "state": "Madhya Pradesh",
            "country_code": "IN"
        },
        "images": [
            {
                "about": "All",
                "link": "https://lh5.googleusercontent.com/p/AF1QipPw3Ha18SvVDoBXMKhcMxqTwl7wwQev415t5Izm=w397-h298-k-no"
            },
            {
                "about": "Street View & 360deg",
                "link": "https://streetviewpixels-pa.googleapis.com/v1/thumbnail?panoid=uZ2YgzsCiSWlejdl-_BbTA&cb_client=maps_sv.tactile.gps&w=224&h=298&yaw=89.380775&pitch=0&thumbfov=100"
            }
        ],
        "link": "https://www.google.com/maps/place/Sunni+Barelvi+Rahmani+Masjid/data=!4m7!3m6!1s0x39642eaf06e7ff3f:0xf5d5c67854a3cade!8m2!3d24.0598939!4d75.070275!16s%2Fg%2F11hbq9qx4k!19sChIJP__nBq8uZDkR3sqjVHjG1fU?authuser=0&hl=en&rclk=1",
        "coordinates": {
            "latitude": 24.0598939,
            "longitude": 75.070275
        }
    },
    {
        "name": "Masjid",
        "main_category": "Mosque",
        "address": "2XHR+MXJ Masjid, Acheri, Madhya Pradesh 458002",
        "detailed_address": {
            "ward": null,
            "street": "2XHR+MXJ",
            "city": "Acheri",
            "postal_code": "458002",
            "state": "Madhya Pradesh",
            "country_code": "IN"
        },
        "images": [],
        "link": "https://www.google.com/maps/place/Masjid/data=!4m7!3m6!1s0x396429b88d6a88e1:0xeb17125a25da02a4!8m2!3d24.029217!4d74.9923771!16s%2Fg%2F11dx8mz80q!19sChIJ4YhqjbgpZDkRpALaJVoSF-s?authuser=0&hl=en&rclk=1",
        "coordinates": {
            "latitude": 24.029217,
            "longitude": 74.9923771
        }
    },
    {
        "name": "Nalband Chowk Ki Masjid",
        "main_category": "Mosque",
        "address": "336G+23J Nalband Chowk Ki Masjid, Sarafa Bazar, Mandsaur, Madhya Pradesh 458002",
        "detailed_address": {
            "ward": "Sarafa Bazar",
            "street": "336G+23J",
            "city": "Mandsaur",
            "postal_code": "458002",
            "state": "Madhya Pradesh",
            "country_code": "IN"
        },
        "images": [
            {
                "about": "All",
                "link": "https://lh5.googleusercontent.com/p/AF1QipOQYmdl2Y-ww7MRaw6lSXEIYhwi7N-uew-N9ok_=w224-h298-k-no"
            },
            {
                "about": "Dome",
                "link": "https://lh5.googleusercontent.com/p/AF1QipM0gl34eJ64vYfOu2fAo-av1uXBuED3z1yvKSyD=w224-h298-k-no"
            },
            {
                "about": "Videos",
                "link": "https://lh5.googleusercontent.com/p/AF1QipMJQ7pZ_E_n-KdELbnKNeoWgnwbd1Vmqutk69q-=w298-h298-k-no"
            }
        ],
        "link": "https://www.google.com/maps/place/Nalband+Chowk+Ki+Masjid/data=!4m7!3m6!1s0x39642f107ca3b98f:0x51b3f24a2089e1ef!8m2!3d24.0600819!4d75.075128!16s%2Fg%2F11f9fgg6yc!19sChIJj7mjfBAvZDkR7-GJIErys1E?authuser=0&hl=en&rclk=1",
        "coordinates": {
            "latitude": 24.0600819,
            "longitude": 75.07512799999999
        }
    },
    {
        "name": "Noorani masjid",
        "main_category": "Mosque",
        "address": "23VC+9RF Noorani masjid, Khilchipura, Madhya Pradesh 458002",
        "detailed_address": {
            "ward": null,
            "street": "23VC+9RF",
            "city": "Khilchipura",
            "postal_code": "458002",
            "state": "Madhya Pradesh",
            "country_code": "IN"
        },
        "images": [],
        "link": "https://www.google.com/maps/place/Noorani+masjid/data=!4m7!3m6!1s0x39642ec86df08233:0x55fe79968f94349a!8m2!3d24.0434303!4d75.072033!16s%2Fg%2F11hcw7fmp9!19sChIJM4LwbcguZDkRmjSUj5Z5_lU?authuser=0&hl=en&rclk=1",
        "coordinates": {
            "latitude": 24.043430299999997,
            "longitude": 75.07203299999999
        }
    },
    {
        "name": "Masjid Siddiq E Akbar",
        "main_category": "Mosque",
        "address": "Masjid Siddiq E Akbar, Aastana Mohalla, 458002, Mandsaur, Madhya Pradesh",
        "detailed_address": {
            "ward": "Sarafa Bazar",
            "street": "Aastana Mohalla, 458002",
            "city": "Mandsaur",
            "postal_code": null,
            "state": "Madhya Pradesh",
            "country_code": "IN"
        },
        "images": [
            {
                "about": "All",
                "link": "https://lh5.googleusercontent.com/p/AF1QipMUaTV9X4BpJRmueqM54m5nx6TstESknvWo84cB=w397-h298-k-no"
            },
            {
                "about": "Street View & 360deg",
                "link": "https://streetviewpixels-pa.googleapis.com/v1/thumbnail?panoid=pPzkSRtLK-Ui1ceoXkP9pg&cb_client=maps_sv.tactile.gps&w=224&h=298&yaw=295.61838&pitch=0&thumbfov=100"
            }
        ],
        "link": "https://www.google.com/maps/place/Masjid+Siddiq+E+Akbar/data=!4m7!3m6!1s0x39642ea4e180fb8f:0xdcb01d565862aa7f!8m2!3d24.0590023!4d75.0758838!16s%2Fg%2F11f0_gvmj5!19sChIJj_uA4aQuZDkRf6piWFYdsNw?authuser=0&hl=en&rclk=1",
        "coordinates": {
            "latitude": 24.0590023,
            "longitude": 75.0758838
        }
    },
    {
        "name": "Sunni Bhishtiyan masjid",
        "main_category": "Mosque",
        "address": "3359+WVG Sunni Bhishtiyan masjid, Dhan Mandi, Mandsaur, Madhya Pradesh 458002",
        "detailed_address": {
            "ward": "Dhan Mandi",
            "street": "3359+WVG",
            "city": "Mandsaur",
            "postal_code": "458002",
            "state": "Madhya Pradesh",
            "country_code": "IN"
        },
        "images": [
            {
                "about": "All",
                "link": "https://streetviewpixels-pa.googleapis.com/v1/thumbnail?panoid=a5ljOUTkWDaMF_F6F-XxhQ&cb_client=maps_sv.tactile.gps&w=224&h=298&yaw=117.26228&pitch=0&thumbfov=100"
            },
            {
                "about": "Street View & 360deg",
                "link": "https://streetviewpixels-pa.googleapis.com/v1/thumbnail?panoid=a5ljOUTkWDaMF_F6F-XxhQ&cb_client=maps_sv.tactile.gps&w=224&h=298&yaw=117.26228&pitch=0&thumbfov=100"
            }
        ],
        "link": "https://www.google.com/maps/place/Sunni+Bhishtiyan+masjid/data=!4m7!3m6!1s0x39642eaefe2637bb:0x329f304bed71fe4!8m2!3d24.059809!4d75.0696974!16s%2Fg%2F11gfjrxr49!19sChIJuzcm_q4uZDkR5B_XvgTzKQM?authuser=0&hl=en&rclk=1",
        "coordinates": {
            "latitude": 24.059808999999998,
            "longitude": 75.0696974
        }
    },
    {
        "name": "Nurani Masjid",
        "main_category": "Mosque",
        "address": "42P4+J38 Nurani Masjid, Bahi, Madhya Pradesh 458002",
        "detailed_address": {
            "ward": null,
            "street": "42P4+J38",
            "city": "Bahi",
            "postal_code": null,
            "state": "Madhya Pradesh",
            "country_code": "IN"
        },
        "images": [
            {
                "about": "All",
                "link": "https://lh5.googleusercontent.com/p/AF1QipMegTk6jDkQi47OOycniplE__60supWYPSqSFDc=w224-h298-k-no"
            },
            {
                "about": "Dome",
                "link": "https://lh5.googleusercontent.com/p/AF1QipOj7KV58pyQU1Yd4j2e6NrHjltd1Shr67HN9CYM=w224-h298-k-no"
            },
            {
                "about": "Street View & 360deg",
                "link": "https://streetviewpixels-pa.googleapis.com/v1/thumbnail?panoid=0Qu3nW-bdEAnYSRZlPIQlw&cb_client=maps_sv.tactile.gps&w=224&h=298&yaw=319.10022&pitch=0&thumbfov=100"
            }
        ],
        "link": "https://www.google.com/maps/place/Nurani+Masjid/data=!4m7!3m6!1s0x39642b51ec807f95:0xffa6878091b8a803!8m2!3d24.1365266!4d75.0052178!16s%2Fg%2F11h2n04tk6!19sChIJlX-A7FErZDkRA6i4kYCHpv8?authuser=0&hl=en&rclk=1",
        "coordinates": {
            "latitude": 24.1365266,
            "longitude": 75.0052178
        }
    },
    {
        "name": "Masjid E Gangi Khanpura (sunni)",
        "main_category": "Mosque",
        "address": "3349+QQ6 Masjid E Gangi Khanpura (sunni), khanpura, Dhan Mandi, Mandsaur, Madhya Pradesh 458002",
        "detailed_address": {
            "ward": "khanpura, Dhan Mandi",
            "street": "3349+QQ6",
            "city": "Mandsaur",
            "postal_code": null,
            "state": "Madhya Pradesh",
            "country_code": "IN"
        },
        "images": [
            {
                "about": "All",
                "link": "https://lh5.googleusercontent.com/p/AF1QipOxicViEcxopG9Yi98Javpr9S9ReI6Nwl1oa2uY=w529-h298-k-no"
            },
            {
                "about": "Street View & 360deg",
                "link": "https://streetviewpixels-pa.googleapis.com/v1/thumbnail?panoid=ghGCz8OUgzYVyrcYIh54sg&cb_client=maps_sv.tactile.gps&w=224&h=298&yaw=328.8879&pitch=0&thumbfov=100"
            }
        ],
        "link": "https://www.google.com/maps/place/Masjid+E+Gangi+Khanpura+%28sunni%29/data=!4m7!3m6!1s0x39642fb4f7891515:0x1fc88014203139d0!8m2!3d24.0569028!4d75.069394!16s%2Fg%2F11f9x9ct_r!19sChIJFRWJ97QvZDkR0DkxIBSAyB8?authuser=0&hl=en&rclk=1",
        "coordinates": {
            "latitude": 24.0569028,
            "longitude": 75.069394
        }
    },
    {
        "name": "Masjid e gosiya",
        "main_category": "Mosque",
        "address": "3367+HJQ Masjid e gosiya, Jankupura, Dhan Mandi, Mandsaur, Madhya Pradesh 458002",
        "detailed_address": {
            "ward": "Jankupura, Dhan Mandi",
            "street": "3367+HJQ",
            "city": "Mandsaur",
            "postal_code": "458002",
            "state": "Madhya Pradesh",
            "country_code": "IN"
        },
        "images": [],
        "link": "https://www.google.com/maps/place/Masjid+e+gosiya/data=!4m7!3m6!1s0x39642fde4e2e092f:0xd085161b0479b877!8m2!3d24.0614506!4d75.064108!16s%2Fg%2F11ftfbcw2v!19sChIJLwkuTt4vZDkRd7h5BBsWhdA?authuser=0&hl=en&rclk=1",
        "coordinates": {
            "latitude": 24.0614506,
            "longitude": 75.06410799999999
        }
    },
    {
        "name": "Masjid E Gushan E Khwaja",
        "main_category": "Mosque",
        "address": "33FH+934 Masjid E Gushan E Khwaja, Police Colony, Mandsaur, Madhya Pradesh 458002",
        "detailed_address": {
            "ward": "Police Colony",
            "street": "33FH+934",
            "city": "Mandsaur",
            "postal_code": "458002",
            "state": "Madhya Pradesh",
            "country_code": "IN"
        },
        "images": [
            {
                "about": "All",
                "link": "https://lh5.googleusercontent.com/p/AF1QipOfnzeHRvhgfpXu0HrjbLZdH5q4W-7jwdNqKaJz=w529-h298-k-no"
            }
        ],
        "link": "https://www.google.com/maps/place/Masjid+E+Gushan+E+Khwaja/data=!4m7!3m6!1s0x39642d47caf2c8cf:0x16afc278133ed810!8m2!3d24.073393!4d75.077712!16s%2Fg%2F11pl7bsq5h!19sChIJz8jyykctZDkRENg-E3jCrxY?authuser=0&hl=en&rclk=1",
        "coordinates": {
            "latitude": 24.073393,
            "longitude": 75.07771199999999
        }
    },
    {
        "name": "Masjid Kile Wale Miya Ji",
        "main_category": "Mosque",
        "address": "Masjid Kile Wale Miya Ji, collectorate, Near, Madhya Pradesh",
        "detailed_address": {
            "ward": "Sarafa Bazar",
            "street": "collectorate, Near",
            "city": "Mandsaur",
            "postal_code": null,
            "state": "Madhya Pradesh",
            "country_code": "IN"
        },
        "images": [],
        "link": "https://www.google.com/maps/place/Masjid+Kile+Wale+Miya+Ji/data=!4m7!3m6!1s0x39642f229322fa33:0xfca39642f3b7e4f!8m2!3d24.0617473!4d75.0782999!16s%2Fg%2F11f710t7bz!19sChIJM_oikyIvZDkRT347L2Q5yg8?authuser=0&hl=en&rclk=1",
        "coordinates": {
            "latitude": 24.0617473,
            "longitude": 75.07829989999999
        }
    },
    {
        "name": "Sunni Madeena Masjid",
        "main_category": "Mosque",
        "address": "3369+HQX Sunni Madeena Masjid, MP SH 14, Sarafa Bazar, Mandsaur, Madhya Pradesh 458002",
        "detailed_address": {
            "ward": "Sarafa Bazar",
            "street": "3369+HQX, MP SH 14",
            "city": "Mandsaur",
            "postal_code": "458002",
            "state": "Madhya Pradesh",
            "country_code": "IN"
        },
        "images": [
            {
                "about": "All",
                "link": "https://lh5.googleusercontent.com/p/AF1QipOPRguidIL6yhe0Akhq-gysTUMAOBFkqNdSFLzq=w224-h298-k-no"
            },
            {
                "about": "Dome",
                "link": "https://lh5.googleusercontent.com/p/AF1QipOPRguidIL6yhe0Akhq-gysTUMAOBFkqNdSFLzq=w224-h298-k-no"
            }
        ],
        "link": "https://www.google.com/maps/place/Sunni+Madeena+Masjid/data=!4m7!3m6!1s0x39642fec387ffdbf:0xf449f60b36482747!8m2!3d24.0614994!4d75.0694865!16s%2Fg%2F11fk047lg0!19sChIJv_1_OOwvZDkRRydINgv2SfQ?authuser=0&hl=en&rclk=1",
        "coordinates": {
            "latitude": 24.0614994,
            "longitude": 75.0694865
        }
    },
    {
        "name": "Markaz masjid mandsaur",
        "main_category": "Mosque",
        "address": "3388+J6J Markaz masjid mandsaur, Bhatrewas, Mandsaur, Madhya Pradesh 458001",
        "detailed_address": {
            "ward": "Bhatrewas",
            "street": "3388+J6J",
            "city": "Mandsaur",
            "postal_code": "458001",
            "state": "Madhya Pradesh",
            "country_code": "IN"
        },
        "images": [],
        "link": "https://www.google.com/maps/place/Markaz+masjid+mandsaur/data=!4m7!3m6!1s0x39642fe47f79239d:0xdee8668deb3fe734!8m2!3d24.0665928!4d75.0655294!16s%2Fg%2F11gxvsm_1b!19sChIJnSN5f-QvZDkRNOc_641m6N4?authuser=0&hl=en&rclk=1",
        "coordinates": {
            "latitude": 24.0665928,
            "longitude": 75.0655294
        }
    },
    {
        "name": "Masjid mehtab shaa baba rh.",
        "main_category": "Mosque",
        "address": "33J9+P2X Masjid mehtab shaa baba rh., Adinath Vihar, Nai Abaadi, Mandsaur, Madhya Pradesh 458001",
        "detailed_address": {
            "ward": "Adinath Vihar, Nai Abaadi",
            "street": "33J9+P2X",
            "city": "Mandsaur",
            "postal_code": "458001",
            "state": "Madhya Pradesh",
            "country_code": "IN"
        },
        "images": [
            {
                "about": "All",
                "link": "https://lh5.googleusercontent.com/p/AF1QipNvwL_iRFBMdSy-fWFWMK_jgzpaPlFSLfKhmqtN=w428-h298-k-no"
            },
            {
                "about": "Street View & 360deg",
                "link": "https://streetviewpixels-pa.googleapis.com/v1/thumbnail?panoid=IMDyrTR3hNaWS_CIcaxVBA&cb_client=maps_sv.tactile.gps&w=224&h=298&yaw=325.65652&pitch=0&thumbfov=100"
            }
        ],
        "link": "https://www.google.com/maps/place/Masjid+mehtab+shaa+baba+rh./data=!4m7!3m6!1s0x39642d1fe2721cf1:0x936d4c804d09e5e!8m2!3d24.0818538!4d75.067605!16s%2Fg%2F11rgh2603x!19sChIJ8Rxy4h8tZDkRXp7QBMjUNgk?authuser=0&hl=en&rclk=1",
        "coordinates": {
            "latitude": 24.081853799999998,
            "longitude": 75.067605
        }
    },
    {
        "name": "Dawoodi Bohra Qabrastan Mandsour",
        "main_category": "Religious destination",
        "address": "3398+VPV Dawoodi Bohra Qabrastan Mandsour, Kalakhet, Mandsaur, Madhya Pradesh 458001",
        "detailed_address": {
            "ward": "Kalakhet",
            "street": "3398+VPV",
            "city": "Mandsaur",
            "postal_code": "458001",
            "state": "Madhya Pradesh",
            "country_code": "IN"
        },
        "images": [
            {
                "about": "All",
                "link": "https://lh5.googleusercontent.com/p/AF1QipO3Jb1ELYyePMFMGn_YMgPX52bqS1cUCHo74hWS=w645-h298-k-no"
            },
            {
                "about": "Street View & 360deg",
                "link": "https://streetviewpixels-pa.googleapis.com/v1/thumbnail?panoid=hNG0S8yMua0ZFhIOphe4fg&cb_client=maps_sv.tactile.gps&w=224&h=298&yaw=90.26177&pitch=0&thumbfov=100"
            }
        ],
        "link": "https://www.google.com/maps/place/Dawoodi+Bohra+Qabrastan+Mandsour/data=!4m7!3m6!1s0x39642dfc2dad9741:0x72f2020db542a7ac!8m2!3d24.0697441!4d75.0667876!16s%2Fg%2F11q3rypj2w!19sChIJQZetLfwtZDkRrKdCtQ0C8nI?authuser=0&hl=en&rclk=1",
        "coordinates": {
            "latitude": 24.069744099999998,
            "longitude": 75.0667876
        }
    },
    {
        "name": "Daudkhedi Masjid",
        "main_category": "Mosque",
        "address": "32FG+GP6 Daudkhedi Masjid, Unnamed Road, Madhya Pradesh 458002",
        "detailed_address": {
            "ward": null,
            "street": "32FG+GP6, Unnamed Road",
            "city": "Daulatpura",
            "postal_code": "458002",
            "state": "Madhya Pradesh",
            "country_code": "IN"
        },
        "images": [
            {
                "about": "All",
                "link": "https://lh5.googleusercontent.com/p/AF1QipMk5DwpmnwXLz13iJMu6VqWlhz-0VUGdv3gVJ9w=w397-h298-k-no"
            }
        ],
        "link": "https://www.google.com/maps/place/Daudkhedi+Masjid/data=!4m7!3m6!1s0x39642b6ac5608e63:0x78634ef670701022!8m2!3d24.0737851!4d75.0267616!16s%2Fg%2F11h75pfcn_!19sChIJY45gxWorZDkRIhBwcPZOY3g?authuser=0&hl=en&rclk=1",
        "coordinates": {
            "latitude": 24.0737851,
            "longitude": 75.0267616
        }
    },
    {
        "name": "Gulshan e madina masjid",
        "main_category": "Mosque",
        "address": "335F+JF5 Gulshan e madina masjid, Sarafa Bazar, Mandsaur, Madhya Pradesh 458002",
        "detailed_address": {
            "ward": "Sarafa Bazar",
            "street": "335F+JF5",
            "city": "Mandsaur",
            "postal_code": "458002",
            "state": "Madhya Pradesh",
            "country_code": "IN"
        },
        "images": [],
        "link": "https://www.google.com/maps/place/Gulshan+e+madina+masjid/data=!4m7!3m6!1s0x39642f9f8a582157:0xdbb03febe565c3c5!8m2!3d24.0590124!4d75.0737373!16s%2Fg%2F11jdkyh477!19sChIJVyFYip8vZDkRxcNl5es_sNs?authuser=0&hl=en&rclk=1",
        "coordinates": {
            "latitude": 24.0590124,
            "longitude": 75.07373729999999
        }
    },
    {
        "name": "aasn saiy'yd ausaan saiy'yd drgaah",
        "main_category": "Mosque",
        "address": "336G+3C8 aasn saiy'yd ausaan saiy'yd drgaah, Kanch Ki Masjid Rd, Sarafa Bazar, Mandsaur, Madhya Pradesh 458002",
        "detailed_address": {
            "ward": "Sarafa Bazar",
            "street": "336G+3C8, Kanch Ki Masjid Rd",
            "city": "Mandsaur",
            "postal_code": "458002",
            "state": "Madhya Pradesh",
            "country_code": "IN"
        },
        "images": [
            {
                "about": "All",
                "link": "https://lh5.googleusercontent.com/p/AF1QipMlQf1KQnwglmerF06fM-EEcPiRHZexDzxCF5f6=w224-h398-k-no"
            },
            {
                "about": "Dome",
                "link": "https://lh5.googleusercontent.com/p/AF1QipNKWRegKgxxudj4h51-9YeZmi8RdHKR1An26HuN=w529-h298-k-no"
            }
        ],
        "link": "https://www.google.com/maps/place/%E0%A4%86%E0%A4%B8%E0%A4%A8+%E0%A4%B8%E0%A5%88%E0%A4%AF%E0%A4%BC%E0%A5%8D%E0%A4%AF%E0%A4%A6+%E0%A4%94%E0%A4%B8%E0%A4%BE%E0%A4%A8+%E0%A4%B8%E0%A5%88%E0%A4%AF%E0%A4%BC%E0%A5%8D%E0%A4%AF%E0%A4%A6+%E0%A4%A6%E0%A4%B0%E0%A4%97%E0%A4%BE%E0%A4%B9/data=!4m7!3m6!1s0x39642ff242a13611:0xa4d92f020251bc6c!8m2!3d24.0601536!4d75.0760786!16s%2Fg%2F11qf_vtwkg!19sChIJETahQvIvZDkRbLxRAgIv2aQ?authuser=0&hl=en&rclk=1",
        "coordinates": {
            "latitude": 24.0601536,
            "longitude": 75.0760786
        }
    },
    {
        "name": "Hazrat Bakkshu Sayyed RH",
        "main_category": "Mosque",
        "address": "335C+CMX Hazrat Bakkshu Sayyed RH, Sarafa Bazar, Mandsaur, Madhya Pradesh 458002",
        "detailed_address": {
            "ward": "Sarafa Bazar",
            "street": "335C+CMX",
            "city": "Mandsaur",
            "postal_code": "458002",
            "state": "Madhya Pradesh",
            "country_code": "IN"
        },
        "images": [
            {
                "about": "All",
                "link": "https://lh5.googleusercontent.com/p/AF1QipMyhiS3BLB3QuP2gj7XHww2YD6RVwloxIowJejZ=w224-h298-k-no"
            }
        ],
        "link": "https://www.google.com/maps/place/Hazrat+Bakkshu+Sayyed+RH/data=!4m7!3m6!1s0x39642fd4af83499f:0x4a5b2dda5cc06224!8m2!3d24.0586218!4d75.0717441!16s%2Fg%2F11lgvhn_9d!19sChIJn0mDr9QvZDkRJGLAXNotW0o?authuser=0&hl=en&rclk=1",
        "coordinates": {
            "latitude": 24.058621799999997,
            "longitude": 75.0717441
        }
    },
    {
        "name": "CT/PT Toilet Eidgah Masjid , Mandsaur",
        "main_category": "Public bathroom",
        "address": "CT/PT Toilet Eidgah Masjid , Mandsaur, EIDGAH MASJID, Dhan Mandi, Mandsaur, Madhya Pradesh 458002",
        "detailed_address": {
            "ward": "Dhan Mandi",
            "street": "EIDGAH MASJID",
            "city": "Mandsaur",
            "postal_code": "458002",
            "state": "Madhya Pradesh",
            "country_code": "IN"
        },
        "images": [
            {
                "about": "All",
                "link": "https://lh5.googleusercontent.com/p/AF1QipMw60X_DP95zMPM8WHeGHIS9mnAF2FsBEF3m2J9=w529-h298-k-no"
            }
        ],
        "link": "https://www.google.com/maps/place/CT%2FPT+Toilet+Eidgah+Masjid+,+Mandsaur/data=!4m7!3m6!1s0x39642f9794bce029:0x80dbb4f6cc4187a7!8m2!3d24.0557981!4d75.0638181!16s%2Fg%2F11fp3rxgx4!19sChIJKeC8lJcvZDkRp4dBzPa024A?authuser=0&hl=en&rclk=1",
        "coordinates": {
            "latitude": 24.0557981,
            "longitude": 75.06381809999999
        }
    },
    {
        "name": "Subji-faroshan Masjid",
        "main_category": "Mosque",
        "address": "Subji-faroshan Masjid, 226, Collectorate Rd, Sarafa Bazar, Mandsaur, Madhya Pradesh 458002",
        "detailed_address": {
            "ward": "Sarafa Bazar",
            "street": "226, Collectorate Rd",
            "city": "Mandsaur",
            "postal_code": "458002",
            "state": "Madhya Pradesh",
            "country_code": "IN"
        },
        "images": [],
        "link": "https://www.google.com/maps/place/Subji-faroshan+Masjid/data=!4m7!3m6!1s0x39642f8ad9ce2ced:0xf22f803b360645eb!8m2!3d24.0619632!4d75.0760063!16s%2Fg%2F11p5j3n3sw!19sChIJ7SzO2YovZDkR60UGNjuAL_I?authuser=0&hl=en&rclk=1",
        "coordinates": {
            "latitude": 24.061963199999997,
            "longitude": 75.0760063
        }
    },
    {
        "name": "Jama masjid",
        "main_category": "Mosque",
        "address": "Jama masjid, 14, Kandoya Gali, Sarafa Bazar, Mandsaur, Madhya Pradesh 458002",
        "detailed_address": {
            "ward": "Sarafa Bazar",
            "street": "14, Kandoya Gali",
            "city": "Mandsaur",
            "postal_code": "458002",
            "state": "Madhya Pradesh",
            "country_code": "IN"
        },
        "images": [],
        "link": "https://www.google.com/maps/place/Jama+masjid/data=!4m7!3m6!1s0x39642f13302f881b:0x48954c0d18fae63d!8m2!3d24.0613735!4d75.0751792!16s%2Fg%2F11jzm_s27v!19sChIJG4gvMBMvZDkRPeb6GA1MlUg?authuser=0&hl=en&rclk=1",
        "coordinates": {
            "latitude": 24.0613735,
            "longitude": 75.0751792
        }
    },
    {
        "name": "Hussaini masjid",
        "main_category": "Mosque",
        "address": "Hussaini masjid, 308, Janta Colony, Mandsaur, Madhya Pradesh 458001",
        "detailed_address": {
            "ward": "Janta Colony",
            "street": "308",
            "city": "Mandsaur",
            "postal_code": "458001",
            "state": "Madhya Pradesh",
            "country_code": "IN"
        },
        "images": [],
        "link": "https://www.google.com/maps/place/Hussaini+masjid/data=!4m7!3m6!1s0x39642b36c5c47bb7:0x2613b62fd574196a!8m2!3d24.0833632!4d75.0598489!16s%2Fg%2F11txrw8vqw!19sChIJt3vExTYrZDkRahl01S-2EyY?authuser=0&hl=en&rclk=1",
        "coordinates": {
            "latitude": 24.083363199999997,
            "longitude": 75.05984889999999
        }
    },
    {
        "name": "TODE KI MASJID",
        "main_category": "Mosque",
        "address": "TODE KI MASJID, Toda, Sarafa Bazar, Mandsaur, Madhya Pradesh 458002",
        "detailed_address": {
            "ward": "Sarafa Bazar",
            "street": "Toda",
            "city": "Mandsaur",
            "postal_code": "458002",
            "state": "Madhya Pradesh",
            "country_code": "IN"
        },
        "images": [],
        "link": "https://www.google.com/maps/place/TODE+KI+MASJID/data=!4m7!3m6!1s0x39642fc19fe99443:0x735cd59a9f6bfea4!8m2!3d24.0571729!4d75.0715815!16s%2Fg%2F11lgv44nd_!19sChIJQ5Tpn8EvZDkRpP5rn5rVXHM?authuser=0&hl=en&rclk=1",
        "coordinates": {
            "latitude": 24.057172899999998,
            "longitude": 75.0715815
        }
    },
    {
        "name": "Masjid ai gulshan ai khwaja",
        "main_category": "Mosque",
        "address": "Masjid ai gulshan ai khwaja, 181, Police Colony, Mandsaur, Madhya Pradesh 458002",
        "detailed_address": {
            "ward": "Police Colony",
            "street": "181",
            "city": "Mandsaur",
            "postal_code": "458002",
            "state": "Madhya Pradesh",
            "country_code": "IN"
        },
        "images": [
            {
                "about": "All",
                "link": "https://lh5.googleusercontent.com/p/AF1QipMd4c0bzYWuiw2nFQ_7dVsBqV3Ci3Zwl17O7nWf=w224-h331-k-no"
            },
            {
                "about": "Dome",
                "link": "https://lh5.googleusercontent.com/p/AF1QipMd4c0bzYWuiw2nFQ_7dVsBqV3Ci3Zwl17O7nWf=w224-h331-k-no"
            }
        ],
        "link": "https://www.google.com/maps/place/Masjid+ai+gulshan+ai+khwaja/data=!4m7!3m6!1s0x39642d43126c39a9:0xf75b676cff0e8d63!8m2!3d24.0734004!4d75.0777105!16s%2Fg%2F11sgnzqb1m!19sChIJqTlsEkMtZDkRY40O_2xnW_c?authuser=0&hl=en&rclk=1",
        "coordinates": {
            "latitude": 24.0734004,
            "longitude": 75.0777105
        }
    },
    {
        "name": "Husaini masjid sabjifrosh",
        "main_category": "Mosque",
        "address": "336G+P55 Husaini masjid sabjifrosh, Kila Rd, Sarafa Bazar, Mandsaur, Madhya Pradesh 458002",
        "detailed_address": {
            "ward": "Sarafa Bazar",
            "street": "336G+P55, Kila Rd",
            "city": "Mandsaur",
            "postal_code": "458002",
            "state": "Madhya Pradesh",
            "country_code": "IN"
        },
        "images": [],
        "link": "https://www.google.com/maps/place/Husaini+masjid+sabjifrosh/data=!4m7!3m6!1s0x39642f2cf224a6c7:0xa2140f4bef48e9fb!8m2!3d24.0617727!4d75.0754776!16s%2Fg%2F11tmstmn5c!19sChIJx6Yk8iwvZDkR--lI70sPFKI?authuser=0&hl=en&rclk=1",
        "coordinates": {
            "latitude": 24.0617727,
            "longitude": 75.0754776
        }
    },
    {
        "name": "Imli Wali Masjid E Jinnat (Sunni)",
        "main_category": "Mosque",
        "address": "335C+WMC Imli Wali Masjid E Jinnat (Sunni), Sarafa Bazar, Mandsaur, Madhya Pradesh 458002",
        "detailed_address": {
            "ward": "Sarafa Bazar",
            "street": "335C+WMC",
            "city": "Mandsaur",
            "postal_code": "458002",
            "state": "Madhya Pradesh",
            "country_code": "IN"
        },
        "images": [],
        "link": "https://www.google.com/maps/place/Imli+Wali+Masjid+E+Jinnat+%28Sunni%29/data=!4m7!3m6!1s0x39642fb0f6c61e83:0x35ca0b4a041edd2f!8m2!3d24.0598143!4d75.0716417!16s%2Fg%2F11rxms3v3h!19sChIJgx7G9rAvZDkRL90eBEoLyjU?authuser=0&hl=en&rclk=1",
        "coordinates": {
            "latitude": 24.0598143,
            "longitude": 75.0716417
        }
    },
    {
        "name": "msjid e oliyaa",
        "main_category": "Mosque",
        "address": "336F+C8M msjid e oliyaa, Sarafa Bazar, Mandsaur, Madhya Pradesh 458002",
        "detailed_address": {
            "ward": "Sarafa Bazar",
            "street": "336F+C8M",
            "city": "Mandsaur",
            "postal_code": "458002",
            "state": "Madhya Pradesh",
            "country_code": "IN"
        },
        "images": [
            {
                "about": "All",
                "link": "https://lh5.googleusercontent.com/p/AF1QipMlFNjv9shDvXpJrhumsn0lQUxP9RC51y8LwwB6=w224-h298-k-no"
            }
        ],
        "link": "https://www.google.com/maps/place/%E0%A4%AE%E0%A4%B8%E0%A5%8D%E0%A4%9C%E0%A4%BF%E0%A4%A6+%E0%A4%8F+%E0%A4%93%E0%A4%B2%E0%A4%BF%E0%A4%AF%E0%A4%BE/data=!4m7!3m6!1s0x39642f293fce82fb:0x220ab60fa0af7141!8m2!3d24.0610875!4d75.0732969!16s%2Fg%2F11t9n22lf9!19sChIJ-4LOPykvZDkRQXGvoA-2CiI?authuser=0&hl=en&rclk=1",
        "coordinates": {
            "latitude": 24.0610875,
            "longitude": 75.0732969
        }
    },
    {
        "name": "nhar sayyd dargah",
        "main_category": "Mosque",
        "address": "33F9+95C nhar sayyd dargah, Daloda Chopati, Kalakhet, Mandsaur, Madhya Pradesh 458001",
        "detailed_address": {
            "ward": "Daloda Chopati, Kalakhet",
            "street": "33F9+95C",
            "city": "Mandsaur",
            "postal_code": null,
            "state": "Madhya Pradesh",
            "country_code": "IN"
        },
        "images": [
            {
                "about": "All",
                "link": "https://streetviewpixels-pa.googleapis.com/v1/thumbnail?panoid=bH6k8s-ix0zVMgiutUuLVw&cb_client=maps_sv.tactile.gps&w=224&h=298&yaw=193.78328&pitch=0&thumbfov=100"
            },
            {
                "about": "Street View & 360deg",
                "link": "https://streetviewpixels-pa.googleapis.com/v1/thumbnail?panoid=bH6k8s-ix0zVMgiutUuLVw&cb_client=maps_sv.tactile.gps&w=224&h=298&yaw=193.78328&pitch=0&thumbfov=100"
            }
        ],
        "link": "https://www.google.com/maps/place/nhar+sayyd+dargah/data=!4m7!3m6!1s0x39642d52973a5897:0xef7436556ddfc9d6!8m2!3d24.0734356!4d75.0679018!16s%2Fg%2F11pz7qrp8x!19sChIJl1g6l1ItZDkR1snfbVU2dO8?authuser=0&hl=en&rclk=1",
        "coordinates": {
            "latitude": 24.0734356,
            "longitude": 75.0679018
        }
    },
    {
        "name": "Community Eidgah Dargah",
        "main_category": "Mosque",
        "address": "3336+VMJ Community Eidgah Dargah, Dhan Mandi, Mandsaur, Madhya Pradesh 458002",
        "detailed_address": {
            "ward": "Dhan Mandi",
            "street": "3336+VMJ",
            "city": "Mandsaur",
            "postal_code": "458002",
            "state": "Madhya Pradesh",
            "country_code": "IN"
        },
        "images": [],
        "link": "https://www.google.com/maps/place/Community+Eidgah+Dargah/data=!4m7!3m6!1s0x39642ffb32beaad3:0x5ff2d1d49d7ef5f2!8m2!3d24.0547076!4d75.0616283!16s%2Fg%2F11nnw52qmh!19sChIJ06q-MvsvZDkR8vV-ndTR8l8?authuser=0&hl=en&rclk=1",
        "coordinates": {
            "latitude": 24.0547076,
            "longitude": 75.0616283
        }
    },
    {
        "name": "Masjid e fatima, Chhajoo Khera,",
        "main_category": "School",
        "address": "33G9+PPM Masjid e fatima, Chhajoo Khera,, Shastri Colony, Nai Abaadi, Mandsaur, Madhya Pradesh 458001",
        "detailed_address": {
            "ward": "Shastri Colony, Nai Abaadi",
            "street": "33G9+PPM",
            "city": "Mandsaur",
            "postal_code": null,
            "state": "Madhya Pradesh",
            "country_code": "IN"
        },
        "images": [
            {
                "about": "All",
                "link": "https://lh5.googleusercontent.com/p/AF1QipOIFC4twqvDEgW5Ac02drif_KAawln5xIGB_4cC=w529-h298-k-no"
            }
        ],
        "link": "https://www.google.com/maps/place/Masjid+e+fatima,+Chhajoo+Khera,/data=!4m7!3m6!1s0x39642d26776f1389:0x543c7fa176832b3c!8m2!3d24.076843!4d75.06929!16s%2Fg%2F11h4ylshd4!19sChIJiRNvdyYtZDkRPCuDdqF_PFQ?authuser=0&hl=en&rclk=1",
        "coordinates": {
            "latitude": 24.076843,
            "longitude": 75.06929
        }
    }
]