[
    {
        "name": "Jamiya Masjid",
        "main_category": "Mosque",
        "address": "Q7WM+MVF Jamiya Masjid, Hosadurga, Karnataka 577527",
        "detailed_address": {
            "ward": null,
            "street": "Q7WM+MVF",
            "city": "Hosadurga",
            "postal_code": "577527",
            "state": "Karnataka",
            "country_code": "IN"
        },
        "images": [
            {
                "about": "All",
                "link": "https://lh5.googleusercontent.com/p/AF1QipNwRCvHBSFhYshORClK7zdoUtXBFT-ZzDWdR6V1=w397-h298-k-no"
            },
            {
                "about": "Dome",
                "link": "https://lh5.googleusercontent.com/p/AF1QipNCHoK30fMqMyB_egOW5sIdwcfgGYzHCDy_LA6i=w397-h298-k-no"
            },
            {
                "about": "Videos",
                "link": "https://lh5.googleusercontent.com/p/AF1QipPirvxQkaxIvMGkCS7fS1iVkbuOrOSZ5GGSr7tQ=w224-h398-k-no"
            },
            {
                "about": "Street View & 360deg",
                "link": "https://streetviewpixels-pa.googleapis.com/v1/thumbnail?panoid=v9SZr3F9Fescnz9mGyFm1A&cb_client=maps_sv.tactile.gps&w=224&h=298&yaw=333.6924&pitch=0&thumbfov=100"
            }
        ],
        "link": "https://www.google.com/maps/place/Jamiya+Masjid/data=!4m7!3m6!1s0x3bba85e4edd1e3c3:0x5a6e67a1e7053cf1!8m2!3d13.7966878!4d76.2846851!16s%2Fg%2F1hm2tfd6y!19sChIJw-PR7eSFujsR8TwF56Fnblo?authuser=0&hl=en&rclk=1",
        "coordinates": {
            "latitude": 13.796687799999999,
            "longitude": 76.28468509999999
        }
    },
    {
        "name": "masjid-e-quba",
        "main_category": "Mosque",
        "address": "Q7WQ+H48 masjid-e-quba, Hosadurga, Karnataka 577527",
        "detailed_address": {
            "ward": null,
            "street": "Q7WQ+H48",
            "city": "Hosadurga",
            "postal_code": "577527",
            "state": "Karnataka",
            "country_code": "IN"
        },
        "images": [
            {
                "about": "All",
                "link": "https://lh5.googleusercontent.com/p/AF1QipMCZkZj4UR_ds1LoeInptqQDyalOZGkaN67gugz=w224-h298-k-no"
            }
        ],
        "link": "https://www.google.com/maps/place/masjid-e-quba/data=!4m7!3m6!1s0x3bba85e42fb79323:0xb6c5d9e81b6082c1!8m2!3d13.7964044!4d76.2878262!16s%2Fg%2F11f2vx_893!19sChIJI5O3L-SFujsRwYJgG-jZxbY?authuser=0&hl=en&rclk=1",
        "coordinates": {
            "latitude": 13.7964044,
            "longitude": 76.2878262
        }
    },
    {
        "name": "Gousiya Masjid",
        "main_category": "Mosque",
        "address": "Gousiya Masjid, 2nd, Main Rd, Idgah Mohalla, Hosadurga, Karnataka 577527",
        "detailed_address": {
            "ward": "Idgah Mohalla",
            "street": "2nd, Main Rd",
            "city": "Hosadurga",
            "postal_code": "577527",
            "state": "Karnataka",
            "country_code": "IN"
        },
        "images": [],
        "link": "https://www.google.com/maps/place/Gousiya+Masjid/data=!4m7!3m6!1s0x3bba85fbf0f6ce27:0x37d8565983ab3c04!8m2!3d13.7975103!4d76.2777211!16s%2Fg%2F11cnc6lffs!19sChIJJ8728PuFujsRBDyrg1lW2Dc?authuser=0&hl=en&rclk=1",
        "coordinates": {
            "latitude": 13.797510299999999,
            "longitude": 76.2777211
        }
    },
    {
        "name": "Hazrath Abu Shah Khadri Dargah",
        "main_category": "Mosque",
        "address": "Q7XH+8RH Hazrath Abu Shah Khadri Dargah, Main Rd, Hosadurga, Karnataka 577527",
        "detailed_address": {
            "ward": null,
            "street": "Q7XH+8RH, Main Rd",
            "city": "Hosadurga",
            "postal_code": "577527",
            "state": "Karnataka",
            "country_code": "IN"
        },
        "images": [
            {
                "about": "All",
                "link": "https://lh5.googleusercontent.com/p/AF1QipM4HNsg7DH228rXtuOaRqw-7pE6U5cXtrq3On6j=w447-h298-k-no"
            },
            {
                "about": "Dome",
                "link": "https://lh5.googleusercontent.com/p/AF1QipOKrysY31_C3_Fqm0nvo0JD3Fc0xjkaJNUVPO_J=w298-h298-k-no"
            },
            {
                "about": "Videos",
                "link": "https://lh5.googleusercontent.com/p/AF1QipP93KgQVWkxUp6oKcbe383sFD7TQoukWJUBUGA8=w224-h398-k-no"
            },
            {
                "about": "Street View & 360deg",
                "link": "https://streetviewpixels-pa.googleapis.com/v1/thumbnail?panoid=K6WrlAelQ9-UwSZaZ7WGbg&cb_client=maps_sv.tactile.gps&w=224&h=298&yaw=164.65613&pitch=0&thumbfov=100"
            }
        ],
        "link": "https://www.google.com/maps/place/Hazrath+Abu+Shah+Khadri+Dargah/data=!4m7!3m6!1s0x3bba85fc7e9311d7:0x3c701fab71492f94!8m2!3d13.7983223!4d76.2796201!16s%2Fg%2F11b6zpcdqz!19sChIJ1xGTfvyFujsRlC9JcasfcDw?authuser=0&hl=en&rclk=1",
        "coordinates": {
            "latitude": 13.798322299999999,
            "longitude": 76.2796201
        }
    },
    {
        "name": "Aqsa Masjid",
        "main_category": "Mosque",
        "address": "Q7XP+VCX Aqsa Masjid, Kobripete, Hosadurga, Karnataka 577527",
        "detailed_address": {
            "ward": "Kobripete",
            "street": "Q7XP+VCX",
            "city": "Hosadurga",
            "postal_code": "577527",
            "state": "Karnataka",
            "country_code": "IN"
        },
        "images": [
            {
                "about": "All",
                "link": "https://lh5.googleusercontent.com/p/AF1QipOFvJrclBrWbTPRwa-_G4a7L8ACCoWIIpofOvk=w529-h298-k-no"
            },
            {
                "about": "Dome",
                "link": "https://lh5.googleusercontent.com/p/AF1QipM-o5zpGAtv_zQO71IDT6qcwuxB-CF5uhZFgaWm=w576-h298-k-no"
            }
        ],
        "link": "https://www.google.com/maps/place/Aqsa+Masjid/data=!4m7!3m6!1s0x3bba8556ec3cf8b3:0x17dc8dc241dc3344!8m2!3d13.7997387!4d76.2860953!16s%2Fg%2F11j2p5ck80!19sChIJs_g87FaFujsRRDPcQcKN3Bc?authuser=0&hl=en&rclk=1",
        "coordinates": {
            "latitude": 13.799738699999999,
            "longitude": 76.2860953
        }
    },
    {
        "name": "Masjid E Gouse Azam",
        "main_category": "Mosque",
        "address": "Q7WQ+6FJ Masjid E Gouse Azam, Gousiya Nagar, Hosadurga, Karnataka 577527",
        "detailed_address": {
            "ward": "Gousiya Nagar",
            "street": "Q7WQ+6FJ",
            "city": "Hosadurga",
            "postal_code": null,
            "state": "Karnataka",
            "country_code": "IN"
        },
        "images": [
            {
                "about": "All",
                "link": "https://lh5.googleusercontent.com/p/AF1QipPKtRyvLLLXyFWJkvnZ1ItEnPYRpAoFpc9PuBXl=w649-h298-k-no"
            },
            {
                "about": "Dome",
                "link": "https://lh5.googleusercontent.com/p/AF1QipMcRy3txB4uzM7d8x9ibwz35TFIrqCx5HOwRVcZ=w224-h448-k-no"
            }
        ],
        "link": "https://www.google.com/maps/place/Masjid+E+Gouse+Azam/data=!4m7!3m6!1s0x3bba85a01fde0021:0xec4455fac6397845!8m2!3d13.7955765!4d76.2886471!16s%2Fg%2F11qb8pm2kx!19sChIJIQDeH6CFujsRRXg5xvpVROw?authuser=0&hl=en&rclk=1",
        "coordinates": {
            "latitude": 13.7955765,
            "longitude": 76.28864709999999
        }
    },
    {
        "name": "Masjid E Ismail",
        "main_category": "Mosque",
        "address": "R73P+XXC Masjid E Ismail, Hosadurga, Karnataka 577527",
        "detailed_address": {
            "ward": null,
            "street": "R73P+XXC",
            "city": "Hosadurga",
            "postal_code": null,
            "state": "Karnataka",
            "country_code": "IN"
        },
        "images": [
            {
                "about": "All",
                "link": "https://lh5.googleusercontent.com/p/AF1QipPAlmUeBk-Yy8hX0J61Mak0oJJSlbm6KKJZW0ba=w224-h485-k-no"
            }
        ],
        "link": "https://www.google.com/maps/place/Masjid+E+%C4%B0smail/data=!4m7!3m6!1s0x3bba87849a8d08ed:0x15fee5c32068a0ea!8m2!3d13.804934!4d76.2873797!16s%2Fg%2F11qb8q79l8!19sChIJ7QiNmoSHujsR6qBoIMPl_hU?authuser=0&hl=en&rclk=1",
        "coordinates": {
            "latitude": 13.804934,
            "longitude": 76.2873797
        }
    },
    {
        "name": "Sunni Noorani Masjid",
        "main_category": "Mosque",
        "address": "R72C+4WX Sunni Noorani Masjid, Hosadurga, Karnataka 577527",
        "detailed_address": {
            "ward": null,
            "street": "R72C+4WX",
            "city": "Hosadurga",
            "postal_code": "577527",
            "state": "Karnataka",
            "country_code": "IN"
        },
        "images": [],
        "link": "https://www.google.com/maps/place/Sunni+Noorani+Masjid/data=!4m7!3m6!1s0x3bba8548e1d1d345:0xd2e12f0382fbcb03!8m2!3d13.8003544!4d76.2723671!16s%2Fg%2F11gnjcvl69!19sChIJRdPR4UiFujsRA8v7ggMv4dI?authuser=0&hl=en&rclk=1",
        "coordinates": {
            "latitude": 13.8003544,
            "longitude": 76.2723671
        }
    },
    {
        "name": "Ameena Masjid",
        "main_category": "Kindergarten School",
        "address": "Q7XR+62P Ameena Masjid, SH47, Hosadurga, Karnataka 577527",
        "detailed_address": {
            "ward": null,
            "street": "Q7XR+62P, SH47",
            "city": "Hosadurga",
            "postal_code": "577527",
            "state": "Karnataka",
            "country_code": "IN"
        },
        "images": [
            {
                "about": "All",
                "link": "https://streetviewpixels-pa.googleapis.com/v1/thumbnail?panoid=0LtjNFQ3l7SvkAFC8S9xQA&cb_client=maps_sv.tactile.gps&w=224&h=298&yaw=341.1612&pitch=0&thumbfov=100"
            },
            {
                "about": "Street View & 360deg",
                "link": "https://streetviewpixels-pa.googleapis.com/v1/thumbnail?panoid=0LtjNFQ3l7SvkAFC8S9xQA&cb_client=maps_sv.tactile.gps&w=224&h=298&yaw=341.1612&pitch=0&thumbfov=100"
            }
        ],
        "link": "https://www.google.com/maps/place/Ameena+Masjid/data=!4m7!3m6!1s0x3bba85357dc2c113:0xa5f253049c65c2ff!8m2!3d13.7980963!4d76.2900656!16s%2Fg%2F11h9bsz_k7!19sChIJE8HCfTWFujsR_8JlnART8qU?authuser=0&hl=en&rclk=1",
        "coordinates": {
            "latitude": 13.7980963,
            "longitude": 76.29006559999999
        }
    },
    {
        "name": "Masjid E Raza",
        "main_category": "Mosque",
        "address": "Q7XP+C25 Masjid E Raza, Hosadurga, Karnataka 577527",
        "detailed_address": {
            "ward": null,
            "street": "Q7XP+C25",
            "city": "Hosadurga",
            "postal_code": "577527",
            "state": "Karnataka",
            "country_code": "IN"
        },
        "images": [
            {
                "about": "All",
                "link": "https://streetviewpixels-pa.googleapis.com/v1/thumbnail?panoid=XVKzcle-_ZvQJvqMS90THw&cb_client=maps_sv.tactile.gps&w=224&h=298&yaw=233.72978&pitch=0&thumbfov=100"
            },
            {
                "about": "Street View & 360deg",
                "link": "https://streetviewpixels-pa.googleapis.com/v1/thumbnail?panoid=XVKzcle-_ZvQJvqMS90THw&cb_client=maps_sv.tactile.gps&w=224&h=298&yaw=233.72978&pitch=0&thumbfov=100"
            }
        ],
        "link": "https://www.google.com/maps/place/Masjid+E+Raza/data=!4m7!3m6!1s0x3bba85e37da284ed:0xe33692fd6511915b!8m2!3d13.7985221!4d76.2851071!16s%2Fg%2F11c0t1n4n5!19sChIJ7YSifeOFujsRW5ERZf2SNuM?authuser=0&hl=en&rclk=1",
        "coordinates": {
            "latitude": 13.7985221,
            "longitude": 76.28510709999999
        }
    },
    {
        "name": "Masjid E Noor",
        "main_category": "Mosque",
        "address": "Q7RV+WF9 Masjid E Noor, Hosadurga, Karnataka 577527",
        "detailed_address": {
            "ward": null,
            "street": "Q7RV+WF9",
            "city": "Hosadurga",
            "postal_code": "577527",
            "state": "Karnataka",
            "country_code": "IN"
        },
        "images": [],
        "link": "https://www.google.com/maps/place/Masjid+E+Noor/data=!4m7!3m6!1s0x3bba850bdc2b139f:0x11a084d68f7432d5!8m2!3d13.7922759!4d76.2937353!16s%2Fg%2F11kryf9gtz!19sChIJnxMr3AuFujsR1TJ0j9aEoBE?authuser=0&hl=en&rclk=1",
        "coordinates": {
            "latitude": 13.7922759,
            "longitude": 76.2937353
        }
    },
    {
        "name": "Masjid E Raza",
        "main_category": "Mosque",
        "address": "Q7WR+3R9 Masjid E Raza, Hosadurga, Karnataka 577527",
        "detailed_address": {
            "ward": null,
            "street": "Q7WR+3R9",
            "city": "Hosadurga",
            "postal_code": "577527",
            "state": "Karnataka",
            "country_code": "IN"
        },
        "images": [],
        "link": "https://www.google.com/maps/place/Masjid+E+Raza/data=!4m7!3m6!1s0x3bba85328134d6e9:0xac6c011a53c6335e!8m2!3d13.7951522!4d76.2921079!16s%2Fg%2F11v3x828ml!19sChIJ6dY0gTKFujsRXjPGUxoBbKw?authuser=0&hl=en&rclk=1",
        "coordinates": {
            "latitude": 13.795152199999999,
            "longitude": 76.29210789999999
        }
    },
    {
        "name": "Syed Abusha Qadri Dargah",
        "main_category": "Mosque",
        "address": "Q7XM+2P9 Syed Abusha Qadri Dargah, Main Rd, Hosadurga, Karnataka 577527",
        "detailed_address": {
            "ward": null,
            "street": "Q7XM+2P9, Main Rd",
            "city": "Hosadurga",
            "postal_code": "577527",
            "state": "Karnataka",
            "country_code": "IN"
        },
        "images": [
            {
                "about": "All",
                "link": "https://lh5.googleusercontent.com/p/AF1QipPUKx97aJUA7eL9fs-DnvBATjprJf6RrDuOhZZ9=w529-h298-k-no"
            },
            {
                "about": "Street View & 360deg",
                "link": "https://streetviewpixels-pa.googleapis.com/v1/thumbnail?panoid=DjxAzsxlCM7iAPbBMj_F-g&cb_client=maps_sv.tactile.gps&w=224&h=298&yaw=183.14526&pitch=0&thumbfov=100"
            }
        ],
        "link": "https://www.google.com/maps/place/Syed+Abusha+Qadri+Dargah/data=!4m7!3m6!1s0x3bba851f1a9391d1:0xd13ca74e5ba7b616!8m2!3d13.7975379!4d76.2843483!16s%2Fg%2F11sjtjd59r!19sChIJ0ZGTGh-FujsRFranW06nPNE?authuser=0&hl=en&rclk=1",
        "coordinates": {
            "latitude": 13.7975379,
            "longitude": 76.28434829999999
        }
    },
    {
        "name": "Jamiya masjid",
        "main_category": "Mosque",
        "address": "W858+84C Jamiya masjid, Hosadurga, Karnataka 577527",
        "detailed_address": {
            "ward": null,
            "street": "W858+84C",
            "city": "Hosadurga",
            "postal_code": "577527",
            "state": "Karnataka",
            "country_code": "IN"
        },
        "images": [
            {
                "about": "All",
                "link": "https://streetviewpixels-pa.googleapis.com/v1/thumbnail?panoid=e_5DvH06_tUPS3rsqqihgQ&cb_client=maps_sv.tactile.gps&w=224&h=298&yaw=342.98657&pitch=0&thumbfov=100"
            },
            {
                "about": "Street View & 360deg",
                "link": "https://streetviewpixels-pa.googleapis.com/v1/thumbnail?panoid=e_5DvH06_tUPS3rsqqihgQ&cb_client=maps_sv.tactile.gps&w=224&h=298&yaw=342.98657&pitch=0&thumbfov=100"
            }
        ],
        "link": "https://www.google.com/maps/place/Jamiya+masjid/data=!4m7!3m6!1s0x3bba7dafcccfd807:0x3051e49ace80b44e!8m2!3d13.9083167!4d76.315254!16s%2Fg%2F11v0vk3d2c!19sChIJB9jPzK99ujsRTrSAzprkUTA?authuser=0&hl=en&rclk=1",
        "coordinates": {
            "latitude": 13.908316699999999,
            "longitude": 76.315254
        }
    }
]