[
    {
        "name": "Al-Masjid Al-Salafiyya Umm Ul Momineen Aisha Siddiqa Raadhiallahu Anha",
        "main_category": "Mosque",
        "address": "Al-Masjid Al-Salafiyya Umm Ul Momineen Aisha Siddiqa Raadhiallahu Anha, 1-3-186, Indira Market, Kagaznagar, Telangana 504296",
        "detailed_address": {
            "ward": "Ward Number 3",
            "street": "1-3-186, Indira Market",
            "city": "Kagaznagar",
            "postal_code": "504296",
            "state": "Telangana",
            "country_code": "IN"
        },
        "images": [
            {
                "about": "All",
                "link": "https://streetviewpixels-pa.googleapis.com/v1/thumbnail?panoid=T75OecUL0HuqMJPhgimw3Q&cb_client=maps_sv.tactile.gps&w=224&h=298&yaw=184.57896&pitch=0&thumbfov=100"
            },
            {
                "about": "By owner",
                "link": "https://lh5.googleusercontent.com/p/AF1QipOLNhpmLUNJ_wEgO2TgYniNCuW-dUIRyAsYZlAI=w394-h298-k-no"
            },
            {
                "about": "Street View & 360deg",
                "link": "https://streetviewpixels-pa.googleapis.com/v1/thumbnail?panoid=T75OecUL0HuqMJPhgimw3Q&cb_client=maps_sv.tactile.gps&w=224&h=298&yaw=184.57896&pitch=0&thumbfov=100"
            }
        ],
        "link": "https://www.google.com/maps/place/Al-Masjid+Al-Salafiyya+Umm+Ul+Momineen+Aisha+Siddiqa+Raadhiallahu+Anha/data=!4m7!3m6!1s0x3a2d57122ab10c9b:0x2366cf8f27649544!8m2!3d19.343273!4d79.483942!16s%2Fg%2F11px9yb4sd!19sChIJmwyxKhJXLToRRJVkJ4_PZiM?authuser=0&hl=en&rclk=1",
        "coordinates": {
            "latitude": 19.343273,
            "longitude": 79.483942
        }
    },
    {
        "name": "Masjid e Khadim",
        "main_category": "Mosque",
        "address": "974W+GHR Masjid e Khadim, Asifabad, Telangana 504293",
        "detailed_address": {
            "ward": null,
            "street": "974W+GHR",
            "city": "Asifabad",
            "postal_code": "504293",
            "state": "Telangana",
            "country_code": "IN"
        },
        "images": [
            {
                "about": "All",
                "link": "https://lh5.googleusercontent.com/p/AF1QipOz8pLzPUsDjuxJMOyuTkDLyfkDNCMUHQyYuuN8=w662-h298-k-no"
            },
            {
                "about": "Street View & 360deg",
                "link": "https://streetviewpixels-pa.googleapis.com/v1/thumbnail?panoid=GzKqGsN0rm0JU9690LJqcA&cb_client=maps_sv.tactile.gps&w=224&h=298&yaw=15.154508&pitch=0&thumbfov=100"
            }
        ],
        "link": "https://www.google.com/maps/place/Masjid+e+Khadim/data=!4m7!3m6!1s0x3bd2ac0487a9f291:0x6fbe7074c3de740b!8m2!3d19.3563518!4d79.2964018!16s%2Fg%2F11cjj61r0q!19sChIJkfKphwSs0jsRC3Tew3Rwvm8?authuser=0&hl=en&rclk=1",
        "coordinates": {
            "latitude": 19.3563518,
            "longitude": 79.2964018
        }
    },
    {
        "name": "Masjid-e-Amera | msjd `myrh",
        "main_category": "Mosque",
        "address": "8FVM+P2F Masjid-e-Amera | msjd `myrh, New Indira Market, Kagaznagar, Telangana",
        "detailed_address": {
            "ward": "Ward Number 3",
            "street": "8FVM+P2F, New Indira Market",
            "city": "Kagaznagar",
            "postal_code": null,
            "state": "Telangana",
            "country_code": "IN"
        },
        "images": [
            {
                "about": "All",
                "link": "https://lh5.googleusercontent.com/p/AF1QipMTobchHPxLJjP8e4aFJs44huTRXLKxEO8i1Vs8=w224-h298-k-no"
            },
            {
                "about": "Street View & 360deg",
                "link": "https://streetviewpixels-pa.googleapis.com/v1/thumbnail?panoid=cON6R6q7fbAs5fNiXk9eXw&cb_client=maps_sv.tactile.gps&w=224&h=298&yaw=178.8231&pitch=0&thumbfov=100"
            },
            {
                "about": "Videos",
                "link": "https://lh5.googleusercontent.com/p/AF1QipMwUebNq94UgpL1_m8HmdzuFW_9H93ikTRqSgrE=w224-h398-k-no"
            }
        ],
        "link": "https://www.google.com/maps/place/Masjid-e-Amera+%7C+%D9%85%D8%B3%D8%AC%D8%AF+%D8%B9%D8%A7%D9%85%DB%8C%D8%B1%D8%A7%DB%81%E2%80%AD/data=!4m7!3m6!1s0x3a2d56badb25cd45:0x64c23d8b7bb9f786!8m2!3d19.3443152!4d79.4825415!16s%2Fg%2F11b6w96mkl!19sChIJRc0l27pWLToRhve5e4s9wmQ?authuser=0&hl=en&rclk=1",
        "coordinates": {
            "latitude": 19.3443152,
            "longitude": 79.4825415
        }
    },
    {
        "name": "Masjid e Bilal",
        "main_category": "Mosque",
        "address": "9F9G+WXM Masjid e Bilal, Dada Nagar, Kagaznagar, Telangana 504296",
        "detailed_address": {
            "ward": "Dada Nagar",
            "street": "9F9G+WXM",
            "city": "Kagaznagar",
            "postal_code": "504296",
            "state": "Telangana",
            "country_code": "IN"
        },
        "images": [
            {
                "about": "All",
                "link": "https://lh5.googleusercontent.com/p/AF1QipMgbVZmH9gRZkvtxr8bgS7SmD5VkC6dCF9dcwHh=w224-h298-k-no"
            },
            {
                "about": "Street View & 360deg",
                "link": "https://streetviewpixels-pa.googleapis.com/v1/thumbnail?panoid=ahvXVwzRVErd3Bw1stgNKQ&cb_client=maps_sv.tactile.gps&w=224&h=298&yaw=276.78717&pitch=0&thumbfov=100"
            }
        ],
        "link": "https://www.google.com/maps/place/Masjid+e+Bilal/data=!4m7!3m6!1s0x3a2d515a754c6735:0xd45f0f4ccb45c2ba!8m2!3d19.3698374!4d79.4774318!16s%2Fg%2F11cjc1jzf5!19sChIJNWdMdVpRLToRusJFy0wPX9Q?authuser=0&hl=en&rclk=1",
        "coordinates": {
            "latitude": 19.369837399999998,
            "longitude": 79.47743179999999
        }
    },
    {
        "name": "Masjid E Umar E Farooq Raadhiallahu Anhu",
        "main_category": "Mosque",
        "address": "9F5C+HRF Masjid E Umar E Farooq Raadhiallahu Anhu, Ahmed.Raza.Colony, Kagaznagar, Telangana 504296",
        "detailed_address": {
            "ward": "Ahmed.Raza.Colony",
            "street": "9F5C+HRF",
            "city": "Kagaznagar",
            "postal_code": "504296",
            "state": "Telangana",
            "country_code": "IN"
        },
        "images": [
            {
                "about": "All",
                "link": "https://lh5.googleusercontent.com/p/AF1QipNDPRUzbyHxF3bC6MwdO_fSmRa3FGHndIfQMmwv=w397-h298-k-no"
            },
            {
                "about": "Street View & 360deg",
                "link": "https://streetviewpixels-pa.googleapis.com/v1/thumbnail?panoid=z5_O8nuEpE0ZLOn0nx_V9A&cb_client=maps_sv.tactile.gps&w=224&h=298&yaw=81.02527&pitch=0&thumbfov=100"
            }
        ],
        "link": "https://www.google.com/maps/place/Masjid+E+Umar+E+Farooq+Raadhiallahu+Anhu/data=!4m7!3m6!1s0x3a2d51553eee9879:0x8a39ea93011e9574!8m2!3d19.3589342!4d79.4720342!16s%2Fg%2F11bw6843jl!19sChIJeZjuPlVRLToRdJUeAZPqOYo?authuser=0&hl=en&rclk=1",
        "coordinates": {
            "latitude": 19.3589342,
            "longitude": 79.4720342
        }
    },
    {
        "name": "Masjid-e-Aamina",
        "main_category": "Mosque",
        "address": "8FRV+PV6 Masjid-e-Aamina, Bhatpalli Rd, Kagaznagar, Telangana 504296",
        "detailed_address": {
            "ward": null,
            "street": "8FRV+PV6, Bhatpalli Rd",
            "city": "Kagaznagar",
            "postal_code": "504296",
            "state": "Telangana",
            "country_code": "IN"
        },
        "images": [
            {
                "about": "All",
                "link": "https://lh5.googleusercontent.com/p/AF1QipODH33fG4U46skx3CkRO7LLgYBhOYV2htvxcchg=w397-h298-k-no"
            }
        ],
        "link": "https://www.google.com/maps/place/Masjid-e-Aamina/data=!4m7!3m6!1s0x3a2d56c7315505f3:0x478330fdb4e0ec72!8m2!3d19.3417809!4d79.494654!16s%2Fg%2F11f51zzsj0!19sChIJ8wVVMcdWLToRcuzgtP0wg0c?authuser=0&hl=en&rclk=1",
        "coordinates": {
            "latitude": 19.3417809,
            "longitude": 79.494654
        }
    },
    {
        "name": "Masjid e Abrar",
        "main_category": "Mosque",
        "address": "Masjid e Abrar, Pakeeza Nagar, Bareguda, Kagaznagar, Telangana 504296",
        "detailed_address": {
            "ward": null,
            "street": "Pakeeza Nagar",
            "city": "Bareguda, Kagaznagar",
            "postal_code": "504296",
            "state": "Telangana",
            "country_code": "IN"
        },
        "images": [
            {
                "about": "All",
                "link": "https://streetviewpixels-pa.googleapis.com/v1/thumbnail?panoid=rxMV6QtNpv2YKIXqnpXlzA&cb_client=maps_sv.tactile.gps&w=224&h=298&yaw=72.530815&pitch=0&thumbfov=100"
            },
            {
                "about": "Street View & 360deg",
                "link": "https://streetviewpixels-pa.googleapis.com/v1/thumbnail?panoid=rxMV6QtNpv2YKIXqnpXlzA&cb_client=maps_sv.tactile.gps&w=224&h=298&yaw=72.530815&pitch=0&thumbfov=100"
            }
        ],
        "link": "https://www.google.com/maps/place/Masjid+e+Abrar/data=!4m7!3m6!1s0x3a2d56a3c9998f43:0x4a9d72ede0a21436!8m2!3d19.3378967!4d79.4772796!16s%2Fg%2F11bwkm5kt3!19sChIJQ4-ZyaNWLToRNhSi4O1ynUo?authuser=0&hl=en&rclk=1",
        "coordinates": {
            "latitude": 19.337896699999998,
            "longitude": 79.4772796
        }
    },
    {
        "name": "piirilaa guNddN",
        "main_category": "Mosque",
        "address": "6QFJ+Q6W piirilaa guNddN, Vodduguda, Telangana 504273",
        "detailed_address": {
            "ward": null,
            "street": "6QFJ+Q6W",
            "city": "Vodduguda",
            "postal_code": null,
            "state": "Telangana",
            "country_code": "IN"
        },
        "images": [],
        "link": "https://www.google.com/maps/place/%E0%B0%AA%E0%B1%80%E0%B0%B0%E0%B0%BF%E0%B0%B2%E0%B0%BE+%E0%B0%97%E0%B1%81%E0%B0%82%E0%B0%A1%E0%B0%82/data=!4m7!3m6!1s0x3a329f674ecce0d1:0xc1df29063f6e4ba7!8m2!3d19.2244872!4d79.7805906!16s%2Fg%2F11lh55bbmc!19sChIJ0eDMTmefMjoRp0tuPwYp38E?authuser=0&hl=en&rclk=1",
        "coordinates": {
            "latitude": 19.2244872,
            "longitude": 79.7805906
        }
    },
    {
        "name": "MASJID-E-MOHAMMADIA",
        "main_category": "Mosque",
        "address": "7P47+Q94 MASJID-E-MOHAMMADIA, Dahegaon, Telangana 504273",
        "detailed_address": {
            "ward": null,
            "street": "7P47+Q94",
            "city": "Dahegaon",
            "postal_code": "504273",
            "state": "Telangana",
            "country_code": "IN"
        },
        "images": [
            {
                "about": "All",
                "link": "https://lh5.googleusercontent.com/p/AF1QipML8fEJEtwsCZ6noTQgOfHNByrvO54w37F7bjTm=w224-h398-k-no"
            },
            {
                "about": "Street View & 360deg",
                "link": "https://lh5.googleusercontent.com/p/AF1QipNOcXbHE3uGQyT_AwdAY310a-dmWOdOVp8pTTmI=w224-h298-k-no-pi0-ya43.000004-ro-0-fo100"
            },
            {
                "about": "Videos",
                "link": "https://lh5.googleusercontent.com/p/AF1QipML8fEJEtwsCZ6noTQgOfHNByrvO54w37F7bjTm=w224-h398-k-no"
            }
        ],
        "link": "https://www.google.com/maps/place/MASJID-E-MOHAMMADIA/data=!4m7!3m6!1s0x3a32a06bc9f0aad9:0xc9ef99599038dddd!8m2!3d19.2568852!4d79.7134489!16s%2Fg%2F11d_78xldz!19sChIJ2arwyWugMjoR3d04kFmZ78k?authuser=0&hl=en&rclk=1",
        "coordinates": {
            "latitude": 19.2568852,
            "longitude": 79.7134489
        }
    },
    {
        "name": "Masjid e Safia",
        "main_category": "Mosque",
        "address": "8G9G+69 Masjid e Safia, Jagannathpur, Telangana 504273",
        "detailed_address": {
            "ward": null,
            "street": "8G9G+69",
            "city": "Jagannathpur",
            "postal_code": null,
            "state": "Telangana",
            "country_code": "IN"
        },
        "images": [
            {
                "about": "All",
                "link": "https://lh5.googleusercontent.com/p/AF1QipPaqzvyOKRmNH6n4EgoUNMRsKC0q7BEEEcVT4cF=w529-h298-k-no"
            }
        ],
        "link": "https://www.google.com/maps/place/Masjid+e+Safia/data=!4m7!3m6!1s0x3a2d57bf7f58f09b:0x5949498ed379833!8m2!3d19.3180122!4d79.5259171!16s%2Fg%2F11k3xl0wp2!19sChIJm_BYf79XLToRM5g37ZiUlAU?authuser=0&hl=en&rclk=1",
        "coordinates": {
            "latitude": 19.3180122,
            "longitude": 79.5259171
        }
    },
    {
        "name": "Masjid E Khaja-e-hashmi R.H",
        "main_category": "Mosque",
        "address": "8HCH+927 Masjid E Khaja-e-hashmi R.H, Jambuga, Telangana 504273",
        "detailed_address": {
            "ward": null,
            "street": "8HCH+927",
            "city": "Jambuga",
            "postal_code": "504273",
            "state": "Telangana",
            "country_code": "IN"
        },
        "images": [],
        "link": "https://www.google.com/maps/place/Masjid+E+Khaja-e-hashmi+R.H/data=!4m7!3m6!1s0x3a2d59ce3e17a901:0x736940e58f08c0e8!8m2!3d19.3209052!4d79.5775314!16s%2Fg%2F11h3qrxlqb!19sChIJAakXPs5ZLToR6MAIj-VAaXM?authuser=0&hl=en&rclk=1",
        "coordinates": {
            "latitude": 19.3209052,
            "longitude": 79.5775314
        }
    },
    {
        "name": "JAME-MASJID",
        "main_category": "Mosque",
        "address": "5QJ9+742 JAME-MASJID, Chinthapudi, Telangana 504219",
        "detailed_address": {
            "ward": null,
            "street": "5QJ9+742",
            "city": "Chinthapudi",
            "postal_code": null,
            "state": "Telangana",
            "country_code": "IN"
        },
        "images": [],
        "link": "https://www.google.com/maps/place/JAME-MASJID/data=!4m7!3m6!1s0x3a3299920b89af97:0x22b405c28af13679!8m2!3d19.1806469!4d79.7677588!16s%2Fg%2F11kz2wckvs!19sChIJl6-JC5KZMjoReTbxisIFtCI?authuser=0&hl=en&rclk=1",
        "coordinates": {
            "latitude": 19.1806469,
            "longitude": 79.7677588
        }
    },
    {
        "name": "Masjid",
        "main_category": "Mosque",
        "address": "4MM9+WV9 Masjid, Muthapur, Ankannapet (D), Telangana 504219",
        "detailed_address": {
            "ward": null,
            "street": "4MM9+WV9",
            "city": "Muthapur, Ankannapet (D)",
            "postal_code": "504219",
            "state": "Telangana",
            "country_code": "IN"
        },
        "images": [
            {
                "about": "All",
                "link": "https://lh5.googleusercontent.com/p/AF1QipM02QX5EKNy7zrsnVk1XSSn2YWxGfg2ayRp59w0=w529-h298-k-no"
            }
        ],
        "link": "https://www.google.com/maps/place/Masjid/data=!4m7!3m6!1s0x3a32a383c3d1e915:0x888c114d84029fb4!8m2!3d19.1351053!4d79.6688521!16s%2Fg%2F11sk1p1k_7!19sChIJFenRw4OjMjoRtJ8ChE0RjIg?authuser=0&hl=en&rclk=1",
        "coordinates": {
            "latitude": 19.1351053,
            "longitude": 79.6688521
        }
    },
    {
        "name": "Masjid-e-Muhammadiyya",
        "main_category": "Mosque",
        "address": "Masjid-e-Muhammadiyya, H.No: 2-6-263/A Nogam Basthi, Kagaznagar, Telangana 504296",
        "detailed_address": {
            "ward": null,
            "street": "H.No: 2-6-263/A Nogam Basthi",
            "city": "Kagaznagar",
            "postal_code": "504296",
            "state": "Telangana",
            "country_code": "IN"
        },
        "images": [
            {
                "about": "All",
                "link": "https://lh5.googleusercontent.com/p/AF1QipOzp0w6fKNV50rXKEZFdV7_eXdranUh6DA9jKFg=w298-h298-k-no"
            }
        ],
        "link": "https://www.google.com/maps/place/Masjid-e-Muhammadiyya/data=!4m7!3m6!1s0x3a2d57c2ffbb6a51:0x436e0f567a69b428!8m2!3d19.3498972!4d79.4772235!16s%2Fg%2F11h7d_19d5!19sChIJUWq7_8JXLToRKLRpelYPbkM?authuser=0&hl=en&rclk=1",
        "coordinates": {
            "latitude": 19.349897199999997,
            "longitude": 79.4772235
        }
    },
    {
        "name": "Jame masjid",
        "main_category": "Mosque",
        "address": "7Q97+5J5 Jame masjid, Yelkapalle, Telangana 504299",
        "detailed_address": {
            "ward": null,
            "street": "7Q97+5J5",
            "city": "Yelkapalle",
            "postal_code": null,
            "state": "Telangana",
            "country_code": "IN"
        },
        "images": [],
        "link": "https://www.google.com/maps/place/Jame+masjid/data=!4m7!3m6!1s0x3a329fc0ae57d4d7:0x4502fd6a4ed3f07d!8m2!3d19.2678942!4d79.7641087!16s%2Fg%2F11fkdq86t9!19sChIJ19RXrsCfMjoRffDTTmr9AkU?authuser=0&hl=en&rclk=1",
        "coordinates": {
            "latitude": 19.2678942,
            "longitude": 79.7641087
        }
    },
    {
        "name": "Masjid - e - Ansar",
        "main_category": "Mosque",
        "address": "CPQF+X75 Masjid - e - Ansar, Dabba, Telangana 504299",
        "detailed_address": {
            "ward": null,
            "street": "CPQF+X75",
            "city": "Dabba",
            "postal_code": "504299",
            "state": "Telangana",
            "country_code": "IN"
        },
        "images": [],
        "link": "https://www.google.com/maps/place/Masjid+-+e+-+Ansar/data=!4m7!3m6!1s0x3a2d5dca56d925d7:0x552c17ecd1cdd770!8m2!3d19.439885!4d79.7232312!16s%2Fg%2F11n6jjs8y0!19sChIJ1yXZVspdLToRcNfN0ewXLFU?authuser=0&hl=en&rclk=1",
        "coordinates": {
            "latitude": 19.439885,
            "longitude": 79.7232312
        }
    },
    {
        "name": "msiidu",
        "main_category": "Mosque",
        "address": "6HCR+XR2 msiidu, Wadal, Laxmipur, Telangana 504273",
        "detailed_address": {
            "ward": null,
            "street": "6HCR+XR2",
            "city": "Wadal, Laxmipur",
            "postal_code": "504273",
            "state": "Telangana",
            "country_code": "IN"
        },
        "images": [],
        "link": "https://www.google.com/maps/place/%E0%B0%AE%E0%B0%B8%E0%B1%80%E0%B0%A6%E0%B1%81/data=!4m7!3m6!1s0x3a32a736f95b27e3:0x8c80225113dd9a52!8m2!3d19.2223867!4d79.5920304!16s%2Fg%2F11nxcdr157!19sChIJ4ydb-TanMjoRUprdE1EigIw?authuser=0&hl=en&rclk=1",
        "coordinates": {
            "latitude": 19.222386699999998,
            "longitude": 79.5920304
        }
    },
    {
        "name": "Masjid-msjiid",
        "main_category": "Mosque",
        "address": "6QHJ+J76 Masjid-msjiid, Main Road, Vodduguda, Telangana 504273",
        "detailed_address": {
            "ward": null,
            "street": "6QHJ+J76, Main Road",
            "city": "Vodduguda",
            "postal_code": "504273",
            "state": "Telangana",
            "country_code": "IN"
        },
        "images": [],
        "link": "https://www.google.com/maps/place/Masjid-%E0%B0%AE%E0%B0%B8%E0%B1%8D%E0%B0%9C%E0%B1%80%E0%B0%A6%E0%B1%8D/data=!4m7!3m6!1s0x3a329f07c9d7497f:0x4cdefb0f611c426e!8m2!3d19.2290489!4d79.7806522!16s%2Fg%2F11qp8wwlng!19sChIJf0nXyQefMjoRbkIcYQ_73kw?authuser=0&hl=en&rclk=1",
        "coordinates": {
            "latitude": 19.2290489,
            "longitude": 79.78065219999999
        }
    },
    {
        "name": "Masjid-e-Gousiya",
        "main_category": "Mosque",
        "address": "7Q8C+WC7 Masjid-e-Gousiya, Yellur, Telangana 504299",
        "detailed_address": {
            "ward": null,
            "street": "7Q8C+WC7",
            "city": "Yellur",
            "postal_code": "504299",
            "state": "Telangana",
            "country_code": "IN"
        },
        "images": [],
        "link": "https://www.google.com/maps/place/Masjid-e-Gousiya/data=!4m7!3m6!1s0x3a329fbad2bf57b1:0x74961c218879e2d7!8m2!3d19.2672758!4d79.7710368!16s%2Fg%2F11j4cjxzm5!19sChIJsVe_0rqfMjoR1-J5iCEclnQ?authuser=0&hl=en&rclk=1",
        "coordinates": {
            "latitude": 19.2672758,
            "longitude": 79.77103679999999
        }
    },
    {
        "name": "Ansar masjid",
        "main_category": "Mosque",
        "address": "9F5J+7W4 Ansar masjid, Kagaznagar, Telangana 504296",
        "detailed_address": {
            "ward": null,
            "street": "9F5J+7W4",
            "city": "Kagaznagar",
            "postal_code": "504296",
            "state": "Telangana",
            "country_code": "IN"
        },
        "images": [
            {
                "about": "All",
                "link": "https://streetviewpixels-pa.googleapis.com/v1/thumbnail?panoid=L5H2nNJKH6xsxh_nmNHo1g&cb_client=maps_sv.tactile.gps&w=224&h=298&yaw=162.71347&pitch=0&thumbfov=100"
            },
            {
                "about": "Street View & 360deg",
                "link": "https://streetviewpixels-pa.googleapis.com/v1/thumbnail?panoid=L5H2nNJKH6xsxh_nmNHo1g&cb_client=maps_sv.tactile.gps&w=224&h=298&yaw=162.71347&pitch=0&thumbfov=100"
            }
        ],
        "link": "https://www.google.com/maps/place/Ansar+masjid/data=!4m7!3m6!1s0x3a2d57b977fdbe6d:0x6960a1717e731215!8m2!3d19.3581456!4d79.4823339!16s%2Fg%2F11rsc1y_tg!19sChIJbb79d7lXLToRFRJzfnGhYGk?authuser=0&hl=en&rclk=1",
        "coordinates": {
            "latitude": 19.3581456,
            "longitude": 79.4823339
        }
    }
]