[
    {
        "name": "Noorani Masjid nwrny msjd",
        "main_category": "Mosque",
        "address": "86PC+966 Noorani Masjid nwrny msjd, Jhalu, Uttar Pradesh 246728",
        "detailed_address": {
            "ward": null,
            "street": "86PC+966",
            "city": "Jhalu",
            "postal_code": null,
            "state": "Uttar Pradesh",
            "country_code": "IN"
        },
        "images": [
            {
                "about": "All",
                "link": "https://lh5.googleusercontent.com/p/AF1QipMNJt-YrWLsa02b_Jr8mhjdDXg2c7xARY4ounB_=w224-h373-k-no"
            },
            {
                "about": "Street View & 360deg",
                "link": "https://lh5.googleusercontent.com/p/AF1QipP_yhEdlJhLk_cFn6THD0oiejcvPtjt8X3AMnYl=w224-h298-k-no-pi-0-ya85.00001-ro-0-fo100"
            }
        ],
        "link": "https://www.google.com/maps/place/Noorani+Masjid+%D9%86%D9%88%D8%B1%D8%A7%D9%86%DB%8C+%D9%85%D8%B3%D8%AC%D8%AF%E2%80%AD/data=!4m7!3m6!1s0x390bebeb40eede8b:0x353202c1efee25a3!8m2!3d29.3359244!4d78.2205148!16s%2Fg%2F11hd1pbw5w!19sChIJi97uQOvrCzkRoyXu78ECMjU?authuser=0&hl=en&rclk=1",
        "coordinates": {
            "latitude": 29.3359244,
            "longitude": 78.22051479999999
        }
    },
    {
        "name": "Jama Masjid Jhalu jm` msjd jhlw",
        "main_category": "Mosque",
        "address": "86PG+JGR Jama Masjid Jhalu jm` msjd jhlw, Mho sadat kasba, Jhalu, Uttar Pradesh 246728",
        "detailed_address": {
            "ward": null,
            "street": "86PG+JGR, Mho sadat kasba",
            "city": "Jhalu",
            "postal_code": "246728",
            "state": "Uttar Pradesh",
            "country_code": "IN"
        },
        "images": [
            {
                "about": "All",
                "link": "https://lh5.googleusercontent.com/p/AF1QipM3a3HdwIDpEu7f9EsaUay9DFBBZr-u73RQ9UeF=w224-h298-k-no"
            },
            {
                "about": "Dome",
                "link": "https://lh5.googleusercontent.com/p/AF1QipOSPPgFWQTVTMcrMag71vn1zzJ4krUPPEc_9fMM=w224-h298-k-no"
            },
            {
                "about": "Street View & 360deg",
                "link": "https://streetviewpixels-pa.googleapis.com/v1/thumbnail?panoid=IHMo4BgY3IQwlqNp6GaUoQ&cb_client=maps_sv.tactile.gps&w=224&h=298&yaw=113.017914&pitch=0&thumbfov=100"
            }
        ],
        "link": "https://www.google.com/maps/place/Jama+Masjid+Jhalu+%D8%AC%D8%A7%D9%85%D8%B9+%D9%85%D8%B3%D8%AC%D8%AF+%D8%AC%DA%BE%D8%A7%D9%84%D9%88%E2%80%AD/data=!4m7!3m6!1s0x390bebc0385cf387:0xf95838dc3b54adbf!8m2!3d29.3366168!4d78.2262534!16s%2Fg%2F12q4r7gfs!19sChIJh_NcOMDrCzkRv61UO9w4WPk?authuser=0&hl=en&rclk=1",
        "coordinates": {
            "latitude": 29.336616799999998,
            "longitude": 78.22625339999999
        }
    },
    {
        "name": "Molvi Wali Masjid",
        "main_category": "Mosque",
        "address": "86PG+2MC Molvi Wali Masjid, Jhalu, Uttar Pradesh 246728",
        "detailed_address": {
            "ward": null,
            "street": "86PG+2MC",
            "city": "Jhalu",
            "postal_code": "246728",
            "state": "Uttar Pradesh",
            "country_code": "IN"
        },
        "images": [
            {
                "about": "All",
                "link": "https://lh5.googleusercontent.com/p/AF1QipO3XJEGkNDt87ggFIohKYeDEpdAnCREk1w8WU41=w529-h298-k-no"
            },
            {
                "about": "Dome",
                "link": "https://lh5.googleusercontent.com/p/AF1QipMh1Bi1N6Lgf4_EmGj-QcByPgeYCUmN-VN0kitQ=w529-h298-k-no"
            }
        ],
        "link": "https://www.google.com/maps/place/Molvi+Wali+Masjid/data=!4m7!3m6!1s0x390beb01ca03fc37:0xca79f92cc614edbb!8m2!3d29.3350573!4d78.2266393!16s%2Fg%2F11gsbq52xj!19sChIJN_wDygHrCzkRu-0Uxiz5eco?authuser=0&hl=en&rclk=1",
        "coordinates": {
            "latitude": 29.3350573,
            "longitude": 78.2266393
        }
    },
    {
        "name": "naiyo wali masjid",
        "main_category": "Mosque",
        "address": "86PG+XMX naiyo wali masjid, Jhalu, Uttar Pradesh 246728",
        "detailed_address": {
            "ward": null,
            "street": "86PG+XMX",
            "city": "Jhalu",
            "postal_code": "246728",
            "state": "Uttar Pradesh",
            "country_code": "IN"
        },
        "images": [],
        "link": "https://www.google.com/maps/place/naiyo+wali+masjid/data=!4m7!3m6!1s0x390bebc04f9be4a7:0x7ecb54ad211951d2!8m2!3d29.3374911!4d78.2267288!16s%2Fg%2F11df4sjht2!19sChIJp-SbT8DrCzkR0lEZIa1Uy34?authuser=0&hl=en&rclk=1",
        "coordinates": {
            "latitude": 29.337491099999998,
            "longitude": 78.22672879999999
        }
    },
    {
        "name": "Musjide Quba",
        "main_category": "Mosque",
        "address": "86JG+XVQ Musjide Quba, Jhalu, Uttar Pradesh 246728",
        "detailed_address": {
            "ward": null,
            "street": "86JG+XVQ",
            "city": "Jhalu",
            "postal_code": "246728",
            "state": "Uttar Pradesh",
            "country_code": "IN"
        },
        "images": [
            {
                "about": "All",
                "link": "https://lh5.googleusercontent.com/p/AF1QipNcheU_oASte9mTXrsEmQiU5jBfh6nX3RReOdrg=w235-h298-k-no"
            },
            {
                "about": "Street View & 360deg",
                "link": "https://streetviewpixels-pa.googleapis.com/v1/thumbnail?panoid=KIJE-giAjBHEyDhgYQUVGg&cb_client=maps_sv.tactile.gps&w=224&h=298&yaw=20.706738&pitch=0&thumbfov=100"
            }
        ],
        "link": "https://www.google.com/maps/place/Musjide+Quba/data=!4m7!3m6!1s0x390bebf342a8a9c7:0xd1134789ee251df2!8m2!3d29.3324638!4d78.2272493!16s%2Fg%2F11h6cscbrl!19sChIJx6moQvPrCzkR8h0l7olHE9E?authuser=0&hl=en&rclk=1",
        "coordinates": {
            "latitude": 29.3324638,
            "longitude": 78.2272493
        }
    },
    {
        "name": "qasmi masjid",
        "main_category": "Place of worship",
        "address": "86PF+GFG qasmi masjid, Jhalu, Uttar Pradesh 246728",
        "detailed_address": {
            "ward": null,
            "street": "86PF+GFG",
            "city": "Jhalu",
            "postal_code": "246728",
            "state": "Uttar Pradesh",
            "country_code": "IN"
        },
        "images": [
            {
                "about": "All",
                "link": "https://lh5.googleusercontent.com/p/AF1QipPERviINwDzKrSLhzrA86CA4Rt-U7Llxzja9kXh=w224-h298-k-no"
            }
        ],
        "link": "https://www.google.com/maps/place/qasmi+masjid/data=!4m7!3m6!1s0x390bebeabe3b0641:0xaf5633f3b2caa7d4!8m2!3d29.3363154!4d78.2236911!16s%2Fg%2F11cjp99mw5!19sChIJQQY7vurrCzkR1KfKsvMzVq8?authuser=0&hl=en&rclk=1",
        "coordinates": {
            "latitude": 29.3363154,
            "longitude": 78.2236911
        }
    },
    {
        "name": "Mkka masjid",
        "main_category": "Mosque",
        "address": "86QF+5MQ Mkka masjid, Jhalu, Uttar Pradesh 246728",
        "detailed_address": {
            "ward": null,
            "street": "86QF+5MQ",
            "city": "Jhalu",
            "postal_code": "246728",
            "state": "Uttar Pradesh",
            "country_code": "IN"
        },
        "images": [
            {
                "about": "All",
                "link": "https://lh5.googleusercontent.com/p/AF1QipNW7tF2aPJdlssUSq5UMrZ3NyULo_WibLHuXXU_=w224-h498-k-no"
            }
        ],
        "link": "https://www.google.com/maps/place/Mkka+masjid/data=!4m7!3m6!1s0x390beb02ca9c874d:0xa3ba1658754068d4!8m2!3d29.3379634!4d78.224232!16s%2Fg%2F11n7344g2v!19sChIJTYecygLrCzkR1GhAdVgWuqM?authuser=0&hl=en&rclk=1",
        "coordinates": {
            "latitude": 29.3379634,
            "longitude": 78.224232
        }
    },
    {
        "name": "FATIMA MASJID",
        "main_category": "Mosque",
        "address": "86JH+6CM FATIMA MASJID, Jhalu - Haldaur Rd, Gyaspur, Jhalu, Uttar Pradesh 246728",
        "detailed_address": {
            "ward": null,
            "street": "86JH+6CM, Jhalu - Haldaur Rd",
            "city": "Gyaspur, Jhalu",
            "postal_code": null,
            "state": "Uttar Pradesh",
            "country_code": "IN"
        },
        "images": [
            {
                "about": "All",
                "link": "https://lh5.googleusercontent.com/p/AF1QipOn206ivCPc9wCMlcm4eIrOckQF647PTOui2DJJ=w224-h398-k-no"
            },
            {
                "about": "Street View & 360deg",
                "link": "https://streetviewpixels-pa.googleapis.com/v1/thumbnail?panoid=Seb4WnWyr3h8BVTRyllXBQ&cb_client=maps_sv.tactile.gps&w=224&h=298&yaw=181.79259&pitch=0&thumbfov=100"
            }
        ],
        "link": "https://www.google.com/maps/place/FATIMA+MASJID/data=!4m7!3m6!1s0x390bebc1f6522955:0xee35c3defe955e2c!8m2!3d29.3305791!4d78.2285497!16s%2Fg%2F11r9pbb0pb!19sChIJVSlS9sHrCzkRLF6V_t7DNe4?authuser=0&hl=en&rclk=1",
        "coordinates": {
            "latitude": 29.330579099999998,
            "longitude": 78.2285497
        }
    },
    {
        "name": "Jama Masjid (Pervaiz Ansari)",
        "main_category": "Mosque",
        "address": "Jama Masjid (Pervaiz Ansari), Mohalla, Mandir Wali Gali, sarai Ambedkar dharmshala, Jhalu, Uttar Pradesh 246728",
        "detailed_address": {
            "ward": "sarai Ambedkar dharmshala",
            "street": "Mohalla, Mandir Wali Gali",
            "city": "Jhalu",
            "postal_code": "246728",
            "state": "Uttar Pradesh",
            "country_code": "IN"
        },
        "images": [
            {
                "about": "All",
                "link": "https://streetviewpixels-pa.googleapis.com/v1/thumbnail?panoid=fSPepZJM_pQjLDEr18S5ig&cb_client=maps_sv.tactile.gps&w=224&h=298&yaw=180.74245&pitch=0&thumbfov=100"
            },
            {
                "about": "Street View & 360deg",
                "link": "https://streetviewpixels-pa.googleapis.com/v1/thumbnail?panoid=fSPepZJM_pQjLDEr18S5ig&cb_client=maps_sv.tactile.gps&w=224&h=298&yaw=180.74245&pitch=0&thumbfov=100"
            }
        ],
        "link": "https://www.google.com/maps/place/Jama+Masjid+%28Pervaiz+Ansari%29/data=!4m7!3m6!1s0x390beb29fedfa00f:0x5864f5a77462dc85!8m2!3d29.3363091!4d78.2260205!16s%2Fg%2F11rs8dvw23!19sChIJD6Df_inrCzkRhdxidKf1ZFg?authuser=0&hl=en&rclk=1",
        "coordinates": {
            "latitude": 29.336309099999998,
            "longitude": 78.22602049999999
        }
    },
    {
        "name": "Masjid Aqsa",
        "main_category": "Mosque",
        "address": "86JH+Q2M Masjid Aqsa, Peerzadgan, Jhalu, Uttar Pradesh 246728",
        "detailed_address": {
            "ward": "Peerzadgan",
            "street": "86JH+Q2M",
            "city": "Jhalu",
            "postal_code": "246728",
            "state": "Uttar Pradesh",
            "country_code": "IN"
        },
        "images": [
            {
                "about": "All",
                "link": "https://streetviewpixels-pa.googleapis.com/v1/thumbnail?panoid=XgsvaQTQxxmOOoJbIGKsyg&cb_client=maps_sv.tactile.gps&w=224&h=298&yaw=281.85138&pitch=0&thumbfov=100"
            },
            {
                "about": "Street View & 360deg",
                "link": "https://streetviewpixels-pa.googleapis.com/v1/thumbnail?panoid=XgsvaQTQxxmOOoJbIGKsyg&cb_client=maps_sv.tactile.gps&w=224&h=298&yaw=281.85138&pitch=0&thumbfov=100"
            }
        ],
        "link": "https://www.google.com/maps/place/Masjid+Aqsa/data=!4m7!3m6!1s0x390bebb860b55dff:0x2bb16a13a29c0cfc!8m2!3d29.3319545!4d78.2275421!16s%2Fg%2F11rmxc2z79!19sChIJ_121YLjrCzkR_AycohNqsSs?authuser=0&hl=en&rclk=1",
        "coordinates": {
            "latitude": 29.3319545,
            "longitude": 78.2275421
        }
    }
]