[
    {
        "name": "Usman Khan Masjid",
        "main_category": "Mosque",
        "address": "2FG4+PQH Usman Khan Masjid, SH 34, Salon Bazar, Salon, Uttar Pradesh 229127",
        "detailed_address": {
            "ward": null,
            "street": "2FG4+PQH, SH 34",
            "city": "Salon Bazar, Salon",
            "postal_code": "229127",
            "state": "Uttar Pradesh",
            "country_code": "IN"
        },
        "images": [
            {
                "about": "All",
                "link": "https://lh5.googleusercontent.com/p/AF1QipNtb75inOHVqsCtEEdiDCLtI2Qv5seh9qVsFUI7=w397-h298-k-no"
            },
            {
                "about": "Street View & 360deg",
                "link": "https://streetviewpixels-pa.googleapis.com/v1/thumbnail?panoid=sbBzIE1z7uT8fUtr91_uTw&cb_client=maps_sv.tactile.gps&w=224&h=298&yaw=334.63614&pitch=0&thumbfov=100"
            },
            {
                "about": "Videos",
                "link": "https://lh5.googleusercontent.com/p/AF1QipNDwxCdheouCieP5lMNnBEoYXKUGPzQMGo1X-Ys=w224-h407-k-no"
            }
        ],
        "link": "https://www.google.com/maps/place/Usman+Khan+Masjid/data=!4m7!3m6!1s0x399b03a768fcbe8d:0x93606eaf764ad4a7!8m2!3d26.0268184!4d81.4569927!16s%2Fg%2F113j814zq!19sChIJjb78aKcDmzkRp9RKdq9uYJM?authuser=0&hl=en&rclk=1",
        "coordinates": {
            "latitude": 26.0268184,
            "longitude": 81.4569927
        }
    },
    {
        "name": "Madina Masjid",
        "main_category": "Mosque",
        "address": "W74R+CGJ Madina Masjid, Kharauli Road, Unchahar, Uttar Pradesh",
        "detailed_address": {
            "ward": null,
            "street": "W74R+CGJ, Kharauli Road",
            "city": "Unchahar",
            "postal_code": null,
            "state": "Uttar Pradesh",
            "country_code": "IN"
        },
        "images": [
            {
                "about": "All",
                "link": "https://lh5.googleusercontent.com/p/AF1QipOyZ184gcAN68PspfSBTB9OZ0XYsTHzfOMBPfm_=w529-h298-k-no"
            },
            {
                "about": "Dome",
                "link": "https://lh5.googleusercontent.com/p/AF1QipMATWYvnkuGpj7tOL5Oka58XuJUdqE26KIWnPKq=w224-h398-k-no"
            },
            {
                "about": "Street View & 360deg",
                "link": "https://streetviewpixels-pa.googleapis.com/v1/thumbnail?panoid=DoAB0xsSEgDbybQbxWsP7w&cb_client=maps_sv.tactile.gps&w=224&h=298&yaw=355.14578&pitch=0&thumbfov=100"
            }
        ],
        "link": "https://www.google.com/maps/place/Madina+Masjid/data=!4m7!3m6!1s0x399b111c63744771:0x7cb16e0290d6dd2!8m2!3d25.9060997!4d81.2912669!16s%2Fg%2F11cs9xvkmp!19sChIJcUd0YxwRmzkR0m0NKeAWywc?authuser=0&hl=en&rclk=1",
        "coordinates": {
            "latitude": 25.9060997,
            "longitude": 81.2912669
        }
    },
    {
        "name": "Sunni Masjid Mamuni",
        "main_category": "Mosque",
        "address": "XCX7+3R3 Sunni Masjid Mamuni, Mamuni, Uttar Pradesh 229127",
        "detailed_address": {
            "ward": null,
            "street": "XCX7+3R3",
            "city": "Mamuni",
            "postal_code": null,
            "state": "Uttar Pradesh",
            "country_code": "IN"
        },
        "images": [
            {
                "about": "All",
                "link": "https://lh5.googleusercontent.com/p/AF1QipNZ6BEhevm0wuiaJVIgAdZ1GbuKPyJMJjBkeinl=w224-h298-k-no"
            },
            {
                "about": "Videos",
                "link": "https://lh5.googleusercontent.com/p/AF1QipN1NSnWjLwL8-NRfObr39mXDU5uHfuWfbmomM-7=w224-h398-k-no"
            }
        ],
        "link": "https://www.google.com/maps/place/Sunni+Masjid+Mamuni/data=!4m7!3m6!1s0x399b0541729f3e83:0x7ec1bd16b3d19986!8m2!3d25.9976295!4d81.4145476!16s%2Fg%2F11gh6b1rll!19sChIJgz6fckEFmzkRhpnRsxa9wX4?authuser=0&hl=en&rclk=1",
        "coordinates": {
            "latitude": 25.9976295,
            "longitude": 81.41454759999999
        }
    },
    {
        "name": "Noor Miya Masjid, Mustafabad (Unchahar)",
        "main_category": "Mosque",
        "address": "W73R+R88 Noor Miya Masjid, Mustafabad (Unchahar), Unchahar, Uttar Pradesh 229406",
        "detailed_address": {
            "ward": null,
            "street": "W73R+R88",
            "city": "Unchahar",
            "postal_code": "229406",
            "state": "Uttar Pradesh",
            "country_code": "IN"
        },
        "images": [
            {
                "about": "All",
                "link": "https://lh5.googleusercontent.com/p/AF1QipNxflEUaisF4iksKF1dnLUJvgP5c0UJbAvv9oDa=w224-h398-k-no"
            }
        ],
        "link": "https://www.google.com/maps/place/Noor+Miya+Masjid,+Mustafabad+%28Unchahar%29/data=!4m7!3m6!1s0x399b111c0c1dc7a5:0xd6f6e530caf19340!8m2!3d25.9045399!4d81.2908247!16s%2Fg%2F11g6bjk81v!19sChIJpccdDBwRmzkRQJPxyjDl9tY?authuser=0&hl=en&rclk=1",
        "coordinates": {
            "latitude": 25.9045399,
            "longitude": 81.2908247
        }
    },
    {
        "name": "Miya Sahab Mosque",
        "main_category": "Place of worship",
        "address": "2FJ3+5JC Miya Sahab Mosque, khnqh khrymh rwdd, Salon, Uttar Pradesh 229127",
        "detailed_address": {
            "ward": null,
            "street": "2FJ3+5JC, khnqh khrymh rwdd",
            "city": "Salon",
            "postal_code": "229127",
            "state": "Uttar Pradesh",
            "country_code": "IN"
        },
        "images": [
            {
                "about": "All",
                "link": "https://lh5.googleusercontent.com/p/AF1QipMs-5T4erlswpmpA3CurFn2cps_fN3tR0bqkK3D=w396-h298-k-no"
            },
            {
                "about": "Videos",
                "link": "https://lh5.googleusercontent.com/p/AF1QipMloZVkeoKx02dxZ2u29LGy5Ao7jbXqmlKMVIkU=w224-h398-k-no"
            }
        ],
        "link": "https://www.google.com/maps/place/Miya+Sahab+Mosque/data=!4m7!3m6!1s0x399b03a1fe44b313:0x204153efbb81c8ce!8m2!3d26.0304399!4d81.4540257!16s%2Fg%2F11b6pzd36y!19sChIJE7NE_qEDmzkRzsiBu-9TQSA?authuser=0&hl=en&rclk=1",
        "coordinates": {
            "latitude": 26.030439899999998,
            "longitude": 81.4540257
        }
    },
    {
        "name": "Muhammadiya Masjid",
        "main_category": "Mosque",
        "address": "2FWJ+W52 Muhammadiya Masjid, Barwaliya, Uttar Pradesh 229127",
        "detailed_address": {
            "ward": null,
            "street": "2FWJ+W52",
            "city": "Barwaliya",
            "postal_code": "229127",
            "state": "Uttar Pradesh",
            "country_code": "IN"
        },
        "images": [],
        "link": "https://www.google.com/maps/place/Muhammadiya+Masjid/data=!4m7!3m6!1s0x399b024853d97627:0x7ecf186e44848f96!8m2!3d26.0472549!4d81.4803914!16s%2Fg%2F11f15ln1f2!19sChIJJ3bZU0gCmzkRlo-ERG4Yz34?authuser=0&hl=en&rclk=1",
        "coordinates": {
            "latitude": 26.0472549,
            "longitude": 81.4803914
        }
    },
    {
        "name": "Mustafa Masjid Darzi Mohalla",
        "main_category": "Mosque",
        "address": "Mustafa Masjid Darzi Mohalla, Mustafabad, Unchahar, Uttar Pradesh 229406",
        "detailed_address": {
            "ward": "Mustafabad",
            "street": null,
            "city": "Unchahar",
            "postal_code": "229406",
            "state": "Uttar Pradesh",
            "country_code": "IN"
        },
        "images": [
            {
                "about": "All",
                "link": "https://lh5.googleusercontent.com/p/AF1QipMoybObYJdsYZEEG_76Z9VmxXoeAWdlLzGiAVRO=w224-h298-k-no"
            },
            {
                "about": "Street View & 360deg",
                "link": "https://streetviewpixels-pa.googleapis.com/v1/thumbnail?panoid=-Qwjfvxew9VGxHaz5YBTAQ&cb_client=maps_sv.tactile.gps&w=224&h=298&yaw=16.808867&pitch=0&thumbfov=100"
            }
        ],
        "link": "https://www.google.com/maps/place/Mustafa+Masjid+Darzi+Mohalla/data=!4m7!3m6!1s0x399b111ccb4ce669:0x7736e555d0f2ad01!8m2!3d25.9093669!4d81.2920852!16s%2Fg%2F11cjk3cxdh!19sChIJaeZMyxwRmzkRAa3y0FXlNnc?authuser=0&hl=en&rclk=1",
        "coordinates": {
            "latitude": 25.9093669,
            "longitude": 81.2920852
        }
    },
    {
        "name": "Jama Masjid",
        "main_category": "Mosque",
        "address": "4H3P+VJH Jama Masjid, Shikohabad, Uttar Pradesh 283135",
        "detailed_address": {
            "ward": null,
            "street": "4H3P+VJH",
            "city": "Shikohabad",
            "postal_code": "283135",
            "state": "Uttar Pradesh",
            "country_code": "IN"
        },
        "images": [
            {
                "about": "All",
                "link": "https://streetviewpixels-pa.googleapis.com/v1/thumbnail?panoid=KCZCzpkxffU5-0eoJBXgOA&cb_client=maps_sv.tactile.gps&w=224&h=298&yaw=192.15378&pitch=0&thumbfov=100"
            },
            {
                "about": "Street View & 360deg",
                "link": "https://streetviewpixels-pa.googleapis.com/v1/thumbnail?panoid=KCZCzpkxffU5-0eoJBXgOA&cb_client=maps_sv.tactile.gps&w=224&h=298&yaw=192.15378&pitch=0&thumbfov=100"
            }
        ],
        "link": "https://www.google.com/maps/place/Jama+Masjid/data=!4m7!3m6!1s0x39744a1512a014b1:0x4e9975d5d3061bf3!8m2!3d27.1046796!4d78.5866194!16s%2Fg%2F11hc2__tlh!19sChIJsRSgEhVKdDkR8xsG09V1mU4?authuser=0&hl=en&rclk=1",
        "coordinates": {
            "latitude": 27.104679599999997,
            "longitude": 78.58661939999999
        }
    },
    {
        "name": "Jama Masjid",
        "main_category": "Mosque",
        "address": "W73V+R3X Jama Masjid, Bhitri gaon,, Unchahar, Uttar Pradesh",
        "detailed_address": {
            "ward": null,
            "street": "W73V+R3X, Bhitri gaon,",
            "city": "Unchahar",
            "postal_code": null,
            "state": "Uttar Pradesh",
            "country_code": "IN"
        },
        "images": [
            {
                "about": "All",
                "link": "https://lh5.googleusercontent.com/p/AF1QipN5SRukK1nIf1Cz_F14suaJYBm1UgTtoc2cxe8s=w663-h298-k-no"
            },
            {
                "about": "Street View & 360deg",
                "link": "https://streetviewpixels-pa.googleapis.com/v1/thumbnail?panoid=FPHrUGXkcNtfsbM1raZD5A&cb_client=maps_sv.tactile.gps&w=224&h=298&yaw=138.14241&pitch=0&thumbfov=100"
            },
            {
                "about": "Videos",
                "link": "https://lh5.googleusercontent.com/p/AF1QipMKdwC5KALB6DMJnGvtyqKawmTl7jGi_YjLIguq=w224-h398-k-no"
            }
        ],
        "link": "https://www.google.com/maps/place/Jama+Masjid/data=!4m7!3m6!1s0x399b111c3136a7e7:0xf832f36dd0fbb736!8m2!3d25.904623!4d81.2927244!16s%2Fg%2F11c1t6037t!19sChIJ56c2MRwRmzkRNrf70G3zMvg?authuser=0&hl=en&rclk=1",
        "coordinates": {
            "latitude": 25.904622999999997,
            "longitude": 81.2927244
        }
    },
    {
        "name": "Habibul Masajid Habibabad",
        "main_category": "Mosque",
        "address": "XCCG+5XM Habibul Masajid Habibabad, Paksrawan, Uttar Pradesh 229127",
        "detailed_address": {
            "ward": null,
            "street": "XCCG+5XM",
            "city": "Paksrawan",
            "postal_code": "229127",
            "state": "Uttar Pradesh",
            "country_code": "IN"
        },
        "images": [
            {
                "about": "All",
                "link": "https://lh5.googleusercontent.com/p/AF1QipNJ7MNB2sKp9Bc3rGUAPyK1vP6XhnuUs5Cgwkbz=w397-h298-k-no"
            },
            {
                "about": "Dome",
                "link": "https://lh5.googleusercontent.com/p/AF1QipNwNTyFDKrfRt6nPFOwCjWYj8T9l2zSrJm905RY=w435-h298-k-no"
            }
        ],
        "link": "https://www.google.com/maps/place/Habibul+Masajid+Habibabad/data=!4m7!3m6!1s0x399b1b55fda8f495:0xf196c1343418b4cd!8m2!3d25.9704549!4d81.4274146!16s%2Fg%2F11hb3gf_tk!19sChIJlfSo_VUbmzkRzbQYNDTBlvE?authuser=0&hl=en&rclk=1",
        "coordinates": {
            "latitude": 25.9704549,
            "longitude": 81.42741459999999
        }
    },
    {
        "name": "Eidgah",
        "main_category": "Mosque",
        "address": "Eidgah, master, Birhana Rd, Naya Ganj, General Ganj, Kanpur, Unchahar, Uttar Pradesh 208001",
        "detailed_address": {
            "ward": "Naya Ganj, General Ganj",
            "street": "master, Birhana Rd",
            "city": "Kanpur, Unchahar",
            "postal_code": "208001",
            "state": "Uttar Pradesh",
            "country_code": "IN"
        },
        "images": [
            {
                "about": "All",
                "link": "https://lh5.googleusercontent.com/p/AF1QipNlq4kzaUCpwmxfXGaiNL4SXI3ivW4OmaAKlgDW=w447-h298-k-no"
            },
            {
                "about": "Dome",
                "link": "https://lh5.googleusercontent.com/p/AF1QipPI0Gib_xyFRY6VoU8a1W-BcN3iNfEcMXUTqtHx=w447-h298-k-no"
            },
            {
                "about": "Street View & 360deg",
                "link": "https://streetviewpixels-pa.googleapis.com/v1/thumbnail?panoid=KyipBUB4im8PJvPhbLx8Kg&cb_client=maps_sv.tactile.gps&w=224&h=298&yaw=249.9119&pitch=0&thumbfov=100"
            }
        ],
        "link": "https://www.google.com/maps/place/Eidgah/data=!4m7!3m6!1s0x399b111a473c1637:0xa1e1d82fa27b4e99!8m2!3d25.9047688!4d81.2867066!16s%2Fg%2F11df0qgvdq!19sChIJNxY8RxoRmzkRmU57oi_Y4aE?authuser=0&hl=en&rclk=1",
        "coordinates": {
            "latitude": 25.9047688,
            "longitude": 81.2867066
        }
    },
    {
        "name": "Masjid e naimiya",
        "main_category": "Mosque",
        "address": "XCFV+CP5 Masjid e naimiya, Salon Rd, Autahiya, Khwajapur, Uttar Pradesh 229127",
        "detailed_address": {
            "ward": null,
            "street": "XCFV+CP5, Salon Rd",
            "city": "Autahiya, Khwajapur",
            "postal_code": "229127",
            "state": "Uttar Pradesh",
            "country_code": "IN"
        },
        "images": [],
        "link": "https://www.google.com/maps/place/Masjid+e+naimiya/data=!4m7!3m6!1s0x399b1d1bdd571b77:0x850fe5bf8db86e0d!8m2!3d25.9735105!4d81.4443467!16s%2Fg%2F11j1mhf055!19sChIJdxtX3RsdmzkRDW64jb_lD4U?authuser=0&hl=en&rclk=1",
        "coordinates": {
            "latitude": 25.9735105,
            "longitude": 81.4443467
        }
    },
    {
        "name": "Noorani Masjid, Sarain Akhtiyar",
        "main_category": "Mosque",
        "address": "WCG7+HVG Noorani Masjid, Sarain Akhtiyar, Sarain Akhtiyar, Salon, Uttar Pradesh 229127",
        "detailed_address": {
            "ward": null,
            "street": "WCG7+HVG, Sarain Akhtiyar",
            "city": "Salon, Rasoolpur",
            "postal_code": "229127",
            "state": "Uttar Pradesh",
            "country_code": "IN"
        },
        "images": [
            {
                "about": "All",
                "link": "https://lh5.googleusercontent.com/p/AF1QipOn2OAyuY2achJjXCRTrrSgBg6UuEhhtQiLR0vR=w397-h298-k-no"
            }
        ],
        "link": "https://www.google.com/maps/place/Noorani+Masjid,+Sarain+Akhtiyar/data=!4m7!3m6!1s0x399b1b180fe2915b:0x7ddaa72f8c75427!8m2!3d25.9264296!4d81.414713!16s%2Fg%2F11h0zhx3j5!19sChIJW5HiDxgbmzkRJ1TH-HKq3Qc?authuser=0&hl=en&rclk=1",
        "coordinates": {
            "latitude": 25.9264296,
            "longitude": 81.41471299999999
        }
    },
    {
        "name": "Mosque",
        "main_category": "Mosque",
        "address": "27C4+G9H Mosque, Poorebir, Kalyanpur Sarjai, Uttar Pradesh 229401",
        "detailed_address": {
            "ward": "Poorebir",
            "street": "27C4+G9H",
            "city": "Kalyanpur Sarjai",
            "postal_code": "229401",
            "state": "Uttar Pradesh",
            "country_code": "IN"
        },
        "images": [
            {
                "about": "All",
                "link": "https://lh5.googleusercontent.com/p/AF1QipO72x1mEIJlxszlxA-z1UnT8O-sA33z7XQIYNAA=w529-h298-k-no"
            }
        ],
        "link": "https://www.google.com/maps/place/Mosque/data=!4m7!3m6!1s0x399b0f3dda54e0e5:0xc76ba1cd5bb1309!8m2!3d26.0213237!4d81.2559717!16s%2Fg%2F11h4xf5wyp!19sChIJ5eBU2j0PmzkRCRO71Ry6dgw?authuser=0&hl=en&rclk=1",
        "coordinates": {
            "latitude": 26.0213237,
            "longitude": 81.25597169999999
        }
    },
    {
        "name": "Jama masjid Parshadepur",
        "main_category": "Mosque",
        "address": "3GM2+5PX Jama masjid Parshadepur, NH931A, Sansari, Uttar Pradesh 229129",
        "detailed_address": {
            "ward": null,
            "street": "3GM2+5PX, NH931A",
            "city": "Sansari",
            "postal_code": "229129",
            "state": "Uttar Pradesh",
            "country_code": "IN"
        },
        "images": [
            {
                "about": "All",
                "link": "https://streetviewpixels-pa.googleapis.com/v1/thumbnail?panoid=pJcfZM-iP5QpeNaIUnCcPQ&cb_client=maps_sv.tactile.gps&w=224&h=298&yaw=117.07049&pitch=0&thumbfov=100"
            },
            {
                "about": "Street View & 360deg",
                "link": "https://streetviewpixels-pa.googleapis.com/v1/thumbnail?panoid=pJcfZM-iP5QpeNaIUnCcPQ&cb_client=maps_sv.tactile.gps&w=224&h=298&yaw=117.07049&pitch=0&thumbfov=100"
            }
        ],
        "link": "https://www.google.com/maps/place/Jama+masjid+Parshadepur/data=!4m7!3m6!1s0x399b01f101000001:0x305a5d87023367d4!8m2!3d26.0829802!4d81.5018613!16s%2Fg%2F11g8g4jntq!19sChIJAQAAAfEBmzkR1GczAoddWjA?authuser=0&hl=en&rclk=1",
        "coordinates": {
            "latitude": 26.082980199999998,
            "longitude": 81.5018613
        }
    },
    {
        "name": "JAMA MASJID SUNNY DHARAI",
        "main_category": "Mosque",
        "address": "XF9G+857 JAMA MASJID SUNNY DHARAI, Dharai, Uttar Pradesh 229127",
        "detailed_address": {
            "ward": null,
            "street": "XF9G+857",
            "city": "Dharai",
            "postal_code": "229127",
            "state": "Uttar Pradesh",
            "country_code": "IN"
        },
        "images": [
            {
                "about": "All",
                "link": "https://lh5.googleusercontent.com/p/AF1QipMgFEeEZi5uppbXEJQB1QCMRzsVN_KFOLY-xcCl=w228-h298-k-no"
            },
            {
                "about": "Dome",
                "link": "https://lh5.googleusercontent.com/p/AF1QipMgFEeEZi5uppbXEJQB1QCMRzsVN_KFOLY-xcCl=w228-h298-k-no"
            }
        ],
        "link": "https://www.google.com/maps/place/JAMA+MASJID+SUNNY+DHARAI/data=!4m7!3m6!1s0x399b1dc110e55003:0xe705bd9fa3c87d90!8m2!3d25.9682803!4d81.4754355!16s%2Fg%2F11fd56j21j!19sChIJA1DlEMEdmzkRkH3Io5-9Bec?authuser=0&hl=en&rclk=1",
        "coordinates": {
            "latitude": 25.9682803,
            "longitude": 81.4754355
        }
    },
    {
        "name": "MASJID GULSHANE GULAAB ATAGANJ",
        "main_category": "Mosque",
        "address": "XFQX+5H8 MASJID GULSHANE GULAAB ATAGANJ, before naseer kirana store ataganj salon raebreli, Ratason, Uttar Pradesh 229124",
        "detailed_address": {
            "ward": null,
            "street": "XFQX+5H8, before naseer kirana store ataganj salon raebreli",
            "city": "Ratason",
            "postal_code": "229124",
            "state": "Uttar Pradesh",
            "country_code": "IN"
        },
        "images": [
            {
                "about": "All",
                "link": "https://lh5.googleusercontent.com/p/AF1QipMNNfHCGEfZtyLlpF7IEGRNyCcsW-il7R4IMgJZ=w224-h428-k-no"
            }
        ],
        "link": "https://www.google.com/maps/place/MASJID+GULSHANE+GULAAB+ATAGANJ/data=!4m7!3m6!1s0x399b02b17f1fde21:0x127fb6e4e8799d02!8m2!3d25.9879141!4d81.4989558!16s%2Fg%2F11c526rfl1!19sChIJId4ff7ECmzkRAp156OS2fxI?authuser=0&hl=en&rclk=1",
        "coordinates": {
            "latitude": 25.987914099999998,
            "longitude": 81.49895579999999
        }
    },
    {
        "name": "sunnii jaamaa msjid",
        "main_category": "Mosque",
        "address": "W7RQ+XW7 sunnii jaamaa msjid, Sawayaya Hasan, Uttar Pradesh 229404",
        "detailed_address": {
            "ward": null,
            "street": "W7RQ+XW7",
            "city": "Sawayaya Hasan",
            "postal_code": null,
            "state": "Uttar Pradesh",
            "country_code": "IN"
        },
        "images": [
            {
                "about": "All",
                "link": "https://lh5.googleusercontent.com/p/AF1QipOOjnx8AXxTgHggXctHiPzZUdLMz_wgEuZbD6Qi=w224-h298-k-no"
            },
            {
                "about": "Dome",
                "link": "https://lh5.googleusercontent.com/p/AF1QipNLSjRJlq-M-Cu6R90H1LQMqV5TXfVQ7rmCxZc-=w224-h398-k-no"
            },
            {
                "about": "Videos",
                "link": "https://lh5.googleusercontent.com/p/AF1QipOCs-GSkMWT_MmkbV-2X-KPoHfoy_gKF7CJng8P=w224-h407-k-no"
            },
            {
                "about": "Street View & 360deg",
                "link": "https://streetviewpixels-pa.googleapis.com/v1/thumbnail?panoid=_DxzzLWyLk94DD3H2wUh0Q&cb_client=maps_sv.tactile.gps&w=224&h=298&yaw=166.26689&pitch=0&thumbfov=100"
            }
        ],
        "link": "https://www.google.com/maps/place/%E0%A4%B8%E0%A5%81%E0%A4%A8%E0%A5%8D%E0%A4%A8%E0%A5%80+%E0%A4%9C%E0%A4%BE%E0%A4%AE%E0%A4%BE+%E0%A4%AE%E0%A4%B8%E0%A5%8D%E0%A4%9C%E0%A4%BF%E0%A4%A6/data=!4m7!3m6!1s0x399b116c4ce48eaf:0x8df6d3e36a16e9ba!8m2!3d25.9424085!4d81.2897914!16s%2Fg%2F11h_3xlcyv!19sChIJr47kTGwRmzkRuukWauPT9o0?authuser=0&hl=en&rclk=1",
        "coordinates": {
            "latitude": 25.9424085,
            "longitude": 81.2897914
        }
    },
    {
        "name": "Akbari Masjid Mazhar Ganj",
        "main_category": "Mosque",
        "address": "Akbari Masjid Mazhar Ganj, mazhar ganj ward No 03, Town Unchahar, Distt, Uttar Pradesh",
        "detailed_address": {
            "ward": null,
            "street": "mazhar ganj ward No 03, Town Unchahar, Distt",
            "city": "Unchahar, Khojanpur",
            "postal_code": null,
            "state": "Uttar Pradesh",
            "country_code": "IN"
        },
        "images": [
            {
                "about": "All",
                "link": "https://lh5.googleusercontent.com/p/AF1QipN1Jwe5d7LpgYUW24k27oNGj8qKdR9uECmQo3hX=w301-h298-k-no"
            },
            {
                "about": "Street View & 360deg",
                "link": "https://streetviewpixels-pa.googleapis.com/v1/thumbnail?panoid=5IK7Q9Pv-0GzVe7lBHhNhA&cb_client=maps_sv.tactile.gps&w=224&h=298&yaw=63.881252&pitch=0&thumbfov=100"
            }
        ],
        "link": "https://www.google.com/maps/place/Akbari+Masjid+Mazhar+Ganj/data=!4m7!3m6!1s0x399b1103e476fd53:0x41a6b3c2e184b95d!8m2!3d25.9148093!4d81.2913467!16s%2Fg%2F11gdgcnmy1!19sChIJU_125AMRmzkRXbmE4cKzpkE?authuser=0&hl=en&rclk=1",
        "coordinates": {
            "latitude": 25.914809299999998,
            "longitude": 81.29134669999999
        }
    },
    {
        "name": "Masjid H.Umar r.a.MARKAZ salon",
        "main_category": "Place of worship",
        "address": "Masjid H.Umar r.a.MARKAZ salon, Salon Bazar, Salon, Uttar Pradesh 229127",
        "detailed_address": {
            "ward": null,
            "street": null,
            "city": "Salon Bazar, Salon",
            "postal_code": "229127",
            "state": "Uttar Pradesh",
            "country_code": "IN"
        },
        "images": [
            {
                "about": "All",
                "link": "https://lh5.googleusercontent.com/p/AF1QipNt0LQOn1WX4CuxxDONLAtkDHRxOm0oLS5Li-Xn=w662-h298-k-no"
            },
            {
                "about": "Videos",
                "link": "https://lh5.googleusercontent.com/p/AF1QipPywkbk0ALHA5gPejR6dxf-c0nfionxPfVopbhl=w224-h398-k-no"
            }
        ],
        "link": "https://www.google.com/maps/place/Masjid+H.Umar+r.a.MARKAZ+salon/data=!4m7!3m6!1s0x399b03a1c667008f:0x8073fed2d369ae5c!8m2!3d26.0282559!4d81.4509774!16s%2Fg%2F11b6s3v7yd!19sChIJjwBnxqEDmzkRXK5p09L-c4A?authuser=0&hl=en&rclk=1",
        "coordinates": {
            "latitude": 26.028255899999998,
            "longitude": 81.4509774
        }
    },
    {
        "name": "Sunni Gausiya Masjid Runipur",
        "main_category": "Mosque",
        "address": "XCRF+56J Sunni Gausiya Masjid Runipur, Unchahar Rd, Mamuni, Uttar Pradesh 229127",
        "detailed_address": {
            "ward": null,
            "street": "XCRF+56J, Unchahar Rd",
            "city": "Mamuni",
            "postal_code": "229127",
            "state": "Uttar Pradesh",
            "country_code": "IN"
        },
        "images": [
            {
                "about": "All",
                "link": "https://lh5.googleusercontent.com/p/AF1QipOBb7FaQPL8DZ5cAL9PzTd5e1KpeDsLQz5GKaVb=w224-h398-k-no"
            }
        ],
        "link": "https://www.google.com/maps/place/Sunni+Gausiya+Masjid+Runipur/data=!4m7!3m6!1s0x399b0556fa1c2859:0xa9dd82366b3d0924!8m2!3d25.989669!4d81.423217!16s%2Fg%2F11sbz_2h03!19sChIJWSgc-lYFmzkRJAk9azaC3ak?authuser=0&hl=en&rclk=1",
        "coordinates": {
            "latitude": 25.989669,
            "longitude": 81.423217
        }
    },
    {
        "name": "Kewali Mahima Masjid",
        "main_category": "Mosque",
        "address": "2C5Q+XH3 Kewali Mahima Masjid, Bhawanipur, Uttar Pradesh 229127",
        "detailed_address": {
            "ward": null,
            "street": "2C5Q+XH3",
            "city": "Bhawanipur",
            "postal_code": "229127",
            "state": "Uttar Pradesh",
            "country_code": "IN"
        },
        "images": [
            {
                "about": "All",
                "link": "https://lh5.googleusercontent.com/p/AF1QipM7UMMtLa2GIQ0hFXjglnLHNc_q15w-ejOSYrE7=w224-h316-k-no"
            },
            {
                "about": "Dome",
                "link": "https://lh5.googleusercontent.com/p/AF1QipPUaRSYdrzYInxCPGs2CVm08QoZQPRbM_LoMvF3=w271-h298-k-no"
            },
            {
                "about": "Videos",
                "link": "https://lh5.googleusercontent.com/p/AF1QipPqgaa378Rx2Dx4hx47lzCIG2e-ViBgM8BMLbNC=w541-h298-k-no"
            }
        ],
        "link": "https://www.google.com/maps/place/Kewali+Mahima+Masjid/data=!4m7!3m6!1s0x399b036f8822c647:0xbb3128e13d1bf987!8m2!3d26.0098954!4d81.4389257!16s%2Fg%2F11fz9z4p_8!19sChIJR8YiiG8DmzkRh_kbPeEoMbs?authuser=0&hl=en&rclk=1",
        "coordinates": {
            "latitude": 26.009895399999998,
            "longitude": 81.4389257
        }
    },
    {
        "name": "Masjid E Maghdoomia Mosque",
        "main_category": "Mosque",
        "address": "39M6+6WW Masjid E Maghdoomia Mosque, Suchi, Uttar Pradesh 229128",
        "detailed_address": {
            "ward": null,
            "street": "39M6+6WW",
            "city": "Suchi",
            "postal_code": "229128",
            "state": "Uttar Pradesh",
            "country_code": "IN"
        },
        "images": [
            {
                "about": "All",
                "link": "https://lh5.googleusercontent.com/p/AF1QipPFxMnc7ZpVzybDtZtj54SjjV19-vcPzrWfkk5a=w397-h298-k-no"
            },
            {
                "about": "Street View & 360deg",
                "link": "https://streetviewpixels-pa.googleapis.com/v1/thumbnail?panoid=gZN1lS7_e0FIggBIatTDHw&cb_client=maps_sv.tactile.gps&w=224&h=298&yaw=275.21085&pitch=0&thumbfov=100"
            }
        ],
        "link": "https://www.google.com/maps/place/Masjid+E+Maghdoomia+Mosque/data=!4m7!3m6!1s0x399b066cae8a95ef:0xde950c205e07928f!8m2!3d26.0831057!4d81.3623205!16s%2Fg%2F11c6q7_wdx!19sChIJ75WKrmwGmzkRj5IHXiAMld4?authuser=0&hl=en&rclk=1",
        "coordinates": {
            "latitude": 26.083105699999997,
            "longitude": 81.3623205
        }
    },
    {
        "name": "Sunni Gausiya Masjid (Samaspur Khalsa) sunnii gausiyaa msjid (smspur khaalsaa)",
        "main_category": "Mosque",
        "address": "XCM8+2RC Sunni Gausiya Masjid (Samaspur Khalsa) sunnii gausiyaa msjid (smspur khaalsaa), Unchahar Rd, Samaspur Khalsa, Uttar Pradesh 229127",
        "detailed_address": {
            "ward": null,
            "street": "XCM8+2RC, Unchahar Rd",
            "city": "Samaspur Khalsa",
            "postal_code": "229127",
            "state": "Uttar Pradesh",
            "country_code": "IN"
        },
        "images": [
            {
                "about": "All",
                "link": "https://lh5.googleusercontent.com/p/AF1QipNOCQAlb3wouyUAeWHnPcnxcEbls6TGfbxfeRFc=w397-h298-k-no"
            }
        ],
        "link": "https://www.google.com/maps/place/Sunni+Gausiya+Masjid+%28Samaspur+Khalsa%29+%E0%A4%B8%E0%A5%81%E0%A4%A8%E0%A5%8D%E0%A4%A8%E0%A5%80+%E0%A4%97%E0%A5%8C%E0%A4%B8%E0%A4%BF%E0%A4%AF%E0%A4%BE+%E0%A4%AE%E0%A4%B8%E0%A5%8D%E0%A4%9C%E0%A4%BF%E0%A4%A6+%28%E0%A4%B8%E0%A4%AE%E0%A4%B8%E0%A4%AA%E0%A5%81%E0%A4%B0+%E0%A4%96%E0%A4%BE%E0%A4%B2%E0%A4%B8%E0%A4%BE%29/data=!4m7!3m6!1s0x399b05f645ec9dc1:0x355e630ccd9961eb!8m2!3d25.9825653!4d81.417011!16s%2Fg%2F11h7c6md8l!19sChIJwZ3sRfYFmzkR62GZzQxjXjU?authuser=0&hl=en&rclk=1",
        "coordinates": {
            "latitude": 25.982565299999997,
            "longitude": 81.417011
        }
    },
    {
        "name": "Masjid Jariyari",
        "main_category": "Mosque",
        "address": "38V6+GCF Masjid Jariyari, Jariyari, Uttar Pradesh 229128",
        "detailed_address": {
            "ward": null,
            "street": "38V6+GCF",
            "city": "Jariyari",
            "postal_code": null,
            "state": "Uttar Pradesh",
            "country_code": "IN"
        },
        "images": [
            {
                "about": "All",
                "link": "https://lh5.googleusercontent.com/p/AF1QipMb19hInKuNHi4oOOeq4GGctMGuMl8-RiSEV1y8=w529-h298-k-no"
            },
            {
                "about": "Videos",
                "link": "https://lh5.googleusercontent.com/p/AF1QipPjcYW-T_1k0MU9SbUPfx9La67RqYXCTMRckOwV=w224-h399-k-no"
            }
        ],
        "link": "https://www.google.com/maps/place/Masjid+Jariyari/data=!4m7!3m6!1s0x399b09f18648b387:0x5da782424902c6a9!8m2!3d26.0938043!4d81.3110533!16s%2Fg%2F11qpxnyc2y!19sChIJh7NIhvEJmzkRqcYCSUKCp10?authuser=0&hl=en&rclk=1",
        "coordinates": {
            "latitude": 26.0938043,
            "longitude": 81.3110533
        }
    },
    {
        "name": "Subbah Rangrez Masjid",
        "main_category": "Mosque",
        "address": "2FH3+9M3 Subbah Rangrez Masjid, Salon Bazar, Salon, Uttar Pradesh 229127",
        "detailed_address": {
            "ward": null,
            "street": "2FH3+9M3",
            "city": "Salon Bazar, Salon",
            "postal_code": "229127",
            "state": "Uttar Pradesh",
            "country_code": "IN"
        },
        "images": [],
        "link": "https://www.google.com/maps/place/Subbah+Rangrez+Masjid/data=!4m7!3m6!1s0x399b03a13cdfed73:0xe3f2d553f1d20963!8m2!3d26.0283822!4d81.4541656!16s%2Fg%2F11g6nj5z2m!19sChIJc-3fPKEDmzkRYwnS8VPV8uM?authuser=0&hl=en&rclk=1",
        "coordinates": {
            "latitude": 26.0283822,
            "longitude": 81.4541656
        }
    },
    {
        "name": "Zuma Masjid Dharai U.p",
        "main_category": "Mosque",
        "address": "XF9G+85P Zuma Masjid Dharai U.p, Dharai, Uttar Pradesh 229127",
        "detailed_address": {
            "ward": null,
            "street": "XF9G+85P",
            "city": "Dharai",
            "postal_code": "229127",
            "state": "Uttar Pradesh",
            "country_code": "IN"
        },
        "images": [
            {
                "about": "All",
                "link": "https://lh5.googleusercontent.com/p/AF1QipPpMXk30r8D1EKZbLnYM3hM89Rvyd6IjtSWs1Rp=w224-h398-k-no"
            },
            {
                "about": "Videos",
                "link": "https://lh5.googleusercontent.com/p/AF1QipPpMXk30r8D1EKZbLnYM3hM89Rvyd6IjtSWs1Rp=w224-h398-k-no"
            }
        ],
        "link": "https://www.google.com/maps/place/Zuma+Masjid+Dharai+U.p/data=!4m7!3m6!1s0x399b1d28922b9d3d:0x62d7d7a00d5b954a!8m2!3d25.9683484!4d81.475448!16s%2Fg%2F11gh3515h2!19sChIJPZ0rkigdmzkRSpVbDaDX12I?authuser=0&hl=en&rclk=1",
        "coordinates": {
            "latitude": 25.9683484,
            "longitude": 81.475448
        }
    },
    {
        "name": "Gaushiya masjid",
        "main_category": "Mosque",
        "address": "W75R+G22 Gaushiya masjid, Unchahar, Uttar Pradesh 229406",
        "detailed_address": {
            "ward": null,
            "street": "W75R+G22",
            "city": "Unchahar",
            "postal_code": "229406",
            "state": "Uttar Pradesh",
            "country_code": "IN"
        },
        "images": [
            {
                "about": "All",
                "link": "https://streetviewpixels-pa.googleapis.com/v1/thumbnail?panoid=gRrer56NH4b8Jz4K_5fdTg&cb_client=maps_sv.tactile.gps&w=224&h=298&yaw=65.62341&pitch=0&thumbfov=100"
            },
            {
                "about": "Street View & 360deg",
                "link": "https://streetviewpixels-pa.googleapis.com/v1/thumbnail?panoid=gRrer56NH4b8Jz4K_5fdTg&cb_client=maps_sv.tactile.gps&w=224&h=298&yaw=65.62341&pitch=0&thumbfov=100"
            }
        ],
        "link": "https://www.google.com/maps/place/Gaushiya+masjid/data=!4m7!3m6!1s0x399b11b0e3c24fcb:0xe2ac436f9fd3fd9b!8m2!3d25.9087594!4d81.290009!16s%2Fg%2F11kb4md479!19sChIJy0_C47ARmzkRm_3Tn29DrOI?authuser=0&hl=en&rclk=1",
        "coordinates": {
            "latitude": 25.908759399999997,
            "longitude": 81.290009
        }
    },
    {
        "name": "Rehmat Masjid",
        "main_category": "Mosque",
        "address": "2CQP+95X Rehmat Masjid, Neae Indian Oil Petrol Pump, Salon, Uttar Pradesh 229127",
        "detailed_address": {
            "ward": null,
            "street": "2CQP+95X, Neae Indian Oil Petrol Pump",
            "city": "Salon, Kateha",
            "postal_code": "229127",
            "state": "Uttar Pradesh",
            "country_code": "IN"
        },
        "images": [
            {
                "about": "All",
                "link": "https://lh5.googleusercontent.com/p/AF1QipN0932V9TTAlgXAinhWvTD-ODPhjaAMiacL3LGw=w224-h398-k-no"
            },
            {
                "about": "Videos",
                "link": "https://lh5.googleusercontent.com/p/AF1QipNWRTmIp2s6388Gs_qC0tFMS43_dvhWBWbh3YvO=w224-h407-k-no"
            }
        ],
        "link": "https://www.google.com/maps/place/Rehmat+Masjid/data=!4m7!3m6!1s0x399b03ac8b42f57f:0x41e03539a33ac9a0!8m2!3d26.0384809!4d81.4354736!16s%2Fg%2F11fmh3vm16!19sChIJf_VCi6wDmzkRoMk6ozk14EE?authuser=0&hl=en&rclk=1",
        "coordinates": {
            "latitude": 26.0384809,
            "longitude": 81.4354736
        }
    },
    {
        "name": "JAMA MASJID BINDAGANJ",
        "main_category": "Place of worship",
        "address": "28C9+88X JAMA MASJID BINDAGANJ, Sahari, Uttar Pradesh 229401",
        "detailed_address": {
            "ward": null,
            "street": "28C9+88X",
            "city": "Sahari",
            "postal_code": "229401",
            "state": "Uttar Pradesh",
            "country_code": "IN"
        },
        "images": [
            {
                "about": "All",
                "link": "https://lh5.googleusercontent.com/p/AF1QipMIMSt7mOv-6TdK_nxFApDgYfdALgBrF8Fnhd1_=w397-h298-k-no"
            },
            {
                "about": "Latest",
                "link": "https://lh5.googleusercontent.com/p/AF1QipNo9xqFXrGLkwPhbBHKeIgH6vmCBEQukKo_5n5M=w224-h302-k-no"
            },
            {
                "about": "Videos",
                "link": "https://lh5.googleusercontent.com/p/AF1QipMYjKIJ534pBvNk_w-WODTuqSBIV9QLBAKzJcW1=w224-h398-k-no"
            }
        ],
        "link": "https://www.google.com/maps/place/JAMA+MASJID+BINDAGANJ/data=!4m7!3m6!1s0x399b0fb1320457c3:0xbf558cc4f394d386!8m2!3d26.0208689!4d81.3183693!16s%2Fg%2F11r8m013f0!19sChIJw1cEMrEPmzkRhtOU88SMVb8?authuser=0&hl=en&rclk=1",
        "coordinates": {
            "latitude": 26.0208689,
            "longitude": 81.3183693
        }
    },
    {
        "name": "Jama Masjid Bewli",
        "main_category": "Mosque",
        "address": "2C8M+2H2 Jama Masjid Bewli, Bewali, Madapur, Uttar Pradesh 229127",
        "detailed_address": {
            "ward": null,
            "street": "2C8M+2H2",
            "city": "Bewali, Madapur",
            "postal_code": "229127",
            "state": "Uttar Pradesh",
            "country_code": "IN"
        },
        "images": [
            {
                "about": "All",
                "link": "https://lh5.googleusercontent.com/p/AF1QipMjkRFBSbdZGpYLORvXKnpbG2GPrOOwfsLW8RJF=w224-h497-k-no"
            },
            {
                "about": "Videos",
                "link": "https://lh5.googleusercontent.com/p/AF1QipN6ks0LCAJUgzPhknL_QfGT9CoxuOeoVCvAH920=w224-h398-k-no"
            }
        ],
        "link": "https://www.google.com/maps/place/Jama+Masjid+Bewli/data=!4m7!3m6!1s0x399b034e45edac51:0xa5374cd565c88b5b!8m2!3d26.0150088!4d81.4338923!16s%2Fg%2F11g4bts1mz!19sChIJUaztRU4DmzkRW4vIZdVMN6U?authuser=0&hl=en&rclk=1",
        "coordinates": {
            "latitude": 26.0150088,
            "longitude": 81.4338923
        }
    },
    {
        "name": "Manipur Masjid",
        "main_category": "Mosque",
        "address": "XG95+J6C Manipur Masjid, Ratason, Uttar Pradesh 230132",
        "detailed_address": {
            "ward": null,
            "street": "XG95+J6C",
            "city": "Ratason",
            "postal_code": null,
            "state": "Uttar Pradesh",
            "country_code": "IN"
        },
        "images": [
            {
                "about": "All",
                "link": "https://lh5.googleusercontent.com/p/AF1QipP_Nwd1tZVHvH8nWR-5D-PSCN4mYJ8Elnj7hQJz=w224-h298-k-no"
            },
            {
                "about": "Videos",
                "link": "https://lh5.googleusercontent.com/p/AF1QipNEPvxLCdAWgrxUW-5mXSwMMzTGWRuSm3S1mlHn=w529-h298-k-no"
            }
        ],
        "link": "https://www.google.com/maps/place/Manipur+Masjid/data=!4m7!3m6!1s0x399b1d4259a20777:0x66b10a107df061ce!8m2!3d25.9690547!4d81.5080234!16s%2Fg%2F11f6y70lrb!19sChIJdweiWUIdmzkRzmHwfRAKsWY?authuser=0&hl=en&rclk=1",
        "coordinates": {
            "latitude": 25.969054699999997,
            "longitude": 81.5080234
        }
    },
    {
        "name": "Rahmaniya Masjid",
        "main_category": "Mosque",
        "address": "XCVQ+47F Rahmaniya Masjid, Ashikabad, Uttar Pradesh 229127",
        "detailed_address": {
            "ward": null,
            "street": "XCVQ+47F",
            "city": "Ashikabad",
            "postal_code": "229127",
            "state": "Uttar Pradesh",
            "country_code": "IN"
        },
        "images": [],
        "link": "https://www.google.com/maps/place/Rahmaniya+Masjid/data=!4m7!3m6!1s0x399b03ff6f2bd421:0xf7891000a981a396!8m2!3d25.9928114!4d81.4381625!16s%2Fg%2F11j11gdrym!19sChIJIdQrb_8DmzkRlqOBqQAQifc?authuser=0&hl=en&rclk=1",
        "coordinates": {
            "latitude": 25.992811399999997,
            "longitude": 81.43816249999999
        }
    },
    {
        "name": "Sunni Habibiya Masjid (Kemupur)",
        "main_category": "Mosque",
        "address": "XG32+GGM Sunni Habibiya Masjid (Kemupur), Kemupur Rd, Kemupur, Jamalpur, Uttar Pradesh 229127",
        "detailed_address": {
            "ward": null,
            "street": "XG32+GGM, Kemupur Rd",
            "city": "Kemupur, Jamalpur",
            "postal_code": null,
            "state": "Uttar Pradesh",
            "country_code": "IN"
        },
        "images": [
            {
                "about": "All",
                "link": "https://lh5.googleusercontent.com/p/AF1QipNhXm5BO-Sfg1Ql8QJrZOK0ryNv3Ju7HRW_maZX=w224-h298-k-no"
            }
        ],
        "link": "https://www.google.com/maps/place/Sunni+Habibiya+Masjid+%28Kemupur%29/data=!4m7!3m6!1s0x399b1d0570dc79bf:0xfc7a0ef74eec8ed3!8m2!3d25.9538436!4d81.5013098!16s%2Fg%2F11kyvqpkww!19sChIJv3nccAUdmzkR047sTvcOevw?authuser=0&hl=en&rclk=1",
        "coordinates": {
            "latitude": 25.9538436,
            "longitude": 81.5013098
        }
    },
    {
        "name": "Rahemaniya masjid",
        "main_category": "Mosque",
        "address": "XCXM+3WR Rahemaniya masjid, Unnamed Road, Ashikabad, Uttar Pradesh 229127",
        "detailed_address": {
            "ward": null,
            "street": "XCXM+3WR, Unnamed Road",
            "city": "Ashikabad",
            "postal_code": "229127",
            "state": "Uttar Pradesh",
            "country_code": "IN"
        },
        "images": [
            {
                "about": "All",
                "link": "https://lh5.googleusercontent.com/p/AF1QipM7dyQnhWOKYHy0eawCGMqQsR0mbfamKhaEpuSD=w224-h398-k-no"
            },
            {
                "about": "Latest",
                "link": "https://lh5.googleusercontent.com/p/AF1QipM20-axmI9x7n6yExiMIk1SzsqHU3Zqpxfa1CUv=w397-h298-k-no"
            }
        ],
        "link": "https://www.google.com/maps/place/Rahemaniya+masjid/data=!4m7!3m6!1s0x399b030e808a8d57:0x3c7cd20b0e461774!8m2!3d25.9977415!4d81.4347686!16s%2Fg%2F11r10w3tm3!19sChIJV42KgA4DmzkRdBdGDgvSfDw?authuser=0&hl=en&rclk=1",
        "coordinates": {
            "latitude": 25.9977415,
            "longitude": 81.4347686
        }
    },
    {
        "name": "Al aqsha masjid",
        "main_category": "Mosque",
        "address": "Al aqsha masjid, Semri Ranapur, Uttar Pradesh 229401",
        "detailed_address": {
            "ward": null,
            "street": null,
            "city": "Semri Ranapur",
            "postal_code": "229401",
            "state": "Uttar Pradesh",
            "country_code": "IN"
        },
        "images": [
            {
                "about": "All",
                "link": "https://lh5.googleusercontent.com/p/AF1QipMNIuwdpvFPmxqUTYccR-QqhabpDkpW0CJ1KrB0=w224-h298-k-no"
            }
        ],
        "link": "https://www.google.com/maps/place/Al+aqsha+masjid/data=!4m7!3m6!1s0x399b0f457ce94701:0xd30bb8b98c8c2332!8m2!3d25.9705717!4d81.288687!16s%2Fg%2F11tn0yb4t7!19sChIJAUfpfEUPmzkRMiOMjLm4C9M?authuser=0&hl=en&rclk=1",
        "coordinates": {
            "latitude": 25.970571699999997,
            "longitude": 81.288687
        }
    },
    {
        "name": "Masjid hajrat Ali rj basantganj",
        "main_category": "Mosque",
        "address": "2C4J+G3J Masjid hajrat Ali rj basantganj, Basantganj, Bewali, Uttar Pradesh 229127",
        "detailed_address": {
            "ward": null,
            "street": "2C4J+G3J, Basantganj",
            "city": "Bewali",
            "postal_code": "229127",
            "state": "Uttar Pradesh",
            "country_code": "IN"
        },
        "images": [
            {
                "about": "All",
                "link": "https://lh5.googleusercontent.com/p/AF1QipNDq4zDDkmSy8Z6SHFZ5hJ27cv3PXYWc68k_xNl=w397-h298-k-no"
            }
        ],
        "link": "https://www.google.com/maps/place/Masjid+hajrat+Ali+rj+basantganj/data=!4m7!3m6!1s0x399b03c3ed1e40f1:0x1cb5e8f2f3e522e5!8m2!3d26.0072795!4d81.43053!16s%2Fg%2F11k9cy8dgb!19sChIJ8UAe7cMDmzkR5SLl8_LotRw?authuser=0&hl=en&rclk=1",
        "coordinates": {
            "latitude": 26.0072795,
            "longitude": 81.43052999999999
        }
    },
    {
        "name": "Noorani masjid Babuganj",
        "main_category": "Mosque",
        "address": "X7JP+FHV Noorani masjid Babuganj, Matrauli, Uttar Pradesh 229401",
        "detailed_address": {
            "ward": null,
            "street": "X7JP+FHV",
            "city": "Matrauli",
            "postal_code": null,
            "state": "Uttar Pradesh",
            "country_code": "IN"
        },
        "images": [
            {
                "about": "All",
                "link": "https://lh5.googleusercontent.com/p/AF1QipMgEhfMJi9mdpqUWaG3e42HJe3jiKcK1u4SOW_z=w224-h497-k-no"
            }
        ],
        "link": "https://www.google.com/maps/place/Noorani+masjid+Babuganj/data=!4m7!3m6!1s0x399b0f951a0cf19b:0xcf2771a74e6a27fe!8m2!3d25.981247!4d81.2864068!16s%2Fg%2F11fjxf1rgl!19sChIJm_EMGpUPmzkR_idqTqdxJ88?authuser=0&hl=en&rclk=1",
        "coordinates": {
            "latitude": 25.981247,
            "longitude": 81.2864068
        }
    },
    {
        "name": "Ratason masjid",
        "main_category": "Mosque",
        "address": "XGP4+56G Ratason masjid, Ratason, Uttar Pradesh 229124",
        "detailed_address": {
            "ward": null,
            "street": "XGP4+56G",
            "city": "Ratason",
            "postal_code": null,
            "state": "Uttar Pradesh",
            "country_code": "IN"
        },
        "images": [
            {
                "about": "All",
                "link": "https://lh5.googleusercontent.com/p/AF1QipOcb_SLjLaddG0CJQ2kdALMZlvpQLFeIBl9pltX=w224-h497-k-no"
            }
        ],
        "link": "https://www.google.com/maps/place/Ratason+masjid/data=!4m7!3m6!1s0x399b03ffab3bc8f5:0x2c0fdd831e9709db!8m2!3d25.9854477!4d81.5055711!16s%2Fg%2F11pb9_07k4!19sChIJ9cg7q_8DmzkR2wmXHoPdDyw?authuser=0&hl=en&rclk=1",
        "coordinates": {
            "latitude": 25.985447699999998,
            "longitude": 81.5055711
        }
    },
    {
        "name": "Sunni Naimia jama Masjid",
        "main_category": "Mosque",
        "address": "2FG5+Q5M Sunni Naimia jama Masjid, Unnamed Road, Salon Bazar, Salon, Uttar Pradesh 229127",
        "detailed_address": {
            "ward": null,
            "street": "2FG5+Q5M, Unnamed Road",
            "city": "Salon Bazar, Salon",
            "postal_code": "229127",
            "state": "Uttar Pradesh",
            "country_code": "IN"
        },
        "images": [
            {
                "about": "All",
                "link": "https://lh5.googleusercontent.com/p/AF1QipMSpcqdvQ2K8iVonpnNP6uZFrJTFhzQ5bM2yzx_=w224-h398-k-no"
            },
            {
                "about": "Dome",
                "link": "https://lh5.googleusercontent.com/p/AF1QipOJrse4iFXwFvXpa0UbXIA0uRYJ1OfLGaywzpeU=w237-h298-k-no"
            },
            {
                "about": "Videos",
                "link": "https://lh5.googleusercontent.com/p/AF1QipNpkbc7o7meb6scEm7-PwZ4h4u4PCjYx56fmk15=w224-h398-k-no"
            }
        ],
        "link": "https://www.google.com/maps/place/Sunni+Naimia+jama+Masjid/data=!4m7!3m6!1s0x399b032e5185b7bf:0x833d3c56922a8651!8m2!3d26.0269728!4d81.4579216!16s%2Fg%2F11h05kv046!19sChIJv7eFUS4DmzkRUYYqklY8PYM?authuser=0&hl=en&rclk=1",
        "coordinates": {
            "latitude": 26.0269728,
            "longitude": 81.45792159999999
        }
    },
    {
        "name": "miirjhpur chottii msjid",
        "main_category": "Mosque",
        "address": "WFJ3+X6W miirjhpur chottii msjid, Mirjahanpur, Uttar Pradesh 229127",
        "detailed_address": {
            "ward": null,
            "street": "WFJ3+X6W",
            "city": "Mirjahanpur",
            "postal_code": "229127",
            "state": "Uttar Pradesh",
            "country_code": "IN"
        },
        "images": [
            {
                "about": "All",
                "link": "https://lh5.googleusercontent.com/p/AF1QipMCLXM-aO72dWS_FSePPSisjSTO5LcpIvg9gnLL=w224-h298-k-no"
            },
            {
                "about": "Dome",
                "link": "https://lh5.googleusercontent.com/p/AF1QipNm2bnyAtP8T0AqMDz1IyNHzJ6KP-zCbKNM5www=w224-h398-k-no"
            }
        ],
        "link": "https://www.google.com/maps/place/%E0%A4%AE%E0%A5%80%E0%A4%B0%E0%A4%9C%E0%A4%B9%E0%A4%AA%E0%A5%81%E0%A4%B0+%E0%A4%9B%E0%A5%8B%E0%A4%9F%E0%A5%80+%E0%A4%AE%E0%A4%B8%E0%A5%8D%E0%A4%9C%E0%A4%BF%E0%A4%A6/data=!4m7!3m6!1s0x399b1d4c4cd19d0f:0xde2d5aa628f3c433!8m2!3d25.9324878!4d81.4530726!16s%2Fg%2F11p029_v6n!19sChIJD53RTEwdmzkRM8TzKKZaLd4?authuser=0&hl=en&rclk=1",
        "coordinates": {
            "latitude": 25.9324878,
            "longitude": 81.4530726
        }
    },
    {
        "name": "Madena Masjid Baherwa Choraha",
        "main_category": "Mosque",
        "address": "W876+CWW Madena Masjid Baherwa Choraha, Baherawa, Unchahar, Uttar Pradesh 229406",
        "detailed_address": {
            "ward": null,
            "street": "W876+CWW",
            "city": "Baherawa, Unchahar",
            "postal_code": "229406",
            "state": "Uttar Pradesh",
            "country_code": "IN"
        },
        "images": [
            {
                "about": "All",
                "link": "https://lh5.googleusercontent.com/p/AF1QipP7zliATwl_-zg51CbIxQXZnVSNfkqiaepveVJo=w224-h398-k-no"
            }
        ],
        "link": "https://www.google.com/maps/place/Madena+Masjid+Baherwa+Choraha/data=!4m7!3m6!1s0x399b1174bf1816df:0x9bbcf819854909c0!8m2!3d25.9136231!4d81.3123431!16s%2Fg%2F11rsf3b5zw!19sChIJ3xYYv3QRmzkRwAlJhRn4vJs?authuser=0&hl=en&rclk=1",
        "coordinates": {
            "latitude": 25.9136231,
            "longitude": 81.31234309999999
        }
    },
    {
        "name": "Sunni Barelvi Jama Masjid Kateha",
        "main_category": "Mosque",
        "address": "2CMJ+HJH Sunni Barelvi Jama Masjid Kateha, Kateha, Uttar Pradesh 229127",
        "detailed_address": {
            "ward": null,
            "street": "2CMJ+HJH",
            "city": "Kateha",
            "postal_code": "229127",
            "state": "Uttar Pradesh",
            "country_code": "IN"
        },
        "images": [],
        "link": "https://www.google.com/maps/place/Sunni+Barelvi+Jama+Masjid+Kateha/data=!4m7!3m6!1s0x399b032f74e31649:0x88609377b3a793d2!8m2!3d26.0338576!4d81.4318!16s%2Fg%2F11khr2fbv1!19sChIJSRbjdC8DmzkR0pOns3eTYIg?authuser=0&hl=en&rclk=1",
        "coordinates": {
            "latitude": 26.033857599999997,
            "longitude": 81.4318
        }
    },
    {
        "name": "Shekhon wali masjid(shykhw wly msjd)",
        "main_category": "Mosque",
        "address": "2FH4+GGG Shekhon wali masjid(shykhw wly msjd), Milkiyana west, Salon, Uttar Pradesh 229127",
        "detailed_address": {
            "ward": "Milkiyana west",
            "street": "2FH4+GGG",
            "city": "Salon",
            "postal_code": null,
            "state": "Uttar Pradesh",
            "country_code": "IN"
        },
        "images": [
            {
                "about": "All",
                "link": "https://lh5.googleusercontent.com/p/AF1QipO83Fdk6oA9793uZ_PH_Txc4pdUyqamQrPSrceB=w529-h298-k-no"
            },
            {
                "about": "Dome",
                "link": "https://lh5.googleusercontent.com/p/AF1QipO83Fdk6oA9793uZ_PH_Txc4pdUyqamQrPSrceB=w529-h298-k-no"
            }
        ],
        "link": "https://www.google.com/maps/place/Shekhon+wali+masjid%28%D8%B4%DB%8C%D8%AE%D9%88+%D9%88%D9%84%DB%8C+%D9%85%D8%B3%D8%AC%D8%AF%29%E2%80%AD/data=!4m7!3m6!1s0x399b03dfdb7631c7:0xa2b5bba1f82358ec!8m2!3d26.0288088!4d81.4563217!16s%2Fg%2F11rs0szqj3!19sChIJxzF2298DmzkR7Fgj-KG7taI?authuser=0&hl=en&rclk=1",
        "coordinates": {
            "latitude": 26.0288088,
            "longitude": 81.45632169999999
        }
    },
    {
        "name": "MOHAMADIYA MASJID",
        "main_category": "Mosque",
        "address": "2FG5+JVX MOHAMADIYA MASJID, Salon Bazar, Salon, Uttar Pradesh 229127",
        "detailed_address": {
            "ward": null,
            "street": "2FG5+JVX",
            "city": "Salon Bazar, Salon",
            "postal_code": "229127",
            "state": "Uttar Pradesh",
            "country_code": "IN"
        },
        "images": [
            {
                "about": "All",
                "link": "https://lh5.googleusercontent.com/p/AF1QipNSPaYK8h5h3Hn1PJFKl7_fRxsu7FwbNQf8kY2a=w224-h298-k-no"
            }
        ],
        "link": "https://www.google.com/maps/place/MOHAMADIYA+MASJID/data=!4m7!3m6!1s0x399b030492580c6b:0x505ef327a3c65d90!8m2!3d26.0266227!4d81.4597349!16s%2Fg%2F11g0ttlf78!19sChIJawxYkgQDmzkRkF3GoyfzXlA?authuser=0&hl=en&rclk=1",
        "coordinates": {
            "latitude": 26.026622699999997,
            "longitude": 81.4597349
        }
    },
    {
        "name": "Hussaini masjid",
        "main_category": "Mosque",
        "address": "2FH4+C5M Hussaini masjid, Salon Bazar, Salon, Uttar Pradesh 229127",
        "detailed_address": {
            "ward": null,
            "street": "2FH4+C5M",
            "city": "Salon Bazar, Salon",
            "postal_code": "229127",
            "state": "Uttar Pradesh",
            "country_code": "IN"
        },
        "images": [
            {
                "about": "All",
                "link": "https://lh5.googleusercontent.com/p/AF1QipPidp8A6fRMZJMbcvhdQPjIrcjX8eiHUbOCoY26=w529-h298-k-no"
            },
            {
                "about": "Videos",
                "link": "https://lh5.googleusercontent.com/p/AF1QipNIi2gHFeJHLFJt4r4-Z_dVfHrBRlSqsQh6Dwp1=w529-h298-k-no"
            }
        ],
        "link": "https://www.google.com/maps/place/Hussaini+masjid/data=!4m7!3m6!1s0x399b035265747703:0x25f468ba78936946!8m2!3d26.0285897!4d81.4554115!16s%2Fg%2F11mc03r4fk!19sChIJA3d0ZVIDmzkRRmmTeLpo9CU?authuser=0&hl=en&rclk=1",
        "coordinates": {
            "latitude": 26.028589699999998,
            "longitude": 81.4554115
        }
    },
    {
        "name": "Jama Masjid Baherwa jaamaa msjid bhervaa",
        "main_category": "Mosque",
        "address": "W897+8RX Jama Masjid Baherwa jaamaa msjid bhervaa, Khurampur, Uttar Pradesh 229406",
        "detailed_address": {
            "ward": null,
            "street": "W897+8RX",
            "city": "Khurampur",
            "postal_code": "229406",
            "state": "Uttar Pradesh",
            "country_code": "IN"
        },
        "images": [
            {
                "about": "All",
                "link": "https://lh5.googleusercontent.com/p/AF1QipNwp7gMwgI0abGWwkGrv2aiFiCcQMO8jx18yjhZ=w224-h398-k-no"
            },
            {
                "about": "Dome",
                "link": "https://lh5.googleusercontent.com/p/AF1QipOB3TuiN0DVuQ1ZJpyeKOHiYYB1XeX5maZISPSx=w317-h298-k-no"
            },
            {
                "about": "Videos",
                "link": "https://lh5.googleusercontent.com/p/AF1QipPVgJozqsENvp3ZawJImgva-bs09H1XXb2IEMuV=w224-h398-k-no"
            }
        ],
        "link": "https://www.google.com/maps/place/Jama+Masjid+Baherwa+%E0%A4%9C%E0%A4%BE%E0%A4%AE%E0%A4%BE+%E0%A4%AE%E0%A4%B8%E0%A5%8D%E0%A4%9C%E0%A4%BF%E0%A4%A6+%E0%A4%AC%E0%A4%B9%E0%A5%87%E0%A4%B0%E0%A4%B5%E0%A4%BE/data=!4m7!3m6!1s0x399b117e99b6181b:0x7e440c359cf5de1e!8m2!3d25.9183579!4d81.3146243!16s%2Fg%2F11rfqrzjmr!19sChIJGxi2mX4RmzkRHt71nDUMRH4?authuser=0&hl=en&rclk=1",
        "coordinates": {
            "latitude": 25.9183579,
            "longitude": 81.31462429999999
        }
    },
    {
        "name": "Munddipur Masjid",
        "main_category": "Mosque",
        "address": "W7FG+XR7 Munddipur Masjid, Sawanpur Newada, Uttar Pradesh 229404",
        "detailed_address": {
            "ward": null,
            "street": "W7FG+XR7",
            "city": "Sawanpur Newada",
            "postal_code": "229404",
            "state": "Uttar Pradesh",
            "country_code": "IN"
        },
        "images": [
            {
                "about": "All",
                "link": "https://streetviewpixels-pa.googleapis.com/v1/thumbnail?panoid=9A-YWOleHFebWJiCVTw4XQ&cb_client=maps_sv.tactile.gps&w=224&h=298&yaw=214.93562&pitch=0&thumbfov=100"
            },
            {
                "about": "Street View & 360deg",
                "link": "https://streetviewpixels-pa.googleapis.com/v1/thumbnail?panoid=9A-YWOleHFebWJiCVTw4XQ&cb_client=maps_sv.tactile.gps&w=224&h=298&yaw=214.93562&pitch=0&thumbfov=100"
            }
        ],
        "link": "https://www.google.com/maps/place/Munddipur+Masjid/data=!4m7!3m6!1s0x399b11f99e287e4b:0x54485b81be9bcd2e!8m2!3d25.9249246!4d81.2770423!16s%2Fg%2F11sbrkwcvh!19sChIJS34onvkRmzkRLs2bvoFbSFQ?authuser=0&hl=en&rclk=1",
        "coordinates": {
            "latitude": 25.924924599999997,
            "longitude": 81.27704229999999
        }
    },
    {
        "name": "Masjid Zama gause azam",
        "main_category": "Place of worship",
        "address": "2FF4+CGM Masjid Zama gause azam, Salon Bazar, Salon, Uttar Pradesh 229127",
        "detailed_address": {
            "ward": null,
            "street": "2FF4+CGM",
            "city": "Salon Bazar, Salon",
            "postal_code": "229127",
            "state": "Uttar Pradesh",
            "country_code": "IN"
        },
        "images": [
            {
                "about": "All",
                "link": "https://streetviewpixels-pa.googleapis.com/v1/thumbnail?panoid=TRS6kA9XrLx3vmfU5d2MCg&cb_client=maps_sv.tactile.gps&w=224&h=298&yaw=262.83704&pitch=0&thumbfov=100"
            },
            {
                "about": "Street View & 360deg",
                "link": "https://streetviewpixels-pa.googleapis.com/v1/thumbnail?panoid=TRS6kA9XrLx3vmfU5d2MCg&cb_client=maps_sv.tactile.gps&w=224&h=298&yaw=262.83704&pitch=0&thumbfov=100"
            }
        ],
        "link": "https://www.google.com/maps/place/Masjid+Zama+gause+azam/data=!4m7!3m6!1s0x399b0309ec3ea109:0xef6d32af1881f6ea!8m2!3d26.0235867!4d81.4562912!16s%2Fg%2F11b6sk8sb0!19sChIJCaE-7AkDmzkR6vaBGK8ybe8?authuser=0&hl=en&rclk=1",
        "coordinates": {
            "latitude": 26.0235867,
            "longitude": 81.4562912
        }
    },
    {
        "name": "msjid sraay daamoN",
        "main_category": "Mosque",
        "address": "47VC+4XG msjid sraay daamoN, Sarai Damu, Uttar Pradesh 229405",
        "detailed_address": {
            "ward": null,
            "street": "47VC+4XG",
            "city": "Sarai Damu",
            "postal_code": "229405",
            "state": "Uttar Pradesh",
            "country_code": "IN"
        },
        "images": [
            {
                "about": "All",
                "link": "https://lh5.googleusercontent.com/p/AF1QipMEZtnYY4d9bFfC0ryP1lOscYwS8h94fxrWrloQ=w398-h298-k-no"
            },
            {
                "about": "Dome",
                "link": "https://lh5.googleusercontent.com/p/AF1QipMEZtnYY4d9bFfC0ryP1lOscYwS8h94fxrWrloQ=w398-h298-k-no"
            }
        ],
        "link": "https://www.google.com/maps/place/%E0%A4%AE%E0%A4%B8%E0%A5%8D%E0%A4%9C%E0%A4%BF%E0%A4%A6+%E0%A4%B8%E0%A4%B0%E0%A4%BE%E0%A4%AF+%E0%A4%A6%E0%A4%BE%E0%A4%AE%E0%A5%8B%E0%A4%82/data=!4m7!3m6!1s0x399b09e43f3b1345:0x30aad5d6d8e74054!8m2!3d26.1424609!4d81.2718685!16s%2Fg%2F11s4fg5rgy!19sChIJRRM7P-QJmzkRVEDn2NbVqjA?authuser=0&hl=en&rclk=1",
        "coordinates": {
            "latitude": 26.1424609,
            "longitude": 81.2718685
        }
    },
    {
        "name": "Masjid-e-Rahmat",
        "main_category": "Mosque",
        "address": "29HM+46Q Masjid-e-Rahmat, Rewali, Uttar Pradesh 229401",
        "detailed_address": {
            "ward": null,
            "street": "29HM+46Q",
            "city": "Rewali",
            "postal_code": "229401",
            "state": "Uttar Pradesh",
            "country_code": "IN"
        },
        "images": [
            {
                "about": "All",
                "link": "https://lh5.googleusercontent.com/p/AF1QipPpD2-JcKZUUUIKgYcoEfT8WoeYhPeb_FZGFn-0=w397-h298-k-no"
            },
            {
                "about": "Videos",
                "link": "https://lh5.googleusercontent.com/p/AF1QipOUfxxXu14G0B8ED2Di0HAMZYXUDxWDdx-i8WIQ=w224-h398-k-no"
            }
        ],
        "link": "https://www.google.com/maps/place/Masjid-e-Rahmat/data=!4m7!3m6!1s0x399b053cf0a3fd59:0xf6b4496e9ab4f5d7!8m2!3d26.027848!4d81.3831146!16s%2Fg%2F11fpkxbk11!19sChIJWf2j8DwFmzkR1_W0mm5JtPY?authuser=0&hl=en&rclk=1",
        "coordinates": {
            "latitude": 26.027848,
            "longitude": 81.3831146
        }
    },
    {
        "name": "Sunni masjid",
        "main_category": "Mosque",
        "address": "29VW+HJV Sunni masjid, Atarthariya, Uttar Pradesh 229127",
        "detailed_address": {
            "ward": null,
            "street": "29VW+HJV",
            "city": "Atarthariya",
            "postal_code": "229127",
            "state": "Uttar Pradesh",
            "country_code": "IN"
        },
        "images": [],
        "link": "https://www.google.com/maps/place/Sunni+masjid/data=!4m7!3m6!1s0x399b05dc70585ed9:0x6d4e0e5029111c2d!8m2!3d26.0439852!4d81.3965584!16s%2Fg%2F11fwb2g_3b!19sChIJ2V5YcNwFmzkRLRwRKVAOTm0?authuser=0&hl=en&rclk=1",
        "coordinates": {
            "latitude": 26.043985199999998,
            "longitude": 81.39655839999999
        }
    },
    {
        "name": "Gausiya masjid katra",
        "main_category": "Mosque",
        "address": "XC44+2F9 Gausiya masjid katra, Katra, Usarauna, Uttar Pradesh 229127",
        "detailed_address": {
            "ward": "Katra",
            "street": "XC44+2F9",
            "city": "Usarauna",
            "postal_code": null,
            "state": "Uttar Pradesh",
            "country_code": "IN"
        },
        "images": [],
        "link": "https://www.google.com/maps/place/Gausiya+masjid+katra/data=!4m7!3m6!1s0x399b1bc7c77e9789:0x333e665e225d3bd8!8m2!3d25.9550405!4d81.4062461!16s%2Fg%2F11s_wtwm1f!19sChIJiZd-x8cbmzkR2DtdIl5mPjM?authuser=0&hl=en&rclk=1",
        "coordinates": {
            "latitude": 25.9550405,
            "longitude": 81.40624609999999
        }
    },
    {
        "name": "Rahmat Masjid",
        "main_category": "Mosque",
        "address": "2CMM+334 Rahmat Masjid, Jagatpur Rd, Kateha, Uttar Pradesh 229127",
        "detailed_address": {
            "ward": null,
            "street": "2CMM+334, Jagatpur Rd",
            "city": "Kateha",
            "postal_code": "229127",
            "state": "Uttar Pradesh",
            "country_code": "IN"
        },
        "images": [
            {
                "about": "All",
                "link": "https://lh5.googleusercontent.com/p/AF1QipMlsO3h1d4a_KYL_tKp-zLpV1Qpy9dnsWiSptZL=w224-h472-k-no"
            },
            {
                "about": "Dome",
                "link": "https://lh5.googleusercontent.com/p/AF1QipM-mYfUFtdbtXMdkoVUOr1xCCghuqVZqrNgK2CH=w224-h298-k-no"
            }
        ],
        "link": "https://www.google.com/maps/place/Rahmat+Masjid/data=!4m7!3m6!1s0x399b031e9f211a23:0x64e2bfa4d524e32a!8m2!3d26.0326397!4d81.4326895!16s%2Fg%2F11fmh3t8m8!19sChIJIxohnx4DmzkRKuMk1aS_4mQ?authuser=0&hl=en&rclk=1",
        "coordinates": {
            "latitude": 26.032639699999997,
            "longitude": 81.4326895
        }
    },
    {
        "name": "Kachhi masjid",
        "main_category": "Mosque",
        "address": "2FJ3+C5M Kachhi masjid, Gorahi road, Salon, Uttar Pradesh 229127",
        "detailed_address": {
            "ward": null,
            "street": "2FJ3+C5M, Gorahi road",
            "city": "Salon",
            "postal_code": null,
            "state": "Uttar Pradesh",
            "country_code": "IN"
        },
        "images": [
            {
                "about": "All",
                "link": "https://lh5.googleusercontent.com/p/AF1QipOIjMVbbFiCDXejEbw7N61sfqyH7VVM_LByVSbZ=w224-h398-k-no"
            },
            {
                "about": "Videos",
                "link": "https://lh5.googleusercontent.com/p/AF1QipP6SBjDGTAaBQCIHnEGfgkIsd6xnN9LHQMPHa1S=w224-h398-k-no"
            }
        ],
        "link": "https://www.google.com/maps/place/Kachhi+masjid/data=!4m7!3m6!1s0x399b03486479adaf:0x4c04aa085d8b4a89!8m2!3d26.0310884!4d81.4529137!16s%2Fg%2F11scp53k8n!19sChIJr615ZEgDmzkRiUqLXQiqBEw?authuser=0&hl=en&rclk=1",
        "coordinates": {
            "latitude": 26.031088399999998,
            "longitude": 81.4529137
        }
    },
    {
        "name": "Masjid Hamza Ratson",
        "main_category": "Mosque",
        "address": "XGG6+342 Masjid Hamza Ratson, Ratason, Uttar Pradesh 229124",
        "detailed_address": {
            "ward": null,
            "street": "XGG6+342",
            "city": "Ratason",
            "postal_code": null,
            "state": "Uttar Pradesh",
            "country_code": "IN"
        },
        "images": [
            {
                "about": "All",
                "link": "https://lh5.googleusercontent.com/p/AF1QipN7uiBwgN8lJSRmFR027Vaux62S90dypCJwyJho=w224-h298-k-no"
            },
            {
                "about": "Videos",
                "link": "https://lh5.googleusercontent.com/p/AF1QipOgaTBcgXqrX7kuWyiNhwkX0Bp40GHr9lZx8_Gq=w298-h298-k-no"
            }
        ],
        "link": "https://www.google.com/maps/place/Masjid+Hamza+Ratson/data=!4m7!3m6!1s0x399b1d73eb855fc9:0x91d61a6857806a57!8m2!3d25.9751482!4d81.5102655!16s%2Fg%2F11h3gpw3pk!19sChIJyV-F63MdmzkRV2qAV2ga1pE?authuser=0&hl=en&rclk=1",
        "coordinates": {
            "latitude": 25.9751482,
            "longitude": 81.5102655
        }
    },
    {
        "name": "Sunni masjid raipur",
        "main_category": "Mosque",
        "address": "X9C2+7X Sunni masjid raipur, Raipur, Uttar Pradesh 229401",
        "detailed_address": {
            "ward": null,
            "street": "X9C2+7X",
            "city": "Raipur",
            "postal_code": null,
            "state": "Uttar Pradesh",
            "country_code": "IN"
        },
        "images": [],
        "link": "https://www.google.com/maps/place/Sunni+masjid+raipur/data=!4m7!3m6!1s0x399b1b7b0e4a461d:0xa02e8703f1c0964c!8m2!3d25.9707135!4d81.3523901!16s%2Fg%2F11ryrkkhr6!19sChIJHUZKDnsbmzkRTJbA8QOHLqA?authuser=0&hl=en&rclk=1",
        "coordinates": {
            "latitude": 25.9707135,
            "longitude": 81.3523901
        }
    },
    {
        "name": "Madeena Masjid, Panah Nagar",
        "main_category": "Mosque",
        "address": "XFC5+GMX Madeena Masjid, Panah Nagar, Unnamed Road, Dharai, Uttar Pradesh 229127",
        "detailed_address": {
            "ward": null,
            "street": "XFC5+GMX, Unnamed Road",
            "city": "Dharai",
            "postal_code": "229127",
            "state": "Uttar Pradesh",
            "country_code": "IN"
        },
        "images": [
            {
                "about": "All",
                "link": "https://lh5.googleusercontent.com/p/AF1QipMvivyWwxkVizllmHe3Sq6HUmtybkXM6woWdBu4=w224-h298-k-no"
            }
        ],
        "link": "https://www.google.com/maps/place/Madeena+Masjid,+Panah+Nagar/data=!4m7!3m6!1s0x399b1de2f1af6261:0xf913ea3ff947801!8m2!3d25.9713545!4d81.4592219!16s%2Fg%2F11ns3hh0g6!19sChIJYWKv8eIdmzkRAXiU_6M-kQ8?authuser=0&hl=en&rclk=1",
        "coordinates": {
            "latitude": 25.9713545,
            "longitude": 81.4592219
        }
    },
    {
        "name": "Masjid umer",
        "main_category": "Mosque",
        "address": "3GJ2+M3Q Masjid umer, NH931A, Parshde Pur Chauraha, Sunga, Uttar Pradesh 229129",
        "detailed_address": {
            "ward": null,
            "street": "3GJ2+M3Q, NH931A",
            "city": "Parshde Pur Chauraha, Sunga",
            "postal_code": "229129",
            "state": "Uttar Pradesh",
            "country_code": "IN"
        },
        "images": [
            {
                "about": "All",
                "link": "https://streetviewpixels-pa.googleapis.com/v1/thumbnail?panoid=EG-rv2QuU6p3qi-FveMJhg&cb_client=maps_sv.tactile.gps&w=224&h=298&yaw=79.922&pitch=0&thumbfov=100"
            },
            {
                "about": "Street View & 360deg",
                "link": "https://streetviewpixels-pa.googleapis.com/v1/thumbnail?panoid=EG-rv2QuU6p3qi-FveMJhg&cb_client=maps_sv.tactile.gps&w=224&h=298&yaw=79.922&pitch=0&thumbfov=100"
            }
        ],
        "link": "https://www.google.com/maps/place/Masjid+umer/data=!4m7!3m6!1s0x399b016d6cb7f8cb:0xab238ca55269f270!8m2!3d26.0817168!4d81.5002378!16s%2Fg%2F11lg2sc5g0!19sChIJy_i3bG0BmzkRcPJpUqWMI6s?authuser=0&hl=en&rclk=1",
        "coordinates": {
            "latitude": 26.0817168,
            "longitude": 81.5002378
        }
    },
    {
        "name": "Jama Masjid",
        "main_category": "Mosque",
        "address": "4CV6+F24 Jama Masjid, Khergola, Deeh, Uttar Pradesh 272189",
        "detailed_address": {
            "ward": null,
            "street": "4CV6+F24, Khergola",
            "city": "Deeh",
            "postal_code": "272189",
            "state": "Uttar Pradesh",
            "country_code": "IN"
        },
        "images": [
            {
                "about": "All",
                "link": "https://lh5.googleusercontent.com/p/AF1QipPPcAx2W8YHWLX2f6IJYh6z-9OfmGxKuoEjeArJ=w224-h298-k-no"
            },
            {
                "about": "Dome",
                "link": "https://lh5.googleusercontent.com/p/AF1QipPPcAx2W8YHWLX2f6IJYh6z-9OfmGxKuoEjeArJ=w224-h298-k-no"
            }
        ],
        "link": "https://www.google.com/maps/place/Jama+Masjid/data=!4m7!3m6!1s0x399b07ddf3a1e0b1:0x18f570764f018c0c!8m2!3d26.143634!4d81.4100691!16s%2Fg%2F11fk1b_4c3!19sChIJseCh890HmzkRDIwBT3Zw9Rg?authuser=0&hl=en&rclk=1",
        "coordinates": {
            "latitude": 26.143634,
            "longitude": 81.4100691
        }
    },
    {
        "name": "Noorani masjid",
        "main_category": "Mosque",
        "address": "Noorani masjid, Ward no 8 noorani mohalla post, Mustafabad, Unchahar, Uttar Pradesh 229404",
        "detailed_address": {
            "ward": "Mustafabad",
            "street": "Ward no 8 noorani mohalla post",
            "city": "Unchahar",
            "postal_code": "229404",
            "state": "Uttar Pradesh",
            "country_code": "IN"
        },
        "images": [
            {
                "about": "All",
                "link": "https://lh5.googleusercontent.com/p/AF1QipOGInjNpgYs5cYOgy84aTB786-mlHWQyQMhbv1w=w397-h298-k-no"
            }
        ],
        "link": "https://www.google.com/maps/place/Noorani+masjid/data=!4m7!3m6!1s0x399b1134b7ae6eb9:0x5c2fb7168323131a!8m2!3d25.9072922!4d81.2903275!16s%2Fg%2F11h9gbm5kk!19sChIJuW6utzQRmzkRGhMjgxa3L1w?authuser=0&hl=en&rclk=1",
        "coordinates": {
            "latitude": 25.9072922,
            "longitude": 81.29032749999999
        }
    },
    {
        "name": "Masjid",
        "main_category": "Mosque",
        "address": "W73W+2W7 Masjid, Railway Station Road, Unchahar, Uttar Pradesh 229406",
        "detailed_address": {
            "ward": null,
            "street": "W73W+2W7, Railway Station Road",
            "city": "Unchahar",
            "postal_code": "229406",
            "state": "Uttar Pradesh",
            "country_code": "IN"
        },
        "images": [
            {
                "about": "All",
                "link": "https://lh5.googleusercontent.com/p/AF1QipPTcSPf5vODoea_a8XX8l2lirhEYd1Y2GkohAzd=w660-h298-k-no"
            },
            {
                "about": "Dome",
                "link": "https://lh5.googleusercontent.com/p/AF1QipPTcSPf5vODoea_a8XX8l2lirhEYd1Y2GkohAzd=w660-h298-k-no"
            },
            {
                "about": "Street View & 360deg",
                "link": "https://streetviewpixels-pa.googleapis.com/v1/thumbnail?panoid=sxuzKTI4GjCBoDxPpndi2Q&cb_client=maps_sv.tactile.gps&w=224&h=298&yaw=193.30301&pitch=0&thumbfov=100"
            }
        ],
        "link": "https://www.google.com/maps/place/Masjid/data=!4m7!3m6!1s0x399b11aac2160a51:0x2e61357ddead69a1!8m2!3d25.9025475!4d81.2972826!16s%2Fg%2F11n7q855w3!19sChIJUQoWwqoRmzkRoWmt3n01YS4?authuser=0&hl=en&rclk=1",
        "coordinates": {
            "latitude": 25.902547499999997,
            "longitude": 81.2972826
        }
    },
    {
        "name": "Naiymiya MASJID",
        "main_category": "Mosque",
        "address": "3F49+PF3 Naiymiya MASJID, Unnamed Road, Vijwaliya, Uttar Pradesh 229127",
        "detailed_address": {
            "ward": null,
            "street": "3F49+PF3, Unnamed Road",
            "city": "Vijwaliya",
            "postal_code": "229127",
            "state": "Uttar Pradesh",
            "country_code": "IN"
        },
        "images": [
            {
                "about": "All",
                "link": "https://lh5.googleusercontent.com/p/AF1QipP7T3DulvujM4YUe770iHRkf5KaR-Z7P6Aw3NeZ=w526-h298-k-no"
            },
            {
                "about": "Dome",
                "link": "https://lh5.googleusercontent.com/p/AF1QipOVIqYqc6HEfV3CfLZSGIvcUrJtdgwW-cIHlKHg=w259-h298-k-no"
            },
            {
                "about": "Videos",
                "link": "https://lh5.googleusercontent.com/p/AF1QipPsIo6f0JpiZuOB2D19QALcajD4es6xRRZ_mm_d=w259-h298-k-no"
            }
        ],
        "link": "https://www.google.com/maps/place/Naiymiya+MASJID/data=!4m7!3m6!1s0x399b038766824ae1:0x297b3a319ae1859d!8m2!3d26.0567526!4d81.4686812!16s%2Fg%2F11jflwqzrg!19sChIJ4UqCZocDmzkRnYXhmjE6eyk?authuser=0&hl=en&rclk=1",
        "coordinates": {
            "latitude": 26.0567526,
            "longitude": 81.46868119999999
        }
    },
    {
        "name": "Masjid",
        "main_category": "Place of worship",
        "address": "W7RQ+XW7 Masjid, Sawayaya Hasan, Uttar Pradesh 229404",
        "detailed_address": {
            "ward": null,
            "street": "W7RQ+XW7",
            "city": "Sawayaya Hasan",
            "postal_code": "229404",
            "state": "Uttar Pradesh",
            "country_code": "IN"
        },
        "images": [
            {
                "about": "All",
                "link": "https://streetviewpixels-pa.googleapis.com/v1/thumbnail?panoid=2Ix4cGgM-X41F9BKkBWnKA&cb_client=maps_sv.tactile.gps&w=224&h=298&yaw=145.5483&pitch=0&thumbfov=100"
            },
            {
                "about": "Street View & 360deg",
                "link": "https://streetviewpixels-pa.googleapis.com/v1/thumbnail?panoid=2Ix4cGgM-X41F9BKkBWnKA&cb_client=maps_sv.tactile.gps&w=224&h=298&yaw=145.5483&pitch=0&thumbfov=100"
            }
        ],
        "link": "https://www.google.com/maps/place/Masjid/data=!4m7!3m6!1s0x399b119454306b45:0xa7e940d948a9e106!8m2!3d25.9423833!4d81.2899567!16s%2Fg%2F11sk4xknm7!19sChIJRWswVJQRmzkRBuGpSNlA6ac?authuser=0&hl=en&rclk=1",
        "coordinates": {
            "latitude": 25.9423833,
            "longitude": 81.28995669999999
        }
    },
    {
        "name": "Sunni masjid",
        "main_category": "Mosque",
        "address": "29QV+8HX Sunni masjid, Atarthariya, Uttar Pradesh 229127",
        "detailed_address": {
            "ward": null,
            "street": "29QV+8HX",
            "city": "Atarthariya",
            "postal_code": "229127",
            "state": "Uttar Pradesh",
            "country_code": "IN"
        },
        "images": [
            {
                "about": "All",
                "link": "https://lh5.googleusercontent.com/p/AF1QipOYSEyOekyR4ZUiS3bu0mvktvOIk1VZGf1rGvgJ=w529-h298-k-no"
            }
        ],
        "link": "https://www.google.com/maps/place/Sunni+masjid/data=!4m7!3m6!1s0x399b058688cda1b7:0xf1922a065757eca9!8m2!3d26.0383508!4d81.3939956!16s%2Fg%2F11j6sx0vxm!19sChIJt6HNiIYFmzkRqexXVwYqkvE?authuser=0&hl=en&rclk=1",
        "coordinates": {
            "latitude": 26.0383508,
            "longitude": 81.3939956
        }
    },
    {
        "name": "Masjid e Abu-Ayyub Ansari",
        "main_category": "Mosque",
        "address": "XCVX+P6Q Masjid e Abu-Ayyub Ansari, Unnamed Road, Mohammadabad, Uttar Pradesh 229127",
        "detailed_address": {
            "ward": null,
            "street": "XCVX+P6Q, Unnamed Road",
            "city": "Mohammadabad",
            "postal_code": "229127",
            "state": "Uttar Pradesh",
            "country_code": "IN"
        },
        "images": [
            {
                "about": "All",
                "link": "https://lh5.googleusercontent.com/p/AF1QipMRfsLd9QmT66R9W4iuJBUxcrB1uS_2uHK12UtF=w224-h398-k-no"
            }
        ],
        "link": "https://www.google.com/maps/place/Masjid+e+Abu-Ayyub+Ansari/data=!4m7!3m6!1s0x399b031462af8a67:0x931b6f85b9db62fa!8m2!3d25.9943474!4d81.4481024!16s%2Fg%2F11qykn8yb2!19sChIJZ4qvYhQDmzkR-mLbuYVvG5M?authuser=0&hl=en&rclk=1",
        "coordinates": {
            "latitude": 25.9943474,
            "longitude": 81.4481024
        }
    },
    {
        "name": "Nai Masjid",
        "main_category": "Mosque",
        "address": "2CPH+3FQ Nai Masjid, Kateha, Uttar Pradesh 229127",
        "detailed_address": {
            "ward": null,
            "street": "2CPH+3FQ",
            "city": "Kateha",
            "postal_code": "229127",
            "state": "Uttar Pradesh",
            "country_code": "IN"
        },
        "images": [
            {
                "about": "All",
                "link": "https://lh5.googleusercontent.com/p/AF1QipNfpt3GkBpCFd-V6GsufNI3mBn9F5HfRvRMPcUv=w224-h398-k-no"
            }
        ],
        "link": "https://www.google.com/maps/place/Nai+Masjid/data=!4m7!3m6!1s0x399b03dc0d7bc1b5:0xaf8e80de858b3708!8m2!3d26.0352046!4d81.4287463!16s%2Fg%2F11mvyvklt5!19sChIJtcF7DdwDmzkRCDeLhd6Ajq8?authuser=0&hl=en&rclk=1",
        "coordinates": {
            "latitude": 26.0352046,
            "longitude": 81.4287463
        }
    },
    {
        "name": "Masjid MOHAMMADIYA",
        "main_category": "Mosque",
        "address": "2FG4+PQH Masjid MOHAMMADIYA, Usman Khan Masjid,, Salon Bazar, Uttar Pradesh",
        "detailed_address": {
            "ward": null,
            "street": "2FG4+PQH, Usman Khan Masjid,",
            "city": "Salon Bazar, Salon",
            "postal_code": null,
            "state": "Uttar Pradesh",
            "country_code": "IN"
        },
        "images": [
            {
                "about": "All",
                "link": "https://lh5.googleusercontent.com/p/AF1QipNy-L_qe7ccOpqT0w2racLM8_akQZX08mUPExAf=w397-h298-k-no"
            },
            {
                "about": "Street View & 360deg",
                "link": "https://streetviewpixels-pa.googleapis.com/v1/thumbnail?panoid=sbBzIE1z7uT8fUtr91_uTw&cb_client=maps_sv.tactile.gps&w=224&h=298&yaw=334.63614&pitch=0&thumbfov=100"
            },
            {
                "about": "Videos",
                "link": "https://lh5.googleusercontent.com/p/AF1QipOqhm3Z-Zx45N33MMHAUVjJEwweq5WhX9PXLumh=w224-h398-k-no"
            }
        ],
        "link": "https://www.google.com/maps/place/Masjid+MOHAMMADIYA/data=!4m7!3m6!1s0x399b03a7171ff3b9:0xe2a9b8f6b87ea153!8m2!3d26.0268184!4d81.4569927!16s%2Fg%2F11c2pmqz2s!19sChIJufMfF6cDmzkRU6F-uPa4qeI?authuser=0&hl=en&rclk=1",
        "coordinates": {
            "latitude": 26.0268184,
            "longitude": 81.4569927
        }
    },
    {
        "name": "Ansari Masjid Azeez ul Qadeer, Dharai Chauraha",
        "main_category": "Mosque",
        "address": "XF8H+5V9 Ansari Masjid Azeez ul Qadeer, Dharai Chauraha, Kemupur Rd, Kemupur, Dharai, Uttar Pradesh 229127",
        "detailed_address": {
            "ward": null,
            "street": "XF8H+5V9, Kemupur Rd",
            "city": "Kemupur, Dharai",
            "postal_code": "229127",
            "state": "Uttar Pradesh",
            "country_code": "IN"
        },
        "images": [
            {
                "about": "All",
                "link": "https://lh5.googleusercontent.com/p/AF1QipO3l1LvCgeApJJLoHM8Vnb1DzWYReOGc4kFdLLs=w224-h398-k-no"
            }
        ],
        "link": "https://www.google.com/maps/place/Ansari+Masjid+Azeez+ul+Qadeer,+Dharai+Chauraha/data=!4m7!3m6!1s0x399b1d198da8fb17:0x3275cb837e852f17!8m2!3d25.9654237!4d81.4797445!16s%2Fg%2F11qzvwb54h!19sChIJF_uojRkdmzkRFy-FfoPLdTI?authuser=0&hl=en&rclk=1",
        "coordinates": {
            "latitude": 25.9654237,
            "longitude": 81.4797445
        }
    },
    {
        "name": "Zama masjid",
        "main_category": "Mosque",
        "address": "5F5M+X5H Zama masjid, Birnawa, Uttar Pradesh 229307",
        "detailed_address": {
            "ward": null,
            "street": "5F5M+X5H",
            "city": "Birnawa",
            "postal_code": null,
            "state": "Uttar Pradesh",
            "country_code": "IN"
        },
        "images": [],
        "link": "https://www.google.com/maps/place/Zama+masjid/data=!4m7!3m6!1s0x399b014855a5eb9f:0xdf0b997b322037ff!8m2!3d26.1599367!4d81.482985!16s%2Fg%2F11rtx7dz9c!19sChIJn-ulVUgBmzkR_zcgMnuZC98?authuser=0&hl=en&rclk=1",
        "coordinates": {
            "latitude": 26.1599367,
            "longitude": 81.482985
        }
    },
    {
        "name": "Choti masjid basantganj",
        "main_category": "Mosque",
        "address": "2C4H+3VP Choti masjid basantganj, Bewali, Uttar Pradesh 229127",
        "detailed_address": {
            "ward": null,
            "street": "2C4H+3VP",
            "city": "Bewali",
            "postal_code": "229127",
            "state": "Uttar Pradesh",
            "country_code": "IN"
        },
        "images": [],
        "link": "https://www.google.com/maps/place/Choti+masjid+basantganj/data=!4m7!3m6!1s0x399b0374c828c6cd:0x62f9099efbb1f91!8m2!3d26.005154!4d81.4296063!16s%2Fg%2F11vkhh_gvn!19sChIJzcYoyHQDmzkRkR-775mQLwY?authuser=0&hl=en&rclk=1",
        "coordinates": {
            "latitude": 26.005153999999997,
            "longitude": 81.4296063
        }
    },
    {
        "name": "Kacchi masjid",
        "main_category": "Mosque",
        "address": "2FG3+CHQ Kacchi masjid, Salon Bazar, Salon, Uttar Pradesh 229127",
        "detailed_address": {
            "ward": null,
            "street": "2FG3+CHQ",
            "city": "Salon Bazar, Salon",
            "postal_code": null,
            "state": "Uttar Pradesh",
            "country_code": "IN"
        },
        "images": [
            {
                "about": "All",
                "link": "https://streetviewpixels-pa.googleapis.com/v1/thumbnail?panoid=LB1u5gU8WIZceK1RzgSWFg&cb_client=maps_sv.tactile.gps&w=224&h=298&yaw=146.32253&pitch=0&thumbfov=100"
            },
            {
                "about": "Street View & 360deg",
                "link": "https://streetviewpixels-pa.googleapis.com/v1/thumbnail?panoid=LB1u5gU8WIZceK1RzgSWFg&cb_client=maps_sv.tactile.gps&w=224&h=298&yaw=146.32253&pitch=0&thumbfov=100"
            }
        ],
        "link": "https://www.google.com/maps/place/Kacchi+masjid/data=!4m7!3m6!1s0x399b0345bb6579df:0xd4af3d4901a48cb8!8m2!3d26.026086!4d81.453991!16s%2Fg%2F11sz2lfkv4!19sChIJ33llu0UDmzkRuIykAUk9r9Q?authuser=0&hl=en&rclk=1",
        "coordinates": {
            "latitude": 26.026086,
            "longitude": 81.453991
        }
    },
    {
        "name": "Old jama masjid",
        "main_category": "Mosque",
        "address": "3GJ2+PV2 Old jama masjid, Sansari, Uttar Pradesh 229129",
        "detailed_address": {
            "ward": null,
            "street": "3GJ2+PV2",
            "city": "Sansari",
            "postal_code": "229129",
            "state": "Uttar Pradesh",
            "country_code": "IN"
        },
        "images": [],
        "link": "https://www.google.com/maps/place/Old+jama+masjid/data=!4m7!3m6!1s0x399b013b87e677ef:0x59c05f498ceb7be2!8m2!3d26.0817734!4d81.5021533!16s%2Fg%2F11sw6tj8b8!19sChIJ73fmhzsBmzkR4nvrjElfwFk?authuser=0&hl=en&rclk=1",
        "coordinates": {
            "latitude": 26.0817734,
            "longitude": 81.5021533
        }
    },
    {
        "name": "Noorani Masjid",
        "main_category": "Mosque",
        "address": "2C4M+GQC Noorani Masjid, Bewali, Uttar Pradesh 229127",
        "detailed_address": {
            "ward": null,
            "street": "2C4M+GQC",
            "city": "Bewali",
            "postal_code": "229127",
            "state": "Uttar Pradesh",
            "country_code": "IN"
        },
        "images": [],
        "link": "https://www.google.com/maps/place/Noorani+Masjid/data=!4m7!3m6!1s0x399b036a87009de1:0x9701200f07f6dd21!8m2!3d26.0063231!4d81.4344057!16s%2Fg%2F11qb3kszk2!19sChIJ4Z0Ah2oDmzkRId32Bw8gAZc?authuser=0&hl=en&rclk=1",
        "coordinates": {
            "latitude": 26.0063231,
            "longitude": 81.4344057
        }
    },
    {
        "name": "markaz masjid(",
        "main_category": "Mosque",
        "address": "2FJ4+64P markaz masjid(, Salon, Uttar Pradesh 229127",
        "detailed_address": {
            "ward": null,
            "street": "2FJ4+64P",
            "city": "Salon",
            "postal_code": "229127",
            "state": "Uttar Pradesh",
            "country_code": "IN"
        },
        "images": [],
        "link": "https://www.google.com/maps/place/markaz+masjid%28/data=!4m7!3m6!1s0x399b03fe3b8549b5:0x67d8acb10f04baee!8m2!3d26.0305876!4d81.4553245!16s%2Fg%2F11vcmtf_sg!19sChIJtUmFO_4DmzkR7roED7Gs2Gc?authuser=0&hl=en&rclk=1",
        "coordinates": {
            "latitude": 26.0305876,
            "longitude": 81.4553245
        }
    },
    {
        "name": "Nurani masjid",
        "main_category": "Mosque",
        "address": "Nurani masjid, Pure gulab, Kand Rawan, Uttar Pradesh 229404",
        "detailed_address": {
            "ward": null,
            "street": "Pure gulab",
            "city": "Kand Rawan",
            "postal_code": "229404",
            "state": "Uttar Pradesh",
            "country_code": "IN"
        },
        "images": [
            {
                "about": "All",
                "link": "https://lh5.googleusercontent.com/p/AF1QipOo-ZL657uv-U7qJgqhgkZKOG2JORQmYTXHoNH3=w529-h298-k-no"
            },
            {
                "about": "Dome",
                "link": "https://lh5.googleusercontent.com/p/AF1QipMBf7e1WNjutEv09OGEl2NoMN31zl80mE8PA90E=w224-h398-k-no"
            },
            {
                "about": "Street View & 360deg",
                "link": "https://streetviewpixels-pa.googleapis.com/v1/thumbnail?panoid=BqH-NiBSgTI5XOl4rfwGYw&cb_client=maps_sv.tactile.gps&w=224&h=298&yaw=250.73553&pitch=0&thumbfov=100"
            }
        ],
        "link": "https://www.google.com/maps/place/Nurani+masjid/data=!4m7!3m6!1s0x399b116c3fe42bd9:0xd75408db774dde8f!8m2!3d25.8995517!4d81.25549!16s%2Fg%2F11txn7_zfy!19sChIJ2SvkP2wRmzkRj95Nd9sIVNc?authuser=0&hl=en&rclk=1",
        "coordinates": {
            "latitude": 25.8995517,
            "longitude": 81.25549
        }
    },
    {
        "name": "Rahmania Masjid",
        "main_category": "Mosque",
        "address": "XF9G+C2G Rahmania Masjid, Unnamed Road, Dharai, Uttar Pradesh 229127",
        "detailed_address": {
            "ward": null,
            "street": "XF9G+C2G, Unnamed Road",
            "city": "Dharai",
            "postal_code": "229127",
            "state": "Uttar Pradesh",
            "country_code": "IN"
        },
        "images": [],
        "link": "https://www.google.com/maps/place/Rahmania+Masjid/data=!4m7!3m6!1s0x399b1db0c2057d39:0xb85d216104954265!8m2!3d25.9685546!4d81.4750845!16s%2Fg%2F11mb22nvk3!19sChIJOX0FwrAdmzkRZUKVBGEhXbg?authuser=0&hl=en&rclk=1",
        "coordinates": {
            "latitude": 25.968554599999997,
            "longitude": 81.4750845
        }
    },
    {
        "name": "Madina masjid",
        "main_category": "Mosque",
        "address": "Madina masjid, Sansari, Uttar Pradesh 229129",
        "detailed_address": {
            "ward": null,
            "street": null,
            "city": "Sansari",
            "postal_code": "229129",
            "state": "Uttar Pradesh",
            "country_code": "IN"
        },
        "images": [],
        "link": "https://www.google.com/maps/place/Madina+masjid/data=!4m7!3m6!1s0x399b01c90d1cb72b:0x4ac62d5b445ee5fc!8m2!3d26.0836973!4d81.5048603!16s%2Fg%2F11qh2vxfgq!19sChIJK7ccDckBmzkR_OVeRFstxko?authuser=0&hl=en&rclk=1",
        "coordinates": {
            "latitude": 26.083697299999997,
            "longitude": 81.50486029999999
        }
    },
    {
        "name": "Sunni Masjid",
        "main_category": "Mosque",
        "address": "X93H+879 Sunni Masjid, Atarthariya, Rohaniya, Uttar Pradesh 229404",
        "detailed_address": {
            "ward": null,
            "street": "X93H+879",
            "city": "Atarthariya, Rohaniya",
            "postal_code": null,
            "state": "Uttar Pradesh",
            "country_code": "IN"
        },
        "images": [],
        "link": "https://www.google.com/maps/place/Sunni+Masjid/data=!4m7!3m6!1s0x399b1bb1e48c8789:0x39822afeb75db25e!8m2!3d25.9532874!4d81.3782389!16s%2Fg%2F11j6tp2x5r!19sChIJiYeM5LEbmzkRXrJdt_4qgjk?authuser=0&hl=en&rclk=1",
        "coordinates": {
            "latitude": 25.953287399999997,
            "longitude": 81.3782389
        }
    },
    {
        "name": "mSTfy msjd MSTAFA MASJID",
        "main_category": "Mosque",
        "address": "3GH2+XQQ mSTfy msjd MSTAFA MASJID, Parsadepur, Uttar Pradesh 229129",
        "detailed_address": {
            "ward": null,
            "street": "3GH2+XQQ",
            "city": "Parsadepur",
            "postal_code": "229129",
            "state": "Uttar Pradesh",
            "country_code": "IN"
        },
        "images": [],
        "link": "https://www.google.com/maps/place/%D9%85%D8%B5%D8%B7%D9%81%DB%8C%D9%B0+%D9%85%D8%B3%D8%AC%D8%AF+MSTAFA+MASJID%E2%80%AD/data=!4m7!3m6!1s0x399b01a31ce27b95:0x424890153cb0f068!8m2!3d26.0809251!4d81.5033865!16s%2Fg%2F11y213xrf2!19sChIJlXviHKMBmzkRaPCwPBWQSEI?authuser=0&hl=en&rclk=1",
        "coordinates": {
            "latitude": 26.080925099999998,
            "longitude": 81.50338649999999
        }
    },
    {
        "name": "FATMA MASJID",
        "main_category": "Mosque",
        "address": "3FMW+99H FATMA MASJID, Padmanpur Vinauli, Uttar Pradesh 229129",
        "detailed_address": {
            "ward": null,
            "street": "3FMW+99H",
            "city": "Padmanpur Vinauli",
            "postal_code": "229129",
            "state": "Uttar Pradesh",
            "country_code": "IN"
        },
        "images": [],
        "link": "https://www.google.com/maps/place/FATMA+MASJID/data=!4m7!3m6!1s0x399b0182c4a4da49:0x15c5475563da9aab!8m2!3d26.0834328!4d81.4960654!16s%2Fg%2F11vcv1hc0n!19sChIJSdqkxIIBmzkRq5raY1VHxRU?authuser=0&hl=en&rclk=1",
        "coordinates": {
            "latitude": 26.083432799999997,
            "longitude": 81.49606539999999
        }
    },
    {
        "name": "Noorani Masjid (Sunni), Panah Nagar",
        "main_category": "Mosque",
        "address": "XF98+J7Q Noorani Masjid (Sunni), Panah Nagar, Unnamed Road, Dharai, Uttar Pradesh 229127",
        "detailed_address": {
            "ward": null,
            "street": "XF98+J7Q, Unnamed Road",
            "city": "Dharai",
            "postal_code": "229127",
            "state": "Uttar Pradesh",
            "country_code": "IN"
        },
        "images": [
            {
                "about": "All",
                "link": "https://lh5.googleusercontent.com/p/AF1QipPGEsVVqe747g3IM9tnbOvHSESzy7fQM933AANQ=w224-h298-k-no"
            },
            {
                "about": "Videos",
                "link": "https://lh5.googleusercontent.com/p/AF1QipPiA-98vvR7FqDdUZyytu9A8iBybYQJ7EhQJTbx=w224-h407-k-no"
            }
        ],
        "link": "https://www.google.com/maps/place/Noorani+Masjid+%28Sunni%29,+Panah+Nagar/data=!4m7!3m6!1s0x399b1d0c2da00aad:0x5cb3e74357eabd68!8m2!3d25.969092!4d81.4657324!16s%2Fg%2F11mb9r8xnx!19sChIJrQqgLQwdmzkRaL3qV0Pns1w?authuser=0&hl=en&rclk=1",
        "coordinates": {
            "latitude": 25.969092,
            "longitude": 81.4657324
        }
    },
    {
        "name": "Masjid",
        "main_category": "Housing society",
        "address": "XCPJ+27R Masjid, Runipur, Uttar Pradesh 229127",
        "detailed_address": {
            "ward": null,
            "street": "XCPJ+27R",
            "city": "Runipur",
            "postal_code": "229127",
            "state": "Uttar Pradesh",
            "country_code": "IN"
        },
        "images": [
            {
                "about": "All",
                "link": "https://lh5.googleusercontent.com/p/AF1QipOVvo4OeNYoLjpoiRBoz8Cedb7_apTVfwv7zUBL=w527-h298-k-no"
            }
        ],
        "link": "https://www.google.com/maps/place/Masjid/data=!4m7!3m6!1s0x399b030c516eee7f:0x8c4585c42458d465!8m2!3d25.9851112!4d81.4306454!16s%2Fg%2F11rzbcqhmz!19sChIJf-5uUQwDmzkRZdRYJMSFRYw?authuser=0&hl=en&rclk=1",
        "coordinates": {
            "latitude": 25.9851112,
            "longitude": 81.4306454
        }
    },
    {
        "name": "Noor Masjid",
        "main_category": "Place of worship",
        "address": "2CPP+MXJ Noor Masjid, Kateha, Uttar Pradesh 229127",
        "detailed_address": {
            "ward": null,
            "street": "2CPP+MXJ",
            "city": "Kateha",
            "postal_code": "229127",
            "state": "Uttar Pradesh",
            "country_code": "IN"
        },
        "images": [
            {
                "about": "All",
                "link": "https://streetviewpixels-pa.googleapis.com/v1/thumbnail?panoid=VyW-mr12DgxcHi6hbHPnyA&cb_client=maps_sv.tactile.gps&w=224&h=298&yaw=60.279816&pitch=0&thumbfov=100"
            },
            {
                "about": "Street View & 360deg",
                "link": "https://streetviewpixels-pa.googleapis.com/v1/thumbnail?panoid=VyW-mr12DgxcHi6hbHPnyA&cb_client=maps_sv.tactile.gps&w=224&h=298&yaw=60.279816&pitch=0&thumbfov=100"
            }
        ],
        "link": "https://www.google.com/maps/place/Noor+Masjid/data=!4m7!3m6!1s0x399b03d39521739f:0x4195eb1830b9ad69!8m2!3d26.0367105!4d81.437386!16s%2Fg%2F11lgjll0v3!19sChIJn3MhldMDmzkRaa25MBjrlUE?authuser=0&hl=en&rclk=1",
        "coordinates": {
            "latitude": 26.036710499999998,
            "longitude": 81.43738599999999
        }
    },
    {
        "name": "HAMZA",
        "main_category": "Mosque",
        "address": "2FJ5+878 HAMZA, Salon, Salon Bazar, Uttar Pradesh 229127",
        "detailed_address": {
            "ward": null,
            "street": "2FJ5+878",
            "city": "Salon, Salon Bazar",
            "postal_code": "229127",
            "state": "Uttar Pradesh",
            "country_code": "IN"
        },
        "images": [
            {
                "about": "All",
                "link": "https://lh5.googleusercontent.com/p/AF1QipOH84RKti1KHUHC-7Yo87ya0yNcOJU-WArpJ8Nd=w224-h497-k-no"
            },
            {
                "about": "Videos",
                "link": "https://lh5.googleusercontent.com/p/AF1QipNeL1JlhA5bYKRbs_ySpc81Nsb_sVTMSaVlFSPe=w224-h398-k-no"
            }
        ],
        "link": "https://www.google.com/maps/place/HAMZA/data=!4m7!3m6!1s0x399b0363e1190db9:0xf683a195c69189c1!8m2!3d26.0307982!4d81.4582269!16s%2Fg%2F11vcrb6ybm!19sChIJuQ0Z4WMDmzkRwYmRxpWhg_Y?authuser=0&hl=en&rclk=1",
        "coordinates": {
            "latitude": 26.0307982,
            "longitude": 81.4582269
        }
    },
    {
        "name": "bijvaliya naimiya masjid",
        "main_category": "Shrine",
        "address": "3F49+VJM bijvaliya naimiya masjid, Vijwaliya, Uttar Pradesh 229127",
        "detailed_address": {
            "ward": null,
            "street": "3F49+VJM",
            "city": "Vijwaliya",
            "postal_code": "229127",
            "state": "Uttar Pradesh",
            "country_code": "IN"
        },
        "images": [
            {
                "about": "All",
                "link": "https://lh5.googleusercontent.com/p/AF1QipMgOma-W6DZOAuQFP3KZtd1rHbw4aEQXhw6gmVH=w529-h298-k-no"
            },
            {
                "about": "Latest",
                "link": "https://lh5.googleusercontent.com/p/AF1QipNdrgTfa_YFDIdlY44zrH4_QJe6hhNWQJ_kAxDg=w529-h298-k-no"
            },
            {
                "about": "Landscape",
                "link": "https://lh5.googleusercontent.com/p/AF1QipMgOma-W6DZOAuQFP3KZtd1rHbw4aEQXhw6gmVH=w529-h298-k-no"
            }
        ],
        "link": "https://www.google.com/maps/place/bijvaliya+naimiya+masjid/data=!4m7!3m6!1s0x399b031ad37c63b1:0x2de9969f21233115!8m2!3d26.0572131!4d81.4690359!16s%2Fg%2F11l6z75g0z!19sChIJsWN80xoDmzkRFTEjIZ-W6S0?authuser=0&hl=en&rclk=1",
        "coordinates": {
            "latitude": 26.0572131,
            "longitude": 81.4690359
        }
    },
    {
        "name": "Noorani Masjid",
        "main_category": "Housing society",
        "address": "2FJ2+CMH Noorani Masjid, Salon, Uttar Pradesh 229127",
        "detailed_address": {
            "ward": null,
            "street": "2FJ2+CMH",
            "city": "Salon",
            "postal_code": "229127",
            "state": "Uttar Pradesh",
            "country_code": "IN"
        },
        "images": [],
        "link": "https://www.google.com/maps/place/Noorani+Masjid/data=!4m7!3m6!1s0x399b03d072729521:0xf7c4e386a8916160!8m2!3d26.0310508!4d81.4517278!16s%2Fg%2F11q26h8zl4!19sChIJIZVyctADmzkRYGGRqIbjxPc?authuser=0&hl=en&rclk=1",
        "coordinates": {
            "latitude": 26.0310508,
            "longitude": 81.4517278
        }
    },
    {
        "name": "Shikohabad",
        "main_category": null,
        "address": "Shikohabad, Uttar Pradesh 229127",
        "detailed_address": {
            "ward": null,
            "street": null,
            "city": "Shikohabad",
            "postal_code": null,
            "state": "Uttar Pradesh",
            "country_code": "IN"
        },
        "images": [
            {
                "about": "All",
                "link": "https://lh5.googleusercontent.com/p/AF1QipPAQANPizWR_4pTcjs9X2P72fIv1hbnYyhG2HGk=w224-h396-k-no"
            }
        ],
        "link": "https://www.google.com/maps/place/Shikohabad/data=!4m7!3m6!1s0x399b044cba18e1dd:0x624658ade0aaf9c4!8m2!3d26.0352765!4d81.3866812!16zL20vMGY2OG56!19sChIJ3eEYukwEmzkRxPmq4K1YRmI?authuser=0&hl=en&rclk=1",
        "coordinates": {
            "latitude": 26.0352765,
            "longitude": 81.3866812
        }
    }
]