[
    {
        "name": "Mehndi artists",
        "main_category": "Mosque",
        "address": "Mehndi artists, 1386,chatta rajan, Farash Khana, Delhi, 110006",
        "detailed_address": {
            "ward": "Shardhanand Market, Farash Khana, Chandni Chowk",
            "street": "1386,chatta rajan, Farash Khana",
            "city": "Delhi",
            "postal_code": "110006",
            "state": "Delhi",
            "country_code": "IN"
        },
        "images": [
            {
                "about": "All",
                "link": "https://lh5.googleusercontent.com/p/AF1QipOif65fRomUx3e61emLS0VurVH6xCWX5hZebkKb=w224-h298-k-no"
            },
            {
                "about": "By owner",
                "link": "https://lh5.googleusercontent.com/p/AF1QipPftfTP5y1qSL6OQJBatsrK3oiV5UtS-3WaaAfm=w308-h298-k-no"
            }
        ],
        "link": "https://www.google.com/maps/place/Mehndi+artists/data=!4m7!3m6!1s0x390cfd139ad54809:0x9dbe9af19c25bd68!8m2!3d28.6531012!4d77.2208871!16s%2Fg%2F12hr12vgr!19sChIJCUjVmhP9DDkRaL0lnPGavp0?authuser=0&hl=en&rclk=1",
        "coordinates": {
            "latitude": 28.6531012,
            "longitude": 77.2208871
        }
    },
    {
        "name": "Jama Masjid Saray Sahi( jaamaa msjid chaataa)",
        "main_category": "Mosque",
        "address": "PGF4+RGF Jama Masjid Saray Sahi( jaamaa msjid chaataa), Chhata, Uttar Pradesh 281401",
        "detailed_address": {
            "ward": null,
            "street": "PGF4+RGF",
            "city": "Chhata",
            "postal_code": "281401",
            "state": "Uttar Pradesh",
            "country_code": "IN"
        },
        "images": [
            {
                "about": "All",
                "link": "https://lh5.googleusercontent.com/p/AF1QipMOquuZ0_qgihy2H-kNvYY401hotbt0eq3rcpk=w224-h298-k-no"
            }
        ],
        "link": "https://www.google.com/maps/place/Jama+Masjid+Saray+Sahi%28+%E0%A4%9C%E0%A4%BE%E0%A4%AE%E0%A4%BE+%E0%A4%AE%E0%A4%B8%E0%A5%8D%E0%A4%9C%E0%A4%BF%E0%A4%A6+%E0%A4%9B%E0%A4%BE%E0%A4%A4%E0%A4%BE%29/data=!4m7!3m6!1s0x39731549f9662009:0xfbdbf4d1afd0053f!8m2!3d27.724552!4d77.5062829!16s%2Fg%2F11gznrs8pn!19sChIJCSBm-UkVczkRPwXQr9H02_s?authuser=0&hl=en&rclk=1",
        "coordinates": {
            "latitude": 27.724552,
            "longitude": 77.5062829
        }
    },
    {
        "name": "Markaz Masjid Chhata",
        "main_category": "Mosque",
        "address": "PGF3+WX2 Markaz Masjid Chhata, Chhata Rural, Chhata, Uttar Pradesh 281401",
        "detailed_address": {
            "ward": null,
            "street": "PGF3+WX2",
            "city": "Chhata Rural, Chhata",
            "postal_code": "281401",
            "state": "Uttar Pradesh",
            "country_code": "IN"
        },
        "images": [
            {
                "about": "All",
                "link": "https://lh5.googleusercontent.com/p/AF1QipOICsDcG1b-21XqBg7oxeg_PlaIMNETjv0WQV6p=w224-h398-k-no"
            },
            {
                "about": "Videos",
                "link": "https://lh5.googleusercontent.com/p/AF1QipPfD5z2u90URGqtwjC-SXeCC8HN3aFJgVIijzwh=w224-h398-k-no"
            }
        ],
        "link": "https://www.google.com/maps/place/Markaz+Masjid+Chhata/data=!4m7!3m6!1s0x39731512624cd1e9:0x9731dfafd628cca2!8m2!3d27.7247567!4d77.5048974!16s%2Fg%2F11fkvqywjc!19sChIJ6dFMYhIVczkRoswo1q_fMZc?authuser=0&hl=en&rclk=1",
        "coordinates": {
            "latitude": 27.7247567,
            "longitude": 77.50489739999999
        }
    },
    {
        "name": "Noorani Masjid Chhata",
        "main_category": "Mosque",
        "address": "PGF3+PRC Noorani Masjid Chhata, Chhata Rural, Chhata, Uttar Pradesh 281401",
        "detailed_address": {
            "ward": null,
            "street": "PGF3+PRC",
            "city": "Chhata Rural, Chhata",
            "postal_code": "281401",
            "state": "Uttar Pradesh",
            "country_code": "IN"
        },
        "images": [],
        "link": "https://www.google.com/maps/place/Noorani+Masjid+Chhata/data=!4m7!3m6!1s0x39731530f3da68a3:0xf9a14d41801ed0ae!8m2!3d27.7243174!4d77.5045034!16s%2Fg%2F11h6t956mw!19sChIJo2ja8zAVczkRrtAegEFNofk?authuser=0&hl=en&rclk=1",
        "coordinates": {
            "latitude": 27.7243174,
            "longitude": 77.50450339999999
        }
    },
    {
        "name": "Masjid sabji mandi Chhata",
        "main_category": "Mosque",
        "address": "PGC4+PVG Masjid sabji mandi Chhata, Unnamed Road, Chhata Rural, Chhata, Uttar Pradesh 281401",
        "detailed_address": {
            "ward": null,
            "street": "PGC4+PVG, Unnamed Road",
            "city": "Chhata Rural, Chhata",
            "postal_code": "281401",
            "state": "Uttar Pradesh",
            "country_code": "IN"
        },
        "images": [
            {
                "about": "All",
                "link": "https://streetviewpixels-pa.googleapis.com/v1/thumbnail?panoid=YPEdmbWACKCK_hPqZGMKZg&cb_client=maps_sv.tactile.gps&w=224&h=298&yaw=4.964542&pitch=0&thumbfov=100"
            },
            {
                "about": "Street View & 360deg",
                "link": "https://streetviewpixels-pa.googleapis.com/v1/thumbnail?panoid=YPEdmbWACKCK_hPqZGMKZg&cb_client=maps_sv.tactile.gps&w=224&h=298&yaw=4.964542&pitch=0&thumbfov=100"
            }
        ],
        "link": "https://www.google.com/maps/place/Masjid+sabji+mandi+Chhata/data=!4m7!3m6!1s0x397315d18febbce5:0xde5240167080a235!8m2!3d27.7218248!4d77.5072068!16s%2Fg%2F11h4cnq2yv!19sChIJ5bzrj9EVczkRNaKAcBZAUt4?authuser=0&hl=en&rclk=1",
        "coordinates": {
            "latitude": 27.7218248,
            "longitude": 77.50720679999999
        }
    },
    {
        "name": "Eid gah Chhata",
        "main_category": "Mosque",
        "address": "PGF2+MMC Eid gah Chhata, Chhata Rural, Chhata, Uttar Pradesh 281401",
        "detailed_address": {
            "ward": null,
            "street": "PGF2+MMC",
            "city": "Chhata Rural, Chhata",
            "postal_code": "281401",
            "state": "Uttar Pradesh",
            "country_code": "IN"
        },
        "images": [
            {
                "about": "All",
                "link": "https://streetviewpixels-pa.googleapis.com/v1/thumbnail?panoid=BFpMRu5mTmkSm_6ucxNf4w&cb_client=maps_sv.tactile.gps&w=224&h=298&yaw=232.5546&pitch=0&thumbfov=100"
            },
            {
                "about": "Street View & 360deg",
                "link": "https://streetviewpixels-pa.googleapis.com/v1/thumbnail?panoid=BFpMRu5mTmkSm_6ucxNf4w&cb_client=maps_sv.tactile.gps&w=224&h=298&yaw=232.5546&pitch=0&thumbfov=100"
            }
        ],
        "link": "https://www.google.com/maps/place/Eid+gah+Chhata/data=!4m7!3m6!1s0x397315382ac69f79:0xeb125bb86af81596!8m2!3d27.7241891!4d77.501637!16s%2Fg%2F11fkvr4818!19sChIJeZ_GKjgVczkRlhX4arhbEus?authuser=0&hl=en&rclk=1",
        "coordinates": {
            "latitude": 27.7241891,
            "longitude": 77.501637
        }
    },
    {
        "name": "Purani masjid (Tehsil)",
        "main_category": "Mosque",
        "address": "PGF4+C5M Purani masjid (Tehsil), Village chhata po chhata purab, Chhata, Uttar Pradesh 281401",
        "detailed_address": {
            "ward": null,
            "street": "PGF4+C5M, Village chhata po chhata purab",
            "city": "Chhata",
            "postal_code": "281401",
            "state": "Uttar Pradesh",
            "country_code": "IN"
        },
        "images": [
            {
                "about": "All",
                "link": "https://lh5.googleusercontent.com/p/AF1QipNt0TxhoEWu4hI-Ji2I5idlZoLh66U8m969MTDb=w224-h435-k-no"
            }
        ],
        "link": "https://www.google.com/maps/place/Purani+masjid+%28Tehsil%29/data=!4m7!3m6!1s0x397315bbe5c54ef5:0x2cd829e35765b955!8m2!3d27.7235898!4d77.5054227!16s%2Fg%2F11qvd4gp8n!19sChIJ9U7F5bsVczkRVbllV-Mp2Cw?authuser=0&hl=en&rclk=1",
        "coordinates": {
            "latitude": 27.7235898,
            "longitude": 77.5054227
        }
    },
    {
        "name": "Jama masjid jalalpur chhata Mathura Uttar Pradesh",
        "main_category": "Mosque",
        "address": "PCCJ+4JC Jama masjid jalalpur chhata Mathura Uttar Pradesh, Jama masjid jalalpur, Damsinga, Chhata Rural",
        "detailed_address": {
            "ward": "Damsinga",
            "street": "PCCJ+4JC, Jama masjid jalalpur",
            "city": "Chhata Rural, Nagariya",
            "postal_code": null,
            "state": "Uttar Pradesh",
            "country_code": "IN"
        },
        "images": [
            {
                "about": "All",
                "link": "https://lh5.googleusercontent.com/p/AF1QipNlN0wWDn3mfysp6PaeXfILG8_2n5FW62Qx3gJI=w533-h298-k-no"
            },
            {
                "about": "Dome",
                "link": "https://lh5.googleusercontent.com/p/AF1QipNaMPnonitRJ0vNwIOL-x7AQFg_KwnKaDhq-Wy-=w224-h322-k-no"
            },
            {
                "about": "Videos",
                "link": "https://lh5.googleusercontent.com/p/AF1QipMOoEvn9OMhwI7gS0maZVfHzRrb2yKRyYjcplE_=w224-h398-k-no"
            }
        ],
        "link": "https://www.google.com/maps/place/Jama+masjid+jalalpur+chhata+Mathura+Uttar+Pradesh/data=!4m7!3m6!1s0x397317a94194600b:0xea98755564c6d5a7!8m2!3d27.7203069!4d77.4315245!16s%2Fg%2F11t24npcrb!19sChIJC2CUQakXczkRp9XGZFV1mOo?authuser=0&hl=en&rclk=1",
        "coordinates": {
            "latitude": 27.720306899999997,
            "longitude": 77.4315245
        }
    }
]