[
    {
        "name": "msjid-e-brkaatii maarhraa shriiph'",
        "main_category": "Mosque",
        "address": "PHQC+6PC msjid-e-brkaatii maarhraa shriiph', Marehra, Uttar Pradesh 207401",
        "detailed_address": {
            "ward": null,
            "street": "PHQC+6PC",
            "city": "Marehra",
            "postal_code": "207401",
            "state": "Uttar Pradesh",
            "country_code": "IN"
        },
        "images": [
            {
                "about": "All",
                "link": "https://lh5.googleusercontent.com/p/AF1QipNYhRypsNL_PDHsf4CrHhZjthpHZgP6q2IcK5IJ=w529-h298-k-no"
            },
            {
                "about": "Dome",
                "link": "https://lh5.googleusercontent.com/p/AF1QipMIk5RjdGLV8LkV8MXTTZDXbBErbMUWmxz-1dH_=w298-h298-k-no"
            },
            {
                "about": "Videos",
                "link": "https://lh5.googleusercontent.com/p/AF1QipNO4cxBQcGovkOVrG4qXODjyEuqW5wqW0nRTIf-=w224-h298-k-no"
            }
        ],
        "link": "https://www.google.com/maps/place/%E0%A4%AE%E0%A4%B8%E0%A5%8D%E0%A4%9C%E0%A4%BF%E0%A4%A6-%E0%A4%8F-%E0%A4%AC%E0%A4%B0%E0%A4%95%E0%A4%BE%E0%A4%A4%E0%A5%80+%E0%A4%AE%E0%A4%BE%E0%A4%B0%E0%A4%B9%E0%A4%B0%E0%A4%BE+%E0%A4%B6%E0%A4%B0%E0%A5%80%E0%A4%AB%E0%A4%BC/data=!4m7!3m6!1s0x3974e153df73bec5:0xb10a3f86ec544ca2!8m2!3d27.7380574!4d78.5717745!16s%2Fg%2F11fx8hs4nj!19sChIJxb5z31PhdDkRokxU7IY_CrE?authuser=0&hl=en&rclk=1",
        "coordinates": {
            "latitude": 27.7380574,
            "longitude": 78.57177449999999
        }
    },
    {
        "name": "Masjid sheeshgran",
        "main_category": "Mosque",
        "address": "PHQ9+925 Masjid sheeshgran, Marehra Rd, Mohalla Chohatta, Marehra, Uttar Pradesh 207401",
        "detailed_address": {
            "ward": "Mohalla Chohatta",
            "street": "PHQ9+925, Marehra Rd",
            "city": "Marehra",
            "postal_code": "207401",
            "state": "Uttar Pradesh",
            "country_code": "IN"
        },
        "images": [
            {
                "about": "All",
                "link": "https://lh5.googleusercontent.com/p/AF1QipOs_pZzxyA78WDqgj8pamXfWbanyT00DBbLTvY=w395-h298-k-no"
            },
            {
                "about": "Dome",
                "link": "https://lh5.googleusercontent.com/p/AF1QipMpVHlKXthD7DxKYB8JFfnqjmuVB6Qt0ePeFFZe=w224-h485-k-no"
            }
        ],
        "link": "https://www.google.com/maps/place/Masjid+sheeshgran/data=!4m7!3m6!1s0x3974e15318438473:0x104e864f39b28dd2!8m2!3d27.7383943!4d78.5675993!16s%2Fg%2F11c59xnxzw!19sChIJc4RDGFPhdDkR0o2yOU-GThA?authuser=0&hl=en&rclk=1",
        "coordinates": {
            "latitude": 27.7383943,
            "longitude": 78.5675993
        }
    },
    {
        "name": "Jama Masjid Marhera",
        "main_category": "Mosque",
        "address": "PHM9+PR5 Jama Masjid Marhera, Marehra, Uttar Pradesh 207401",
        "detailed_address": {
            "ward": null,
            "street": "PHM9+PR5",
            "city": "Marehra",
            "postal_code": "207401",
            "state": "Uttar Pradesh",
            "country_code": "IN"
        },
        "images": [
            {
                "about": "All",
                "link": "https://lh5.googleusercontent.com/p/AF1QipNliIVLoLHiEgjOsGZ2UIyiLA7kuTdlEklR9J_3=w397-h298-k-no"
            },
            {
                "about": "Dome",
                "link": "https://lh5.googleusercontent.com/p/AF1QipPwP9D4Z2VRJ265kIenZXi1sE456K2QghQ2hv0L=w644-h298-k-no"
            },
            {
                "about": "Videos",
                "link": "https://lh5.googleusercontent.com/p/AF1QipPJ33J7XMzAJgQX4YkyMJMvnQPYb5xD_BUIlwlc=w224-h398-k-no"
            }
        ],
        "link": "https://www.google.com/maps/place/Jama+Masjid+Marhera/data=!4m7!3m6!1s0x3974e1545b2aa575:0x1ecd671bed562c3!8m2!3d27.7342552!4d78.5696126!16s%2Fg%2F11c0w1rkqb!19sChIJdaUqW1ThdDkRw2LVvnHW7AE?authuser=0&hl=en&rclk=1",
        "coordinates": {
            "latitude": 27.7342552,
            "longitude": 78.5696126
        }
    },
    {
        "name": "Lutfi Masjid Marehra",
        "main_category": "Mosque",
        "address": "PHQ8+QWM Lutfi Masjid Marehra, Marehra, Uttar Pradesh 207401",
        "detailed_address": {
            "ward": null,
            "street": "PHQ8+QWM",
            "city": "Marehra",
            "postal_code": "207401",
            "state": "Uttar Pradesh",
            "country_code": "IN"
        },
        "images": [
            {
                "about": "All",
                "link": "https://streetviewpixels-pa.googleapis.com/v1/thumbnail?panoid=X8OglGbaGD5-F-DUpEn2hA&cb_client=maps_sv.tactile.gps&w=224&h=298&yaw=135.78696&pitch=0&thumbfov=100"
            },
            {
                "about": "Street View & 360deg",
                "link": "https://streetviewpixels-pa.googleapis.com/v1/thumbnail?panoid=X8OglGbaGD5-F-DUpEn2hA&cb_client=maps_sv.tactile.gps&w=224&h=298&yaw=135.78696&pitch=0&thumbfov=100"
            }
        ],
        "link": "https://www.google.com/maps/place/Lutfi+Masjid+Marehra/data=!4m7!3m6!1s0x3974e152dc50bcc7:0x1eaaf772353dd2a7!8m2!3d27.7394505!4d78.5672859!16s%2Fg%2F11fy_qh_3b!19sChIJx7xQ3FLhdDkRp9I9NXL3qh4?authuser=0&hl=en&rclk=1",
        "coordinates": {
            "latitude": 27.7394505,
            "longitude": 78.5672859
        }
    },
    {
        "name": "Masjid -e-Takhiya",
        "main_category": "Mosque",
        "address": "PHQ9+M86 Masjid -e-Takhiya, Marehra Rd, Marehra, Uttar Pradesh 207401",
        "detailed_address": {
            "ward": null,
            "street": "PHQ9+M86, Marehra Rd",
            "city": "Marehra",
            "postal_code": "207401",
            "state": "Uttar Pradesh",
            "country_code": "IN"
        },
        "images": [
            {
                "about": "All",
                "link": "https://lh5.googleusercontent.com/p/AF1QipPLLlngfxfWlsoKbT4L5OrUX7mfl4G_q1YDlv4M=w224-h398-k-no"
            },
            {
                "about": "Street View & 360deg",
                "link": "https://streetviewpixels-pa.googleapis.com/v1/thumbnail?panoid=R2xHBw6G4bTl2WoLmEnmGQ&cb_client=maps_sv.tactile.gps&w=224&h=298&yaw=11.376908&pitch=0&thumbfov=100"
            }
        ],
        "link": "https://www.google.com/maps/place/Masjid+-e-Takhiya/data=!4m7!3m6!1s0x3974e1531dbd3ae3:0x4051257227dac912!8m2!3d27.7391566!4d78.5682679!16s%2Fg%2F11g87bhfhz!19sChIJ4zq9HVPhdDkREsnaJ3IlUUA?authuser=0&hl=en&rclk=1",
        "coordinates": {
            "latitude": 27.739156599999998,
            "longitude": 78.5682679
        }
    },
    {
        "name": "mrehraa msj'id",
        "main_category": "Mosque",
        "address": "PHW4+P77 mrehraa msj'id, Mahmoodpur Nagaria, Uttar Pradesh 207401",
        "detailed_address": {
            "ward": null,
            "street": "PHW4+P77",
            "city": "Mahmoodpur Nagaria",
            "postal_code": "207401",
            "state": "Uttar Pradesh",
            "country_code": "IN"
        },
        "images": [
            {
                "about": "All",
                "link": "https://lh5.googleusercontent.com/p/AF1QipM01GpJATmyMMOVnEG87-PYv1Ejux3UO6BiUxHy=w397-h298-k-no"
            },
            {
                "about": "Latest",
                "link": "https://lh5.googleusercontent.com/p/AF1QipPPEWD_x0SUYHtDFjTyRsaGxId7rYwgHmgHcQw3=w397-h298-k-no"
            },
            {
                "about": "Videos",
                "link": "https://lh5.googleusercontent.com/p/AF1QipNXJsIJbsMH-XRL537FIdIgKy9bmoaNpq6xQkB6=w529-h298-k-no"
            },
            {
                "about": "Dome",
                "link": "https://lh5.googleusercontent.com/p/AF1QipNXJsIJbsMH-XRL537FIdIgKy9bmoaNpq6xQkB6=w529-h298-k-no"
            }
        ],
        "link": "https://www.google.com/maps/place/%E0%A4%AE%E0%A4%B0%E0%A5%87%E0%A4%B9%E0%A4%B0%E0%A4%BE+%E0%A4%AE%E0%A4%B8%E0%A5%8D%E0%A4%9C%E0%A4%BC%E0%A4%BF%E0%A4%A6/data=!4m7!3m6!1s0x3974e6b74cf9f81f:0x8367775a9478c4cf!8m2!3d27.7467994!4d78.5556572!16s%2Fg%2F11f3wtr0b6!19sChIJH_j5TLfmdDkRz8R4lFp3Z4M?authuser=0&hl=en&rclk=1",
        "coordinates": {
            "latitude": 27.7467994,
            "longitude": 78.5556572
        }
    },
    {
        "name": "Masjid Bara Bazar",
        "main_category": "Mosque",
        "address": "PHPC+642 Masjid Bara Bazar, Bara Bazar, Mohalla Chohatta, Marehra, Uttar Pradesh 207401",
        "detailed_address": {
            "ward": "Mohalla Chohatta",
            "street": "PHPC+642, Bara Bazar",
            "city": "Marehra",
            "postal_code": "207401",
            "state": "Uttar Pradesh",
            "country_code": "IN"
        },
        "images": [
            {
                "about": "All",
                "link": "https://lh5.googleusercontent.com/p/AF1QipMjY_QBUbu9odIJqCFcaj15Mu4P5zDocW-HXlVZ=w529-h298-k-no"
            }
        ],
        "link": "https://www.google.com/maps/place/Masjid+Bara+Bazar/data=!4m7!3m6!1s0x3974e1546d3f326f:0x1dce6f8272723810!8m2!3d27.7355115!4d78.5702731!16s%2Fg%2F11g722vkth!19sChIJbzI_bVThdDkREDhycoJvzh0?authuser=0&hl=en&rclk=1",
        "coordinates": {
            "latitude": 27.735511499999998,
            "longitude": 78.5702731
        }
    },
    {
        "name": "Masjid Sarkar e khurd",
        "main_category": "Mosque",
        "address": "PHQC+7PM Masjid Sarkar e khurd, Marehra, Uttar Pradesh 207401",
        "detailed_address": {
            "ward": null,
            "street": "PHQC+7PM",
            "city": "Marehra",
            "postal_code": "207401",
            "state": "Uttar Pradesh",
            "country_code": "IN"
        },
        "images": [
            {
                "about": "All",
                "link": "https://lh5.googleusercontent.com/p/AF1QipP8vAF8ZX_9CqBXjK6nSd4nxOK4wYIwQgE-aUe3=w397-h298-k-no"
            }
        ],
        "link": "https://www.google.com/maps/place/Masjid+Sarkar+e+khurd/data=!4m7!3m6!1s0x3974e154585992e7:0xf51554ac795de08d!8m2!3d27.7382221!4d78.5717977!16s%2Fg%2F11rrs6wvf3!19sChIJ55JZWFThdDkRjeBdeaxUFfU?authuser=0&hl=en&rclk=1",
        "coordinates": {
            "latitude": 27.738222099999998,
            "longitude": 78.57179769999999
        }
    },
    {
        "name": "Anjuman Khuddamul Masjid",
        "main_category": "Mosque",
        "address": "PHMC+PFF Anjuman Khuddamul Masjid, Marehra, Uttar Pradesh 207401",
        "detailed_address": {
            "ward": null,
            "street": "PHMC+PFF",
            "city": "Marehra",
            "postal_code": "207401",
            "state": "Uttar Pradesh",
            "country_code": "IN"
        },
        "images": [],
        "link": "https://www.google.com/maps/place/Anjuman+Khuddamul+Masjid/data=!4m7!3m6!1s0x3974e154251d4f65:0xba2cf26f67450e66!8m2!3d27.7343076!4d78.5711722!16s%2Fg%2F11g9dq9fqx!19sChIJZU8dJVThdDkRZg5FZ2_yLLo?authuser=0&hl=en&rclk=1",
        "coordinates": {
            "latitude": 27.734307599999998,
            "longitude": 78.57117219999999
        }
    },
    {
        "name": "Maszid",
        "main_category": "Mosque",
        "address": "PHP9+G4J Maszid, Mohalla Chohatta, Marehra, Uttar Pradesh 207401",
        "detailed_address": {
            "ward": "Mohalla Chohatta",
            "street": "PHP9+G4J",
            "city": "Marehra",
            "postal_code": "207401",
            "state": "Uttar Pradesh",
            "country_code": "IN"
        },
        "images": [],
        "link": "https://www.google.com/maps/place/Maszid/data=!4m7!3m6!1s0x3974e15270e20961:0x82fe1d8d56821d2e!8m2!3d27.7363338!4d78.5677635!16s%2Fg%2F11h5_kt7m4!19sChIJYQnicFLhdDkRLh2CVo0d_oI?authuser=0&hl=en&rclk=1",
        "coordinates": {
            "latitude": 27.736333799999997,
            "longitude": 78.5677635
        }
    },
    {
        "name": "Qureshiyan Masjid",
        "main_category": "Mosque",
        "address": "PHQ9+H98 Qureshiyan Masjid, Marehra, Uttar Pradesh 207401",
        "detailed_address": {
            "ward": null,
            "street": "PHQ9+H98",
            "city": "Marehra",
            "postal_code": "207401",
            "state": "Uttar Pradesh",
            "country_code": "IN"
        },
        "images": [
            {
                "about": "All",
                "link": "https://streetviewpixels-pa.googleapis.com/v1/thumbnail?panoid=3pqJGf-dVKVtbcsU3QCu1A&cb_client=maps_sv.tactile.gps&w=224&h=298&yaw=36.769466&pitch=0&thumbfov=100"
            },
            {
                "about": "Street View & 360deg",
                "link": "https://streetviewpixels-pa.googleapis.com/v1/thumbnail?panoid=3pqJGf-dVKVtbcsU3QCu1A&cb_client=maps_sv.tactile.gps&w=224&h=298&yaw=36.769466&pitch=0&thumbfov=100"
            }
        ],
        "link": "https://www.google.com/maps/place/Qureshiyan+Masjid/data=!4m7!3m6!1s0x3974e19e0d373cf1:0x4ecad8c6df7144a4!8m2!3d27.739149!4d78.5681117!16s%2Fg%2F11s1s62f0w!19sChIJ8Tw3DZ7hdDkRpERx38bYyk4?authuser=0&hl=en&rclk=1",
        "coordinates": {
            "latitude": 27.739148999999998,
            "longitude": 78.5681117
        }
    },
    {
        "name": "Maszid Mirahchi Adda",
        "main_category": "Mosque",
        "address": "PHPF+FH2 Maszid Mirahchi Adda, Marehra, Uttar Pradesh 207401",
        "detailed_address": {
            "ward": null,
            "street": "PHPF+FH2",
            "city": "Marehra",
            "postal_code": "207401",
            "state": "Uttar Pradesh",
            "country_code": "IN"
        },
        "images": [
            {
                "about": "All",
                "link": "https://streetviewpixels-pa.googleapis.com/v1/thumbnail?panoid=R0ilq4ONE3uUrCJVHOaLaQ&cb_client=maps_sv.tactile.gps&w=224&h=298&yaw=40.325504&pitch=0&thumbfov=100"
            },
            {
                "about": "Street View & 360deg",
                "link": "https://streetviewpixels-pa.googleapis.com/v1/thumbnail?panoid=R0ilq4ONE3uUrCJVHOaLaQ&cb_client=maps_sv.tactile.gps&w=224&h=298&yaw=40.325504&pitch=0&thumbfov=100"
            }
        ],
        "link": "https://www.google.com/maps/place/Maszid+Mirahchi+Adda/data=!4m7!3m6!1s0x3974e1dfc0aa5083:0xd9eca65747904560!8m2!3d27.736148!4d78.5738892!16s%2Fg%2F11h5v8_tcs!19sChIJg1CqwN_hdDkRYEWQR1em7Nk?authuser=0&hl=en&rclk=1",
        "coordinates": {
            "latitude": 27.736148,
            "longitude": 78.5738892
        }
    },
    {
        "name": "Masjid Qureshiyan",
        "main_category": "Mosque",
        "address": "PHP9+FF7 Masjid Qureshiyan, MOH GAFURGNJ POST, DISTT, Marehra",
        "detailed_address": {
            "ward": "Mohalla Chohatta",
            "street": "PHP9+FF7, MOH GAFURGNJ POST, DISTT",
            "city": "Marehra",
            "postal_code": null,
            "state": "Uttar Pradesh",
            "country_code": "IN"
        },
        "images": [
            {
                "about": "All",
                "link": "https://lh5.googleusercontent.com/p/AF1QipMhpe84t--9Df2dVHg5aG8SxE6pHEaxpERZZYZe=w224-h298-k-no"
            },
            {
                "about": "Dome",
                "link": "https://lh5.googleusercontent.com/p/AF1QipPn-HnoDP2O6NZL0xjdGNvGZLLO4qVtam7TBy6e=w224-h497-k-no"
            }
        ],
        "link": "https://www.google.com/maps/place/Masjid+Qureshiyan/data=!4m7!3m6!1s0x3974e1b5ccacfcff:0x901149fce4a1dc60!8m2!3d27.7361726!4d78.5686618!16s%2Fg%2F11tbx47p5_!19sChIJ__yszLXhdDkRYNyh5PxJEZA?authuser=0&hl=en&rclk=1",
        "coordinates": {
            "latitude": 27.7361726,
            "longitude": 78.5686618
        }
    }
]