[
    {
        "name": "Masjid-e-noor",
        "main_category": "Mosque",
        "address": "GFVV+9MW Masjid-e-noor, Juvvalapalem Rd, Tammi Raju Nagar, Bhimavaram, Chinamiram Rural, Andhra Pradesh 534204",
        "detailed_address": {
            "ward": "Tammi Raju Nagar",
            "street": "GFVV+9MW, Juvvalapalem Rd",
            "city": "Bhimavaram, Chinamiram Rural",
            "postal_code": "534204",
            "state": "Andhra Pradesh",
            "country_code": "IN"
        },
        "images": [
            {
                "about": "All",
                "link": "https://lh5.googleusercontent.com/p/AF1QipOvzgdKKwvokPv304qiOm8OIZCRfy8HK7_MnSkW=w224-h298-k-no"
            },
            {
                "about": "Dome",
                "link": "https://lh5.googleusercontent.com/p/AF1QipMk1duNiuOHkDfFUdgqbTUtFUS4dtjv7So3uqbB=w224-h398-k-no"
            },
            {
                "about": "Street View & 360deg",
                "link": "https://streetviewpixels-pa.googleapis.com/v1/thumbnail?panoid=VV3AcWkrb0CD5teD9EmuFg&cb_client=maps_sv.tactile.gps&w=224&h=298&yaw=25.401613&pitch=0&thumbfov=100"
            }
        ],
        "link": "https://www.google.com/maps/place/Masjid-e-noor/data=!4m7!3m6!1s0x3a362d5dfc16ea03:0x8e389cdee59867a9!8m2!3d16.5435!4d81.4942!16s%2Fg%2F1pyqg26_m!19sChIJA-oW_F0tNjoRqWeY5d6cOI4?authuser=0&hl=en&rclk=1",
        "coordinates": {
            "latitude": 16.543499999999998,
            "longitude": 81.49419999999999
        }
    },
    {
        "name": "Masjid",
        "main_category": "Mosque",
        "address": "GGVJ+F9F Masjid, Gandhinagar, Bhimavaram, Andhra Pradesh 534201",
        "detailed_address": {
            "ward": "Gandhinagar",
            "street": "GGVJ+F9F",
            "city": "Bhimavaram",
            "postal_code": "534201",
            "state": "Andhra Pradesh",
            "country_code": "IN"
        },
        "images": [
            {
                "about": "All",
                "link": "https://lh5.googleusercontent.com/p/AF1QipP776P6p_1WUXT1eirTAt_m6oUW8lXKiVkEYvfZ=w224-h398-k-no"
            }
        ],
        "link": "https://www.google.com/maps/place/Masjid/data=!4m7!3m6!1s0x3a37d2a447552d69:0xf1d25c0e74ba4d9f!8m2!3d16.5436994!4d81.5309297!16s%2Fg%2F1pyqks1qd!19sChIJaS1VR6TSNzoRn026dA5c0vE?authuser=0&hl=en&rclk=1",
        "coordinates": {
            "latitude": 16.543699399999998,
            "longitude": 81.5309297
        }
    },
    {
        "name": "Masjid Noor-E-lahi Masjid",
        "main_category": "Mosque",
        "address": "GGWG+WCC Masjid Noor-E-lahi Masjid, Mentay Vari Thota, Bhimavaram, Andhra Pradesh 534202",
        "detailed_address": {
            "ward": "Mentay Vari Thota",
            "street": "GGWG+WCC",
            "city": "Bhimavaram",
            "postal_code": "534202",
            "state": "Andhra Pradesh",
            "country_code": "IN"
        },
        "images": [
            {
                "about": "All",
                "link": "https://lh5.googleusercontent.com/p/AF1QipOl5dgFt8iclEtt0b9WOuKTGvi8gUC3cVe2iv0m=w397-h298-k-no"
            },
            {
                "about": "Street View & 360deg",
                "link": "https://streetviewpixels-pa.googleapis.com/v1/thumbnail?panoid=0wIruxbwFGPsPhJBZrRvBQ&cb_client=maps_sv.tactile.gps&w=224&h=298&yaw=300.04233&pitch=0&thumbfov=100"
            }
        ],
        "link": "https://www.google.com/maps/place/Masjid+Noor-E-lahi+Masjid/data=!4m7!3m6!1s0x3a37d2a88ffcaafb:0x6f972e3d64595d39!8m2!3d16.5473018!4d81.5260193!16s%2Fg%2F1pyqtkbmt!19sChIJ-6r8j6jSNzoROV1ZZD0ul28?authuser=0&hl=en&rclk=1",
        "coordinates": {
            "latitude": 16.5473018,
            "longitude": 81.5260193
        }
    },
    {
        "name": "Eidgah Masjid",
        "main_category": "Mosque",
        "address": "GGXP+2WG Eidgah Masjid, Narasayyaagraharam, Bhimavaram, Andhra Pradesh 534210",
        "detailed_address": {
            "ward": "Narasayyaagraharam",
            "street": "GGXP+2WG",
            "city": "Bhimavaram",
            "postal_code": "534210",
            "state": "Andhra Pradesh",
            "country_code": "IN"
        },
        "images": [
            {
                "about": "All",
                "link": "https://lh5.googleusercontent.com/p/AF1QipOBRljXrklUa2vKsWgAknDjL0zOV0XVRjlOtit5=w529-h298-k-no"
            },
            {
                "about": "Street View & 360deg",
                "link": "https://streetviewpixels-pa.googleapis.com/v1/thumbnail?panoid=9DnrEGwavWmyWNHx-H_HFQ&cb_client=maps_sv.tactile.gps&w=224&h=298&yaw=139.11928&pitch=0&thumbfov=100"
            }
        ],
        "link": "https://www.google.com/maps/place/Eidgah+Masjid/data=!4m7!3m6!1s0x3a37d2a1da2d40d1:0x474b1166df0a1a35!8m2!3d16.5475597!4d81.5373203!16s%2Fg%2F11gcx_p6ln!19sChIJ0UAt2qHSNzoRNRoK32YRS0c?authuser=0&hl=en&rclk=1",
        "coordinates": {
            "latitude": 16.5475597,
            "longitude": 81.53732029999999
        }
    },
    {
        "name": "Rayalam Mosque",
        "main_category": "Place of worship",
        "address": "GGP4+GWJ Rayalam Mosque, Raayalam, Bhimavaram, Andhra Pradesh 534204",
        "detailed_address": {
            "ward": "Raayalam",
            "street": "GGP4+GWJ",
            "city": "Bhimavaram",
            "postal_code": "534204",
            "state": "Andhra Pradesh",
            "country_code": "IN"
        },
        "images": [
            {
                "about": "All",
                "link": "https://lh5.googleusercontent.com/p/AF1QipMXXLvyN3tw7hPwzJboIEm6Fog3622uJpR504QK=w529-h298-k-no"
            },
            {
                "about": "Videos",
                "link": "https://lh5.googleusercontent.com/p/AF1QipPUW7PbRqD9FQ9TfrPPfVxZpqpd1ekbV91GeOvU=w529-h298-k-no"
            }
        ],
        "link": "https://www.google.com/maps/place/Rayalam+Mosque/data=!4m7!3m6!1s0x3a362d4fb26c7fb3:0x73678737a2c8748c!8m2!3d16.536344!4d81.5072744!16s%2Fg%2F11crzz_m4m!19sChIJs39ssk8tNjoRjHTIojeHZ3M?authuser=0&hl=en&rclk=1",
        "coordinates": {
            "latitude": 16.536344,
            "longitude": 81.5072744
        }
    },
    {
        "name": "Sunnejamiya Masjid",
        "main_category": "Place of worship",
        "address": "GGVH+4PP Sunnejamiya Masjid, Gandhinagar, Bhimavaram, Andhra Pradesh 534201",
        "detailed_address": {
            "ward": "Gandhinagar",
            "street": "GGVH+4PP",
            "city": "Bhimavaram",
            "postal_code": "534201",
            "state": "Andhra Pradesh",
            "country_code": "IN"
        },
        "images": [
            {
                "about": "All",
                "link": "https://lh5.googleusercontent.com/p/AF1QipMrJ4nwZYqp8Bu2626ZyCrgqlR1Uk85IdigpYpM=w397-h298-k-no"
            }
        ],
        "link": "https://www.google.com/maps/place/Sunnejamiya+Masjid/data=!4m7!3m6!1s0x3a37d2a5acc33d9d:0x6c66bfc78cc8104f!8m2!3d16.5428294!4d81.5293214!16s%2Fg%2F1pyqt_6pp!19sChIJnT3DrKXSNzoRTxDIjMe_Zmw?authuser=0&hl=en&rclk=1",
        "coordinates": {
            "latitude": 16.5428294,
            "longitude": 81.5293214
        }
    },
    {
        "name": "Allahum muftahali abuvabi rahamatic mosque",
        "main_category": "Mosque",
        "address": "GGVF+M73 Allahum muftahali abuvabi rahamatic mosque, Ghouse Sahib Veedhi, Gandhinagar, Bhimavaram, Andhra Pradesh 534202",
        "detailed_address": {
            "ward": "Gandhinagar",
            "street": "GGVF+M73, Ghouse Sahib Veedhi",
            "city": "Bhimavaram",
            "postal_code": "534202",
            "state": "Andhra Pradesh",
            "country_code": "IN"
        },
        "images": [
            {
                "about": "All",
                "link": "https://lh5.googleusercontent.com/p/AF1QipMkeYN9AwP5hMpinEj6n3g7n9QPZavxldTPqve5=w224-h398-k-no"
            },
            {
                "about": "Street View & 360deg",
                "link": "https://streetviewpixels-pa.googleapis.com/v1/thumbnail?panoid=Gxz-_TtFwEUNqV975uSrZA&cb_client=maps_sv.tactile.gps&w=224&h=298&yaw=157.64415&pitch=0&thumbfov=100"
            }
        ],
        "link": "https://www.google.com/maps/place/Allahum+muftahali+abuvabi+rahamatic+mosque/data=!4m7!3m6!1s0x3a37d31b617d0f1d:0x3bc08801db621c16!8m2!3d16.5441387!4d81.5231659!16s%2Fg%2F11hy8nww_p!19sChIJHQ99YRvTNzoRFhxi2wGIwDs?authuser=0&hl=en&rclk=1",
        "coordinates": {
            "latitude": 16.544138699999998,
            "longitude": 81.5231659
        }
    },
    {
        "name": "Masjid Eismayeel",
        "main_category": "Mosque",
        "address": "Masjid Eismayeel, 9-3-3/1, Gunupudi St, Kamuju Vari Palem, Maruthi Nagar, Bhimavaram, Andhra Pradesh 534203",
        "detailed_address": {
            "ward": "Kamuju Vari Palem, Maruthi Nagar",
            "street": "9-3-3/1, Gunupudi St",
            "city": "Bhimavaram",
            "postal_code": "534203",
            "state": "Andhra Pradesh",
            "country_code": "IN"
        },
        "images": [
            {
                "about": "All",
                "link": "https://streetviewpixels-pa.googleapis.com/v1/thumbnail?panoid=MpGhWBh4pBKVupSRTISTLw&cb_client=maps_sv.tactile.gps&w=224&h=298&yaw=211.06015&pitch=0&thumbfov=100"
            },
            {
                "about": "Street View & 360deg",
                "link": "https://streetviewpixels-pa.googleapis.com/v1/thumbnail?panoid=MpGhWBh4pBKVupSRTISTLw&cb_client=maps_sv.tactile.gps&w=224&h=298&yaw=211.06015&pitch=0&thumbfov=100"
            }
        ],
        "link": "https://www.google.com/maps/place/Masjid+Eismayeel/data=!4m7!3m6!1s0x3a37d3b31b9e04af:0xcca1d12efc417d62!8m2!3d16.5382933!4d81.5469757!16s%2Fg%2F11vbvw5fq4!19sChIJrwSeG7PTNzoRYn1B_C7Rocw?authuser=0&hl=en&rclk=1",
        "coordinates": {
            "latitude": 16.5382933,
            "longitude": 81.54697569999999
        }
    },
    {
        "name": "Sunni Jamia Mosque",
        "main_category": "Mosque",
        "address": "GGVH+5P2 Sunni Jamia Mosque, Gandhinagar, Bhimavaram, Andhra Pradesh 534201",
        "detailed_address": {
            "ward": "Gandhinagar",
            "street": "GGVH+5P2",
            "city": "Bhimavaram",
            "postal_code": "534201",
            "state": "Andhra Pradesh",
            "country_code": "IN"
        },
        "images": [],
        "link": "https://www.google.com/maps/place/Sunni+Jamia+Mosque/data=!4m7!3m6!1s0x3a37d2a5adafffff:0x112d79e1dea552d8!8m2!3d16.5428909!4d81.5292573!16s%2Fg%2F11tgg7r706!19sChIJ__-vraXSNzoR2FKl3uF5LRE?authuser=0&hl=en&rclk=1",
        "coordinates": {
            "latitude": 16.5428909,
            "longitude": 81.5292573
        }
    },
    {
        "name": "Mazid a ismail",
        "main_category": "Mosque",
        "address": "GGVC+WGR Mazid a ismail, Mallithota, Balusumoodi, Bhimavaram, Andhra Pradesh 534202",
        "detailed_address": {
            "ward": "Balusumoodi",
            "street": "GGVC+WGR, Mallithota",
            "city": "Bhimavaram",
            "postal_code": null,
            "state": "Andhra Pradesh",
            "country_code": "IN"
        },
        "images": [
            {
                "about": "All",
                "link": "https://streetviewpixels-pa.googleapis.com/v1/thumbnail?panoid=AWYbxCnW4V-X5klLgEqisA&cb_client=maps_sv.tactile.gps&w=224&h=298&yaw=125.38767&pitch=0&thumbfov=100"
            },
            {
                "about": "Street View & 360deg",
                "link": "https://streetviewpixels-pa.googleapis.com/v1/thumbnail?panoid=AWYbxCnW4V-X5klLgEqisA&cb_client=maps_sv.tactile.gps&w=224&h=298&yaw=125.38767&pitch=0&thumbfov=100"
            }
        ],
        "link": "https://www.google.com/maps/place/Mazid+a+ismail/data=!4m7!3m6!1s0x3a37d369cffd9669:0x4b0109eaa650c080!8m2!3d16.5448562!4d81.5212771!16s%2Fg%2F11rzqzqd3t!19sChIJaZb9z2nTNzoRgMBQpuoJAUs?authuser=0&hl=en&rclk=1",
        "coordinates": {
            "latitude": 16.544856199999998,
            "longitude": 81.52127709999999
        }
    }
]