[
    {
        "name": "Jama Masjid",
        "main_category": "Mosque",
        "address": "Jama Masjid, Old Delhi, Delhi, 110006",
        "detailed_address": {
            "ward": "Jama Masjid, Old Delhi",
            "street": null,
            "city": "Delhi",
            "postal_code": "110006",
            "state": "Delhi",
            "country_code": "IN"
        },
        "images": [
            {
                "about": "All",
                "link": "https://lh5.googleusercontent.com/p/AF1QipMak1D51ms3fAec8Hv85TWzznlDqiSG6WVzH1oo=w447-h298-k-no"
            },
            {
                "about": "Latest",
                "link": "https://lh5.googleusercontent.com/p/AF1QipNNRpm0-dXpgV9oJsKWwcImDfg9o81awCWu2hlm=w224-h398-k-no"
            },
            {
                "about": "Videos",
                "link": "https://lh5.googleusercontent.com/p/AF1QipMlxs5wfHk0o905fntq2LudrTJLkjZky0yCrLHV=w529-h298-k-no"
            },
            {
                "about": "National Boot House",
                "link": "https://lh5.googleusercontent.com/p/AF1QipM5PMl5iJ13XFmdtykdBe9uqqkRj7XNcGjDk_Gd=w529-h298-k-no"
            },
            {
                "about": "Dome",
                "link": "https://lh5.googleusercontent.com/p/AF1QipN2U6zM28o9erhatzJ_mJpeLOkFiGCQiEtj0B9g=w274-h298-k-no"
            },
            {
                "about": "Street View & 360deg",
                "link": "https://lh5.googleusercontent.com/p/AF1QipPz_Omqh6xT1_brAdCRe0ER_BM8EZGxJGXxUSA=w224-h298-k-no-pi-30.000002-ya291.3302-ro-0-fo100"
            }
        ],
        "link": "https://www.google.com/maps/place/Jama+Masjid/data=!4m7!3m6!1s0x390cfd18df89b215:0xdd57369e29bf9d96!8m2!3d28.6506792!4d77.2334421!16zL20vMDR5emo1!19sChIJFbKJ3xj9DDkRlp2_KZ42V90?authuser=0&hl=en&rclk=1",
        "coordinates": {
            "latitude": 28.6506792,
            "longitude": 77.23344209999999
        }
    },
    {
        "name": "Chaand Masjid",
        "main_category": "Mosque",
        "address": "Chaand Masjid, Thokar no. 4, 4, Kalindi Kunj Rd, Abul Fazal Enclave Part 1, Part 1 Abul Fazal Enclave, Block J, Jamia Nagar, Okhla, New Delhi, Delhi 110025",
        "detailed_address": {
            "ward": "Abul Fazal Enclave Part 1, Part 1 Abul Fazal Enclave, Block J, Jamia Nagar, Okhla",
            "street": "Thokar no. 4, 4, Kalindi Kunj Rd",
            "city": "New Delhi",
            "postal_code": "110025",
            "state": "Delhi",
            "country_code": "IN"
        },
        "images": [
            {
                "about": "All",
                "link": "https://lh5.googleusercontent.com/p/AF1QipOppaFUBk1LJGJl5SHghK2GMBDivjOPk8Nav50V=w425-h298-k-no"
            },
            {
                "about": "Videos",
                "link": "https://lh5.googleusercontent.com/p/AF1QipNp1gxnr5Nool9A050awJAH2tFle94JH2J3VoQZ=w224-h398-k-no"
            }
        ],
        "link": "https://www.google.com/maps/place/Chaand+Masjid/data=!4m7!3m6!1s0x390ce40fd42494c1:0x50f20e85fae2baf1!8m2!3d28.5534566!4d77.2977783!16s%2Fg%2F11h1b5c58!19sChIJwZQk1A_kDDkR8bri-oUO8lA?authuser=0&hl=en&rclk=1",
        "coordinates": {
            "latitude": 28.553456599999997,
            "longitude": 77.29777829999999
        }
    },
    {
        "name": "Sitara Masjid, Abul Fazal, New Delhi.",
        "main_category": "Mosque",
        "address": "Sitara Masjid, Abul Fazal, New Delhi., Part 1, G 3, Abul Fazal Enclave Rd, Part 1 Abul Fazal Enclave, Block G, Jamia Nagar, Okhla, New Delhi, Delhi 110025",
        "detailed_address": {
            "ward": "Abul Fazal Enclave Part 1, Part 1 Abul Fazal Enclave, Block G, Jamia Nagar, Okhla",
            "street": "Part 1, G 3, Abul Fazal Enclave Rd",
            "city": "New Delhi",
            "postal_code": "110025",
            "state": "Delhi",
            "country_code": "IN"
        },
        "images": [
            {
                "about": "All",
                "link": "https://lh5.googleusercontent.com/p/AF1QipOW4DofjChwezx6mVV9P7wQXMdU1TrapJF5WwxF=w548-h298-k-no"
            }
        ],
        "link": "https://www.google.com/maps/place/Sitara+Masjid,+Abul+Fazal,+New+Delhi./data=!4m7!3m6!1s0x390ce40eef01b2f9:0x7aafe71b234ab52c!8m2!3d28.5541142!4d77.2941962!16s%2Fg%2F11c0xyx2h5!19sChIJ-bIB7w7kDDkRLLVKIxvnr3o?authuser=0&hl=en&rclk=1",
        "coordinates": {
            "latitude": 28.554114199999997,
            "longitude": 77.2941962
        }
    },
    {
        "name": "Jama Masjid jm` msjd",
        "main_category": "Mosque",
        "address": "F874+347 Jama Masjid jm` msjd, Fatehganj Pashchimi, Uttar Pradesh 243501",
        "detailed_address": {
            "ward": null,
            "street": "F874+347",
            "city": "Fatehganj Pashchimi",
            "postal_code": "243501",
            "state": "Uttar Pradesh",
            "country_code": "IN"
        },
        "images": [
            {
                "about": "All",
                "link": "https://lh5.googleusercontent.com/p/AF1QipOajsSRQtor_HVtT3ZmOlbXOBTcZBeYk3McY8v2=w397-h298-k-no"
            },
            {
                "about": "Street View & 360deg",
                "link": "https://streetviewpixels-pa.googleapis.com/v1/thumbnail?panoid=56iVuw05oCor4rmaQSZULw&cb_client=maps_sv.tactile.gps&w=224&h=298&yaw=47.44242&pitch=0&thumbfov=100"
            },
            {
                "about": "Videos",
                "link": "https://lh5.googleusercontent.com/p/AF1QipPMYd8g6AginrIIO4PJXvm6yYXylTparkK86Zx3=w224-h398-k-no"
            }
        ],
        "link": "https://www.google.com/maps/place/Jama+Masjid+%D8%AC%D8%A7%D9%85%D8%B9+%D9%85%D8%B3%D8%AC%D8%AF%E2%80%AD/data=!4m7!3m6!1s0x390aa66cf19750cd:0x2cd17e0e21caf178!8m2!3d28.4626526!4d79.3052904!16s%2Fg%2F11bzr585rf!19sChIJzVCX8WymCjkRePHKIQ5-0Sw?authuser=0&hl=en&rclk=1",
        "coordinates": {
            "latitude": 28.4626526,
            "longitude": 79.30529039999999
        }
    },
    {
        "name": "Masjid Mustafa Ganj Fatehganj East Bareilly UP",
        "main_category": "Mosque",
        "address": "3JHJ+8X2 Masjid Mustafa Ganj Fatehganj East Bareilly UP, east, Fatehganj Purvi, Uttar Pradesh 243506",
        "detailed_address": {
            "ward": null,
            "street": "3JHJ+8X2, east",
            "city": "Fatehganj Purvi",
            "postal_code": "243506",
            "state": "Uttar Pradesh",
            "country_code": "IN"
        },
        "images": [
            {
                "about": "All",
                "link": "https://lh5.googleusercontent.com/p/AF1QipPzehAb-juonlSlWwZK_ygLjwIgrMMo6z2h6yBD=w224-h298-k-no"
            },
            {
                "about": "Street View & 360deg",
                "link": "https://streetviewpixels-pa.googleapis.com/v1/thumbnail?panoid=GuqjHsaIM7qSTUHCnJ7W2A&cb_client=maps_sv.tactile.gps&w=224&h=298&yaw=206.59833&pitch=0&thumbfov=100"
            },
            {
                "about": "Videos",
                "link": "https://lh5.googleusercontent.com/p/AF1QipOJ74XPrXK7SLI7JoLINwaz8aDWvSHzet7iMOl_=w224-h442-k-no"
            }
        ],
        "link": "https://www.google.com/maps/place/Masjid+Mustafa+Ganj+Fatehganj+East+Bareilly+UP/data=!4m7!3m6!1s0x399fee16d8937c49:0x51c6aa3e92934e51!8m2!3d28.0782535!4d79.6323866!16s%2Fg%2F11fy4n31rt!19sChIJSXyT2BbunzkRUU6Tkj6qxlE?authuser=0&hl=en&rclk=1",
        "coordinates": {
            "latitude": 28.0782535,
            "longitude": 79.63238659999999
        }
    },
    {
        "name": "Gausiya Masjid",
        "main_category": "Mosque",
        "address": "F874+HGW Gausiya Masjid, Fatehganj Pashchimi, Uttar Pradesh 243501",
        "detailed_address": {
            "ward": null,
            "street": "F874+HGW",
            "city": "Fatehganj Pashchimi",
            "postal_code": "243501",
            "state": "Uttar Pradesh",
            "country_code": "IN"
        },
        "images": [],
        "link": "https://www.google.com/maps/place/Gausiya+Masjid/data=!4m7!3m6!1s0x390aa795317892ef:0x89244ae075e96830!8m2!3d28.4639775!4d79.306326!16s%2Fg%2F11gh9fnywc!19sChIJ75J4MZWnCjkRMGjpdeBKJIk?authuser=0&hl=en&rclk=1",
        "coordinates": {
            "latitude": 28.4639775,
            "longitude": 79.306326
        }
    },
    {
        "name": "Hafiz Shahab Masjid",
        "main_category": "Mosque",
        "address": "F874+CGG Hafiz Shahab Masjid, Fatehganj Pashchimi, Uttar Pradesh 243501",
        "detailed_address": {
            "ward": null,
            "street": "F874+CGG",
            "city": "Fatehganj Pashchimi",
            "postal_code": "243501",
            "state": "Uttar Pradesh",
            "country_code": "IN"
        },
        "images": [
            {
                "about": "All",
                "link": "https://lh5.googleusercontent.com/p/AF1QipPhSMouf6RaswUj-3G2r3q1lhwRlJ0M7jIclPUk=w224-h398-k-no"
            }
        ],
        "link": "https://www.google.com/maps/place/Hafiz+Shahab+Masjid/data=!4m7!3m6!1s0x390aa7577757750b:0x374fc91859022277!8m2!3d28.4635708!4d79.3063304!16s%2Fg%2F11ff4x6l9m!19sChIJC3VXd1enCjkRdyICWRjJTzc?authuser=0&hl=en&rclk=1",
        "coordinates": {
            "latitude": 28.4635708,
            "longitude": 79.3063304
        }
    },
    {
        "name": "Masij Gareeb Navaaj",
        "main_category": "Mosque",
        "address": "F875+Q9C Masij Gareeb Navaaj, Fatehganj Pashchimi, Uttar Pradesh 243501",
        "detailed_address": {
            "ward": null,
            "street": "F875+Q9C",
            "city": "Fatehganj Pashchimi",
            "postal_code": "243501",
            "state": "Uttar Pradesh",
            "country_code": "IN"
        },
        "images": [
            {
                "about": "All",
                "link": "https://lh5.googleusercontent.com/p/AF1QipM6PTnHbO15ojm8csY_2fMKY6qJjOLvp8anzoNA=w224-h298-k-no"
            }
        ],
        "link": "https://www.google.com/maps/place/Masij+Gareeb+Navaaj/data=!4m7!3m6!1s0x390aa7f414aa64db:0x45b6dc7d573e48b6!8m2!3d28.464449!4d79.3083841!16s%2Fg%2F11jkmw86qc!19sChIJ22SqFPSnCjkRtkg-V33ctkU?authuser=0&hl=en&rclk=1",
        "coordinates": {
            "latitude": 28.464449,
            "longitude": 79.3083841
        }
    },
    {
        "name": "QADRI Masjid",
        "main_category": "Mosque",
        "address": "F884+5JF QADRI Masjid, Fatehganj Pashchimi, Uttar Pradesh 243501",
        "detailed_address": {
            "ward": null,
            "street": "F884+5JF",
            "city": "Fatehganj Pashchimi",
            "postal_code": "243501",
            "state": "Uttar Pradesh",
            "country_code": "IN"
        },
        "images": [
            {
                "about": "All",
                "link": "https://lh5.googleusercontent.com/p/AF1QipNeCVSstHyPkHT09S2zJOZOoswvSiPwCNzZ5ETh=w224-h490-k-no"
            },
            {
                "about": "Videos",
                "link": "https://lh5.googleusercontent.com/p/AF1QipPvRFAqRSW-pHOQ4Vr3ekVVgn7_g7KMDHTqNp0s=w224-h398-k-no"
            }
        ],
        "link": "https://www.google.com/maps/place/QADRI+Masjid/data=!4m7!3m6!1s0x390aa66dcaa08189:0x1aa2463b8fa1c0fe!8m2!3d28.4654498!4d79.306559!16s%2Fg%2F11dfmgvv3n!19sChIJiYGgym2mCjkR_sChjztGoho?authuser=0&hl=en&rclk=1",
        "coordinates": {
            "latitude": 28.4654498,
            "longitude": 79.306559
        }
    },
    {
        "name": "Hussaini Musjid",
        "main_category": "Mosque",
        "address": "Ward no. 5, Hussaini Musjid, west, Ansari mohalla, Fatehganj Pashchimi, Uttar Pradesh 243501",
        "detailed_address": {
            "ward": "Ansari mohalla",
            "street": "Ward no. 5, west",
            "city": "Fatehganj Pashchimi",
            "postal_code": null,
            "state": "Uttar Pradesh",
            "country_code": "IN"
        },
        "images": [
            {
                "about": "All",
                "link": "https://lh5.googleusercontent.com/p/AF1QipOWrVqSKMXGS6ng0ALY8-LrV0O1CNeVlmWZOZEU=w224-h298-k-no"
            }
        ],
        "link": "https://www.google.com/maps/place/Hussaini+Musjid/data=!4m7!3m6!1s0x390aa771b53e1c91:0xa1c4454e7e07eee3!8m2!3d28.4636427!4d79.3053028!16s%2Fg%2F11gxrnbbxw!19sChIJkRw-tXGnCjkR4-4Hfk5FxKE?authuser=0&hl=en&rclk=1",
        "coordinates": {
            "latitude": 28.463642699999998,
            "longitude": 79.30530279999999
        }
    },
    {
        "name": "Azhari masjid",
        "main_category": "Mosque",
        "address": "F873+RMP Azhari masjid, Fatehganj Pashchimi, Uttar Pradesh 243501",
        "detailed_address": {
            "ward": null,
            "street": "F873+RMP",
            "city": "Fatehganj Pashchimi",
            "postal_code": "243501",
            "state": "Uttar Pradesh",
            "country_code": "IN"
        },
        "images": [],
        "link": "https://www.google.com/maps/place/Azhari+masjid/data=!4m7!3m6!1s0x390aa77d50cf9ff5:0x963473b64ec810bd!8m2!3d28.4645787!4d79.3041999!16s%2Fg%2F11h4qm75__!19sChIJ9Z_PUH2nCjkRvRDITrZzNJY?authuser=0&hl=en&rclk=1",
        "coordinates": {
            "latitude": 28.464578699999997,
            "longitude": 79.3041999
        }
    },
    {
        "name": "AHMADI MASJID",
        "main_category": "Place of worship",
        "address": "F876+M24 AHMADI MASJID, Unnamed Road, Fatehganj Pashchimi, Uttar Pradesh 243501",
        "detailed_address": {
            "ward": null,
            "street": "F876+M24, Unnamed Road",
            "city": "Fatehganj Pashchimi",
            "postal_code": "243501",
            "state": "Uttar Pradesh",
            "country_code": "IN"
        },
        "images": [],
        "link": "https://www.google.com/maps/place/AHMADI+MASJID/data=!4m7!3m6!1s0x390aa7b562ccfa4f:0xbd8c37e5c460cec0!8m2!3d28.4641375!4d79.3100711!16s%2Fg%2F11r8cfswzy!19sChIJT_rMYrWnCjkRwM5gxOU3jL0?authuser=0&hl=en&rclk=1",
        "coordinates": {
            "latitude": 28.4641375,
            "longitude": 79.3100711
        }
    }
]