[
    {
        "name": "Masjid'E Darul Aamal, Keirak",
        "main_category": "Mosque",
        "address": "GX56+CH9 Masjid'E Darul Aamal, Keirak, Kakching, Manipur 795103",
        "detailed_address": {
            "ward": null,
            "street": "GX56+CH9",
            "city": "Kakching",
            "postal_code": "795103",
            "state": "Manipur",
            "country_code": "IN"
        },
        "images": [],
        "link": "https://www.google.com/maps/place/Masjid%27E+Darul+Aamal,+Keirak/data=!4m7!3m6!1s0x3749395761585e4d:0x7e3bbd2567464659!8m2!3d24.5085403!4d93.9614938!16s%2Fg%2F11nfpjv__9!19sChIJTV5YYVc5STcRWUZGZyW9O34?authuser=0&hl=en&rclk=1",
        "coordinates": {
            "latitude": 24.5085403,
            "longitude": 93.9614938
        }
    },
    {
        "name": "Noor Masjid,Keirak Muslim",
        "main_category": "Mosque",
        "address": "GX66+FJ2 Noor Masjid,Keirak Muslim, Muslim, Keirak, Lilong, Manipur 795103",
        "detailed_address": {
            "ward": null,
            "street": "GX66+FJ2, Muslim",
            "city": "Keirak, Lilong",
            "postal_code": "795103",
            "state": "Manipur",
            "country_code": "IN"
        },
        "images": [
            {
                "about": "All",
                "link": "https://lh5.googleusercontent.com/p/AF1QipMoB5ZBVWucfKX1HNTvb1uudtrZdAjOdTeFdXI1=w224-h471-k-no"
            }
        ],
        "link": "https://www.google.com/maps/place/Noor+Masjid,Keirak+Muslim/data=!4m7!3m6!1s0x374938e433266c45:0xa5cf94685608592d!8m2!3d24.5111451!4d93.9615235!16s%2Fg%2F11g86yjd7z!19sChIJRWwmM-Q4STcRLVkIVmiUz6U?authuser=0&hl=en&rclk=1",
        "coordinates": {
            "latitude": 24.5111451,
            "longitude": 93.9615235
        }
    },
    {
        "name": "MASJID'E SANI",
        "main_category": "Mosque",
        "address": "GX76+2JR MASJID'E SANI, MUSLIM AWANG LEIKAI, Keirak, Manipur 795103",
        "detailed_address": {
            "ward": null,
            "street": "GX76+2JR, MUSLIM AWANG LEIKAI",
            "city": "Keirak",
            "postal_code": null,
            "state": "Manipur",
            "country_code": "IN"
        },
        "images": [],
        "link": "https://www.google.com/maps/place/MASJID%27E+SANI/data=!4m7!3m6!1s0x374939a4d4e2d647:0xfad90f012e6c155e!8m2!3d24.5126077!4d93.9615105!16s%2Fg%2F11pm6_nmgx!19sChIJR9bi1KQ5STcRXhVsLgEP2fo?authuser=0&hl=en&rclk=1",
        "coordinates": {
            "latitude": 24.5126077,
            "longitude": 93.9615105
        }
    },
    {
        "name": "Masjid-E-Taqwa",
        "main_category": "Mosque",
        "address": "Masjid-E-Taqwa, Maning Mayai Leikai, Karanchi Road, Sora, Manipur 795103",
        "detailed_address": {
            "ward": null,
            "street": "Maning Mayai Leikai, Karanchi Road",
            "city": "Sora",
            "postal_code": "795103",
            "state": "Manipur",
            "country_code": "IN"
        },
        "images": [],
        "link": "https://www.google.com/maps/place/Masjid-E-Taqwa/data=!4m7!3m6!1s0x37493f1d6585337d:0x5690b3290f4681a9!8m2!3d24.5181986!4d94.0159356!16s%2Fg%2F11c5ssbm1t!19sChIJfTOFZR0_STcRqYFGDymzkFY?authuser=0&hl=en&rclk=1",
        "coordinates": {
            "latitude": 24.518198599999998,
            "longitude": 94.01593559999999
        }
    },
    {
        "name": "KHONGNANG MAKHONG MASJID",
        "main_category": "Mosque",
        "address": "H322+HW5 KHONGNANG MAKHONG MASJID, Thoubal, Manipur 795148",
        "detailed_address": {
            "ward": null,
            "street": "H322+HW5",
            "city": "Thoubal",
            "postal_code": null,
            "state": "Manipur",
            "country_code": "IN"
        },
        "images": [],
        "link": "https://www.google.com/maps/place/KHONGNANG+MAKHONG+MASJID/data=!4m7!3m6!1s0x37493fe477ec9efb:0xb85b9f6005277e62!8m2!3d24.5513924!4d94.0523628!16s%2Fg%2F11hrb63kgc!19sChIJ-57sd-Q_STcRYn4nBWCfW7g?authuser=0&hl=en&rclk=1",
        "coordinates": {
            "latitude": 24.551392399999997,
            "longitude": 94.0523628
        }
    }
]