[
    {
        "name": "Jama Masjid Tasgaon.",
        "main_category": "Mosque",
        "address": "2JQ3+HHH Jama Masjid Tasgaon., Somwar Peth, Tasgaon, Maharashtra 416312",
        "detailed_address": {
            "ward": "Somwar Peth",
            "street": "2JQ3+HHH",
            "city": "Tasgaon",
            "postal_code": "416312",
            "state": "Maharashtra",
            "country_code": "IN"
        },
        "images": [
            {
                "about": "All",
                "link": "https://lh5.googleusercontent.com/p/AF1QipPHYvqhy8BtKkgbZcF46atGEjsVm-paHFeFSMJk=w436-h298-k-no"
            },
            {
                "about": "Latest",
                "link": "https://lh5.googleusercontent.com/p/AF1QipP_omKO-drq_vXeWJnV8DWyXJYmuNbbSK3_fA6s=w401-h298-k-no"
            },
            {
                "about": "Videos",
                "link": "https://lh5.googleusercontent.com/p/AF1QipMlmOkpvZN7Pnygp62QiD6aYRvtvHcSHixVj3Y=w224-h497-k-no"
            }
        ],
        "link": "https://www.google.com/maps/place/Jama+Masjid+Tasgaon./data=!4m7!3m6!1s0x3bc13fdaba2b0887:0xd7c03d222247e7d5!8m2!3d17.0389367!4d74.6039935!16s%2Fg%2F11dywrtv97!19sChIJhwgruto_wTsR1edHIiI9wNc?authuser=0&hl=en&rclk=1",
        "coordinates": {
            "latitude": 17.0389367,
            "longitude": 74.6039935
        }
    },
    {
        "name": "Mohammadia Masjid, Tasgaon.",
        "main_category": "Mosque",
        "address": "2JR4+JJQ Mohammadia Masjid, Tasgaon., Somwar Peth, Tasgaon, Maharashtra 416312",
        "detailed_address": {
            "ward": "Somwar Peth",
            "street": "2JR4+JJQ",
            "city": "Tasgaon",
            "postal_code": "416312",
            "state": "Maharashtra",
            "country_code": "IN"
        },
        "images": [
            {
                "about": "All",
                "link": "https://lh5.googleusercontent.com/p/AF1QipOtfWcnERVC0AfqEbPxmXMh-9WVNm99mKDYuhRW=w529-h298-k-no"
            }
        ],
        "link": "https://www.google.com/maps/place/Mohammadia+Masjid,+Tasgaon./data=!4m7!3m6!1s0x3bc13fc4e624d1cb:0x5dce1b52dad5d87b!8m2!3d17.041594!4d74.606613!16s%2Fg%2F11g84b4jqz!19sChIJy9Ek5sQ_wTsRe9jV2lIbzl0?authuser=0&hl=en&rclk=1",
        "coordinates": {
            "latitude": 17.041594,
            "longitude": 74.606613
        }
    },
    {
        "name": "Ahamadia Masjid, Tasgaon",
        "main_category": "Mosque",
        "address": "2JX7+233 Ahamadia Masjid, Tasgaon, Sangli, Maharashtra 416312",
        "detailed_address": {
            "ward": null,
            "street": "2JX7+233",
            "city": "Sangli",
            "postal_code": "416312",
            "state": "Maharashtra",
            "country_code": "IN"
        },
        "images": [
            {
                "about": "All",
                "link": "https://lh5.googleusercontent.com/p/AF1QipPP0DuqEa1Ux4Sd7XMikpn1MXpc3qMHDZLyfBAJ=w590-h298-k-no"
            },
            {
                "about": "Dome",
                "link": "https://lh5.googleusercontent.com/p/AF1QipPP0DuqEa1Ux4Sd7XMikpn1MXpc3qMHDZLyfBAJ=w590-h298-k-no"
            }
        ],
        "link": "https://www.google.com/maps/place/Ahamadia+Masjid,+Tasgaon/data=!4m7!3m6!1s0x3bc13fc1a41f4369:0x4801efd98490524!8m2!3d17.047508!4d74.6126812!16s%2Fg%2F11fyxntmtl!19sChIJaUMfpME_wTsRJAVJmP0egAQ?authuser=0&hl=en&rclk=1",
        "coordinates": {
            "latitude": 17.047508,
            "longitude": 74.6126812
        }
    },
    {
        "name": "Madina Masjid Tasgaon",
        "main_category": "Mosque",
        "address": "2HMX+CWJ Madina Masjid Tasgaon, Kalgaonkar Wada, Tasgaon, Maharashtra 416312",
        "detailed_address": {
            "ward": "Kalgaonkar Wada",
            "street": "2HMX+CWJ",
            "city": "Tasgaon",
            "postal_code": "416312",
            "state": "Maharashtra",
            "country_code": "IN"
        },
        "images": [],
        "link": "https://www.google.com/maps/place/Madina+Masjid+Tasgaon/data=!4m7!3m6!1s0x3bc13fd130aa6f4f:0xbf879f71efda57c6!8m2!3d17.0335849!4d74.5997771!16s%2Fg%2F11fxx1tlcl!19sChIJT2-qMNE_wTsRxlfa73Gfh78?authuser=0&hl=en&rclk=1",
        "coordinates": {
            "latitude": 17.033584899999997,
            "longitude": 74.5997771
        }
    },
    {
        "name": "Chand Tara Masjid",
        "main_category": "Mosque",
        "address": "2JR2+GCH Chand Tara Masjid, Somwar Peth, Tasgaon, Maharashtra 416312",
        "detailed_address": {
            "ward": "Somwar Peth",
            "street": "2JR2+GCH",
            "city": "Tasgaon",
            "postal_code": "416312",
            "state": "Maharashtra",
            "country_code": "IN"
        },
        "images": [
            {
                "about": "All",
                "link": "https://lh5.googleusercontent.com/p/AF1QipMEgFFzq1A-oveGsU1kpo1WExmDuXixlgJfna4H=w529-h298-k-no"
            }
        ],
        "link": "https://www.google.com/maps/place/Chand+Tara+Masjid/data=!4m7!3m6!1s0x3bc13fdbbaeed94b:0x995db3dfe5baabf2!8m2!3d17.0413137!4d74.6011147!16s%2Fg%2F11c6cy5kr6!19sChIJS9nuuts_wTsR8qu65d-zXZk?authuser=0&hl=en&rclk=1",
        "coordinates": {
            "latitude": 17.0413137,
            "longitude": 74.6011147
        }
    },
    {
        "name": "Choti Masjid",
        "main_category": "Mosque",
        "address": "2JQ3+9PG Choti Masjid, vita naka khatik Galli, Somwar Peth, Tasgaon, Maharashtra 416312",
        "detailed_address": {
            "ward": "Somwar Peth",
            "street": "2JQ3+9PG, vita naka khatik Galli",
            "city": "Tasgaon",
            "postal_code": "416312",
            "state": "Maharashtra",
            "country_code": "IN"
        },
        "images": [
            {
                "about": "All",
                "link": "https://lh5.googleusercontent.com/p/AF1QipOlsRzzu654fdWfCtLx7_bdYiqy8M7b9wq0nF1t=w224-h484-k-no"
            }
        ],
        "link": "https://www.google.com/maps/place/Choti+Masjid/data=!4m7!3m6!1s0x3bc13fdaae3c2c29:0xa8498989ce18138!8m2!3d17.0384363!4d74.6043137!16s%2Fg%2F11fx7rwbgj!19sChIJKSw8rto_wTsROIHhnJiYhAo?authuser=0&hl=en&rclk=1",
        "coordinates": {
            "latitude": 17.0384363,
            "longitude": 74.60431369999999
        }
    },
    {
        "name": "Arfat Masjid, Tasgaon",
        "main_category": "Mosque",
        "address": "2JP5+573 Arfat Masjid, Tasgaon, Arfaat Masjid, Tasgaon, Maharashtra 416312",
        "detailed_address": {
            "ward": "Bapu Wadi",
            "street": "2JP5+573, Arfaat Masjid",
            "city": "Tasgaon",
            "postal_code": "416312",
            "state": "Maharashtra",
            "country_code": "IN"
        },
        "images": [
            {
                "about": "All",
                "link": "https://lh5.googleusercontent.com/p/AF1QipMwH0KxxDIMBpfwLliuqfvUP8wqx4L4TWQGIE7l=w529-h298-k-no"
            }
        ],
        "link": "https://www.google.com/maps/place/Arfat+Masjid,+Tasgaon/data=!4m7!3m6!1s0x3bc13fcf018b7b35:0x2db8ea0c16bd1e96!8m2!3d17.0353967!4d74.6081796!16s%2Fg%2F11g69_w7cb!19sChIJNXuLAc8_wTsRlh69FgzquC0?authuser=0&hl=en&rclk=1",
        "coordinates": {
            "latitude": 17.0353967,
            "longitude": 74.6081796
        }
    },
    {
        "name": "mkkaa msjid vittaa rodd taasgaaNv",
        "main_category": "Mosque",
        "address": "2JV3+R8G mkkaa msjid vittaa rodd taasgaaNv, Somwar Peth, Tasgaon, Maharashtra 416312",
        "detailed_address": {
            "ward": "Somwar Peth",
            "street": "2JV3+R8G",
            "city": "Tasgaon",
            "postal_code": "416312",
            "state": "Maharashtra",
            "country_code": "IN"
        },
        "images": [],
        "link": "https://www.google.com/maps/place/%E0%A4%AE%E0%A4%95%E0%A5%8D%E0%A4%95%E0%A4%BE+%E0%A4%AE%E0%A4%B8%E0%A5%8D%E0%A4%9C%E0%A4%BF%E0%A4%A6+%E0%A4%B5%E0%A4%BF%E0%A4%9F%E0%A4%BE+%E0%A4%B0%E0%A5%8B%E0%A4%A1+%E0%A4%A4%E0%A4%BE%E0%A4%B8%E0%A4%97%E0%A4%BE%E0%A4%82%E0%A4%B5/data=!4m7!3m6!1s0x3bc13fa86802476b:0xc192296d294bc868!8m2!3d17.044566!4d74.6033344!16s%2Fg%2F11gy67vgv6!19sChIJa0cCaKg_wTsRaMhLKW0pksE?authuser=0&hl=en&rclk=1",
        "coordinates": {
            "latitude": 17.044566,
            "longitude": 74.6033344
        }
    },
    {
        "name": "Noorani Masjid Tasgaon",
        "main_category": "Mosque",
        "address": "J4QF+4GR Noorani Masjid Tasgaon, Tasgaon, Maharashtra 415004",
        "detailed_address": {
            "ward": null,
            "street": "J4QF+4GR",
            "city": "Tasgaon",
            "postal_code": "415004",
            "state": "Maharashtra",
            "country_code": "IN"
        },
        "images": [
            {
                "about": "All",
                "link": "https://lh5.googleusercontent.com/p/AF1QipPnXRiKRrQHmS0fslRPZhvD6rfARvF6hwr9IAOs=w444-h298-k-no"
            },
            {
                "about": "Dome",
                "link": "https://lh5.googleusercontent.com/p/AF1QipPnXRiKRrQHmS0fslRPZhvD6rfARvF6hwr9IAOs=w444-h298-k-no"
            },
            {
                "about": "Street View & 360deg",
                "link": "https://streetviewpixels-pa.googleapis.com/v1/thumbnail?panoid=Q18FOCHJaAsOYLjwLLjh8w&cb_client=maps_sv.tactile.gps&w=224&h=298&yaw=3.9010043&pitch=0&thumbfov=100"
            }
        ],
        "link": "https://www.google.com/maps/place/Noorani+Masjid+Tasgaon/data=!4m7!3m6!1s0x3bc231785513ceaf:0xd7f4d19e95c1923e!8m2!3d17.6378624!4d74.1237603!16s%2Fg%2F11jcc_7zfn!19sChIJr84TVXgxwjsRPpLBlZ7R9Nc?authuser=0&hl=en&rclk=1",
        "coordinates": {
            "latitude": 17.6378624,
            "longitude": 74.1237603
        }
    }
]