[
    {
        "name": "MadinaMasjid",
        "main_category": "Mosque",
        "address": "G6C6+FVP MadinaMasjid, Santhi Nagar, Krishnagiri, Tamil Nadu 635001",
        "detailed_address": {
            "ward": "Santhi Nagar",
            "street": "G6C6+FVP",
            "city": "Krishnagiri",
            "postal_code": "635001",
            "state": "Tamil Nadu",
            "country_code": "IN"
        },
        "images": [
            {
                "about": "All",
                "link": "https://lh5.googleusercontent.com/p/AF1QipOK2gwPEgq1ppTrF6w49uzBQg--Y-ek3WMZ6S2c=w529-h298-k-no"
            },
            {
                "about": "Dome",
                "link": "https://lh5.googleusercontent.com/p/AF1QipMNc4mCSKCttzjRnuITQWw2vpSbEiEaaYCEYPin=w397-h298-k-no"
            },
            {
                "about": "Street View & 360deg",
                "link": "https://streetviewpixels-pa.googleapis.com/v1/thumbnail?panoid=j1xDCQ1ZltgLlbL_rc638w&cb_client=maps_sv.tactile.gps&w=224&h=298&yaw=31.095163&pitch=0&thumbfov=100"
            }
        ],
        "link": "https://www.google.com/maps/place/MadinaMasjid/data=!4m7!3m6!1s0x3bac34980b9efa13:0x71cf1904330444c2!8m2!3d12.5212095!4d78.2122105!16s%2Fg%2F1td4n3w3!19sChIJE_qeC5g0rDsRwkQEMwQZz3E?authuser=0&hl=en&rclk=1",
        "coordinates": {
            "latitude": 12.5212095,
            "longitude": 78.2122105
        }
    },
    {
        "name": "Chowk Masjid",
        "main_category": "Mosque",
        "address": "G69C+3M9 Chowk Masjid, New Pet, Krishnagiri, Tamil Nadu 635001",
        "detailed_address": {
            "ward": "New Pet",
            "street": "G69C+3M9",
            "city": "Krishnagiri",
            "postal_code": "635001",
            "state": "Tamil Nadu",
            "country_code": "IN"
        },
        "images": [
            {
                "about": "All",
                "link": "https://lh5.googleusercontent.com/p/AF1QipNdXLJRgd38LPKKpkUrmeMOY-AXbZuaBaboMrR4=w224-h317-k-no"
            },
            {
                "about": "Street View & 360deg",
                "link": "https://streetviewpixels-pa.googleapis.com/v1/thumbnail?panoid=HDmLowWyvdWTL9ub8QMPaw&cb_client=maps_sv.tactile.gps&w=224&h=298&yaw=184.20255&pitch=0&thumbfov=100"
            },
            {
                "about": "Videos",
                "link": "https://lh5.googleusercontent.com/p/AF1QipPKMPAq5WocmrPyQlMVGPo2HCLEC0UaFDBG7F9_=w224-h379-k-no"
            }
        ],
        "link": "https://www.google.com/maps/place/Chowk+Masjid/data=!4m7!3m6!1s0x3bac3494609e9507:0xdf013b125de81680!8m2!3d12.5176709!4d78.2217309!16s%2Fg%2F11dx8m5m51!19sChIJB5WeYJQ0rDsRgBboXRI7Ad8?authuser=0&hl=en&rclk=1",
        "coordinates": {
            "latitude": 12.517670899999999,
            "longitude": 78.2217309
        }
    },
    {
        "name": "Masjid E Rasool",
        "main_category": "Mosque",
        "address": "G689+WVP Masjid E Rasool, Salem Rd, Co-operative Colony, New Pet, Krishnagiri, Tamil Nadu 635001",
        "detailed_address": {
            "ward": "Co-operative Colony, New Pet",
            "street": "G689+WVP, Salem Rd",
            "city": "Krishnagiri",
            "postal_code": "635001",
            "state": "Tamil Nadu",
            "country_code": "IN"
        },
        "images": [
            {
                "about": "All",
                "link": "https://lh5.googleusercontent.com/p/AF1QipNzQ6AWBEJdSaC4mAbNCMn737pTVrLVmRi_MSBg=w397-h298-k-no"
            },
            {
                "about": "Street View & 360deg",
                "link": "https://streetviewpixels-pa.googleapis.com/v1/thumbnail?panoid=MqUWtVdJpHOKtQHSRLF-2g&cb_client=maps_sv.tactile.gps&w=224&h=298&yaw=90.847176&pitch=0&thumbfov=100"
            }
        ],
        "link": "https://www.google.com/maps/place/Masjid+E+Rasool/data=!4m7!3m6!1s0x3bac3493a59eda2d:0x98d71778355e0861!8m2!3d12.5173331!4d78.2196917!16s%2Fg%2F1tghbk_v!19sChIJLdqepZM0rDsRYQheNXgX15g?authuser=0&hl=en&rclk=1",
        "coordinates": {
            "latitude": 12.5173331,
            "longitude": 78.2196917
        }
    },
    {
        "name": "MASJITH E BILAL",
        "main_category": "Mosque",
        "address": "G6C3+FHJ MASJITH E BILAL, TNHB Phase 2, Wahab Nagar, Krishnagiri, Tamil Nadu 635001",
        "detailed_address": {
            "ward": "Wahab Nagar",
            "street": "G6C3+FHJ, TNHB Phase 2",
            "city": "Krishnagiri",
            "postal_code": "635001",
            "state": "Tamil Nadu",
            "country_code": "IN"
        },
        "images": [
            {
                "about": "All",
                "link": "https://lh5.googleusercontent.com/p/AF1QipMDGo3hjTlxvzuLHteThOzaFVeDP9lBymcI0YgS=w224-h298-k-no"
            },
            {
                "about": "Street View & 360deg",
                "link": "https://streetviewpixels-pa.googleapis.com/v1/thumbnail?panoid=s0xZ8Q0h_pAxZNelmk_kTQ&cb_client=maps_sv.tactile.gps&w=224&h=298&yaw=290.26364&pitch=0&thumbfov=100"
            },
            {
                "about": "Videos",
                "link": "https://lh5.googleusercontent.com/p/AF1QipMQVC8jOFdDR1LpDJmhznlZcM408Gw4V3iJgcim=w224-h403-k-no"
            }
        ],
        "link": "https://www.google.com/maps/place/MASJITH+E+BILAL/data=!4m7!3m6!1s0x3bac349f8a10849d:0x87c39b53bf0c7c4c!8m2!3d12.5212232!4d78.2038913!16s%2Fg%2F1tg6nkl4!19sChIJnYQQip80rDsRTHwMv1Obw4c?authuser=0&hl=en&rclk=1",
        "coordinates": {
            "latitude": 12.5212232,
            "longitude": 78.2038913
        }
    },
    {
        "name": "Masjid E Wahab",
        "main_category": "Mosque",
        "address": "G5GX+9WR Masjid E Wahab, Rayakottai Rd, TNHB Second Phase, Wahab Nagar, Krishnagiri, Tamil Nadu 635001",
        "detailed_address": {
            "ward": "TNHB Second Phase, Wahab Nagar",
            "street": "G5GX+9WR, Rayakottai Rd",
            "city": "Krishnagiri",
            "postal_code": "635001",
            "state": "Tamil Nadu",
            "country_code": "IN"
        },
        "images": [
            {
                "about": "All",
                "link": "https://lh5.googleusercontent.com/p/AF1QipMvr2W6ViOrbzXSMUtjae-e9Bd9lQ_sZFW040qe=w224-h398-k-no"
            },
            {
                "about": "Street View & 360deg",
                "link": "https://streetviewpixels-pa.googleapis.com/v1/thumbnail?panoid=eYan5PkYkTpMUR8HpLFBsA&cb_client=maps_sv.tactile.gps&w=224&h=298&yaw=155.34859&pitch=0&thumbfov=100"
            },
            {
                "about": "Videos",
                "link": "https://lh5.googleusercontent.com/p/AF1QipMvr2W6ViOrbzXSMUtjae-e9Bd9lQ_sZFW040qe=w224-h398-k-no"
            }
        ],
        "link": "https://www.google.com/maps/place/Masjid+E+Wahab/data=!4m7!3m6!1s0x3bac335f2fad0115:0x3d40abbfb50ec4cf!8m2!3d12.5259809!4d78.1997561!16s%2Fg%2F1tp25qgs!19sChIJFQGtL18zrDsRz8QOtb-rQD0?authuser=0&hl=en&rclk=1",
        "coordinates": {
            "latitude": 12.525980899999999,
            "longitude": 78.1997561
        }
    },
    {
        "name": "Dowladabad Masjid",
        "main_category": "Mosque",
        "address": "G67C+QH2 Dowladabad Masjid, Salem Rd, New Pet, Krishnagiri, Tamil Nadu 635001",
        "detailed_address": {
            "ward": "New Pet",
            "street": "G67C+QH2, Salem Rd",
            "city": "Krishnagiri",
            "postal_code": "635001",
            "state": "Tamil Nadu",
            "country_code": "IN"
        },
        "images": [
            {
                "about": "All",
                "link": "https://lh5.googleusercontent.com/p/AF1QipMvScZ0ebIZwdN51nQpKyScqNgnoV9JBtD5nUQG=w529-h298-k-no"
            },
            {
                "about": "Street View & 360deg",
                "link": "https://streetviewpixels-pa.googleapis.com/v1/thumbnail?panoid=h_2Qu9iiFj31oU5Kln918w&cb_client=maps_sv.tactile.gps&w=224&h=298&yaw=216.1262&pitch=0&thumbfov=100"
            }
        ],
        "link": "https://www.google.com/maps/place/Dowladabad+Masjid/data=!4m7!3m6!1s0x3bac3493a51146e7:0xee1cab0e911e4637!8m2!3d12.5143985!4d78.2213916!16s%2Fg%2F11fzf7g23j!19sChIJ50YRpZM0rDsRN0YekQ6rHO4?authuser=0&hl=en&rclk=1",
        "coordinates": {
            "latitude": 12.514398499999999,
            "longitude": 78.22139159999999
        }
    },
    {
        "name": "Masjid E Quba",
        "main_category": "Mosque",
        "address": "G6FJ+JX9 Masjid E Quba, Krishnagiri, Tamil Nadu 635001",
        "detailed_address": {
            "ward": null,
            "street": "G6FJ+JX9",
            "city": "Krishnagiri",
            "postal_code": "635001",
            "state": "Tamil Nadu",
            "country_code": "IN"
        },
        "images": [
            {
                "about": "All",
                "link": "https://lh5.googleusercontent.com/p/AF1QipN9EQj8ZgonFgaKJyAPtnJdElk67Y-Y063VPUxG=w224-h298-k-no"
            },
            {
                "about": "Street View & 360deg",
                "link": "https://streetviewpixels-pa.googleapis.com/v1/thumbnail?panoid=1xet0xGL87Ik5Uu34mjJ3A&cb_client=maps_sv.tactile.gps&w=224&h=298&yaw=126.49596&pitch=0&thumbfov=100"
            },
            {
                "about": "Videos",
                "link": "https://lh5.googleusercontent.com/p/AF1QipOQvCWM9ODepKqSrpTL22QYgye755HS1ghs3E5G=w224-h398-k-no"
            }
        ],
        "link": "https://www.google.com/maps/place/Masjid+E+Quba/data=!4m7!3m6!1s0x3bac34c2430a21d1:0xcb14091269e6e63f!8m2!3d12.5240478!4d78.2324911!16s%2Fg%2F11g8dgt_30!19sChIJ0SEKQ8I0rDsRP-bmaRIJFMs?authuser=0&hl=en&rclk=1",
        "coordinates": {
            "latitude": 12.5240478,
            "longitude": 78.23249109999999
        }
    },
    {
        "name": "Abdullah Majid",
        "main_category": "Mosque",
        "address": "G5QV+3PV Abdullah Majid, Krishnagiri, Tamil Nadu 635001",
        "detailed_address": {
            "ward": null,
            "street": "G5QV+3PV",
            "city": "Krishnagiri",
            "postal_code": "635001",
            "state": "Tamil Nadu",
            "country_code": "IN"
        },
        "images": [
            {
                "about": "All",
                "link": "https://lh5.googleusercontent.com/p/AF1QipPFicPQVxgfbRYes3-v_HShpZlHuMJtOJnMyCtZ=w529-h298-k-no"
            },
            {
                "about": "Street View & 360deg",
                "link": "https://streetviewpixels-pa.googleapis.com/v1/thumbnail?panoid=hXQ97-lov4NKAnwXNbIN8A&cb_client=maps_sv.tactile.gps&w=224&h=298&yaw=46.70896&pitch=0&thumbfov=100"
            }
        ],
        "link": "https://www.google.com/maps/place/Abdullah+Majid/data=!4m7!3m6!1s0x3bac3353d8259851:0xfb0b4051c901877a!8m2!3d12.5377292!4d78.1943108!16s%2Fg%2F11c20qfkhq!19sChIJUZgl2FMzrDsReocByVFAC_s?authuser=0&hl=en&rclk=1",
        "coordinates": {
            "latitude": 12.5377292,
            "longitude": 78.1943108
        }
    },
    {
        "name": "Masjid-e-Inamul Hasan",
        "main_category": "Mosque",
        "address": "G6G4+WFJ Masjid-e-Inamul Hasan, Anakodi, Pochampalli, Krishnagiri, Tamil Nadu 635001",
        "detailed_address": {
            "ward": "Anakodi, Pochampalli",
            "street": "G6G4+WFJ",
            "city": "Krishnagiri",
            "postal_code": "635001",
            "state": "Tamil Nadu",
            "country_code": "IN"
        },
        "images": [
            {
                "about": "All",
                "link": "https://lh5.googleusercontent.com/p/AF1QipNK17hX46hOtb95BK55WhwG_n3BB-fReRNa94iV=w397-h298-k-no"
            },
            {
                "about": "Street View & 360deg",
                "link": "https://streetviewpixels-pa.googleapis.com/v1/thumbnail?panoid=nGlyZwz_l2aUbcJrrrEx8A&cb_client=maps_sv.tactile.gps&w=224&h=298&yaw=349.74402&pitch=0&thumbfov=100"
            }
        ],
        "link": "https://www.google.com/maps/place/Masjid-e-Inamul+Hasan/data=!4m7!3m6!1s0x3bac34a6c909c7fb:0xa1c18f10f1526544!8m2!3d12.5273252!4d78.2061434!16s%2Fg%2F11g6jqt17q!19sChIJ-8cJyaY0rDsRRGVS8RCPwaE?authuser=0&hl=en&rclk=1",
        "coordinates": {
            "latitude": 12.5273252,
            "longitude": 78.2061434
        }
    },
    {
        "name": "MASJID E ILYAZ",
        "main_category": "Mosque",
        "address": "G682+QGV MASJID E ILYAZ, MGR Nagar, Krishnagiri, Kathujuganapalli, Tamil Nadu 635001",
        "detailed_address": {
            "ward": "MGR Nagar",
            "street": "G682+QGV",
            "city": "Krishnagiri, Kathujuganapalli",
            "postal_code": "635001",
            "state": "Tamil Nadu",
            "country_code": "IN"
        },
        "images": [
            {
                "about": "All",
                "link": "https://lh5.googleusercontent.com/p/AF1QipOtMX6qWZTrpb_5dY0JU2f70YnW-HKQzKdD6CTL=w409-h298-k-no"
            }
        ],
        "link": "https://www.google.com/maps/place/MASJID+E+ILYAZ/data=!4m7!3m6!1s0x3bac3361c32bda37:0xdee83c98e404f4cf!8m2!3d12.5169792!4d78.2012892!16s%2Fg%2F11g081g7t2!19sChIJN9orw2EzrDsRz_QE5Jg86N4?authuser=0&hl=en&rclk=1",
        "coordinates": {
            "latitude": 12.5169792,
            "longitude": 78.20128919999999
        }
    },
    {
        "name": "Noor Masjid",
        "main_category": "Mosque",
        "address": "Noor Masjid, R.S, Lakshmipuram, Veerappa Nagar, Krishnagiri, Tamil Nadu 635001",
        "detailed_address": {
            "ward": "Veerappa Nagar",
            "street": "R.S, Lakshmipuram",
            "city": "Krishnagiri",
            "postal_code": "635001",
            "state": "Tamil Nadu",
            "country_code": "IN"
        },
        "images": [],
        "link": "https://www.google.com/maps/place/Noor+Masjid/data=!4m7!3m6!1s0x3bac34bc40c7e87f:0x13adf685d5f95dac!8m2!3d12.5256583!4d78.2176137!16s%2Fg%2F11c0rl396_!19sChIJf-jHQLw0rDsRrF351YX2rRM?authuser=0&hl=en&rclk=1",
        "coordinates": {
            "latitude": 12.5256583,
            "longitude": 78.2176137
        }
    },
    {
        "name": "Poora Masjid",
        "main_category": "Mosque",
        "address": "Poora Masjid, 286, Gandhi Road, Old Pet, Krishnagiri, Tamil Nadu 635001",
        "detailed_address": {
            "ward": "Old Pet",
            "street": "286, Gandhi Road",
            "city": "Krishnagiri",
            "postal_code": "635001",
            "state": "Tamil Nadu",
            "country_code": "IN"
        },
        "images": [
            {
                "about": "All",
                "link": "https://lh5.googleusercontent.com/p/AF1QipOstOVxpyGZEqLyv0ic9XouNPA20SfxCNZ4IEF7=w397-h298-k-no"
            },
            {
                "about": "Street View & 360deg",
                "link": "https://streetviewpixels-pa.googleapis.com/v1/thumbnail?panoid=ekb9qmqplIMYeLpwYHMomQ&cb_client=maps_sv.tactile.gps&w=224&h=298&yaw=270.8812&pitch=0&thumbfov=100"
            }
        ],
        "link": "https://www.google.com/maps/place/Poora+Masjid/data=!4m7!3m6!1s0x3bac34ba4febdbc3:0x1c13ea4fbe34829d!8m2!3d12.5319784!4d78.2169706!16s%2Fg%2F11hcyvdqq2!19sChIJw9vrT7o0rDsRnYI0vk_qExw?authuser=0&hl=en&rclk=1",
        "coordinates": {
            "latitude": 12.5319784,
            "longitude": 78.2169706
        }
    },
    {
        "name": "Masjid-e-alaqsa",
        "main_category": "Mosque",
        "address": "G6J5+9H2 Masjid-e-alaqsa, LIG Colony, Londenpet, Krishnagiri, Tamil Nadu 635001",
        "detailed_address": {
            "ward": "LIG Colony, Londenpet",
            "street": "G6J5+9H2",
            "city": "Krishnagiri",
            "postal_code": "635001",
            "state": "Tamil Nadu",
            "country_code": "IN"
        },
        "images": [
            {
                "about": "All",
                "link": "https://lh5.googleusercontent.com/p/AF1QipMPNDTyZkrY5hcmnMniiEZEnyY0qWVlV4ipB3if=w397-h298-k-no"
            },
            {
                "about": "Street View & 360deg",
                "link": "https://streetviewpixels-pa.googleapis.com/v1/thumbnail?panoid=HoaR_iLTHGv4999iJy8YpA&cb_client=maps_sv.tactile.gps&w=224&h=298&yaw=38.05417&pitch=0&thumbfov=100"
            }
        ],
        "link": "https://www.google.com/maps/place/Masjid-e-alaqsa/data=!4m7!3m6!1s0x3bac352c68eb5477:0x3d60d9bd967dff52!8m2!3d12.5308793!4d78.2088931!16s%2Fg%2F11t7hr5cdz!19sChIJd1TraCw1rDsRUv99lr3ZYD0?authuser=0&hl=en&rclk=1",
        "coordinates": {
            "latitude": 12.530879299999999,
            "longitude": 78.2088931
        }
    },
    {
        "name": "TNTJ Markas",
        "main_category": "Mosque",
        "address": "G68F+2WQ TNTJ Markas, New Pet, Krishnagiri, Tamil Nadu 635001",
        "detailed_address": {
            "ward": "New Pet",
            "street": "G68F+2WQ",
            "city": "Krishnagiri",
            "postal_code": "635001",
            "state": "Tamil Nadu",
            "country_code": "IN"
        },
        "images": [
            {
                "about": "All",
                "link": "https://streetviewpixels-pa.googleapis.com/v1/thumbnail?panoid=xbqajgNBFVWY9zAYitlbWw&cb_client=maps_sv.tactile.gps&w=224&h=298&yaw=137.98213&pitch=0&thumbfov=100"
            },
            {
                "about": "Street View & 360deg",
                "link": "https://streetviewpixels-pa.googleapis.com/v1/thumbnail?panoid=xbqajgNBFVWY9zAYitlbWw&cb_client=maps_sv.tactile.gps&w=224&h=298&yaw=137.98213&pitch=0&thumbfov=100"
            }
        ],
        "link": "https://www.google.com/maps/place/TNTJ+Markas/data=!4m7!3m6!1s0x3bac34ecb537d3cd:0x1d6051fef3eec2a4!8m2!3d12.5150956!4d78.2248637!16s%2Fg%2F1q5bn13c8!19sChIJzdM3tew0rDsRpMLu8_5RYB0?authuser=0&hl=en&rclk=1",
        "coordinates": {
            "latitude": 12.515095599999999,
            "longitude": 78.2248637
        }
    },
    {
        "name": "Masjid-e-Muslimeen",
        "main_category": "Mosque",
        "address": "Masjid-e-Muslimeen, #51, R S 635001, Lakshmi Puram Rd, Vilangamudi, Tamil Nadu 635123",
        "detailed_address": {
            "ward": "Veerappa Nagar",
            "street": "#51, R S 635001, Lakshmi Puram Rd",
            "city": "Vilangamudi",
            "postal_code": "635123",
            "state": "Tamil Nadu",
            "country_code": "IN"
        },
        "images": [
            {
                "about": "All",
                "link": "https://lh5.googleusercontent.com/p/AF1QipPOmOzfI1lHQGiJnhzug2HtprBUkf0LMqXMr5kv=w224-h398-k-no"
            }
        ],
        "link": "https://www.google.com/maps/place/Masjid-e-Muslimeen/data=!4m7!3m6!1s0x3bac34bc27148c83:0x14a1e8a12e9258ec!8m2!3d12.525569!4d78.2190333!16s%2Fg%2F11g6jq5l_w!19sChIJg4wUJ7w0rDsR7FiSLqHooRQ?authuser=0&hl=en&rclk=1",
        "coordinates": {
            "latitude": 12.525568999999999,
            "longitude": 78.21903329999999
        }
    },
    {
        "name": "Poora Masjid Eid-Gahh",
        "main_category": "Mosque",
        "address": "G6H4+W7P Poora Masjid Eid-Gahh, Anakodi, Wahab Nagar, Krishnagiri, Tamil Nadu 635001",
        "detailed_address": {
            "ward": "Anakodi, Wahab Nagar",
            "street": "G6H4+W7P",
            "city": "Krishnagiri",
            "postal_code": "635001",
            "state": "Tamil Nadu",
            "country_code": "IN"
        },
        "images": [
            {
                "about": "All",
                "link": "https://streetviewpixels-pa.googleapis.com/v1/thumbnail?panoid=jr7SxlWNub__sf4FNM0lig&cb_client=maps_sv.tactile.gps&w=224&h=298&yaw=224.23523&pitch=0&thumbfov=100"
            },
            {
                "about": "Street View & 360deg",
                "link": "https://streetviewpixels-pa.googleapis.com/v1/thumbnail?panoid=jr7SxlWNub__sf4FNM0lig&cb_client=maps_sv.tactile.gps&w=224&h=298&yaw=224.23523&pitch=0&thumbfov=100"
            }
        ],
        "link": "https://www.google.com/maps/place/Poora+Masjid+Eid-Gahh/data=!4m7!3m6!1s0x3bac34a6584ba0c3:0xfa951c0bb963398d!8m2!3d12.529832!4d78.2057047!16s%2Fg%2F1tc_zy1p!19sChIJw6BLWKY0rDsRjTljuQsclfo?authuser=0&hl=en&rclk=1",
        "coordinates": {
            "latitude": 12.529831999999999,
            "longitude": 78.2057047
        }
    },
    {
        "name": "Masjid-E-Usman",
        "main_category": "Mosque",
        "address": "G66F+Q34 Masjid-E-Usman, Dr Ambedkar Nagar Rd, New Pet, Krishnagiri, Tamil Nadu 635001",
        "detailed_address": {
            "ward": "New Pet",
            "street": "G66F+Q34, Dr Ambedkar Nagar Rd",
            "city": "Krishnagiri",
            "postal_code": "635001",
            "state": "Tamil Nadu",
            "country_code": "IN"
        },
        "images": [],
        "link": "https://www.google.com/maps/place/Masjid-E-Usman/data=!4m7!3m6!1s0x3bac35eb21b25337:0xe3c614749520f184!8m2!3d12.511885!4d78.2227059!16s%2Fg%2F11rwsrb45b!19sChIJN1OyIes1rDsRhPEglXQUxuM?authuser=0&hl=en&rclk=1",
        "coordinates": {
            "latitude": 12.511885,
            "longitude": 78.2227059
        }
    },
    {
        "name": "Masjid e Umar",
        "main_category": "Mosque",
        "address": "G6G6+2JR Masjid e Umar, Gandhi Nagar, Krishnagiri, Tamil Nadu 635002",
        "detailed_address": {
            "ward": "Gandhi Nagar",
            "street": "G6G6+2JR",
            "city": "Krishnagiri",
            "postal_code": "635002",
            "state": "Tamil Nadu",
            "country_code": "IN"
        },
        "images": [
            {
                "about": "All",
                "link": "https://lh5.googleusercontent.com/p/AF1QipMA5dHv3wlNGAYKUFipdJ4v3WYC0g6mG4fpJndE=w224-h298-k-no"
            },
            {
                "about": "Street View & 360deg",
                "link": "https://streetviewpixels-pa.googleapis.com/v1/thumbnail?panoid=mnPWh7658fllNs_7EGkhLw&cb_client=maps_sv.tactile.gps&w=224&h=298&yaw=287.97696&pitch=0&thumbfov=100"
            }
        ],
        "link": "https://www.google.com/maps/place/Masjid+e+Umar/data=!4m7!3m6!1s0x3bac35276d461f6d:0xa1cde2b2aeb830a4!8m2!3d12.5251109!4d78.211519!16s%2Fg%2F11hzlqqdwg!19sChIJbR9GbSc1rDsRpDC4rrLizaE?authuser=0&hl=en&rclk=1",
        "coordinates": {
            "latitude": 12.5251109,
            "longitude": 78.211519
        }
    },
    {
        "name": "Eid-Gaah",
        "main_category": "Mosque",
        "address": "G6M3+H7J Eid-Gaah, Chennekothapalli Rd, Wahab Nagar, Krishnagiri, Tamil Nadu 635001",
        "detailed_address": {
            "ward": "Wahab Nagar",
            "street": "G6M3+H7J, Chennekothapalli Rd",
            "city": "Krishnagiri",
            "postal_code": "635001",
            "state": "Tamil Nadu",
            "country_code": "IN"
        },
        "images": [
            {
                "about": "All",
                "link": "https://lh5.googleusercontent.com/p/AF1QipMzUcapM9tEF6s249XL5pVdy-074YJeXLKGurVK=w397-h298-k-no"
            },
            {
                "about": "Street View & 360deg",
                "link": "https://streetviewpixels-pa.googleapis.com/v1/thumbnail?panoid=BYfstrJIhVM3zYwcDVJHEQ&cb_client=maps_sv.tactile.gps&w=224&h=298&yaw=221.6494&pitch=0&thumbfov=100"
            }
        ],
        "link": "https://www.google.com/maps/place/Eid-Gaah/data=!4m7!3m6!1s0x3bac34a83e616983:0xf321e48bfffc34ab!8m2!3d12.5339594!4d78.2031321!16s%2Fg%2F11c5g5qc3k!19sChIJg2lhPqg0rDsRqzT8_4vkIfM?authuser=0&hl=en&rclk=1",
        "coordinates": {
            "latitude": 12.533959399999999,
            "longitude": 78.20313209999999
        }
    },
    {
        "name": "MASJID-E-AWAD-AL-FARES",
        "main_category": "Mosque",
        "address": "G5C8+8MH MASJID-E-AWAD-AL-FARES, Krishnagiri, Tamil Nadu 635115",
        "detailed_address": {
            "ward": null,
            "street": "G5C8+8MH",
            "city": "Krishnagiri",
            "postal_code": null,
            "state": "Tamil Nadu",
            "country_code": "IN"
        },
        "images": [
            {
                "about": "All",
                "link": "https://lh5.googleusercontent.com/p/AF1QipO7rUnHXVRpUobXkJSUja1Vt8CGxT2iJpoeXcQt=w224-h398-k-no"
            },
            {
                "about": "Videos",
                "link": "https://lh5.googleusercontent.com/p/AF1QipO7rUnHXVRpUobXkJSUja1Vt8CGxT2iJpoeXcQt=w224-h398-k-no"
            }
        ],
        "link": "https://www.google.com/maps/place/MASJID-E-AWAD-AL-FARES/data=!4m7!3m6!1s0x3bac33af99b41195:0x256ecbf60ca6c3b3!8m2!3d12.5208142!4d78.1667479!16s%2Fg%2F11fqsf_2qk!19sChIJlRG0ma8zrDsRs8OmDPbLbiU?authuser=0&hl=en&rclk=1",
        "coordinates": {
            "latitude": 12.5208142,
            "longitude": 78.16674789999999
        }
    },
    {
        "name": "macca mosque",
        "main_category": "Mosque",
        "address": "G6J2+JV5 macca mosque, Rajaji Nagar, Wahab Nagar, Pochampalli, Tamil Nadu 635001",
        "detailed_address": {
            "ward": "Rajaji Nagar, Wahab Nagar",
            "street": "G6J2+JV5",
            "city": "Pochampalli",
            "postal_code": null,
            "state": "Tamil Nadu",
            "country_code": "IN"
        },
        "images": [
            {
                "about": "All",
                "link": "https://streetviewpixels-pa.googleapis.com/v1/thumbnail?panoid=jMIoafEXr0YqAQMuj7doPg&cb_client=maps_sv.tactile.gps&w=224&h=298&yaw=101.64206&pitch=0&thumbfov=100"
            },
            {
                "about": "Street View & 360deg",
                "link": "https://streetviewpixels-pa.googleapis.com/v1/thumbnail?panoid=jMIoafEXr0YqAQMuj7doPg&cb_client=maps_sv.tactile.gps&w=224&h=298&yaw=101.64206&pitch=0&thumbfov=100"
            }
        ],
        "link": "https://www.google.com/maps/place/macca+mosque/data=!4m7!3m6!1s0x3bac3519253669f9:0x70415df1d4e31f66!8m2!3d12.5315238!4d78.2022359!16s%2Fg%2F11f7b_dly6!19sChIJ-Wk2JRk1rDsRZh_j1PFdQXA?authuser=0&hl=en&rclk=1",
        "coordinates": {
            "latitude": 12.531523799999999,
            "longitude": 78.20223589999999
        }
    },
    {
        "name": "MASJITH-A-RAHAMTHUNISA",
        "main_category": "Mosque",
        "address": "G6JC+M39 MASJITH-A-RAHAMTHUNISA, Old Pet, Krishnagiri, Tamil Nadu 635001",
        "detailed_address": {
            "ward": "Old Pet",
            "street": "G6JC+M39",
            "city": "Krishnagiri",
            "postal_code": "635001",
            "state": "Tamil Nadu",
            "country_code": "IN"
        },
        "images": [
            {
                "about": "All",
                "link": "https://lh5.googleusercontent.com/p/AF1QipOZT_HGUWhBbcaFKy9qY7zcQjZWVCPDeqCGkw55=w397-h298-k-no"
            },
            {
                "about": "Street View & 360deg",
                "link": "https://streetviewpixels-pa.googleapis.com/v1/thumbnail?panoid=fTWJ_xYLsJPRbk55NL31zQ&cb_client=maps_sv.tactile.gps&w=224&h=298&yaw=340.13007&pitch=0&thumbfov=100"
            }
        ],
        "link": "https://www.google.com/maps/place/MASJITH-A-RAHAMTHUNISA/data=!4m7!3m6!1s0x3bac3516ba077ebb:0xf5cda13f9427145c!8m2!3d12.5316663!4d78.2202339!16s%2Fg%2F11h1jglhl_!19sChIJu34HuhY1rDsRXBQnlD-hzfU?authuser=0&hl=en&rclk=1",
        "coordinates": {
            "latitude": 12.5316663,
            "longitude": 78.2202339
        }
    },
    {
        "name": "Banakara poora masjid",
        "main_category": "Mosque",
        "address": "G67G+WC4 Banakara poora masjid, Rasiveethi Rd, New Pet, Krishnagiri, Tamil Nadu 635001",
        "detailed_address": {
            "ward": "New Pet",
            "street": "G67G+WC4, Rasiveethi Rd",
            "city": "Krishnagiri",
            "postal_code": "635001",
            "state": "Tamil Nadu",
            "country_code": "IN"
        },
        "images": [
            {
                "about": "All",
                "link": "https://lh5.googleusercontent.com/p/AF1QipOMC5cowcaenURbcx436wcTZzsgzJpDGKfog31h=w224-h298-k-no"
            },
            {
                "about": "Street View & 360deg",
                "link": "https://streetviewpixels-pa.googleapis.com/v1/thumbnail?panoid=wGmxh-Z9Y6_VrZap5MXXbQ&cb_client=maps_sv.tactile.gps&w=224&h=298&yaw=42.789207&pitch=0&thumbfov=100"
            }
        ],
        "link": "https://www.google.com/maps/place/Banakara+poora+masjid/data=!4m7!3m6!1s0x3bac35414082e243:0x5d811d8408093a3d!8m2!3d12.5147744!4d78.2260723!16s%2Fg%2F11h7prf5gl!19sChIJQ-KCQEE1rDsRPToJCIQdgV0?authuser=0&hl=en&rclk=1",
        "coordinates": {
            "latitude": 12.5147744,
            "longitude": 78.2260723
        }
    },
    {
        "name": "Masjid e Shahi",
        "main_category": "Mosque",
        "address": "Masjid e Shahi, Shahi Masjid, 478, Nethaji Rd, Kottai, Old Pet, Krishnagiri, Tamil Nadu 635001",
        "detailed_address": {
            "ward": "Kottai, Old Pet",
            "street": "Shahi Masjid, 478, Nethaji Rd",
            "city": "Krishnagiri",
            "postal_code": "635001",
            "state": "Tamil Nadu",
            "country_code": "IN"
        },
        "images": [
            {
                "about": "All",
                "link": "https://streetviewpixels-pa.googleapis.com/v1/thumbnail?panoid=cjkoV25IBq9DCk1iW3sw4g&cb_client=maps_sv.tactile.gps&w=224&h=298&yaw=12.225236&pitch=0&thumbfov=100"
            },
            {
                "about": "Street View & 360deg",
                "link": "https://streetviewpixels-pa.googleapis.com/v1/thumbnail?panoid=cjkoV25IBq9DCk1iW3sw4g&cb_client=maps_sv.tactile.gps&w=224&h=298&yaw=12.225236&pitch=0&thumbfov=100"
            }
        ],
        "link": "https://www.google.com/maps/place/Masjid+e+Shahi/data=!4m7!3m6!1s0x3bac354035d4dfd1:0x33773bd61a15d977!8m2!3d12.5336388!4d78.2131198!16s%2Fg%2F11t3fq5nqw!19sChIJ0d_UNUA1rDsRd9kVGtY7dzM?authuser=0&hl=en&rclk=1",
        "coordinates": {
            "latitude": 12.5336388,
            "longitude": 78.2131198
        }
    },
    {
        "name": "AL-MAKKA MASJID",
        "main_category": "Mosque",
        "address": "G638+F8 AL-MAKKA MASJID, Agraharam, Krishnagiri, Tamil Nadu 635101",
        "detailed_address": {
            "ward": "Agraharam",
            "street": "G638+F8",
            "city": "Krishnagiri",
            "postal_code": "635101",
            "state": "Tamil Nadu",
            "country_code": "IN"
        },
        "images": [
            {
                "about": "All",
                "link": "https://lh5.googleusercontent.com/p/AF1QipM4meha8iTn6OqkrGYdWoYrR9tPTfOgt9AHoAxn=w224-h398-k-no"
            }
        ],
        "link": "https://www.google.com/maps/place/AL-MAKKA+MASJID/data=!4m7!3m6!1s0x3bac354e313f465f:0x33b852d13d9902a0!8m2!3d12.5036843!4d78.2157953!16s%2Fg%2F11sxbywhr8!19sChIJX0Y_MU41rDsRoAKZPdFSuDM?authuser=0&hl=en&rclk=1",
        "coordinates": {
            "latitude": 12.5036843,
            "longitude": 78.2157953
        }
    },
    {
        "name": "MASJID",
        "main_category": "Mosque",
        "address": "G5G8+92Q MASJID, Krishnagiri, Tamil Nadu 635115",
        "detailed_address": {
            "ward": null,
            "street": "G5G8+92Q",
            "city": "Krishnagiri",
            "postal_code": null,
            "state": "Tamil Nadu",
            "country_code": "IN"
        },
        "images": [
            {
                "about": "All",
                "link": "https://lh5.googleusercontent.com/p/AF1QipOi37w6x_7ps4oLK5AaPQpygsBNfwV1iJ9uq0RO=w662-h298-k-no"
            }
        ],
        "link": "https://www.google.com/maps/place/MASJID/data=!4m7!3m6!1s0x3bac33b4a8a8987d:0x4c51731d4b0c33d7!8m2!3d12.5259631!4d78.1651121!16s%2Fg%2F11pzfjhr6z!19sChIJfZioqLQzrDsR1zMMSx1zUUw?authuser=0&hl=en&rclk=1",
        "coordinates": {
            "latitude": 12.5259631,
            "longitude": 78.1651121
        }
    },
    {
        "name": "Masjid-e-Ilahi Mohasin",
        "main_category": "Mosque",
        "address": "G6H7+RCG Masjid-e-Ilahi Mohasin, TB Link Rd, LIG Colony, Old Pet, Krishnagiri, Tamil Nadu 635001",
        "detailed_address": {
            "ward": "LIG Colony, Old Pet",
            "street": "G6H7+RCG, TB Link Rd",
            "city": "Krishnagiri",
            "postal_code": "635001",
            "state": "Tamil Nadu",
            "country_code": "IN"
        },
        "images": [
            {
                "about": "All",
                "link": "https://streetviewpixels-pa.googleapis.com/v1/thumbnail?panoid=S0Vl4q25y3BQ8jh9HZYyWQ&cb_client=maps_sv.tactile.gps&w=224&h=298&yaw=267.35&pitch=0&thumbfov=100"
            },
            {
                "about": "Street View & 360deg",
                "link": "https://streetviewpixels-pa.googleapis.com/v1/thumbnail?panoid=S0Vl4q25y3BQ8jh9HZYyWQ&cb_client=maps_sv.tactile.gps&w=224&h=298&yaw=267.35&pitch=0&thumbfov=100"
            }
        ],
        "link": "https://www.google.com/maps/place/Masjid-e-Ilahi+Mohasin/data=!4m7!3m6!1s0x3bac34bb2cf6aaab:0x55d72bf5b91f296d!8m2!3d12.5295532!4d78.2135904!16s%2Fg%2F11tgg7mwl8!19sChIJq6r2LLs0rDsRbSkfufUr11U?authuser=0&hl=en&rclk=1",
        "coordinates": {
            "latitude": 12.529553199999999,
            "longitude": 78.2135904
        }
    },
    {
        "name": "Madina Masjid",
        "main_category": "Mosque",
        "address": "G6GC+G52 Madina Masjid, Gandhi Road, Papparapatti, Krishnagiri, Tamil Nadu 635001",
        "detailed_address": {
            "ward": "Papparapatti",
            "street": "G6GC+G52, Gandhi Road",
            "city": "Krishnagiri",
            "postal_code": "635001",
            "state": "Tamil Nadu",
            "country_code": "IN"
        },
        "images": [
            {
                "about": "All",
                "link": "https://streetviewpixels-pa.googleapis.com/v1/thumbnail?panoid=VyfdYOOImfiINsWJ-vLAxg&cb_client=maps_sv.tactile.gps&w=224&h=298&yaw=74.895035&pitch=0&thumbfov=100"
            },
            {
                "about": "Street View & 360deg",
                "link": "https://streetviewpixels-pa.googleapis.com/v1/thumbnail?panoid=VyfdYOOImfiINsWJ-vLAxg&cb_client=maps_sv.tactile.gps&w=224&h=298&yaw=74.895035&pitch=0&thumbfov=100"
            }
        ],
        "link": "https://www.google.com/maps/place/Madina+Masjid/data=!4m7!3m6!1s0x3bac34bebf000001:0x341d79dd78db1e13!8m2!3d12.5262623!4d78.2203783!16s%2Fg%2F11kj3f2049!19sChIJAQAAv740rDsREx7beN15HTQ?authuser=0&hl=en&rclk=1",
        "coordinates": {
            "latitude": 12.526262299999999,
            "longitude": 78.2203783
        }
    },
    {
        "name": "Masjid e EIGA",
        "main_category": "Mosque",
        "address": "G688+3V Masjid e EIGA, Thiruvalluvar Nagar, Krishnagiri, Tamil Nadu 635001",
        "detailed_address": {
            "ward": "Thiruvalluvar Nagar",
            "street": "G688+3V",
            "city": "Krishnagiri",
            "postal_code": "635001",
            "state": "Tamil Nadu",
            "country_code": "IN"
        },
        "images": [
            {
                "about": "All",
                "link": "https://streetviewpixels-pa.googleapis.com/v1/thumbnail?panoid=5s3hhhiCEq0x07YsWRylVA&cb_client=maps_sv.tactile.gps&w=224&h=298&yaw=295.3899&pitch=0&thumbfov=100"
            },
            {
                "about": "Street View & 360deg",
                "link": "https://streetviewpixels-pa.googleapis.com/v1/thumbnail?panoid=5s3hhhiCEq0x07YsWRylVA&cb_client=maps_sv.tactile.gps&w=224&h=298&yaw=295.3899&pitch=0&thumbfov=100"
            }
        ],
        "link": "https://www.google.com/maps/place/Masjid+e+EIGA/data=!4m7!3m6!1s0x3bac35d9a1451939:0xbf331ef215d1f3fc!8m2!3d12.5151869!4d78.2172049!16s%2Fg%2F11sgbtr857!19sChIJORlFodk1rDsR_PPRFfIeM78?authuser=0&hl=en&rclk=1",
        "coordinates": {
            "latitude": 12.5151869,
            "longitude": 78.2172049
        }
    },
    {
        "name": "masjid",
        "main_category": "Mosque",
        "address": "G66G+4H masjid, Thiruvalluvar Nagar, Krishnagiri, Tamil Nadu 635001",
        "detailed_address": {
            "ward": "Thiruvalluvar Nagar",
            "street": "G66G+4H",
            "city": "Krishnagiri",
            "postal_code": "635001",
            "state": "Tamil Nadu",
            "country_code": "IN"
        },
        "images": [
            {
                "about": "All",
                "link": "https://streetviewpixels-pa.googleapis.com/v1/thumbnail?panoid=f9_POEvEtFJf3ZeUqV1UMQ&cb_client=maps_sv.tactile.gps&w=224&h=298&yaw=3.5871248&pitch=0&thumbfov=100"
            },
            {
                "about": "Street View & 360deg",
                "link": "https://streetviewpixels-pa.googleapis.com/v1/thumbnail?panoid=f9_POEvEtFJf3ZeUqV1UMQ&cb_client=maps_sv.tactile.gps&w=224&h=298&yaw=3.5871248&pitch=0&thumbfov=100"
            }
        ],
        "link": "https://www.google.com/maps/place/masjid/data=!4m7!3m6!1s0x3bac35fb701d463f:0xe191145d09fd56b9!8m2!3d12.5102671!4d78.2263597!16s%2Fg%2F11v9kml008!19sChIJP0YdcPs1rDsRuVb9CV0UkeE?authuser=0&hl=en&rclk=1",
        "coordinates": {
            "latitude": 12.5102671,
            "longitude": 78.2263597
        }
    },
    {
        "name": "Masjid-e-Aqsa",
        "main_category": "Funeral home",
        "address": "Masjid-e-Aqsa, London pet, 91, Rayakottai Rd, Londenpet, Krishnagiri, Tamil Nadu 635002",
        "detailed_address": {
            "ward": "Londenpet",
            "street": "London pet, 91, Rayakottai Rd",
            "city": "Krishnagiri",
            "postal_code": null,
            "state": "Tamil Nadu",
            "country_code": "IN"
        },
        "images": [
            {
                "about": "All",
                "link": "https://lh5.googleusercontent.com/p/AF1QipOUCWZn920inhGD4IgHV6uk8sqX1AIE4kfPvkt1=w397-h298-k-no"
            },
            {
                "about": "Street View & 360deg",
                "link": "https://streetviewpixels-pa.googleapis.com/v1/thumbnail?panoid=TQ9fUKcdqXJhRChwofIJ1g&cb_client=maps_sv.tactile.gps&w=224&h=298&yaw=28.009457&pitch=0&thumbfov=100"
            }
        ],
        "link": "https://www.google.com/maps/place/Masjid-e-Aqsa/data=!4m7!3m6!1s0x3bac350c3567bc6b:0xe5164fc983270af5!8m2!3d12.5298867!4d78.2067179!16s%2Fg%2F11q9mlpypv!19sChIJa7xnNQw1rDsR9Qong8lPFuU?authuser=0&hl=en&rclk=1",
        "coordinates": {
            "latitude": 12.529886699999999,
            "longitude": 78.2067179
        }
    }
]