[
    {
        "name": "Masjid Bakhtiyarpur Bajar",
        "main_category": "Mosque",
        "address": "FG5J+7RH Masjid Bakhtiyarpur Bajar, Sangat, Bakhtiarpur, Bihar 803212",
        "detailed_address": {
            "ward": "Sangat",
            "street": "FG5J+7RH",
            "city": "Bakhtiarpur",
            "postal_code": "803212",
            "state": "Bihar",
            "country_code": "IN"
        },
        "images": [
            {
                "about": "All",
                "link": "https://lh5.googleusercontent.com/p/AF1QipNzmUOqhxeC1Wsm8Z3gajkbLwKl_hUUgK4YQLjr=w529-h298-k-no"
            }
        ],
        "link": "https://www.google.com/maps/place/Masjid+Bakhtiyarpur+Bajar/data=!4m7!3m6!1s0x39f28688cf83e651:0xa95b5f1f82ce2666!8m2!3d25.4581994!4d85.5321093!16s%2Fg%2F11gffcn3mc!19sChIJUeaDz4iG8jkRZibOgh9fW6k?authuser=0&hl=en&rclk=1",
        "coordinates": {
            "latitude": 25.458199399999998,
            "longitude": 85.5321093
        }
    },
    {
        "name": "Rawaich Masjid",
        "main_category": "Mosque",
        "address": "FG7G+69F Rawaich Masjid, Rawaich, Bakhtiarpur, Satbhaiya Ram Nagar, Bihar 803212",
        "detailed_address": {
            "ward": "Rawaich",
            "street": "FG7G+69F",
            "city": "Bakhtiarpur, Satbhaiya Ram Nagar",
            "postal_code": "803212",
            "state": "Bihar",
            "country_code": "IN"
        },
        "images": [
            {
                "about": "All",
                "link": "https://lh5.googleusercontent.com/p/AF1QipMZnWY4JlVAICPWwuR1dSi6qCcprMUbI_nGMA4n=w645-h298-k-no"
            },
            {
                "about": "Street View & 360deg",
                "link": "https://streetviewpixels-pa.googleapis.com/v1/thumbnail?panoid=MQFWrwadxs6H872IRoSybA&cb_client=maps_sv.tactile.gps&w=224&h=298&yaw=45.268417&pitch=0&thumbfov=100"
            },
            {
                "about": "Videos",
                "link": "https://lh5.googleusercontent.com/p/AF1QipOg4mSr1HqcrIlVmDNmf9fovTGgbnC_GUkankUV=w224-h398-k-no"
            }
        ],
        "link": "https://www.google.com/maps/place/Rawaich+Masjid/data=!4m7!3m6!1s0x39f2868497a2cba5:0x6203448a26edab72!8m2!3d25.4630523!4d85.5259086!16s%2Fg%2F11f3sggly8!19sChIJpcuil4SG8jkRcqvtJopEA2I?authuser=0&hl=en&rclk=1",
        "coordinates": {
            "latitude": 25.463052299999998,
            "longitude": 85.5259086
        }
    },
    {
        "name": "Masjid Naya Tola",
        "main_category": "Mosque",
        "address": "FG4Q+M5M Masjid Naya Tola, Naya Tola Madhopur, Bakhtiarpur, Bihar 803212",
        "detailed_address": {
            "ward": "Naya Tola Madhopur",
            "street": "FG4Q+M5M",
            "city": "Bakhtiarpur",
            "postal_code": "803212",
            "state": "Bihar",
            "country_code": "IN"
        },
        "images": [
            {
                "about": "All",
                "link": "https://lh5.googleusercontent.com/p/AF1QipOCoYpHkp33_9FG1T99JWY6oBIK4tJ6t_XQ7CB0=w397-h298-k-no"
            }
        ],
        "link": "https://www.google.com/maps/place/Masjid+Naya+Tola/data=!4m7!3m6!1s0x39f2868ba849b4bd:0x26ff43118c785f2e!8m2!3d25.4567036!4d85.5379346!16s%2Fg%2F11hblbn04r!19sChIJvbRJqIuG8jkRLl94jBFD_yY?authuser=0&hl=en&rclk=1",
        "coordinates": {
            "latitude": 25.456703599999997,
            "longitude": 85.5379346
        }
    },
    {
        "name": "Jama Masjid",
        "main_category": "Place of worship",
        "address": "FG3Q+VMR Jama Masjid, Mogalpura bigha, Bakhtiarpur, Bihar 803202",
        "detailed_address": {
            "ward": null,
            "street": "FG3Q+VMR, Mogalpura bigha",
            "city": "Bakhtiarpur",
            "postal_code": "803202",
            "state": "Bihar",
            "country_code": "IN"
        },
        "images": [
            {
                "about": "All",
                "link": "https://streetviewpixels-pa.googleapis.com/v1/thumbnail?panoid=OFDZU8E23d0FndrL-wSHKA&cb_client=maps_sv.tactile.gps&w=224&h=298&yaw=181.38098&pitch=0&thumbfov=100"
            },
            {
                "about": "Street View & 360deg",
                "link": "https://streetviewpixels-pa.googleapis.com/v1/thumbnail?panoid=OFDZU8E23d0FndrL-wSHKA&cb_client=maps_sv.tactile.gps&w=224&h=298&yaw=181.38098&pitch=0&thumbfov=100"
            }
        ],
        "link": "https://www.google.com/maps/place/Jama+Masjid/data=!4m7!3m6!1s0x39f2876463151d6f:0x7a13c86e6eb16243!8m2!3d25.4547359!4d85.539154!16s%2Fg%2F11lfgp_7mz!19sChIJbx0VY2SH8jkRQ2Kxbm7IE3o?authuser=0&hl=en&rclk=1",
        "coordinates": {
            "latitude": 25.4547359,
            "longitude": 85.539154
        }
    }
]