[
    {
        "name": "jama masjid",
        "main_category": "Mosque",
        "address": "H87G+989 jama masjid, Lalsot, Rajasthan 303503",
        "detailed_address": {
            "ward": null,
            "street": "H87G+989",
            "city": "Lalsot",
            "postal_code": "303503",
            "state": "Rajasthan",
            "country_code": "IN"
        },
        "images": [
            {
                "about": "All",
                "link": "https://lh5.googleusercontent.com/p/AF1QipM43xiSCiWBDDOkjmIbY5hTQ51KI9ewwUuYJeSG=w224-h477-k-no"
            },
            {
                "about": "Videos",
                "link": "https://lh5.googleusercontent.com/p/AF1QipM_u2YRBKLXvFyJ7ZIsYDSZZfA75KIlYgH323Xo=w529-h298-k-no"
            }
        ],
        "link": "https://www.google.com/maps/place/jama+masjid/data=!4m7!3m6!1s0x396dfc510b3d8339:0xa9d7653702101401!8m2!3d26.5634041!4d76.3258607!16s%2Fg%2F11c2j56qf7!19sChIJOYM9C1H8bTkRARQQAjdl16k?authuser=0&hl=en&rclk=1",
        "coordinates": {
            "latitude": 26.5634041,
            "longitude": 76.32586069999999
        }
    },
    {
        "name": "EidGah Masjid",
        "main_category": "Mosque",
        "address": "EidGah Masjid, Lalsot, Rajasthan 303503",
        "detailed_address": {
            "ward": null,
            "street": null,
            "city": "Lalsot",
            "postal_code": "303503",
            "state": "Rajasthan",
            "country_code": "IN"
        },
        "images": [
            {
                "about": "All",
                "link": "https://lh5.googleusercontent.com/p/AF1QipOZ9VfCkmqEEYrDed_lua11LK0sGFKM-awAGx2D=w224-h398-k-no"
            },
            {
                "about": "By owner",
                "link": "https://lh5.googleusercontent.com/p/AF1QipNUo92e58fQZoTNbA4Qi39wqRqABbJI6f5ESwMv=w397-h298-k-no"
            }
        ],
        "link": "https://www.google.com/maps/place/EidGah+Masjid/data=!4m7!3m6!1s0x396dfd949b0702b1:0x321d7b5181829caa!8m2!3d26.559049!4d76.3198104!16s%2Fg%2F11rc410n3c!19sChIJsQIHm5T9bTkRqpyCgVF7HTI?authuser=0&hl=en&rclk=1",
        "coordinates": {
            "latitude": 26.559048999999998,
            "longitude": 76.3198104
        }
    },
    {
        "name": "Masjid-a-Auliya",
        "main_category": "Mosque",
        "address": "H8FH+C86 Masjid-a-Auliya, Lalsot, Rajasthan 303503",
        "detailed_address": {
            "ward": null,
            "street": "H8FH+C86",
            "city": "Lalsot",
            "postal_code": "303503",
            "state": "Rajasthan",
            "country_code": "IN"
        },
        "images": [
            {
                "about": "All",
                "link": "https://streetviewpixels-pa.googleapis.com/v1/thumbnail?panoid=Ntj-E14LuomC0pviBT8DZQ&cb_client=maps_sv.tactile.gps&w=224&h=298&yaw=259.9394&pitch=0&thumbfov=100"
            },
            {
                "about": "Street View & 360deg",
                "link": "https://streetviewpixels-pa.googleapis.com/v1/thumbnail?panoid=Ntj-E14LuomC0pviBT8DZQ&cb_client=maps_sv.tactile.gps&w=224&h=298&yaw=259.9394&pitch=0&thumbfov=100"
            }
        ],
        "link": "https://www.google.com/maps/place/Masjid-a-Auliya/data=!4m7!3m6!1s0x396dfdfe3f33830f:0x53d0ec0aeff326bd!8m2!3d26.5735434!4d76.3282749!16s%2Fg%2F11k3gjmy1s!19sChIJD4MzP_79bTkRvSbz7wrs0FM?authuser=0&hl=en&rclk=1",
        "coordinates": {
            "latitude": 26.5735434,
            "longitude": 76.3282749
        }
    },
    {
        "name": "Masjid-a-Aaysha",
        "main_category": "Mosque",
        "address": "H88H+6GX Masjid-a-Aaysha, Lalsot, Rajasthan 303503",
        "detailed_address": {
            "ward": null,
            "street": "H88H+6GX",
            "city": "Lalsot",
            "postal_code": "303503",
            "state": "Rajasthan",
            "country_code": "IN"
        },
        "images": [],
        "link": "https://www.google.com/maps/place/Masjid-a-Aaysha/data=!4m7!3m6!1s0x396dfdc6fef3af09:0x910a866ea395018a!8m2!3d26.5656155!4d76.3288532!16s%2Fg%2F11k3gjhp94!19sChIJCa_z_sb9bTkRigGVo26GCpE?authuser=0&hl=en&rclk=1",
        "coordinates": {
            "latitude": 26.5656155,
            "longitude": 76.3288532
        }
    }
]