[
    {
        "name": "jama masjid",
        "main_category": "Computer networking service",
        "address": "3XX4+JRW jama masjid, Dharamganj Rd, Dharamganj, Kishanganj, Bihar 733208",
        "detailed_address": {
            "ward": "Dharamganj",
            "street": "3XX4+JRW, Dharamganj Rd",
            "city": "Kishanganj",
            "postal_code": "733208",
            "state": "Bihar",
            "country_code": "IN"
        },
        "images": [
            {
                "about": "All",
                "link": "https://streetviewpixels-pa.googleapis.com/v1/thumbnail?panoid=MHbwEIbdWqhBgB9MAaHwLw&cb_client=maps_sv.tactile.gps&w=224&h=298&yaw=235.96584&pitch=0&thumbfov=100"
            },
            {
                "about": "Street View & 360deg",
                "link": "https://streetviewpixels-pa.googleapis.com/v1/thumbnail?panoid=MHbwEIbdWqhBgB9MAaHwLw&cb_client=maps_sv.tactile.gps&w=224&h=298&yaw=235.96584&pitch=0&thumbfov=100"
            }
        ],
        "link": "https://www.google.com/maps/place/jama+masjid/data=!4m7!3m6!1s0x39e516c1ec6de797:0xafb9afe7618e193d!8m2!3d26.0991046!4d87.9570931!16s%2Fg%2F11dxr0d8x9!19sChIJl-dt7MEW5TkRPRmOYeevua8?authuser=0&hl=en&rclk=1",
        "coordinates": {
            "latitude": 26.0991046,
            "longitude": 87.9570931
        }
    },
    {
        "name": "Qadam Rasool",
        "main_category": "Mosque",
        "address": "Qadam Rasool, Purana Khagra, Bihar 855107",
        "detailed_address": {
            "ward": null,
            "street": "Qadam Rasool, Purana Khagra",
            "city": "Kishanganj",
            "postal_code": "855107",
            "state": "Bihar",
            "country_code": "IN"
        },
        "images": [
            {
                "about": "All",
                "link": "https://lh5.googleusercontent.com/p/AF1QipNS9dDM78GqyjBySAHOEfYUJxJfHZJBxAElnZQb=w397-h298-k-no"
            },
            {
                "about": "Street View & 360deg",
                "link": "https://streetviewpixels-pa.googleapis.com/v1/thumbnail?panoid=LRyFZQ07n3MTwy2xACaAIw&cb_client=maps_sv.tactile.gps&w=224&h=298&yaw=272.12128&pitch=0&thumbfov=100"
            },
            {
                "about": "Videos",
                "link": "https://lh5.googleusercontent.com/p/AF1QipMUpIXXyMb2IIuP3BoNQ5WlQOwsZZ7vb_PKNmlp=w529-h298-k-no"
            }
        ],
        "link": "https://www.google.com/maps/place/Qadam+Rasool/data=!4m7!3m6!1s0x39e5142299419639:0x3e4e0cf51a8345a0!8m2!3d26.0970064!4d87.925145!16s%2Fg%2F11gmc86z43!19sChIJOZZBmSIU5TkRoEWDGvUMTj4?authuser=0&hl=en&rclk=1",
        "coordinates": {
            "latitude": 26.097006399999998,
            "longitude": 87.925145
        }
    },
    {
        "name": "Pani bagh Masjid",
        "main_category": "Mosque",
        "address": "4W4V+FJ8 Pani bagh Masjid, Panibagh, Kishanganj, Bihar 855107",
        "detailed_address": {
            "ward": "Panibagh",
            "street": "4W4V+FJ8",
            "city": "Kishanganj",
            "postal_code": "855107",
            "state": "Bihar",
            "country_code": "IN"
        },
        "images": [
            {
                "about": "All",
                "link": "https://lh5.googleusercontent.com/p/AF1QipPJE2nn7pQJyP7DX6EyNxOwTh2-6D6rCDOLcUw=w529-h298-k-no"
            }
        ],
        "link": "https://www.google.com/maps/place/Pani+bagh+Masjid/data=!4m7!3m6!1s0x39e516bb2430815f:0x9cc5c56adbe3bd09!8m2!3d26.1061618!4d87.9440868!16s%2Fg%2F12hkcbv6_!19sChIJX4EwJLsW5TkRCb3j22rFxZw?authuser=0&hl=en&rclk=1",
        "coordinates": {
            "latitude": 26.1061618,
            "longitude": 87.9440868
        }
    },
    {
        "name": "Rahmani Colony Masjid",
        "main_category": "Mosque",
        "address": "4W7W+R7J Rahmani Colony Masjid, Rahmani Colony, Kishanganj, Bihar 855107",
        "detailed_address": {
            "ward": null,
            "street": "4W7W+R7J, Rahmani Colony",
            "city": "Kishanganj, Ghoramara",
            "postal_code": "855107",
            "state": "Bihar",
            "country_code": "IN"
        },
        "images": [
            {
                "about": "All",
                "link": "https://lh5.googleusercontent.com/p/AF1QipOQXfZRa84DbmjdS1p2NlMPY5umEOCxcYKyqd6t=w397-h298-k-no"
            }
        ],
        "link": "https://www.google.com/maps/place/Rahmani+Colony+Masjid/data=!4m7!3m6!1s0x39e516b177cfcd37:0x575cf949112ead2d!8m2!3d26.1145918!4d87.9456555!16s%2Fg%2F124yfgscr!19sChIJN83Pd7EW5TkRLa0uEUn5XFc?authuser=0&hl=en&rclk=1",
        "coordinates": {
            "latitude": 26.1145918,
            "longitude": 87.9456555
        }
    },
    {
        "name": "Masjid E Belal",
        "main_category": "Mosque",
        "address": "4W5Q+MW5 Masjid E Belal, Manawer nagar, Kishanganj, Bihar 855107",
        "detailed_address": {
            "ward": "Manawer nagar",
            "street": "4W5Q+MW5",
            "city": "Kishanganj",
            "postal_code": "855107",
            "state": "Bihar",
            "country_code": "IN"
        },
        "images": [
            {
                "about": "All",
                "link": "https://lh5.googleusercontent.com/p/AF1QipMnUC8idUPlyDle1c5yxtKRg74MnUrrMaWcGLly=w397-h298-k-no"
            },
            {
                "about": "Street View & 360deg",
                "link": "https://streetviewpixels-pa.googleapis.com/v1/thumbnail?panoid=yoIK0WrqXJ1-VuNfUTknvA&cb_client=maps_sv.tactile.gps&w=224&h=298&yaw=218.80255&pitch=0&thumbfov=100"
            }
        ],
        "link": "https://www.google.com/maps/place/Masjid+E+Belal/data=!4m7!3m6!1s0x39e516a5f3d61223:0x6659d2b68ad59573!8m2!3d26.1091326!4d87.9398557!16s%2Fg%2F11dfhnw5jh!19sChIJIxLW86UW5TkRc5XVirbSWWY?authuser=0&hl=en&rclk=1",
        "coordinates": {
            "latitude": 26.1091326,
            "longitude": 87.9398557
        }
    },
    {
        "name": "UMAR MASJID",
        "main_category": "Mosque",
        "address": "UMAR MASJID, Mohiuddinpur, Ward no 01, Kishanganj, Bihar",
        "detailed_address": {
            "ward": null,
            "street": "Mohiuddinpur, Ward no 01",
            "city": "Kishanganj",
            "postal_code": null,
            "state": "Bihar",
            "country_code": "IN"
        },
        "images": [
            {
                "about": "All",
                "link": "https://lh5.googleusercontent.com/p/AF1QipNze5-ZdBLs4b4Yfxz_A24aKi1-HbomRDwjy9ek=w529-h298-k-no"
            },
            {
                "about": "Street View & 360deg",
                "link": "https://streetviewpixels-pa.googleapis.com/v1/thumbnail?panoid=HIClqq7xqigrnvRQOuDDRg&cb_client=maps_sv.tactile.gps&w=224&h=298&yaw=246.08514&pitch=0&thumbfov=100"
            },
            {
                "about": "Videos",
                "link": "https://lh5.googleusercontent.com/p/AF1QipNzz6MzBO6_SIE1LsFZiwFRmu_ilfYVP1vXEVk4=w529-h298-k-no"
            }
        ],
        "link": "https://www.google.com/maps/place/UMAR+MASJID/data=!4m7!3m6!1s0x39e516ba0f3b070b:0xa03e853f622c7cf6!8m2!3d26.1092923!4d87.9475472!16s%2Fg%2F11dx961tb1!19sChIJCwc7D7oW5TkR9nwsYj-FPqA?authuser=0&hl=en&rclk=1",
        "coordinates": {
            "latitude": 26.1092923,
            "longitude": 87.9475472
        }
    },
    {
        "name": "Madni Masjid",
        "main_category": "Mosque",
        "address": "4W3X+JJW Madni Masjid, Churipatti Rd, Kagzia Basti, Kishanganj, Bihar 855108",
        "detailed_address": {
            "ward": "Kagzia Basti",
            "street": "4W3X+JJW, Churipatti Rd",
            "city": "Kishanganj",
            "postal_code": "855108",
            "state": "Bihar",
            "country_code": "IN"
        },
        "images": [
            {
                "about": "All",
                "link": "https://lh5.googleusercontent.com/p/AF1QipPIevhvs1zLQtt0bunkMM7rPhAVy1mR7b7BINHL=w224-h298-k-no"
            },
            {
                "about": "Dome",
                "link": "https://lh5.googleusercontent.com/p/AF1QipNIZldr8IUkXbM2otHY_sjE_lZCkwmtncO0FbSH=w397-h298-k-no"
            },
            {
                "about": "Videos",
                "link": "https://lh5.googleusercontent.com/p/AF1QipPZHfHw7EZaNvQN6UjNNPicP1rftqAFa_cHAxP3=w637-h298-k-no"
            },
            {
                "about": "Street View & 360deg",
                "link": "https://streetviewpixels-pa.googleapis.com/v1/thumbnail?panoid=BNPlOfNAqGmhWrAyd8ehCg&cb_client=maps_sv.tactile.gps&w=224&h=298&yaw=150.77213&pitch=0&thumbfov=100"
            }
        ],
        "link": "https://www.google.com/maps/place/Madni+Masjid/data=!4m7!3m6!1s0x39e516b94eaf4ff7:0xeebbc2eedb9576ad!8m2!3d26.1041024!4d87.9490677!16s%2Fg%2F12hlzbl_t!19sChIJ90-vTrkW5TkRrXaV2-7Cu-4?authuser=0&hl=en&rclk=1",
        "coordinates": {
            "latitude": 26.1041024,
            "longitude": 87.9490677
        }
    },
    {
        "name": "Iqubal Colony Masjid",
        "main_category": "Mosque",
        "address": "Iqubal Colony Masjid, Paschimpali, Iqubal Colony, Bihar 855107",
        "detailed_address": {
            "ward": null,
            "street": "Paschimpali, Iqubal Colony",
            "city": "Pirani",
            "postal_code": "855107",
            "state": "Bihar",
            "country_code": "IN"
        },
        "images": [
            {
                "about": "All",
                "link": "https://lh5.googleusercontent.com/p/AF1QipNtjiNdCrsUOxvBaEYvTeYXG2sgFiYgb9EnRoOR=w224-h298-k-no"
            }
        ],
        "link": "https://www.google.com/maps/place/Iqubal+Colony+Masjid/data=!4m7!3m6!1s0x39e516b020991bf9:0x44cc6b9ff63510d6!8m2!3d26.111052!4d87.943036!16s%2Fg%2F12hl8nb4f!19sChIJ-RuZILAW5TkR1hA19p9rzEQ?authuser=0&hl=en&rclk=1",
        "coordinates": {
            "latitude": 26.111051999999997,
            "longitude": 87.94303599999999
        }
    },
    {
        "name": "Masjid E Mohammadi",
        "main_category": "Mosque",
        "address": "4W6R+V69 Masjid E Mohammadi, Phulwari, Bihar 855107",
        "detailed_address": {
            "ward": null,
            "street": "4W6R+V69",
            "city": "Phulwari",
            "postal_code": "855107",
            "state": "Bihar",
            "country_code": "IN"
        },
        "images": [],
        "link": "https://www.google.com/maps/place/Masjid+E+Mohammadi/data=!4m7!3m6!1s0x39e516af017a8f21:0xc38762e6d73be02f!8m2!3d26.1121664!4d87.9405959!16s%2Fg%2F11ckvl666j!19sChIJIY96Aa8W5TkRL-A71-Zih8M?authuser=0&hl=en&rclk=1",
        "coordinates": {
            "latitude": 26.1121664,
            "longitude": 87.94059589999999
        }
    },
    {
        "name": "Khanquah Masjid",
        "main_category": "Mosque",
        "address": "Khanquah Masjid, Chowk, Khanquah Rd, Line Mohalla, Kishanganj, Bihar 855107",
        "detailed_address": {
            "ward": "Line Mohalla",
            "street": "Chowk, Khanquah Rd",
            "city": "Kishanganj",
            "postal_code": "855107",
            "state": "Bihar",
            "country_code": "IN"
        },
        "images": [
            {
                "about": "All",
                "link": "https://lh5.googleusercontent.com/p/AF1QipMPb1F11LgWArC_5nEb7-QPc64hHItqHAiflvZ3=w662-h298-k-no"
            }
        ],
        "link": "https://www.google.com/maps/place/Khanquah+Masjid/data=!4m7!3m6!1s0x39e516bb7a3dfeb5:0x5a91f7d06d8da910!8m2!3d26.1042636!4d87.9454459!16s%2Fg%2F11gzxtjtm!19sChIJtf49ersW5TkREKmNbdD3kVo?authuser=0&hl=en&rclk=1",
        "coordinates": {
            "latitude": 26.1042636,
            "longitude": 87.9454459
        }
    },
    {
        "name": "Karbala Masjid",
        "main_category": "Mosque",
        "address": "3WQV+QM3 Karbala Masjid, Kishanganj, Bihar 855107",
        "detailed_address": {
            "ward": null,
            "street": "3WQV+QM3",
            "city": "Kishanganj",
            "postal_code": "855107",
            "state": "Bihar",
            "country_code": "IN"
        },
        "images": [
            {
                "about": "All",
                "link": "https://lh5.googleusercontent.com/p/AF1QipMziFPlvISsscnFi7cvvEwDgq5uHX5joKUdItFn=w530-h298-k-no"
            },
            {
                "about": "Street View & 360deg",
                "link": "https://streetviewpixels-pa.googleapis.com/v1/thumbnail?panoid=t9uF-R_dAMRkhImbAwbIcA&cb_client=maps_sv.tactile.gps&w=224&h=298&yaw=11.324284&pitch=0&thumbfov=100"
            }
        ],
        "link": "https://www.google.com/maps/place/Karbala+Masjid/data=!4m7!3m6!1s0x39e516908e990b5b:0x33270921e737249c!8m2!3d26.089395!4d87.9441771!16s%2Fg%2F11gf8g_st1!19sChIJWwuZjpAW5TkRnCQ35yEJJzM?authuser=0&hl=en&rclk=1",
        "coordinates": {
            "latitude": 26.089395,
            "longitude": 87.94417709999999
        }
    },
    {
        "name": "Shia Masjid",
        "main_category": "Mosque",
        "address": "Shia Masjid, Qutubganj Haat, Churipatti Rd, haat, Kishanganj, Bihar 855107",
        "detailed_address": {
            "ward": "haat",
            "street": "Qutubganj Haat, Churipatti Rd",
            "city": "Kishanganj",
            "postal_code": "855107",
            "state": "Bihar",
            "country_code": "IN"
        },
        "images": [
            {
                "about": "All",
                "link": "https://lh5.googleusercontent.com/p/AF1QipOw0U1M_VrJIM7R6jEX_EPuHWqWCpPWZzBCzJiH=w367-h298-k-no"
            },
            {
                "about": "Dome",
                "link": "https://lh5.googleusercontent.com/p/AF1QipNTuduBim4EIWBAFYphESfw4Qt0Oy-99vbB4dxP=w529-h298-k-no"
            },
            {
                "about": "Street View & 360deg",
                "link": "https://streetviewpixels-pa.googleapis.com/v1/thumbnail?panoid=hiN-xnG5qAi99Ba7H_U9ZA&cb_client=maps_sv.tactile.gps&w=224&h=298&yaw=154.64862&pitch=0&thumbfov=100"
            }
        ],
        "link": "https://www.google.com/maps/place/Shia+Masjid/data=!4m7!3m6!1s0x39e516bba7d591dd:0x1bd40a43f19eb273!8m2!3d26.105874!4d87.9458745!16s%2Fg%2F12hnnk6v0!19sChIJ3ZHVp7sW5TkRc7Ke8UMK1Bs?authuser=0&hl=en&rclk=1",
        "coordinates": {
            "latitude": 26.105874,
            "longitude": 87.9458745
        }
    },
    {
        "name": "Gadibaan Mohalla Masjid",
        "main_category": "Mosque",
        "address": "Gadibaan Mohalla Masjid, Line Line Para Main, 22, Gadibaan Mohalla, Kishanganj, Bihar 855107",
        "detailed_address": {
            "ward": "Gadibaan Mohalla",
            "street": "Line Line Para Main, 22",
            "city": "Kishanganj",
            "postal_code": "855107",
            "state": "Bihar",
            "country_code": "IN"
        },
        "images": [
            {
                "about": "All",
                "link": "https://lh5.googleusercontent.com/p/AF1QipMW1QOQYQoCpv1hIa5LrDM_ClxA-1hbCOshEIyx=w224-h398-k-no"
            },
            {
                "about": "Street View & 360deg",
                "link": "https://streetviewpixels-pa.googleapis.com/v1/thumbnail?panoid=IikKL4dRpYDT_jopVPNISw&cb_client=maps_sv.tactile.gps&w=224&h=298&yaw=244.58722&pitch=0&thumbfov=100"
            },
            {
                "about": "Videos",
                "link": "https://lh5.googleusercontent.com/p/AF1QipMW1QOQYQoCpv1hIa5LrDM_ClxA-1hbCOshEIyx=w224-h398-k-no"
            }
        ],
        "link": "https://www.google.com/maps/place/Gadibaan+Mohalla+Masjid/data=!4m7!3m6!1s0x39e516a2b9492301:0x475a5db239453007!8m2!3d26.0988877!4d87.9423916!16s%2Fg%2F11gzt41_v!19sChIJASNJuaIW5TkRBzBFObJdWkc?authuser=0&hl=en&rclk=1",
        "coordinates": {
            "latitude": 26.0988877,
            "longitude": 87.9423916
        }
    },
    {
        "name": "Balu Basti Masjid",
        "main_category": "Mosque",
        "address": "4XF4+8MF Balu Basti Masjid, Teehoria Road, Dheksara, Bihar 733208",
        "detailed_address": {
            "ward": null,
            "street": "4XF4+8MF, Teehoria Road",
            "city": "Dheksara",
            "postal_code": null,
            "state": "Bihar",
            "country_code": "IN"
        },
        "images": [
            {
                "about": "All",
                "link": "https://lh5.googleusercontent.com/p/AF1QipOLyN3rJ1B6fmUNdGPe1XD4GeTOQjtvyVvAO0Wh=w397-h298-k-no"
            }
        ],
        "link": "https://www.google.com/maps/place/Balu+Basti+Masjid/data=!4m7!3m6!1s0x39e51134eb6a0e97:0xfe1b900bec2e1035!8m2!3d26.1233065!4d87.9566818!16s%2Fg%2F11c55fz4d4!19sChIJlw5q6zQR5TkRNRAu7AuQG_4?authuser=0&hl=en&rclk=1",
        "coordinates": {
            "latitude": 26.123306499999998,
            "longitude": 87.9566818
        }
    },
    {
        "name": "Ashrafiya Jama Masjid",
        "main_category": "Mosque",
        "address": "4W7X+794 Ashrafiya Jama Masjid, Ghoramara, Bihar 855107",
        "detailed_address": {
            "ward": null,
            "street": "4W7X+794",
            "city": "Ghoramara",
            "postal_code": null,
            "state": "Bihar",
            "country_code": "IN"
        },
        "images": [
            {
                "about": "All",
                "link": "https://lh5.googleusercontent.com/p/AF1QipP1WLfBq_5zr-x4HL-xjUJ3dZUVkwtgMKeMcXoZ=w529-h298-k-no"
            },
            {
                "about": "Videos",
                "link": "https://lh5.googleusercontent.com/p/AF1QipPRoLb6uNM1Fu5IMAE0stw18BcW51Ep2LJPGC5L=w529-h298-k-no"
            }
        ],
        "link": "https://www.google.com/maps/place/Ashrafiya+Jama+Masjid/data=!4m7!3m6!1s0x39e516b6d229645d:0xc198c019a4ba3880!8m2!3d26.1131436!4d87.9484533!16s%2Fg%2F11ggdvt5gg!19sChIJXWQp0rYW5TkRgDi6pBnAmME?authuser=0&hl=en&rclk=1",
        "coordinates": {
            "latitude": 26.113143599999997,
            "longitude": 87.9484533
        }
    },
    {
        "name": "Madina Jama Masjid",
        "main_category": "Mosque",
        "address": "4X42+X28 Madina Jama Masjid, Nawabganj, Loharpatti Rd, Kishanganj, Bihar 855108",
        "detailed_address": {
            "ward": "Kochadhaman",
            "street": "4X42+X28, Nawabganj, Loharpatti Rd",
            "city": "Kishanganj",
            "postal_code": "855108",
            "state": "Bihar",
            "country_code": "IN"
        },
        "images": [
            {
                "about": "All",
                "link": "https://lh5.googleusercontent.com/p/AF1QipNrWrEBWPdDwufS8MT8OR8OfAB8hTmRQi11cmqh=w397-h298-k-no"
            }
        ],
        "link": "https://www.google.com/maps/place/Madina+Jama+Masjid/data=!4m7!3m6!1s0x39e516b9afb9039f:0x1da1bc0d9087af25!8m2!3d26.107411!4d87.9500917!16s%2Fg%2F11f54qh5_4!19sChIJnwO5r7kW5TkRJa-HkA28oR0?authuser=0&hl=en&rclk=1",
        "coordinates": {
            "latitude": 26.107411,
            "longitude": 87.9500917
        }
    },
    {
        "name": "Chishti jama Masjid",
        "main_category": "Mosque",
        "address": "Chishti jama Masjid, Kishanganj, Bihar 733209",
        "detailed_address": {
            "ward": null,
            "street": null,
            "city": "Kishanganj",
            "postal_code": "733209",
            "state": "Bihar",
            "country_code": "IN"
        },
        "images": [
            {
                "about": "All",
                "link": "https://lh5.googleusercontent.com/p/AF1QipPD8tLPcIo_fPqKT2pLW5v5eHKyItwmsbgpVSLi=w438-h298-k-no"
            },
            {
                "about": "By owner",
                "link": "https://lh5.googleusercontent.com/p/AF1QipN8sLe84AYHFZl-UsgacTJIa5wb5OQ6i3jB0BZC=w470-h298-k-no"
            }
        ],
        "link": "https://www.google.com/maps/place/Chishti+jama+Masjid/data=!4m7!3m6!1s0x39e5169c52d70dff:0x7bd247a2571d8140!8m2!3d26.0893225!4d87.9359637!16s%2Fg%2F11g65grp5z!19sChIJ_w3XUpwW5TkRQIEdV6JH0ns?authuser=0&hl=en&rclk=1",
        "coordinates": {
            "latitude": 26.089322499999998,
            "longitude": 87.9359637
        }
    },
    {
        "name": "Lahra Masjid",
        "main_category": "Mosque",
        "address": "4W8G+CC7 Lahra Masjid, Lahra Phulwari, Phulwari, Bihar 855107",
        "detailed_address": {
            "ward": null,
            "street": "4W8G+CC7",
            "city": "Lahra Phulwari, Phulwari",
            "postal_code": "855107",
            "state": "Bihar",
            "country_code": "IN"
        },
        "images": [
            {
                "about": "All",
                "link": "https://lh5.googleusercontent.com/p/AF1QipP9uEag2mk6wTioUTcCAsGLqETdk6TY-VjuzCiv=w298-h298-k-no"
            },
            {
                "about": "Videos",
                "link": "https://lh5.googleusercontent.com/p/AF1QipP9uEag2mk6wTioUTcCAsGLqETdk6TY-VjuzCiv=w298-h298-k-no"
            }
        ],
        "link": "https://www.google.com/maps/place/Lahra+Masjid/data=!4m7!3m6!1s0x39e51406629436a1:0xa6c066f22745de6d!8m2!3d26.1160302!4d87.9260539!16s%2Fg%2F11b6328hdn!19sChIJoTaUYgYU5TkRbd5FJ_JmwKY?authuser=0&hl=en&rclk=1",
        "coordinates": {
            "latitude": 26.116030199999997,
            "longitude": 87.9260539
        }
    },
    {
        "name": "TAUHEED JAME MASJID",
        "main_category": "Mosque",
        "address": "TAUHEED JAME MASJID, Mahadabad, Khagra, Kishanganj, Bihar, NH31, Kishanganj, Bihar 855107",
        "detailed_address": {
            "ward": null,
            "street": "Mahadabad, Khagra, Kishanganj, Bihar, NH31",
            "city": "Kishanganj",
            "postal_code": "855107",
            "state": "Bihar",
            "country_code": "IN"
        },
        "images": [
            {
                "about": "All",
                "link": "https://lh5.googleusercontent.com/p/AF1QipPIlVT1KTSCqahFlZnrS6iZJOHaH4Fn5YDpYfs_=w396-h298-k-no"
            }
        ],
        "link": "https://www.google.com/maps/place/TAUHEED+JAME+MASJID/data=!4m7!3m6!1s0x39e5152b5f8b2593:0xfe19e432f494cc30!8m2!3d26.0838801!4d87.9276884!16s%2Fg%2F11h2kbmw7w!19sChIJkyWLXysV5TkRMMyU9DLkGf4?authuser=0&hl=en&rclk=1",
        "coordinates": {
            "latitude": 26.0838801,
            "longitude": 87.9276884
        }
    },
    {
        "name": "Inter HS School Masjid",
        "main_category": "Mosque",
        "address": "Inter HS School Masjid, Dey Market, Station Road, Kishanganj, Bihar 733208",
        "detailed_address": {
            "ward": null,
            "street": "Dey Market, Station Road",
            "city": "Kishanganj",
            "postal_code": "733208",
            "state": "Bihar",
            "country_code": "IN"
        },
        "images": [],
        "link": "https://www.google.com/maps/place/Inter+HS+School+Masjid/data=!4m7!3m6!1s0x39e51697c88df86d:0x632112734f8348dc!8m2!3d26.0964994!4d87.9451811!16s%2Fg%2F12hksnw1l!19sChIJbfiNyJcW5TkR3EiDT3MSIWM?authuser=0&hl=en&rclk=1",
        "coordinates": {
            "latitude": 26.0964994,
            "longitude": 87.9451811
        }
    },
    {
        "name": "Jame Masjid Samda",
        "main_category": "Mosque",
        "address": "3WG4+73M Jame Masjid Samda, Kirdah Samda, Bihar 733209",
        "detailed_address": {
            "ward": null,
            "street": "3WG4+73M",
            "city": "Kirdah Samda",
            "postal_code": "733209",
            "state": "Bihar",
            "country_code": "IN"
        },
        "images": [
            {
                "about": "All",
                "link": "https://lh5.googleusercontent.com/p/AF1QipPUeXfDoRknOyAZoDBmzarwvPIHFHxDUWmRCx1T=w224-h298-k-no"
            },
            {
                "about": "Street View & 360deg",
                "link": "https://streetviewpixels-pa.googleapis.com/v1/thumbnail?panoid=PyWht2ra7yT9W9SWs25w9A&cb_client=maps_sv.tactile.gps&w=224&h=298&yaw=282.05862&pitch=0&thumbfov=100"
            }
        ],
        "link": "https://www.google.com/maps/place/Jame+Masjid+Samda/data=!4m7!3m6!1s0x39e5154224c1389f:0xdb2e51b409a1ef7b!8m2!3d26.0757218!4d87.9051757!16s%2Fg%2F11hy_phl80!19sChIJnzjBJEIV5TkRe--hCbRRLts?authuser=0&hl=en&rclk=1",
        "coordinates": {
            "latitude": 26.0757218,
            "longitude": 87.9051757
        }
    },
    {
        "name": "khankah masjid",
        "main_category": "Mosque",
        "address": "4W5Q+473 khankah masjid, Kishanganj, Bihar 855107",
        "detailed_address": {
            "ward": null,
            "street": "4W5Q+473",
            "city": "Kishanganj",
            "postal_code": "855107",
            "state": "Bihar",
            "country_code": "IN"
        },
        "images": [
            {
                "about": "All",
                "link": "https://lh5.googleusercontent.com/p/AF1QipOv_-PJdxmP7DzlCqRuEXthJ3VTCFhP2e0rlauo=w397-h298-k-no"
            }
        ],
        "link": "https://www.google.com/maps/place/khankah+masjid/data=!4m7!3m6!1s0x39e516a675000005:0x651e48c00f392197!8m2!3d26.1077693!4d87.9381611!16s%2Fg%2F11g68_p711!19sChIJBQAAdaYW5TkRlyE5D8BIHmU?authuser=0&hl=en&rclk=1",
        "coordinates": {
            "latitude": 26.107769299999998,
            "longitude": 87.9381611
        }
    },
    {
        "name": "Insan School Masjid",
        "main_category": "Mosque",
        "address": "4W5Q+473 Insan School Masjid, insan school, Kishanganj, Bihar 855107",
        "detailed_address": {
            "ward": null,
            "street": "4W5Q+473, insan school",
            "city": "Kishanganj",
            "postal_code": "855107",
            "state": "Bihar",
            "country_code": "IN"
        },
        "images": [
            {
                "about": "All",
                "link": "https://lh5.googleusercontent.com/p/AF1QipNSHkaUGRK_9Eq7THXZdjdz3Ssgk8_5W01PX_Y=w298-h298-k-no"
            }
        ],
        "link": "https://www.google.com/maps/place/Insan+School+Masjid/data=!4m7!3m6!1s0x39e516a675000001:0xed3d6836683826a9!8m2!3d26.1077693!4d87.9381611!16s%2Fg%2F11fz9x_syj!19sChIJAQAAdaYW5TkRqSY4aDZoPe0?authuser=0&hl=en&rclk=1",
        "coordinates": {
            "latitude": 26.107769299999998,
            "longitude": 87.9381611
        }
    },
    {
        "name": "Lohakachi Jame Masjid",
        "main_category": "Mosque",
        "address": "3W6V+J77 Lohakachi Jame Masjid, Kishanganj, Bihar 733209",
        "detailed_address": {
            "ward": null,
            "street": "3W6V+J77",
            "city": "Kishanganj",
            "postal_code": null,
            "state": "Bihar",
            "country_code": "IN"
        },
        "images": [
            {
                "about": "All",
                "link": "https://lh5.googleusercontent.com/p/AF1QipNawaP6WTbdH--3lhLsxHVbyyKGS6gX8-VoB2Cu=w397-h298-k-no"
            }
        ],
        "link": "https://www.google.com/maps/place/Lohakachi+Jame+Masjid/data=!4m7!3m6!1s0x39e5167002d20207:0x42b581e79e521025!8m2!3d26.0615438!4d87.9431748!16s%2Fg%2F11h9rvvbsc!19sChIJBwLSAnAW5TkRJRBSnueBtUI?authuser=0&hl=en&rclk=1",
        "coordinates": {
            "latitude": 26.0615438,
            "longitude": 87.9431748
        }
    },
    {
        "name": "Kachhari Jama Masjid",
        "main_category": "Mosque",
        "address": "3WVV+387 Kachhari Jama Masjid, Kishanganj, Bihar 733208",
        "detailed_address": {
            "ward": null,
            "street": "3WVV+387",
            "city": "Kishanganj",
            "postal_code": null,
            "state": "Bihar",
            "country_code": "IN"
        },
        "images": [
            {
                "about": "All",
                "link": "https://lh5.googleusercontent.com/p/AF1QipMJk550guIeCPdsEvWenDqRR7mCjNGo31CbYKYZ=w397-h298-k-no"
            },
            {
                "about": "Videos",
                "link": "https://lh5.googleusercontent.com/p/AF1QipMTXhLkYMTCwVTKp73iOZvJ0-WO0P5zcsHKVRQY=w224-h398-k-no"
            }
        ],
        "link": "https://www.google.com/maps/place/Kachhari+Jama+Masjid/data=!4m7!3m6!1s0x39e517dc15e49351:0x37dcb3a6af775ea2!8m2!3d26.0926664!4d87.943309!16s%2Fg%2F11hdngcyvb!19sChIJUZPkFdwX5TkRol53r6az3Dc?authuser=0&hl=en&rclk=1",
        "coordinates": {
            "latitude": 26.0926664,
            "longitude": 87.943309
        }
    },
    {
        "name": "Jama Masjid Azamnagar",
        "main_category": "Mosque",
        "address": "4X3G+Q72 Jama Masjid Azamnagar, Purab Palli Road, Kishanganj, Bihar 733208",
        "detailed_address": {
            "ward": null,
            "street": "4X3G+Q72, Purab Palli Road",
            "city": "Kishanganj",
            "postal_code": "733208",
            "state": "Bihar",
            "country_code": "IN"
        },
        "images": [
            {
                "about": "All",
                "link": "https://streetviewpixels-pa.googleapis.com/v1/thumbnail?panoid=x5AZJlMzZqfNrE7ZT5VrNw&cb_client=maps_sv.tactile.gps&w=224&h=298&yaw=232.11319&pitch=0&thumbfov=100"
            },
            {
                "about": "Street View & 360deg",
                "link": "https://streetviewpixels-pa.googleapis.com/v1/thumbnail?panoid=x5AZJlMzZqfNrE7ZT5VrNw&cb_client=maps_sv.tactile.gps&w=224&h=298&yaw=232.11319&pitch=0&thumbfov=100"
            }
        ],
        "link": "https://www.google.com/maps/place/Jama+Masjid+Azamnagar/data=!4m7!3m6!1s0x39e517951946e437:0x706bddb0937f35b5!8m2!3d26.104387!4d87.975643!16s%2Fg%2F11fl5nk5fk!19sChIJN-RGGZUX5TkRtTV_k7Dda3A?authuser=0&hl=en&rclk=1",
        "coordinates": {
            "latitude": 26.104387,
            "longitude": 87.97564299999999
        }
    },
    {
        "name": "THOWAPARA Jama Masjid",
        "main_category": "Mosque",
        "address": "THOWAPARA Jama Masjid, Thauapara teusa, ROAD, Gachpara, Bihar 855107",
        "detailed_address": {
            "ward": null,
            "street": "Thauapara teusa, ROAD",
            "city": "Gachpara, Thauapara",
            "postal_code": "855107",
            "state": "Bihar",
            "country_code": "IN"
        },
        "images": [
            {
                "about": "All",
                "link": "https://lh5.googleusercontent.com/p/AF1QipMeO-u26CrE8-Q58xYzf4jEQoc3UW3N1JVoIoJL=w529-h298-k-no"
            },
            {
                "about": "Street View & 360deg",
                "link": "https://streetviewpixels-pa.googleapis.com/v1/thumbnail?panoid=X07N7yQ8RAVc-cdkVr_vuQ&cb_client=maps_sv.tactile.gps&w=224&h=298&yaw=61.430447&pitch=0&thumbfov=100"
            }
        ],
        "link": "https://www.google.com/maps/place/THOWAPARA+Jama+Masjid/data=!4m7!3m6!1s0x39e511fefea796b5:0x97a79008fb6cf4b1!8m2!3d26.1343501!4d87.9579059!16s%2Fg%2F11fq999qbj!19sChIJtZan_v4R5TkRsfRs-wiQp5c?authuser=0&hl=en&rclk=1",
        "coordinates": {
            "latitude": 26.1343501,
            "longitude": 87.9579059
        }
    },
    {
        "name": "Qasim Talab Jama Masjid Purana Khagra",
        "main_category": "Mosque",
        "address": "3WR9+9PJ Qasim Talab Jama Masjid Purana Khagra, Dehori, Belwa Milik, Bihar 855108",
        "detailed_address": {
            "ward": null,
            "street": "3WR9+9PJ, Dehori",
            "city": "Belwa Milik",
            "postal_code": "855108",
            "state": "Bihar",
            "country_code": "IN"
        },
        "images": [
            {
                "about": "All",
                "link": "https://lh5.googleusercontent.com/p/AF1QipNp38nGCFA2q2sEu7eO48EcChEZ4EoPLsGhZlJs=w529-h298-k-no"
            },
            {
                "about": "Dome",
                "link": "https://lh5.googleusercontent.com/p/AF1QipPYTKiAfUv1efH1pLxNT6SFnMwCACsea6ZnsDgQ=w397-h298-k-no"
            },
            {
                "about": "Videos",
                "link": "https://lh5.googleusercontent.com/p/AF1QipP9CbvCmcWSO3vQQsgpZu35DTMQXPUVl3_GBfJO=w224-h395-k-no"
            },
            {
                "about": "Street View & 360deg",
                "link": "https://streetviewpixels-pa.googleapis.com/v1/thumbnail?panoid=DHmcKYnn-FNI29O4itU3ow&cb_client=maps_sv.tactile.gps&w=224&h=298&yaw=73.72791&pitch=0&thumbfov=100"
            }
        ],
        "link": "https://www.google.com/maps/place/Qasim+Talab+Jama+Masjid+Purana+Khagra/data=!4m7!3m6!1s0x39e5143bfa5b706d:0x80a6fb80ad85d456!8m2!3d26.0909536!4d87.919261!16s%2Fg%2F11c0qglf6q!19sChIJbXBb-jsU5TkRVtSFrYD7poA?authuser=0&hl=en&rclk=1",
        "coordinates": {
            "latitude": 26.0909536,
            "longitude": 87.91926099999999
        }
    },
    {
        "name": "Khadijatul Qubra Masjid",
        "main_category": "Mosque",
        "address": "4W4P+VFH Khadijatul Qubra Masjid, Kajlamani, Kishanganj, Bihar 855107",
        "detailed_address": {
            "ward": null,
            "street": "4W4P+VFH",
            "city": "Kajlamani, Kishanganj",
            "postal_code": "855107",
            "state": "Bihar",
            "country_code": "IN"
        },
        "images": [
            {
                "about": "All",
                "link": "https://lh5.googleusercontent.com/p/AF1QipOeFabRdcznA5lcHHS6YDt-z41Vo3K_R8FFGdWz=w397-h298-k-no"
            }
        ],
        "link": "https://www.google.com/maps/place/Khadijatul+Qubra+Masjid/data=!4m7!3m6!1s0x39e516a6fbc582af:0xebbe639d66921829!8m2!3d26.1071878!4d87.936249!16s%2Fg%2F11dd_lp_zb!19sChIJr4LF-6YW5TkRKRiSZp1jvus?authuser=0&hl=en&rclk=1",
        "coordinates": {
            "latitude": 26.1071878,
            "longitude": 87.93624899999999
        }
    },
    {
        "name": "Sabri Jama Masjid",
        "main_category": "Mosque",
        "address": "4W6M+WQ2 Sabri Jama Masjid, Kishanganj - Bahadurganj Rd, Jagmohan Colony, Lahra Phulwari, Bihar 855107",
        "detailed_address": {
            "ward": "Jagmohan Colony",
            "street": "4W6M+WQ2, Kishanganj - Bahadurganj Rd",
            "city": "Lahra Phulwari",
            "postal_code": "855107",
            "state": "Bihar",
            "country_code": "IN"
        },
        "images": [
            {
                "about": "All",
                "link": "https://lh5.googleusercontent.com/p/AF1QipNOG_qkmWSZ0ifRAKU6eX9NtNJ92Qx9rk1_3kx9=w596-h298-k-no"
            }
        ],
        "link": "https://www.google.com/maps/place/Sabri+Jama+Masjid/data=!4m7!3m6!1s0x39e517768fb69a25:0xe15e522bddeb62a3!8m2!3d26.1122725!4d87.9343762!16s%2Fg%2F11fn0vzf_9!19sChIJJZq2j3YX5TkRo2Lr3StSXuE?authuser=0&hl=en&rclk=1",
        "coordinates": {
            "latitude": 26.1122725,
            "longitude": 87.9343762
        }
    },
    {
        "name": "Karbala imam bara",
        "main_category": "Mosque",
        "address": "4X62+6JP Karbala imam bara, Karbala basti, Bihar 855107",
        "detailed_address": {
            "ward": null,
            "street": "4X62+6JP, Karbala basti",
            "city": "Kishanganj, Ghoramara",
            "postal_code": "855107",
            "state": "Bihar",
            "country_code": "IN"
        },
        "images": [
            {
                "about": "All",
                "link": "https://lh5.googleusercontent.com/p/AF1QipM5SB-hirxfzEsS9WnsLSTeZFaFru8sIyZjImEm=w224-h298-k-no"
            },
            {
                "about": "Videos",
                "link": "https://lh5.googleusercontent.com/p/AF1QipPePHqSPLzdzbFxIJy0HA7KLykftKVZ396TJ4Ij=w224-h398-k-no"
            }
        ],
        "link": "https://www.google.com/maps/place/Karbala+imam+bara/data=!4m7!3m6!1s0x39e517f744610171:0x2164acd7e7fc48f4!8m2!3d26.1105841!4d87.951567!16s%2Fg%2F11fm4ltrzl!19sChIJcQFhRPcX5TkR9Ej859esZCE?authuser=0&hl=en&rclk=1",
        "coordinates": {
            "latitude": 26.1105841,
            "longitude": 87.951567
        }
    },
    {
        "name": "Khirdoh Jama Masjid",
        "main_category": "Mosque",
        "address": "3WM5+VRG Khirdoh Jama Masjid, Khirdoh, Bihar 733209",
        "detailed_address": {
            "ward": null,
            "street": "3WM5+VRG",
            "city": "Khirdoh",
            "postal_code": "733209",
            "state": "Bihar",
            "country_code": "IN"
        },
        "images": [
            {
                "about": "All",
                "link": "https://lh5.googleusercontent.com/p/AF1QipPdaOy1oU5aMjn5npasWbWwa9Lg6ipIS1PK9FgU=w224-h298-k-no"
            },
            {
                "about": "Street View & 360deg",
                "link": "https://streetviewpixels-pa.googleapis.com/v1/thumbnail?panoid=LZYL_JgVo92zWwcITkICJQ&cb_client=maps_sv.tactile.gps&w=224&h=298&yaw=268.19833&pitch=0&thumbfov=100"
            }
        ],
        "link": "https://www.google.com/maps/place/Khirdoh+Jama+Masjid/data=!4m7!3m6!1s0x39e51448b0000001:0xbdcc9a73637b2738!8m2!3d26.0846992!4d87.909578!16s%2Fg%2F11fz1f1qs5!19sChIJAQAAsEgU5TkROCd7Y3OazL0?authuser=0&hl=en&rclk=1",
        "coordinates": {
            "latitude": 26.0846992,
            "longitude": 87.909578
        }
    },
    {
        "name": "Masjid E -_Bilal",
        "main_category": "Mosque",
        "address": "Masjid E -_Bilal, Kishanganj Road,Pipaltora, Kutti, 854315, Kutti, Bihar",
        "detailed_address": {
            "ward": null,
            "street": "Kishanganj Road,Pipaltora, Kutti, 854315",
            "city": "Kutti, Nehuri",
            "postal_code": null,
            "state": "Bihar",
            "country_code": "IN"
        },
        "images": [],
        "link": "https://www.google.com/maps/place/Masjid+E+-_Bilal/data=!4m7!3m6!1s0x39e514cb3d0b5c37:0x9e5d119154c92aeb!8m2!3d26.0925385!4d87.8560817!16s%2Fg%2F11f1079mv5!19sChIJN1wLPcsU5TkR6yrJVJERXZ4?authuser=0&hl=en&rclk=1",
        "coordinates": {
            "latitude": 26.0925385,
            "longitude": 87.85608169999999
        }
    },
    {
        "name": "Chakla Masjid",
        "main_category": "Mosque",
        "address": "4W86+X2J Chakla Masjid, Chakla, Bihar 855108",
        "detailed_address": {
            "ward": null,
            "street": "4W86+X2J",
            "city": "Chakla",
            "postal_code": null,
            "state": "Bihar",
            "country_code": "IN"
        },
        "images": [
            {
                "about": "All",
                "link": "https://lh5.googleusercontent.com/p/AF1QipORzeOiAoBDxCr-U0u91I34U5ZVutDCJhIaGXP1=w397-h298-k-no"
            },
            {
                "about": "Latest",
                "link": "https://lh5.googleusercontent.com/p/AF1QipPia4nai9WHn2DNmPjUvIG5d2IPIAfMZ4cTrzDS=w529-h298-k-no"
            },
            {
                "about": "Videos",
                "link": "https://lh5.googleusercontent.com/p/AF1QipPg8_g642f4G9unqfrdrLxvr8THKzgMojXKEUtL=w529-h298-k-no"
            }
        ],
        "link": "https://www.google.com/maps/place/Chakla+Masjid/data=!4m7!3m6!1s0x39e5152a45fa70f3:0xee109a6b7c0d3768!8m2!3d26.1174702!4d87.9100228!16s%2Fg%2F11hzmhzxx9!19sChIJ83D6RSoV5TkRaDcNfGuaEO4?authuser=0&hl=en&rclk=1",
        "coordinates": {
            "latitude": 26.1174702,
            "longitude": 87.9100228
        }
    },
    {
        "name": "Noori Jama Masjid Munshi Tola Majhia",
        "main_category": "Mosque",
        "address": "3XHH+667 Noori Jama Masjid Munshi Tola Majhia, Bihar 733208",
        "detailed_address": {
            "ward": null,
            "street": "3XHH+667",
            "city": null,
            "postal_code": "733208",
            "state": "Bihar",
            "country_code": "IN"
        },
        "images": [
            {
                "about": "All",
                "link": "https://lh5.googleusercontent.com/p/AF1QipN1k1rc90x8ngJ2GoZnTeN6kj3Vgj4jCVOiObX8=w224-h398-k-no"
            },
            {
                "about": "Street View & 360deg",
                "link": "https://streetviewpixels-pa.googleapis.com/v1/thumbnail?panoid=UxkhjV9GW0Jbu97AZugqqg&cb_client=maps_sv.tactile.gps&w=224&h=298&yaw=233.63054&pitch=0&thumbfov=100"
            },
            {
                "about": "Videos",
                "link": "https://lh5.googleusercontent.com/p/AF1QipNhoHtySPRZ8NzUW0x1PbYiAiW2aZfFAMi9UtiZ=w298-h298-k-no"
            }
        ],
        "link": "https://www.google.com/maps/place/Noori+Jama+Masjid+Munshi+Tola+Majhia/data=!4m7!3m6!1s0x39e517104a51755d:0xae655c772ca532a4!8m2!3d26.0780414!4d87.9780573!16s%2Fg%2F11nmjghc6c!19sChIJXXVRShAX5TkRpDKlLHdcZa4?authuser=0&hl=en&rclk=1",
        "coordinates": {
            "latitude": 26.0780414,
            "longitude": 87.97805729999999
        }
    },
    {
        "name": "Belal Ahmed Masjid",
        "main_category": "Mosque",
        "address": "Belal Ahmed Masjid, Bakali Basti Rd, Kochadhaman, Kishanganj, Bihar 855108",
        "detailed_address": {
            "ward": "Kochadhaman",
            "street": "Bakali Basti Rd",
            "city": "Kishanganj",
            "postal_code": "855108",
            "state": "Bihar",
            "country_code": "IN"
        },
        "images": [
            {
                "about": "All",
                "link": "https://lh5.googleusercontent.com/p/AF1QipPv3MK_K3LLfR8Frx_DdtYS-KoJMP6hxDE_eTx8=w224-h445-k-no"
            },
            {
                "about": "Dome",
                "link": "https://lh5.googleusercontent.com/p/AF1QipNWc9WctqTQGnEMDH_VxUGUYKWstGiEFvFEt3qA=w224-h445-k-no"
            },
            {
                "about": "By owner",
                "link": "https://lh5.googleusercontent.com/p/AF1QipPv3MK_K3LLfR8Frx_DdtYS-KoJMP6hxDE_eTx8=w224-h445-k-no"
            }
        ],
        "link": "https://www.google.com/maps/place/Belal+Ahmed+Masjid/data=!4m7!3m6!1s0x39e517ee2cba9107:0x7ecd5d339aebca04!8m2!3d26.1028586!4d87.9519376!16s%2Fg%2F11h0wmmbcd!19sChIJB5G6LO4X5TkRBMrrmjNdzX4?authuser=0&hl=en&rclk=1",
        "coordinates": {
            "latitude": 26.102858599999998,
            "longitude": 87.9519376
        }
    },
    {
        "name": "Jama Masjid Bakali Basti",
        "main_category": "Mosque",
        "address": "4X32+5Q9 Jama Masjid Bakali Basti, Bakali Basti Rd, Kochadhaman, Kishanganj, Bihar 855108",
        "detailed_address": {
            "ward": "Kochadhaman",
            "street": "4X32+5Q9, Bakali Basti Rd",
            "city": "Kishanganj",
            "postal_code": "855108",
            "state": "Bihar",
            "country_code": "IN"
        },
        "images": [
            {
                "about": "All",
                "link": "https://lh5.googleusercontent.com/p/AF1QipNxvsMdhr2DpxuehBmHhZZGd6ujSwWrSB2cfh5w=w224-h497-k-no"
            },
            {
                "about": "Dome",
                "link": "https://lh5.googleusercontent.com/p/AF1QipM8su--hLzmTp5Cy3JDYtl50QLD5WbrjfDcvb4A=w224-h298-k-no"
            }
        ],
        "link": "https://www.google.com/maps/place/Jama+Masjid+Bakali+Basti/data=!4m7!3m6!1s0x39e5178df8355501:0x39c1ebf2b207deb8!8m2!3d26.1029226!4d87.9519694!16s%2Fg%2F11kyt65cx0!19sChIJAVU1-I0X5TkRuN4HsvLrwTk?authuser=0&hl=en&rclk=1",
        "coordinates": {
            "latitude": 26.1029226,
            "longitude": 87.9519694
        }
    },
    {
        "name": "Quwat-e-Islam Jama Masjd Chakla",
        "main_category": "Mosque",
        "address": "4W69+PPR Quwat-e-Islam Jama Masjd Chakla, Chakla Ghat Rd, Kishanganj, Bihar 855107",
        "detailed_address": {
            "ward": null,
            "street": "4W69+PPR, Chakla Ghat Rd",
            "city": "Kishanganj",
            "postal_code": "855107",
            "state": "Bihar",
            "country_code": "IN"
        },
        "images": [
            {
                "about": "All",
                "link": "https://streetviewpixels-pa.googleapis.com/v1/thumbnail?panoid=9py_mnxysDzqJ5aBqWjSdg&cb_client=maps_sv.tactile.gps&w=224&h=298&yaw=210.71883&pitch=0&thumbfov=100"
            },
            {
                "about": "Street View & 360deg",
                "link": "https://streetviewpixels-pa.googleapis.com/v1/thumbnail?panoid=9py_mnxysDzqJ5aBqWjSdg&cb_client=maps_sv.tactile.gps&w=224&h=298&yaw=210.71883&pitch=0&thumbfov=100"
            }
        ],
        "link": "https://www.google.com/maps/place/Quwat-e-Islam+Jama+Masjd+Chakla/data=!4m7!3m6!1s0x39e5140e7c93abe7:0x880df1e7be5d7d82!8m2!3d26.1118529!4d87.9192798!16s%2Fg%2F11bv3xgvn3!19sChIJ56uTfA4U5TkRgn1dvufxDYg?authuser=0&hl=en&rclk=1",
        "coordinates": {
            "latitude": 26.1118529,
            "longitude": 87.9192798
        }
    },
    {
        "name": "Jam-e-masjid juljuli",
        "main_category": "Mosque",
        "address": "3WHX+GHH Jam-e-masjid juljuli, Juljuli Rd, Juljuli, Bihar 855108",
        "detailed_address": {
            "ward": null,
            "street": "3WHX+GHH, Juljuli Rd",
            "city": "Juljuli",
            "postal_code": "855108",
            "state": "Bihar",
            "country_code": "IN"
        },
        "images": [
            {
                "about": "All",
                "link": "https://lh5.googleusercontent.com/p/AF1QipMFWkMFApvdafGkhEFPgMvOomnRAvPfnfLNDsXH=w224-h398-k-no"
            },
            {
                "about": "Street View & 360deg",
                "link": "https://streetviewpixels-pa.googleapis.com/v1/thumbnail?panoid=-P1dANU-Lma0TOrCHR_8Qg&cb_client=maps_sv.tactile.gps&w=224&h=298&yaw=242.06435&pitch=0&thumbfov=100"
            },
            {
                "about": "Videos",
                "link": "https://lh5.googleusercontent.com/p/AF1QipO7fjqR-Bjk3ZzGWGO86WSJ1X3pG_ydRxCIGCra=w224-h398-k-no"
            }
        ],
        "link": "https://www.google.com/maps/place/Jam-e-masjid+juljuli/data=!4m7!3m6!1s0x39e5172ac4899c8f:0x9cc2757c6a32ee92!8m2!3d26.0788185!4d87.9489701!16s%2Fg%2F11hyt62j4h!19sChIJj5yJxCoX5TkRku4yanx1wpw?authuser=0&hl=en&rclk=1",
        "coordinates": {
            "latitude": 26.0788185,
            "longitude": 87.9489701
        }
    },
    {
        "name": "Masjid Hatat Para",
        "main_category": "Mosque",
        "address": "4VRR+588 Masjid Hatat Para, Kishanganj, Bihar 855107",
        "detailed_address": {
            "ward": null,
            "street": "4VRR+588",
            "city": "Kishanganj",
            "postal_code": null,
            "state": "Bihar",
            "country_code": "IN"
        },
        "images": [
            {
                "about": "All",
                "link": "https://lh5.googleusercontent.com/p/AF1QipMkXI5cNFcfdx82_PSaZTDZNGSb0ZgzNOMKDWwI=w529-h298-k-no"
            },
            {
                "about": "Latest",
                "link": "https://lh5.googleusercontent.com/p/AF1QipP8I7eNBjfX-CfkRUVVyYXeiBRc_HsUJVdnt8DR=w224-h470-k-no"
            },
            {
                "about": "Street View & 360deg",
                "link": "https://streetviewpixels-pa.googleapis.com/v1/thumbnail?panoid=dufCsG01LOXBeMtjzgp1Og&cb_client=maps_sv.tactile.gps&w=224&h=298&yaw=151.38878&pitch=0&thumbfov=100"
            }
        ],
        "link": "https://www.google.com/maps/place/Masjid+Hatat+Para/data=!4m7!3m6!1s0x39e5134899c3b4f9:0x5476ef3089b6cbf4!8m2!3d26.140416!4d87.89083!16s%2Fg%2F11gr1hq718!19sChIJ-bTDmUgT5TkR9Mu2iTDvdlQ?authuser=0&hl=en&rclk=1",
        "coordinates": {
            "latitude": 26.140416,
            "longitude": 87.89083
        }
    },
    {
        "name": "Madina Jama Masjid,Tegharia",
        "main_category": "Mosque",
        "address": "4X67+975 Madina Jama Masjid,Tegharia, Tegharia Belgachchi Rd, Dheksara, Bihar 733208",
        "detailed_address": {
            "ward": null,
            "street": "4X67+975, Tegharia Belgachchi Rd",
            "city": "Dheksara",
            "postal_code": "733208",
            "state": "Bihar",
            "country_code": "IN"
        },
        "images": [
            {
                "about": "All",
                "link": "https://lh5.googleusercontent.com/p/AF1QipO-jfV3uW4fGnz9XevWMWPv2Ev_eexDagUeiG-X=w224-h298-k-no"
            },
            {
                "about": "Street View & 360deg",
                "link": "https://streetviewpixels-pa.googleapis.com/v1/thumbnail?panoid=pksI3KxvYXjHMi_-CWMFmg&cb_client=maps_sv.tactile.gps&w=224&h=298&yaw=243.1986&pitch=0&thumbfov=100"
            },
            {
                "about": "Videos",
                "link": "https://lh5.googleusercontent.com/p/AF1QipOlDrHcSVtC5lytZ3NByBNFuxfmvUs4MKrsxjmO=w529-h298-k-no"
            }
        ],
        "link": "https://www.google.com/maps/place/Madina+Jama+Masjid,Tegharia/data=!4m7!3m6!1s0x39e517944b42cc0b:0x35b2987e99ac1384!8m2!3d26.1108947!4d87.9632489!16s%2Fg%2F11h1knd2nz!19sChIJC8xCS5QX5TkRhBOsmX6YsjU?authuser=0&hl=en&rclk=1",
        "coordinates": {
            "latitude": 26.1108947,
            "longitude": 87.9632489
        }
    },
    {
        "name": "Jama Masjid Rangamani",
        "main_category": "Mosque",
        "address": "5VPJ+655 Jama Masjid Rangamani, At Rangamani kanhaiyabari, Kochadhaman, Kishanganj, Bihar 855107",
        "detailed_address": {
            "ward": "Kochadhaman",
            "street": "5VPJ+655, At Rangamani kanhaiyabari",
            "city": "Kishanganj, Rangamani",
            "postal_code": "855107",
            "state": "Bihar",
            "country_code": "IN"
        },
        "images": [],
        "link": "https://www.google.com/maps/place/Jama+Masjid+Rangamani/data=!4m7!3m6!1s0x39e513e633633bd3:0x85349391e6e83b69!8m2!3d26.1855009!4d87.8804768!16s%2Fg%2F11gr5y0kzk!19sChIJ0ztjM-YT5TkRaTvo5pGTNIU?authuser=0&hl=en&rclk=1",
        "coordinates": {
            "latitude": 26.185500899999997,
            "longitude": 87.8804768
        }
    },
    {
        "name": "Masjid -E- Aqusa msjid -e- aksaa",
        "main_category": "Mosque",
        "address": "Masjid -E- Aqusa msjid -e- aksaa, MGM Medical College, Kishanganj, Bihar 855107",
        "detailed_address": {
            "ward": null,
            "street": "MGM Medical College",
            "city": "Kishanganj",
            "postal_code": "855107",
            "state": "Bihar",
            "country_code": "IN"
        },
        "images": [
            {
                "about": "All",
                "link": "https://lh5.googleusercontent.com/p/AF1QipMeMySiIodalKgeTAEOV2UZxQ2rdf24zKc1egnz=w397-h298-k-no"
            }
        ],
        "link": "https://www.google.com/maps/place/Masjid+%E2%80%93E%E2%80%93+Aqusa+%E0%A4%AE%E0%A4%B8%E0%A5%8D%E0%A4%9C%E0%A4%BF%E0%A4%A6+%E2%80%93%E0%A4%8F%E2%80%93+%E0%A4%85%E0%A4%95%E0%A5%8D%E0%A4%B8%E0%A4%BE/data=!4m7!3m6!1s0x39e5175f8501fa09:0xe0edb71d74b97672!8m2!3d26.1011612!4d87.9709163!16s%2Fg%2F11txf2fz0t!19sChIJCfoBhV8X5TkRcna5dB237eA?authuser=0&hl=en&rclk=1",
        "coordinates": {
            "latitude": 26.1011612,
            "longitude": 87.9709163
        }
    },
    {
        "name": "Hussain Masjid",
        "main_category": "Mosque",
        "address": "Hussain Masjid, Dhaka Bhinja, Pothia, Hawai Adda Rd, Kishanganj, Bihar 855107",
        "detailed_address": {
            "ward": null,
            "street": "Dhaka Bhinja, Pothia, Hawai Adda Rd",
            "city": "Kishanganj",
            "postal_code": "855107",
            "state": "Bihar",
            "country_code": "IN"
        },
        "images": [
            {
                "about": "All",
                "link": "https://lh5.googleusercontent.com/p/AF1QipN9NNZnVeIf-VMhc2E80ioEW-hoLM6avN97Lm_C=w397-h298-k-no"
            },
            {
                "about": "Videos",
                "link": "https://lh5.googleusercontent.com/p/AF1QipOkbRLpsunTtjbES0W_7HZoN4g6J_wEIHdZczpV=w298-h298-k-no"
            }
        ],
        "link": "https://www.google.com/maps/place/Hussain+Masjid/data=!4m7!3m6!1s0x39e515acffa35cd7:0xde839be1f0627827!8m2!3d26.0814469!4d87.9330658!16s%2Fg%2F11qzc4w8t2!19sChIJ11yj_6wV5TkRJ3hi8OGbg94?authuser=0&hl=en&rclk=1",
        "coordinates": {
            "latitude": 26.0814469,
            "longitude": 87.9330658
        }
    },
    {
        "name": "Ayesha Masjid",
        "main_category": "Mosque",
        "address": "4X52+G6V Ayesha Masjid, Unnamed Road, Kishanganj, Bihar 855107",
        "detailed_address": {
            "ward": null,
            "street": "4X52+G6V, Unnamed Road",
            "city": "Kishanganj",
            "postal_code": "855107",
            "state": "Bihar",
            "country_code": "IN"
        },
        "images": [
            {
                "about": "All",
                "link": "https://lh5.googleusercontent.com/p/AF1QipMne1ZgiHzb-Ki07J705nh2AD7eH2M8tmgwT77f=w397-h298-k-no"
            }
        ],
        "link": "https://www.google.com/maps/place/Ayesha+Masjid/data=!4m7!3m6!1s0x39e5171eb12eb26f:0x5d64e040a2021b14!8m2!3d26.1088713!4d87.9505588!16s%2Fg%2F11my7r7f1h!19sChIJb7IusR4X5TkRFBsCokDgZF0?authuser=0&hl=en&rclk=1",
        "coordinates": {
            "latitude": 26.1088713,
            "longitude": 87.9505588
        }
    },
    {
        "name": "Haji Basti Jumma Masjid",
        "main_category": "Mosque",
        "address": "3WJC+GRX Haji Basti Jumma Masjid, Kishanganj, Bihar 855107",
        "detailed_address": {
            "ward": null,
            "street": "3WJC+GRX",
            "city": "Kishanganj",
            "postal_code": "855107",
            "state": "Bihar",
            "country_code": "IN"
        },
        "images": [
            {
                "about": "All",
                "link": "https://lh5.googleusercontent.com/p/AF1QipPGyqMZN0fM4xWut_pajpIblLcXMND6T5ZLbS6B=w397-h298-k-no"
            },
            {
                "about": "Videos",
                "link": "https://lh5.googleusercontent.com/p/AF1QipOtztQlfpbSkQgNMZQzXu2lt9G5LlmOcHJ3ddTk=w224-h407-k-no"
            }
        ],
        "link": "https://www.google.com/maps/place/Haji+Basti+Jumma+Masjid/data=!4m7!3m6!1s0x39e51431bce340e5:0xda7cba7c095e7524!8m2!3d26.0813739!4d87.922122!16s%2Fg%2F11d_d2scsy!19sChIJ5UDjvDEU5TkRJHVeCXy6fNo?authuser=0&hl=en&rclk=1",
        "coordinates": {
            "latitude": 26.0813739,
            "longitude": 87.922122
        }
    },
    {
        "name": "Mosque",
        "main_category": "Mosque",
        "address": "4X56+GF5 Mosque, Kochadhaman, Kishanganj, Bihar 733208",
        "detailed_address": {
            "ward": "Kochadhaman",
            "street": "4X56+GF5",
            "city": "Kishanganj",
            "postal_code": "733208",
            "state": "Bihar",
            "country_code": "IN"
        },
        "images": [
            {
                "about": "All",
                "link": "https://lh5.googleusercontent.com/p/AF1QipMGulUCMmnV4vg9oKDGmy7Aa_jFKYm3e3eXFmpk=w298-h298-k-no"
            },
            {
                "about": "Street View & 360deg",
                "link": "https://streetviewpixels-pa.googleapis.com/v1/thumbnail?panoid=1_C-ZtRsD-3eneq5KApG_g&cb_client=maps_sv.tactile.gps&w=224&h=298&yaw=254.55986&pitch=0&thumbfov=100"
            }
        ],
        "link": "https://www.google.com/maps/place/Mosque/data=!4m7!3m6!1s0x39e517abcee67339:0xd050e0ee32acefa1!8m2!3d26.1087687!4d87.9612486!16s%2Fg%2F11j9275x21!19sChIJOXPmzqsX5TkRoe-sMu7gUNA?authuser=0&hl=en&rclk=1",
        "coordinates": {
            "latitude": 26.1087687,
            "longitude": 87.96124859999999
        }
    },
    {
        "name": "Usmaan Bin Aafan Masjid (Tahfizul Al Quran)",
        "main_category": "Mosque",
        "address": "4W3R+9XF Usmaan Bin Aafan Masjid (Tahfizul Al Quran), Subhaspally, Kishanganj, Bihar 855107",
        "detailed_address": {
            "ward": "Subhaspally",
            "street": "4W3R+9XF",
            "city": "Kishanganj",
            "postal_code": "855107",
            "state": "Bihar",
            "country_code": "IN"
        },
        "images": [
            {
                "about": "All",
                "link": "https://streetviewpixels-pa.googleapis.com/v1/thumbnail?panoid=ZNYzvqNu5kUG_mrd_F3QCQ&cb_client=maps_sv.tactile.gps&w=224&h=298&yaw=112.013954&pitch=0&thumbfov=100"
            },
            {
                "about": "Street View & 360deg",
                "link": "https://streetviewpixels-pa.googleapis.com/v1/thumbnail?panoid=ZNYzvqNu5kUG_mrd_F3QCQ&cb_client=maps_sv.tactile.gps&w=224&h=298&yaw=112.013954&pitch=0&thumbfov=100"
            }
        ],
        "link": "https://www.google.com/maps/place/Usmaan+Bin+Aafan+Masjid+%28Tahfizul+Al+Quran%29/data=!4m7!3m6!1s0x39e516a357e9f9a5:0xca59179fcd4187d6!8m2!3d26.1034336!4d87.9424301!16s%2Fg%2F11c6rjhvdc!19sChIJpfnpV6MW5TkR1odBzZ8XWco?authuser=0&hl=en&rclk=1",
        "coordinates": {
            "latitude": 26.1034336,
            "longitude": 87.9424301
        }
    },
    {
        "name": "Jama masjid Balu bari",
        "main_category": "Mosque",
        "address": "3WXV+8X5 Jama masjid Balu bari, Bihar,kishanganj,baluba, Kishanganj",
        "detailed_address": {
            "ward": null,
            "street": "3WXV+8X5, Bihar,kishanganj,baluba",
            "city": "Kishanganj",
            "postal_code": null,
            "state": "Bihar",
            "country_code": "IN"
        },
        "images": [
            {
                "about": "All",
                "link": "https://lh5.googleusercontent.com/p/AF1QipNc1cNcv23QDqFwbFvD3G4Z0cMKPWkAdf5OishF=w397-h298-k-no"
            },
            {
                "about": "Dome",
                "link": "https://lh5.googleusercontent.com/p/AF1QipNc1cNcv23QDqFwbFvD3G4Z0cMKPWkAdf5OishF=w397-h298-k-no"
            },
            {
                "about": "Street View & 360deg",
                "link": "https://streetviewpixels-pa.googleapis.com/v1/thumbnail?panoid=ImzG-DIbfC9FaW0YrVNN-Q&cb_client=maps_sv.tactile.gps&w=224&h=298&yaw=3.054785&pitch=0&thumbfov=100"
            }
        ],
        "link": "https://www.google.com/maps/place/Jama+masjid+Balu+bari/data=!4m7!3m6!1s0x39e5172965e17e77:0x7563322bd025a3ba!8m2!3d26.0982644!4d87.9449911!16s%2Fg%2F11ng6v1gw9!19sChIJd37hZSkX5TkRuqMl0CsyY3U?authuser=0&hl=en&rclk=1",
        "coordinates": {
            "latitude": 26.098264399999998,
            "longitude": 87.9449911
        }
    },
    {
        "name": "JAMA MASJID IMAM ABU HANEEFA",
        "main_category": "Mosque",
        "address": "4W7H+WH9 JAMA MASJID IMAM ABU HANEEFA, Marwari college Rd, Jagmohan Colony, Lahra Phulwari, Phulwari, Bihar 855107",
        "detailed_address": {
            "ward": "Jagmohan Colony",
            "street": "4W7H+WH9, Marwari college Rd",
            "city": "Lahra Phulwari, Phulwari",
            "postal_code": "855107",
            "state": "Bihar",
            "country_code": "IN"
        },
        "images": [
            {
                "about": "All",
                "link": "https://streetviewpixels-pa.googleapis.com/v1/thumbnail?panoid=zlQTijUKEipCBvIZxcxcrQ&cb_client=maps_sv.tactile.gps&w=224&h=298&yaw=205.6167&pitch=0&thumbfov=100"
            },
            {
                "about": "Street View & 360deg",
                "link": "https://streetviewpixels-pa.googleapis.com/v1/thumbnail?panoid=zlQTijUKEipCBvIZxcxcrQ&cb_client=maps_sv.tactile.gps&w=224&h=298&yaw=205.6167&pitch=0&thumbfov=100"
            }
        ],
        "link": "https://www.google.com/maps/place/JAMA+MASJID+IMAM+ABU+HANEEFA/data=!4m7!3m6!1s0x39e51571ddba957d:0x49403c164d01f001!8m2!3d26.1147893!4d87.9289837!16s%2Fg%2F11r9f8nvs8!19sChIJfZW63XEV5TkRAfABTRY8QEk?authuser=0&hl=en&rclk=1",
        "coordinates": {
            "latitude": 26.114789299999998,
            "longitude": 87.92898369999999
        }
    },
    {
        "name": "Jama Masjid Tengarmari Market",
        "main_category": "Mosque",
        "address": "5X88+5V2 Jama Masjid Tengarmari Market, Kishanganj - Tayyabpur - Thakurganj - Galgaliya Rd, Kasipur, Tengramari, Bihar 733208",
        "detailed_address": {
            "ward": null,
            "street": "5X88+5V2, Kishanganj - Tayyabpur - Thakurganj - Galgaliya Rd",
            "city": "Kasipur, Tengramari",
            "postal_code": "733208",
            "state": "Bihar",
            "country_code": "IN"
        },
        "images": [
            {
                "about": "All",
                "link": "https://lh5.googleusercontent.com/p/AF1QipN8i09Xirsj-cDtkrhqvj8-cuwpmoRg-LmPK2rI=w529-h298-k-no"
            },
            {
                "about": "Street View & 360deg",
                "link": "https://streetviewpixels-pa.googleapis.com/v1/thumbnail?panoid=n6HJGESgz0NulY5Z1m6ihA&cb_client=maps_sv.tactile.gps&w=224&h=298&yaw=123.670006&pitch=0&thumbfov=100"
            }
        ],
        "link": "https://www.google.com/maps/place/Jama+Masjid+Tengarmari+Market/data=!4m7!3m6!1s0x39e511fe4a4fb605:0xe93aa559bf1165f0!8m2!3d26.1653976!4d87.9671461!16s%2Fg%2F11n0bgnsgg!19sChIJBbZPSv4R5TkR8GURv1mlOuk?authuser=0&hl=en&rclk=1",
        "coordinates": {
            "latitude": 26.1653976,
            "longitude": 87.9671461
        }
    },
    {
        "name": "Machhmara Masjid",
        "main_category": "Mosque",
        "address": "3WMR+857 Machhmara Masjid, Kishanganj, Bihar 733209",
        "detailed_address": {
            "ward": null,
            "street": "3WMR+857",
            "city": "Kishanganj",
            "postal_code": "733209",
            "state": "Bihar",
            "country_code": "IN"
        },
        "images": [
            {
                "about": "All",
                "link": "https://lh5.googleusercontent.com/p/AF1QipO2K9jtjcjNAqN6KDrWnzj4VtnayEnnuYkBJXkn=w662-h298-k-no"
            }
        ],
        "link": "https://www.google.com/maps/place/Machhmara+Masjid/data=!4m7!3m6!1s0x39e517104d9ba667:0xb4928db95a8c8e61!8m2!3d26.0832797!4d87.9404237!16s%2Fg%2F11n_v8kqs_!19sChIJZ6abTRAX5TkRYY6MWrmNkrQ?authuser=0&hl=en&rclk=1",
        "coordinates": {
            "latitude": 26.0832797,
            "longitude": 87.9404237
        }
    },
    {
        "name": "Shahi Masjid_e_Bilal",
        "main_category": "Mosque",
        "address": "4W3W+6RW Shahi Masjid_e_Bilal, Line Para Main Rd, Line Mohalla, Kishanganj, Bihar 855107",
        "detailed_address": {
            "ward": "Line Mohalla",
            "street": "4W3W+6RW, Line Para Main Rd",
            "city": "Kishanganj",
            "postal_code": "855107",
            "state": "Bihar",
            "country_code": "IN"
        },
        "images": [],
        "link": "https://www.google.com/maps/place/Shahi+Masjid_e_Bilal/data=!4m7!3m6!1s0x39e517fb2e679c89:0x4a99d775808adff6!8m2!3d26.1031029!4d87.9468853!16s%2Fg%2F11s7t4ltpf!19sChIJiZxnLvsX5TkR9t-KgHXXmUo?authuser=0&hl=en&rclk=1",
        "coordinates": {
            "latitude": 26.1031029,
            "longitude": 87.94688529999999
        }
    },
    {
        "name": "Jama Masjid",
        "main_category": "Mosque",
        "address": "3WMF+WWH Jama Masjid, Purana khagra, Moulvi tola, Bilatibari, Kishanganj, Bihar 855107",
        "detailed_address": {
            "ward": "Moulvi tola",
            "street": "3WMF+WWH, Purana khagra",
            "city": "Bilatibari, Kishanganj",
            "postal_code": "855107",
            "state": "Bihar",
            "country_code": "IN"
        },
        "images": [],
        "link": "https://www.google.com/maps/place/Jama+Masjid/data=!4m7!3m6!1s0x39e515f7d8a6541b:0xe66e1829fde405b2!8m2!3d26.0848181!4d87.9248513!16s%2Fg%2F11nmqpcv20!19sChIJG1Sm2PcV5TkRsgXk_SkYbuY?authuser=0&hl=en&rclk=1",
        "coordinates": {
            "latitude": 26.0848181,
            "longitude": 87.9248513
        }
    },
    {
        "name": "Purana Khagra Masjid",
        "main_category": "Mosque",
        "address": "3WPC+CWQ Purana Khagra Masjid, Kishanganj, Bihar 855107",
        "detailed_address": {
            "ward": null,
            "street": "3WPC+CWQ",
            "city": "Kishanganj",
            "postal_code": "855107",
            "state": "Bihar",
            "country_code": "IN"
        },
        "images": [
            {
                "about": "All",
                "link": "https://streetviewpixels-pa.googleapis.com/v1/thumbnail?panoid=6Z1rkwSM-D3wbpUEcjrbxQ&cb_client=maps_sv.tactile.gps&w=224&h=298&yaw=129.19731&pitch=0&thumbfov=100"
            },
            {
                "about": "Street View & 360deg",
                "link": "https://streetviewpixels-pa.googleapis.com/v1/thumbnail?panoid=6Z1rkwSM-D3wbpUEcjrbxQ&cb_client=maps_sv.tactile.gps&w=224&h=298&yaw=129.19731&pitch=0&thumbfov=100"
            }
        ],
        "link": "https://www.google.com/maps/place/Purana+Khagra+Masjid/data=!4m7!3m6!1s0x39e51597aded9841:0xfc071cc78cc82a66!8m2!3d26.0860958!4d87.9223629!16s%2Fg%2F11j046mv31!19sChIJQZjtrZcV5TkRZirIjMccB_w?authuser=0&hl=en&rclk=1",
        "coordinates": {
            "latitude": 26.0860958,
            "longitude": 87.9223629
        }
    },
    {
        "name": "Rahmani Jama Masjid",
        "main_category": "Mosque",
        "address": "4X63+738 Rahmani Jama Masjid, karbala, Loharpatti Rd, Kishanganj, Bihar 855107",
        "detailed_address": {
            "ward": null,
            "street": "4X63+738 karbala, Loharpatti Rd",
            "city": "Kishanganj",
            "postal_code": "855107",
            "state": "Bihar",
            "country_code": "IN"
        },
        "images": [
            {
                "about": "All",
                "link": "https://lh5.googleusercontent.com/p/AF1QipNU19lxpxF-TBzmUoiOO3nJC54X9AFVL90HKiD0=w224-h298-k-no"
            },
            {
                "about": "Dome",
                "link": "https://lh5.googleusercontent.com/p/AF1QipM8F0W9LKwxETs-ovyUwGB0BckGt2ErVGYRLTPD=w224-h485-k-no"
            },
            {
                "about": "Videos",
                "link": "https://lh5.googleusercontent.com/p/AF1QipNALfM5vxLfCXbPxAqdpeUeRiawuY3VSfzLWvY_=w224-h398-k-no"
            },
            {
                "about": "Street View & 360deg",
                "link": "https://streetviewpixels-pa.googleapis.com/v1/thumbnail?panoid=qPTc39BDrrNGlSCkhwAKfA&cb_client=maps_sv.tactile.gps&w=224&h=298&yaw=310.6075&pitch=0&thumbfov=100"
            }
        ],
        "link": "https://www.google.com/maps/place/Rahmani+Jama+Masjid/data=!4m7!3m6!1s0x39e517d2e0a44065:0x962fd0f7e7ae1c0!8m2!3d26.1106269!4d87.9526558!16s%2Fg%2F11kpd0wznh!19sChIJZUCk4NIX5TkRwOF6fg_9Ygk?authuser=0&hl=en&rclk=1",
        "coordinates": {
            "latitude": 26.1106269,
            "longitude": 87.9526558
        }
    },
    {
        "name": "Anjuman Islamia Masjid",
        "main_category": "Mosque",
        "address": "4W3R+JC9 Anjuman Islamia Masjid, Subhaspally, Kishanganj, Bihar 855107",
        "detailed_address": {
            "ward": "Subhaspally",
            "street": "4W3R+JC9",
            "city": "Kishanganj",
            "postal_code": "855107",
            "state": "Bihar",
            "country_code": "IN"
        },
        "images": [
            {
                "about": "All",
                "link": "https://streetviewpixels-pa.googleapis.com/v1/thumbnail?panoid=-rABptM0sMRviE3_tbNAPA&cb_client=maps_sv.tactile.gps&w=224&h=298&yaw=71.06458&pitch=0&thumbfov=100"
            },
            {
                "about": "Street View & 360deg",
                "link": "https://streetviewpixels-pa.googleapis.com/v1/thumbnail?panoid=-rABptM0sMRviE3_tbNAPA&cb_client=maps_sv.tactile.gps&w=224&h=298&yaw=71.06458&pitch=0&thumbfov=100"
            }
        ],
        "link": "https://www.google.com/maps/place/Anjuman+Islamia+Masjid/data=!4m7!3m6!1s0x39e51746e6da0897:0x8b00d5b7a80af2f!8m2!3d26.1040455!4d87.9411083!16s%2Fg%2F11rscr7kc2!19sChIJlwja5kYX5TkRL6-AelsNsAg?authuser=0&hl=en&rclk=1",
        "coordinates": {
            "latitude": 26.104045499999998,
            "longitude": 87.9411083
        }
    },
    {
        "name": "Juljuli sunni jama masjid",
        "main_category": "Mosque",
        "address": "3XH2+23F Juljuli sunni jama masjid, masjid, Juljuli Rd, Kishanganj, Juljuli, Bihar 855107",
        "detailed_address": {
            "ward": null,
            "street": "3XH2+23F masjid, Juljuli Rd",
            "city": "Kishanganj, Juljuli",
            "postal_code": "855107",
            "state": "Bihar",
            "country_code": "IN"
        },
        "images": [],
        "link": "https://www.google.com/maps/place/Juljuli+sunni+jama+masjid/data=!4m7!3m6!1s0x39e5170ec8432b21:0x4825b60b9ecb6d55!8m2!3d26.0775692!4d87.9505764!16s%2Fg%2F11t852vsgp!19sChIJIStDyA4X5TkRVW3Lngu2JUg?authuser=0&hl=en&rclk=1",
        "coordinates": {
            "latitude": 26.0775692,
            "longitude": 87.9505764
        }
    },
    {
        "name": "Omar Mosque",
        "main_category": "Mosque",
        "address": "5X98+QR4 Omar Mosque, Kishanganj - Tayyabpur - Thakurganj - Galgaliya Rd, Kasipur, Tengramari, Bihar 733208",
        "detailed_address": {
            "ward": null,
            "street": "5X98+QR4, Kishanganj - Tayyabpur - Thakurganj - Galgaliya Rd",
            "city": "Kasipur, Tengramari",
            "postal_code": "733208",
            "state": "Bihar",
            "country_code": "IN"
        },
        "images": [
            {
                "about": "All",
                "link": "https://lh5.googleusercontent.com/p/AF1QipN14pQ6Js2oqeAslTbyEs_DOP992VPwZGFQnQDF=w603-h298-k-no"
            },
            {
                "about": "Street View & 360deg",
                "link": "https://streetviewpixels-pa.googleapis.com/v1/thumbnail?panoid=vLxw_P5hGzbxCgcgJSGiYA&cb_client=maps_sv.tactile.gps&w=224&h=298&yaw=163.31126&pitch=0&thumbfov=100"
            }
        ],
        "link": "https://www.google.com/maps/place/Omar+Mosque/data=!4m7!3m6!1s0x39e511911272a531:0xd9686f1c4fea85fb!8m2!3d26.1693805!4d87.9670854!16s%2Fg%2F11r5n2n75m!19sChIJMaVyEpER5TkR-4XqTxxvaNk?authuser=0&hl=en&rclk=1",
        "coordinates": {
            "latitude": 26.1693805,
            "longitude": 87.9670854
        }
    },
    {
        "name": "Noori Jama Masjid",
        "main_category": "Mosque",
        "address": "4W5X+PQR Noori Jama Masjid, Ghoramara, Kishanganj, Bihar 855107",
        "detailed_address": {
            "ward": null,
            "street": "4W5X+PQR",
            "city": "Ghoramara, Kishanganj",
            "postal_code": null,
            "state": "Bihar",
            "country_code": "IN"
        },
        "images": [],
        "link": "https://www.google.com/maps/place/Noori+Jama+Masjid/data=!4m7!3m6!1s0x39e517248c6c3bbf:0x9ee901cc91399fb8!8m2!3d26.1093615!4d87.9493915!16s%2Fg%2F11fwj0gntc!19sChIJvztsjCQX5TkRuJ85kcwB6Z4?authuser=0&hl=en&rclk=1",
        "coordinates": {
            "latitude": 26.1093615,
            "longitude": 87.94939149999999
        }
    },
    {
        "name": "Jama Masjid,Saudagarpatti",
        "main_category": "Mosque",
        "address": "4X32+PH9 Jama Masjid,Saudagarpatti, Saudagar Patti Rd, Kochadhaman, Kishanganj, Bihar 733208",
        "detailed_address": {
            "ward": "Kochadhaman",
            "street": "4X32+PH9, Saudagar Patti Rd",
            "city": "Kishanganj",
            "postal_code": "733208",
            "state": "Bihar",
            "country_code": "IN"
        },
        "images": [
            {
                "about": "All",
                "link": "https://streetviewpixels-pa.googleapis.com/v1/thumbnail?panoid=Etffx4eqySPWOSVk6K4Ovg&cb_client=maps_sv.tactile.gps&w=224&h=298&yaw=46.26018&pitch=0&thumbfov=100"
            },
            {
                "about": "Street View & 360deg",
                "link": "https://streetviewpixels-pa.googleapis.com/v1/thumbnail?panoid=Etffx4eqySPWOSVk6K4Ovg&cb_client=maps_sv.tactile.gps&w=224&h=298&yaw=46.26018&pitch=0&thumbfov=100"
            }
        ],
        "link": "https://www.google.com/maps/place/Jama+Masjid,Saudagarpatti/data=!4m7!3m6!1s0x39e517fd29f05779:0x539891275a564771!8m2!3d26.1042816!4d87.9514706!16s%2Fg%2F11r225fc07!19sChIJeVfwKf0X5TkRcUdWWieRmFM?authuser=0&hl=en&rclk=1",
        "coordinates": {
            "latitude": 26.1042816,
            "longitude": 87.9514706
        }
    },
    {
        "name": "Nuri Masjid Barahgharia",
        "main_category": "Mosque",
        "address": "3WVG+V73 Nuri Masjid Barahgharia, Bahdurganj Qadam Rasul Road, Bihar 855107",
        "detailed_address": {
            "ward": null,
            "street": "3WVG+V73, Bahdurganj Qadam Rasul Road",
            "city": "Kishanganj",
            "postal_code": "855107",
            "state": "Bihar",
            "country_code": "IN"
        },
        "images": [
            {
                "about": "All",
                "link": "https://lh5.googleusercontent.com/p/AF1QipOLFYZBEnLfK7Ss6aRQmO7FY6Gx9_CyWS5JOSeP=w529-h298-k-no"
            },
            {
                "about": "Street View & 360deg",
                "link": "https://streetviewpixels-pa.googleapis.com/v1/thumbnail?panoid=5CNrkZCj1b9LSHCrr-xF7w&cb_client=maps_sv.tactile.gps&w=224&h=298&yaw=135.33025&pitch=0&thumbfov=100"
            },
            {
                "about": "Videos",
                "link": "https://lh5.googleusercontent.com/p/AF1QipMKeMnYO8YSNWbZmlzcX94b4yQHaQ1591VO_GGV=w529-h298-k-no"
            }
        ],
        "link": "https://www.google.com/maps/place/Nuri+Masjid+Barahgharia/data=!4m7!3m6!1s0x39e515430cb9a081:0xcbedb48ff48d0a29!8m2!3d26.0946362!4d87.9256774!16s%2Fg%2F11pwck05_7!19sChIJgaC5DEMV5TkRKQqN9I-07cs?authuser=0&hl=en&rclk=1",
        "coordinates": {
            "latitude": 26.0946362,
            "longitude": 87.9256774
        }
    },
    {
        "name": "Khanquah Masjid",
        "main_category": "Mosque",
        "address": "3WXR+66W Khanquah Masjid, Khanquah Chowk (Ruhidhasa, Khanquah Ruidhasa Rd, Ruidhasa, Kishanganj, Bihar 855108",
        "detailed_address": {
            "ward": "Ruidhasa",
            "street": "3WXR+66W, Khanquah Chowk (Ruhidhasa, Khanquah Ruidhasa Rd",
            "city": "Kishanganj",
            "postal_code": "855108",
            "state": "Bihar",
            "country_code": "IN"
        },
        "images": [
            {
                "about": "All",
                "link": "https://streetviewpixels-pa.googleapis.com/v1/thumbnail?panoid=9pY3BWKM8NFRn-hntUSO_A&cb_client=maps_sv.tactile.gps&w=224&h=298&yaw=308.07672&pitch=0&thumbfov=100"
            },
            {
                "about": "Street View & 360deg",
                "link": "https://streetviewpixels-pa.googleapis.com/v1/thumbnail?panoid=9pY3BWKM8NFRn-hntUSO_A&cb_client=maps_sv.tactile.gps&w=224&h=298&yaw=308.07672&pitch=0&thumbfov=100"
            }
        ],
        "link": "https://www.google.com/maps/place/Khanquah+Masjid/data=!4m7!3m6!1s0x39e517c29d48092d:0x43b0ff3ca928693!8m2!3d26.0981051!4d87.9405875!16s%2Fg%2F11rhpnkny6!19sChIJLQlIncIX5TkRk4aSyvMPOwQ?authuser=0&hl=en&rclk=1",
        "coordinates": {
            "latitude": 26.098105099999998,
            "longitude": 87.94058749999999
        }
    },
    {
        "name": "Masjid roudha",
        "main_category": "Mosque",
        "address": "4W5G+P6W Masjid roudha, Kishanganj, Bihar 855107",
        "detailed_address": {
            "ward": null,
            "street": "4W5G+P6W",
            "city": "Kishanganj",
            "postal_code": "855107",
            "state": "Bihar",
            "country_code": "IN"
        },
        "images": [
            {
                "about": "All",
                "link": "https://streetviewpixels-pa.googleapis.com/v1/thumbnail?panoid=DGClKz--P99TJ3VZejGHbQ&cb_client=maps_sv.tactile.gps&w=224&h=298&yaw=131.30496&pitch=0&thumbfov=100"
            },
            {
                "about": "Street View & 360deg",
                "link": "https://streetviewpixels-pa.googleapis.com/v1/thumbnail?panoid=DGClKz--P99TJ3VZejGHbQ&cb_client=maps_sv.tactile.gps&w=224&h=298&yaw=131.30496&pitch=0&thumbfov=100"
            }
        ],
        "link": "https://www.google.com/maps/place/Masjid+roudha/data=!4m7!3m6!1s0x39e515b310c05295:0x8f90659d587d309c!8m2!3d26.1093663!4d87.9255771!16s%2Fg%2F11s_rvvdlc!19sChIJlVLAELMV5TkRnDB9WJ1lkI8?authuser=0&hl=en&rclk=1",
        "coordinates": {
            "latitude": 26.109366299999998,
            "longitude": 87.9255771
        }
    },
    {
        "name": "Iqubal Colony Masjid",
        "main_category": "Mosque",
        "address": "Iqubal Colony Masjid, Iqubal Colony, Paschimpalli, Kishanganj, Bihar 855107",
        "detailed_address": {
            "ward": "Paschimpalli",
            "street": "Iqubal Colony",
            "city": "Kishanganj",
            "postal_code": "855107",
            "state": "Bihar",
            "country_code": "IN"
        },
        "images": [
            {
                "about": "All",
                "link": "https://streetviewpixels-pa.googleapis.com/v1/thumbnail?panoid=ImzG-DIbfC9FaW0YrVNN-Q&cb_client=maps_sv.tactile.gps&w=224&h=298&yaw=3.054785&pitch=0&thumbfov=100"
            },
            {
                "about": "Street View & 360deg",
                "link": "https://streetviewpixels-pa.googleapis.com/v1/thumbnail?panoid=ImzG-DIbfC9FaW0YrVNN-Q&cb_client=maps_sv.tactile.gps&w=224&h=298&yaw=3.054785&pitch=0&thumbfov=100"
            }
        ],
        "link": "https://www.google.com/maps/place/Iqubal+Colony+Masjid/data=!4m7!3m6!1s0x39e517f8a561063b:0xf93b1dcabd2f7520!8m2!3d26.0982644!4d87.9449911!16s%2Fg%2F11tjvxqv5m!19sChIJOwZhpfgX5TkRIHUvvcodO_k?authuser=0&hl=en&rclk=1",
        "coordinates": {
            "latitude": 26.098264399999998,
            "longitude": 87.9449911
        }
    },
    {
        "name": "Masjid Quba,Singhia Madninagar Sultanpur, Kishanganj",
        "main_category": "Mosque",
        "address": "4W4H+PHV Masjid Quba,Singhia Madninagar Sultanpur, Kishanganj, Singhia, Sultanpur, Bihar 855107",
        "detailed_address": {
            "ward": null,
            "street": "4W4H+PHV",
            "city": "Singhia, Sultanpur",
            "postal_code": "855107",
            "state": "Bihar",
            "country_code": "IN"
        },
        "images": [],
        "link": "https://www.google.com/maps/place/Masjid+Quba,Singhia+Madninagar+Sultanpur,+Kishanganj/data=!4m7!3m6!1s0x39e51564ddc4cc8b:0x6be64e53eea85f33!8m2!3d26.1068509!4d87.9289065!16s%2Fg%2F11krytm3s2!19sChIJi8zE3WQV5TkRM1-o7lNO5ms?authuser=0&hl=en&rclk=1",
        "coordinates": {
            "latitude": 26.106850899999998,
            "longitude": 87.9289065
        }
    },
    {
        "name": "Badi Masjid",
        "main_category": "Mosque",
        "address": "4X32+MH6 Badi Masjid, Saudagar Patti Rd, Kochadhaman, Kishanganj, Bihar 733208",
        "detailed_address": {
            "ward": "Kochadhaman",
            "street": "4X32+MH6, Saudagar Patti Rd",
            "city": "Kishanganj",
            "postal_code": "733208",
            "state": "Bihar",
            "country_code": "IN"
        },
        "images": [
            {
                "about": "All",
                "link": "https://streetviewpixels-pa.googleapis.com/v1/thumbnail?panoid=Etffx4eqySPWOSVk6K4Ovg&cb_client=maps_sv.tactile.gps&w=224&h=298&yaw=135.09079&pitch=0&thumbfov=100"
            },
            {
                "about": "Street View & 360deg",
                "link": "https://streetviewpixels-pa.googleapis.com/v1/thumbnail?panoid=Etffx4eqySPWOSVk6K4Ovg&cb_client=maps_sv.tactile.gps&w=224&h=298&yaw=135.09079&pitch=0&thumbfov=100"
            }
        ],
        "link": "https://www.google.com/maps/place/Badi+Masjid/data=!4m7!3m6!1s0x39e516b8ce7d7131:0xe713af595f5a1dfe!8m2!3d26.1041521!4d87.951399!16s%2Fg%2F11h9zhgxsl!19sChIJMXF9zrgW5TkR_h1aX1mvE-c?authuser=0&hl=en&rclk=1",
        "coordinates": {
            "latitude": 26.1041521,
            "longitude": 87.951399
        }
    },
    {
        "name": "Jama masjid pothia",
        "main_category": "Mosque",
        "address": "3W9P+XJ6 Jama masjid pothia, Kamrsal, Dighli Rd, Kishanganj, Bihar 733209",
        "detailed_address": {
            "ward": null,
            "street": "3W9P+XJ6, Kamrsal, Dighli Rd",
            "city": "Kishanganj, Pothia Dhekabhinja",
            "postal_code": "733209",
            "state": "Bihar",
            "country_code": "IN"
        },
        "images": [],
        "link": "https://www.google.com/maps/place/Jama+masjid+pothia/data=!4m7!3m6!1s0x39e517659dd9722d:0x2448c0eaafbffac8!8m2!3d26.0699213!4d87.9365168!16s%2Fg%2F11k558dhh6!19sChIJLXLZnWUX5TkRyPq_r-rASCQ?authuser=0&hl=en&rclk=1",
        "coordinates": {
            "latitude": 26.069921299999997,
            "longitude": 87.93651679999999
        }
    },
    {
        "name": "Maheshbathna Paschimtola Jame Masjid Kishanganj..",
        "main_category": "Mosque",
        "address": "4WMM+9C5 Maheshbathna Paschimtola Jame Masjid Kishanganj.., Road, Gachpara, Mahesh Bathna Khas, Bihar 855107",
        "detailed_address": {
            "ward": null,
            "street": "4WMM+9C5, Road",
            "city": "Gachpara, Mahesh Bathna Khas",
            "postal_code": "855107",
            "state": "Bihar",
            "country_code": "IN"
        },
        "images": [
            {
                "about": "All",
                "link": "https://streetviewpixels-pa.googleapis.com/v1/thumbnail?panoid=wRpQ3lJzVQowgaihOjA95w&cb_client=maps_sv.tactile.gps&w=224&h=298&yaw=9.450713&pitch=0&thumbfov=100"
            },
            {
                "about": "Street View & 360deg",
                "link": "https://streetviewpixels-pa.googleapis.com/v1/thumbnail?panoid=wRpQ3lJzVQowgaihOjA95w&cb_client=maps_sv.tactile.gps&w=224&h=298&yaw=9.450713&pitch=0&thumbfov=100"
            }
        ],
        "link": "https://www.google.com/maps/place/Maheshbathna+Paschimtola+Jame+Masjid+Kishanganj../data=!4m7!3m6!1s0x39e5114026059b67:0xb233f62c263443cc!8m2!3d26.1333952!4d87.9336022!16s%2Fg%2F11nrvlxnvr!19sChIJZ5sFJkAR5TkRzEM0Jiz2M7I?authuser=0&hl=en&rclk=1",
        "coordinates": {
            "latitude": 26.1333952,
            "longitude": 87.9336022
        }
    },
    {
        "name": "Masjid Alli",
        "main_category": "Mosque",
        "address": "Masjid Alli, Mohra, Moudho, Kochadhaman, Kishanganj, Alta, Bihar 855107",
        "detailed_address": {
            "ward": "Kochadhaman",
            "street": "Mohra, Moudho",
            "city": "Kishanganj, Alta",
            "postal_code": null,
            "state": "Bihar",
            "country_code": "IN"
        },
        "images": [],
        "link": "https://www.google.com/maps/place/Masjid+Alli/data=!4m7!3m6!1s0x39e51304c2b80d09:0x26ea094a05fabe83!8m2!3d26.1385884!4d87.8588662!16s%2Fg%2F11h12w5v7f!19sChIJCQ24wgQT5TkRg776BUoJ6iY?authuser=0&hl=en&rclk=1",
        "coordinates": {
            "latitude": 26.1385884,
            "longitude": 87.8588662
        }
    },
    {
        "name": "Khirdoh Noori Jama masjid",
        "main_category": "Mosque",
        "address": "3WM5+2Q3 Khirdoh Noori Jama masjid, Khirdho - Halim Chowk Rd, Khirdoh, Bihar 855107",
        "detailed_address": {
            "ward": null,
            "street": "3WM5+2Q3, Khirdho - Halim Chowk Rd",
            "city": "Khirdoh",
            "postal_code": "855107",
            "state": "Bihar",
            "country_code": "IN"
        },
        "images": [
            {
                "about": "All",
                "link": "https://streetviewpixels-pa.googleapis.com/v1/thumbnail?panoid=zvCVSOdU_YuLT7ezJsVsCg&cb_client=maps_sv.tactile.gps&w=224&h=298&yaw=90.76167&pitch=0&thumbfov=100"
            },
            {
                "about": "Street View & 360deg",
                "link": "https://streetviewpixels-pa.googleapis.com/v1/thumbnail?panoid=zvCVSOdU_YuLT7ezJsVsCg&cb_client=maps_sv.tactile.gps&w=224&h=298&yaw=90.76167&pitch=0&thumbfov=100"
            }
        ],
        "link": "https://www.google.com/maps/place/Khirdoh+Noori+Jama+masjid/data=!4m7!3m6!1s0x39e515f175eceb27:0xbc81cb80258d281b!8m2!3d26.0825201!4d87.9094308!16s%2Fg%2F11fl0wmm3c!19sChIJJ-vsdfEV5TkRGyiNJYDLgbw?authuser=0&hl=en&rclk=1",
        "coordinates": {
            "latitude": 26.0825201,
            "longitude": 87.9094308
        }
    },
    {
        "name": "Chapore Jama Masjid",
        "main_category": "Mosque",
        "address": "3WCF+5X Chapore Jama Masjid, Belan, West Bengal 733209",
        "detailed_address": {
            "ward": null,
            "street": "3WCF+5X",
            "city": "Belan",
            "postal_code": null,
            "state": "West Bengal",
            "country_code": "IN"
        },
        "images": [],
        "link": "https://www.google.com/maps/place/Chapore+Jama+Masjid/data=!4m7!3m6!1s0x39e515015f1378a7:0x2b03fc9475a777d5!8m2!3d26.0704077!4d87.9248932!16s%2Fg%2F11js5s2c7m!19sChIJp3gTXwEV5TkR1XendZT8Ays?authuser=0&hl=en&rclk=1",
        "coordinates": {
            "latitude": 26.0704077,
            "longitude": 87.9248932
        }
    },
    {
        "name": "Alinager masjid, kishanganj near rice meal",
        "main_category": "Mosque",
        "address": "4W5V+HJP Alinager masjid, kishanganj near rice meal, Kishanganj, Bihar 855107",
        "detailed_address": {
            "ward": null,
            "street": "4W5V+HJP",
            "city": "Kishanganj",
            "postal_code": null,
            "state": "Bihar",
            "country_code": "IN"
        },
        "images": [],
        "link": "https://www.google.com/maps/place/Alinager+masjid,+kishanganj+near+rice+meal/data=!4m7!3m6!1s0x39e5171ad9d65aa3:0x41d702bb31abc4f2!8m2!3d26.1089652!4d87.9440787!16s%2Fg%2F11k43dlmx9!19sChIJo1rW2RoX5TkR8sSrMbsC10E?authuser=0&hl=en&rclk=1",
        "coordinates": {
            "latitude": 26.1089652,
            "longitude": 87.94407869999999
        }
    },
    {
        "name": "Masjid",
        "main_category": "Mosque",
        "address": "3WPQ+RJ2 Masjid, Kishanganj, Bihar 733209",
        "detailed_address": {
            "ward": null,
            "street": "3WPQ+RJ2",
            "city": "Kishanganj",
            "postal_code": null,
            "state": "Bihar",
            "country_code": "IN"
        },
        "images": [
            {
                "about": "All",
                "link": "https://streetviewpixels-pa.googleapis.com/v1/thumbnail?panoid=KWxIkK7xO4oEXmxfk1rPrQ&cb_client=maps_sv.tactile.gps&w=224&h=298&yaw=157.3947&pitch=0&thumbfov=100"
            },
            {
                "about": "Street View & 360deg",
                "link": "https://streetviewpixels-pa.googleapis.com/v1/thumbnail?panoid=KWxIkK7xO4oEXmxfk1rPrQ&cb_client=maps_sv.tactile.gps&w=224&h=298&yaw=157.3947&pitch=0&thumbfov=100"
            },
            {
                "about": "Videos",
                "link": "https://lh5.googleusercontent.com/p/AF1QipM4z_4MmKBXq4h9_gHmPlT7jH6a51t8OQeI3z2Y=w224-h398-k-no"
            }
        ],
        "link": "https://www.google.com/maps/place/Masjid/data=!4m7!3m6!1s0x39e517d1245b0c2f:0x8b0573f43d999eca!8m2!3d26.0870007!4d87.9390246!16s%2Fg%2F11flzk_v_6!19sChIJLwxbJNEX5TkRyp6ZPfRzBYs?authuser=0&hl=en&rclk=1",
        "coordinates": {
            "latitude": 26.087000699999997,
            "longitude": 87.9390246
        }
    },
    {
        "name": "Court Masjid",
        "main_category": "Mosque",
        "address": "Court Masjid, District Court, NH31, Kishanganj, Bihar 733208",
        "detailed_address": {
            "ward": null,
            "street": "District Court, NH31",
            "city": "Kishanganj",
            "postal_code": "733208",
            "state": "Bihar",
            "country_code": "IN"
        },
        "images": [],
        "link": "https://www.google.com/maps/place/Court+Masjid/data=!4m7!3m6!1s0x39e51697585aaaab:0x3bbf34dd6e214ccf!8m2!3d26.0926903!4d87.9433985!16s%2Fg%2F11kj3f3ywv!19sChIJq6paWJcW5TkRz0whbt00vzs?authuser=0&hl=en&rclk=1",
        "coordinates": {
            "latitude": 26.092690299999997,
            "longitude": 87.9433985
        }
    },
    {
        "name": "Mohammadi jama masjid",
        "main_category": "Mosque",
        "address": "3XX4+6P6 Mohammadi jama masjid, Dharamganj, Kishanganj, Bihar 733208",
        "detailed_address": {
            "ward": "Dharamganj",
            "street": "3XX4+6P6",
            "city": "Kishanganj",
            "postal_code": "733208",
            "state": "Bihar",
            "country_code": "IN"
        },
        "images": [
            {
                "about": "All",
                "link": "https://lh5.googleusercontent.com/p/AF1QipP0oOIVCFtfDynJlF5rwIXUt9DB57fqkx4CBQaw=w529-h298-k-no"
            }
        ],
        "link": "https://www.google.com/maps/place/Mohammadi+jama+masjid/data=!4m7!3m6!1s0x39e517c8b12b00cf:0x3e67f6e32f7c112!8m2!3d26.098035!4d87.9567518!16s%2Fg%2F11v9j_0_t4!19sChIJzwArscgX5TkREsH3Mm5_5gM?authuser=0&hl=en&rclk=1",
        "coordinates": {
            "latitude": 26.098035,
            "longitude": 87.95675179999999
        }
    },
    {
        "name": "Raza jama masjid",
        "main_category": "Mosque",
        "address": "3WXV+8X5 Raza jama masjid, Kishanganj, Bihar 733208",
        "detailed_address": {
            "ward": null,
            "street": "3WXV+8X5",
            "city": "Kishanganj",
            "postal_code": null,
            "state": "Bihar",
            "country_code": "IN"
        },
        "images": [
            {
                "about": "All",
                "link": "https://streetviewpixels-pa.googleapis.com/v1/thumbnail?panoid=ImzG-DIbfC9FaW0YrVNN-Q&cb_client=maps_sv.tactile.gps&w=224&h=298&yaw=3.054785&pitch=0&thumbfov=100"
            },
            {
                "about": "Street View & 360deg",
                "link": "https://streetviewpixels-pa.googleapis.com/v1/thumbnail?panoid=ImzG-DIbfC9FaW0YrVNN-Q&cb_client=maps_sv.tactile.gps&w=224&h=298&yaw=3.054785&pitch=0&thumbfov=100"
            }
        ],
        "link": "https://www.google.com/maps/place/Raza+jama+masjid/data=!4m7!3m6!1s0x39e517aa3a7969e7:0xb506b01690f54fa9!8m2!3d26.0982644!4d87.9449911!16s%2Fg%2F11ryljvrgb!19sChIJ52l5OqoX5TkRqU_1kBawBrU?authuser=0&hl=en&rclk=1",
        "coordinates": {
            "latitude": 26.098264399999998,
            "longitude": 87.9449911
        }
    },
    {
        "name": "Ghaspatti Masjid",
        "main_category": "Mosque",
        "address": "Ghaspatti Masjid, Phal Chowk, Sonar Patti Road, Kochadhaman, Kishanganj, Bihar 855107",
        "detailed_address": {
            "ward": "Kochadhaman",
            "street": "Phal Chowk, Sonar Patti Road",
            "city": "Kishanganj",
            "postal_code": "855107",
            "state": "Bihar",
            "country_code": "IN"
        },
        "images": [
            {
                "about": "All",
                "link": "https://streetviewpixels-pa.googleapis.com/v1/thumbnail?panoid=NnOgI-Wo52Mixyqm5G1jWQ&cb_client=maps_sv.tactile.gps&w=224&h=298&yaw=50.900898&pitch=0&thumbfov=100"
            },
            {
                "about": "Street View & 360deg",
                "link": "https://streetviewpixels-pa.googleapis.com/v1/thumbnail?panoid=NnOgI-Wo52Mixyqm5G1jWQ&cb_client=maps_sv.tactile.gps&w=224&h=298&yaw=50.900898&pitch=0&thumbfov=100"
            }
        ],
        "link": "https://www.google.com/maps/place/Ghaspatti+Masjid/data=!4m7!3m6!1s0x39e516b8b493ffff:0xbdf5e5070ffc19fb!8m2!3d26.1038657!4d87.9521087!16s%2Fg%2F11kj3f09d9!19sChIJ__-TtLgW5TkR-xn8Dwfl9b0?authuser=0&hl=en&rclk=1",
        "coordinates": {
            "latitude": 26.1038657,
            "longitude": 87.9521087
        }
    },
    {
        "name": "Jama Masjid Chakla",
        "main_category": "Mosque",
        "address": "3WXV+8X5 Jama Masjid Chakla, Kishanganj, Bihar 733208",
        "detailed_address": {
            "ward": null,
            "street": "3WXV+8X5",
            "city": "Kishanganj",
            "postal_code": null,
            "state": "Bihar",
            "country_code": "IN"
        },
        "images": [
            {
                "about": "All",
                "link": "https://streetviewpixels-pa.googleapis.com/v1/thumbnail?panoid=ImzG-DIbfC9FaW0YrVNN-Q&cb_client=maps_sv.tactile.gps&w=224&h=298&yaw=3.054785&pitch=0&thumbfov=100"
            },
            {
                "about": "Street View & 360deg",
                "link": "https://streetviewpixels-pa.googleapis.com/v1/thumbnail?panoid=ImzG-DIbfC9FaW0YrVNN-Q&cb_client=maps_sv.tactile.gps&w=224&h=298&yaw=3.054785&pitch=0&thumbfov=100"
            }
        ],
        "link": "https://www.google.com/maps/place/Jama+Masjid+Chakla/data=!4m7!3m6!1s0x39e517a976ebf6c9:0x1b96a9d6f69ffac9!8m2!3d26.0982644!4d87.9449911!16s%2Fg%2F11rvb5m4jh!19sChIJyfbrdqkX5TkRyfqf9taplhs?authuser=0&hl=en&rclk=1",
        "coordinates": {
            "latitude": 26.098264399999998,
            "longitude": 87.9449911
        }
    },
    {
        "name": "Noori Jama Masjid , nuurii jmaa msjid",
        "main_category": "Mosque",
        "address": "4W8G+PW3 Noori Jama Masjid , nuurii jmaa msjid, Mohammad Nagar Lahra phulwari, ward No 2, Kishanganj, Bihar 855107",
        "detailed_address": {
            "ward": "ward No 2",
            "street": "4W8G+PW3, Mohammad Nagar Lahra phulwari",
            "city": "Kishanganj, Phulwari",
            "postal_code": "855107",
            "state": "Bihar",
            "country_code": "IN"
        },
        "images": [
            {
                "about": "All",
                "link": "https://lh5.googleusercontent.com/p/AF1QipNhvnHEDUaVOLfhygTXCx2q0IGefk2S0uSVHQSv=w224-h485-k-no"
            },
            {
                "about": "Street View & 360deg",
                "link": "https://streetviewpixels-pa.googleapis.com/v1/thumbnail?panoid=N-zR62INtEa2JCHjcerwCw&cb_client=maps_sv.tactile.gps&w=224&h=298&yaw=48.607124&pitch=0&thumbfov=100"
            }
        ],
        "link": "https://www.google.com/maps/place/Noori+Jama+Masjid+,+%E0%A4%A8%E0%A5%82%E0%A4%B0%E0%A5%80+%E0%A4%9C%E0%A4%AE%E0%A4%BE+%E0%A4%AE%E0%A4%B8%E0%A5%8D%E0%A4%9C%E0%A4%BF%E0%A4%A6/data=!4m7!3m6!1s0x39e515738cad8a45:0x1c12b9b7afc4b0e6!8m2!3d26.1167631!4d87.9273111!16s%2Fg%2F11qg4mf16x!19sChIJRYqtjHMV5TkR5rDEr7e5Ehw?authuser=0&hl=en&rclk=1",
        "coordinates": {
            "latitude": 26.1167631,
            "longitude": 87.9273111
        }
    },
    {
        "name": "Madni Jame masjid majhia Kishanganj Bihar",
        "main_category": "Mosque",
        "address": "3XP8+2QH Madni Jame masjid majhia Kishanganj Bihar, Kishanganj, Bihar 855108",
        "detailed_address": {
            "ward": null,
            "street": "3XP8+2QH",
            "city": "Kishanganj",
            "postal_code": "855108",
            "state": "Bihar",
            "country_code": "IN"
        },
        "images": [
            {
                "about": "All",
                "link": "https://streetviewpixels-pa.googleapis.com/v1/thumbnail?panoid=qetSCJkpkWdt-xoUhpHCwA&cb_client=maps_sv.tactile.gps&w=224&h=298&yaw=45.585075&pitch=0&thumbfov=100"
            },
            {
                "about": "Street View & 360deg",
                "link": "https://streetviewpixels-pa.googleapis.com/v1/thumbnail?panoid=qetSCJkpkWdt-xoUhpHCwA&cb_client=maps_sv.tactile.gps&w=224&h=298&yaw=45.585075&pitch=0&thumbfov=100"
            }
        ],
        "link": "https://www.google.com/maps/place/Madni+Jame+masjid+majhia+Kishanganj+Bihar/data=!4m7!3m6!1s0x39e517771f66ba77:0x927a1c2398231ddf!8m2!3d26.0850453!4d87.9669776!16s%2Fg%2F11tk08rqxj!19sChIJd7pmH3cX5TkR3x0jmCMcepI?authuser=0&hl=en&rclk=1",
        "coordinates": {
            "latitude": 26.085045299999997,
            "longitude": 87.96697759999999
        }
    },
    {
        "name": "Jama Masjid Kumhiyan Alsiyabari",
        "main_category": "Mosque",
        "address": "3WXV+7XX Jama Masjid Kumhiyan Alsiyabari, Kumhiyan Alsiyabari, Tarabari, Kishanganj, Bihar 733208",
        "detailed_address": {
            "ward": null,
            "street": "3WXV+7XX, Kumhiyan Alsiyabari",
            "city": "Tarabari, Kishanganj",
            "postal_code": null,
            "state": "Bihar",
            "country_code": "IN"
        },
        "images": [
            {
                "about": "All",
                "link": "https://streetviewpixels-pa.googleapis.com/v1/thumbnail?panoid=ImzG-DIbfC9FaW0YrVNN-Q&cb_client=maps_sv.tactile.gps&w=224&h=298&yaw=2.6829784&pitch=0&thumbfov=100"
            },
            {
                "about": "Street View & 360deg",
                "link": "https://streetviewpixels-pa.googleapis.com/v1/thumbnail?panoid=ImzG-DIbfC9FaW0YrVNN-Q&cb_client=maps_sv.tactile.gps&w=224&h=298&yaw=2.6829784&pitch=0&thumbfov=100"
            }
        ],
        "link": "https://www.google.com/maps/place/Jama+Masjid+Kumhiyan+Alsiyabari/data=!4m7!3m6!1s0x39e517b0cceef0a5:0x2f084ef7432ff8b8!8m2!3d26.0982475!4d87.9449895!16s%2Fg%2F11kpn7qhm5!19sChIJpfDuzLAX5TkRuPgvQ_dOCC8?authuser=0&hl=en&rclk=1",
        "coordinates": {
            "latitude": 26.0982475,
            "longitude": 87.94498949999999
        }
    },
    {
        "name": "Jama masjid Tupamari",
        "main_category": "Mosque",
        "address": "3WXV+7XX Jama masjid Tupamari, Kishanganj, Bihar 733208",
        "detailed_address": {
            "ward": null,
            "street": "3WXV+7XX",
            "city": "Kishanganj",
            "postal_code": null,
            "state": "Bihar",
            "country_code": "IN"
        },
        "images": [
            {
                "about": "All",
                "link": "https://streetviewpixels-pa.googleapis.com/v1/thumbnail?panoid=ImzG-DIbfC9FaW0YrVNN-Q&cb_client=maps_sv.tactile.gps&w=224&h=298&yaw=2.6829784&pitch=0&thumbfov=100"
            },
            {
                "about": "Street View & 360deg",
                "link": "https://streetviewpixels-pa.googleapis.com/v1/thumbnail?panoid=ImzG-DIbfC9FaW0YrVNN-Q&cb_client=maps_sv.tactile.gps&w=224&h=298&yaw=2.6829784&pitch=0&thumbfov=100"
            }
        ],
        "link": "https://www.google.com/maps/place/Jama+masjid+Tupamari/data=!4m7!3m6!1s0x39e517213e61f1f7:0xae63131a7edd2675!8m2!3d26.0982475!4d87.9449895!16s%2Fg%2F11vjgfc3r3!19sChIJ9_FhPiEX5TkRdSbdfhoTY64?authuser=0&hl=en&rclk=1",
        "coordinates": {
            "latitude": 26.0982475,
            "longitude": 87.94498949999999
        }
    },
    {
        "name": "Jama Masjid Green Valley(Colony)",
        "main_category": "Mosque",
        "address": "4WFW+6HV Jama Masjid Green Valley(Colony), Green Valley, Police Line, Kishanganj",
        "detailed_address": {
            "ward": null,
            "street": "4WFW+6HV, Green Valley, Police Line",
            "city": "Kishanganj, Mahesh Bathna Khas",
            "postal_code": null,
            "state": "Bihar",
            "country_code": "IN"
        },
        "images": [],
        "link": "https://www.google.com/maps/place/Jama+Masjid+Green+Valley%28Colony%29/data=!4m7!3m6!1s0x39e511bf86509cbb:0xbbfc969b80c2ce90!8m2!3d26.1231108!4d87.9464296!16s%2Fg%2F11rcwcjkdc!19sChIJu5xQhr8R5TkRkM7CgJuW_Ls?authuser=0&hl=en&rclk=1",
        "coordinates": {
            "latitude": 26.1231108,
            "longitude": 87.9464296
        }
    },
    {
        "name": "Mosque",
        "main_category": "Mosque",
        "address": "4W5Q+836 Mosque, Kishanganj, Bihar 855107",
        "detailed_address": {
            "ward": null,
            "street": "4W5Q+836",
            "city": "Kishanganj",
            "postal_code": "855107",
            "state": "Bihar",
            "country_code": "IN"
        },
        "images": [],
        "link": "https://www.google.com/maps/place/Mosque/data=!4m7!3m6!1s0x39e5170273eb836f:0x279240ca8293428c!8m2!3d26.1083608!4d87.9374429!16s%2Fg%2F11txv8m_8n!19sChIJb4PrcwIX5TkRjEKTgspAkic?authuser=0&hl=en&rclk=1",
        "coordinates": {
            "latitude": 26.1083608,
            "longitude": 87.9374429
        }
    },
    {
        "name": "Khanqah Ashraf nagar (Shaikh e Azam Masjid)",
        "main_category": "Mosque",
        "address": "4X82+52 Khanqah Ashraf nagar (Shaikh e Azam Masjid), Ghoramara, Bihar 855107",
        "detailed_address": {
            "ward": null,
            "street": "4X82+52",
            "city": "Ghoramara",
            "postal_code": null,
            "state": "Bihar",
            "country_code": "IN"
        },
        "images": [
            {
                "about": "All",
                "link": "https://lh5.googleusercontent.com/p/AF1QipPTY5G2rkcR7xcYtRZFBMLdew8AMOVe00bzm89L=w397-h298-k-no"
            }
        ],
        "link": "https://www.google.com/maps/place/Khanqah+Ashraf+nagar+%28Shaikh+e+Azam+Masjid%29/data=!4m7!3m6!1s0x39e51737a21ec135:0x8e8fb8bb49fa497c!8m2!3d26.1154288!4d87.9500406!16s%2Fg%2F11s2j8y4wk!19sChIJNcEeojcX5TkRfEn6Sbu4j44?authuser=0&hl=en&rclk=1",
        "coordinates": {
            "latitude": 26.1154288,
            "longitude": 87.9500406
        }
    },
    {
        "name": "Masjid ayesha",
        "main_category": "Mosque",
        "address": "4V9F+QGQ Masjid ayesha, Chairya Bagalbadi, Kochadhaman, Kishanganj, Charaiyya, Bihar 855107",
        "detailed_address": {
            "ward": "Kochadhaman",
            "street": "4V9F+QGQ, Chairya Bagalbadi",
            "city": "Kishanganj, Charaiyya",
            "postal_code": "855107",
            "state": "Bihar",
            "country_code": "IN"
        },
        "images": [],
        "link": "https://www.google.com/maps/place/Masjid+ayesha/data=!4m7!3m6!1s0x39e515dca386a849:0xb78d2e1071d9a5fb!8m2!3d26.1194519!4d87.8738743!16s%2Fg%2F11pys50m9n!19sChIJSaiGo9wV5TkR-6XZcRAujbc?authuser=0&hl=en&rclk=1",
        "coordinates": {
            "latitude": 26.119451899999998,
            "longitude": 87.8738743
        }
    },
    {
        "name": "Masjid Darur Rashad",
        "main_category": "Mosque",
        "address": "4VWH+Q6G Masjid Darur Rashad, near PETROL PUMP, Kishanganj, Bihar 855107",
        "detailed_address": {
            "ward": null,
            "street": "4VWH+Q6G, near PETROL PUMP",
            "city": "Kishanganj",
            "postal_code": "855107",
            "state": "Bihar",
            "country_code": "IN"
        },
        "images": [
            {
                "about": "All",
                "link": "https://streetviewpixels-pa.googleapis.com/v1/thumbnail?panoid=iaoqLYykBYkWV8yMYuvTRw&cb_client=maps_sv.tactile.gps&w=224&h=298&yaw=54.65988&pitch=0&thumbfov=100"
            },
            {
                "about": "Street View & 360deg",
                "link": "https://streetviewpixels-pa.googleapis.com/v1/thumbnail?panoid=iaoqLYykBYkWV8yMYuvTRw&cb_client=maps_sv.tactile.gps&w=224&h=298&yaw=54.65988&pitch=0&thumbfov=100"
            }
        ],
        "link": "https://www.google.com/maps/place/Masjid+Darur+Rashad/data=!4m7!3m6!1s0x39e5131cccd7fd79:0x3952528d703e1a78!8m2!3d26.146569!4d87.878685!16s%2Fg%2F11tnsg5k9d!19sChIJef3XzBwT5TkReBo-cI1SUjk?authuser=0&hl=en&rclk=1",
        "coordinates": {
            "latitude": 26.146569,
            "longitude": 87.87868499999999
        }
    },
    {
        "name": "WAKIL TOLA JAME MASJID",
        "main_category": "Mosque",
        "address": "3XP8+2QH WAKIL TOLA JAME MASJID, Bihar 855108",
        "detailed_address": {
            "ward": null,
            "street": "3XP8+2QH",
            "city": null,
            "postal_code": "855108",
            "state": "Bihar",
            "country_code": "IN"
        },
        "images": [
            {
                "about": "All",
                "link": "https://streetviewpixels-pa.googleapis.com/v1/thumbnail?panoid=d45qKGp8h-Jh8W7omKx5tg&cb_client=maps_sv.tactile.gps&w=224&h=298&yaw=104.53895&pitch=0&thumbfov=100"
            },
            {
                "about": "Street View & 360deg",
                "link": "https://streetviewpixels-pa.googleapis.com/v1/thumbnail?panoid=d45qKGp8h-Jh8W7omKx5tg&cb_client=maps_sv.tactile.gps&w=224&h=298&yaw=104.53895&pitch=0&thumbfov=100"
            }
        ],
        "link": "https://www.google.com/maps/place/WAKIL+TOLA+JAME+MASJID/data=!4m7!3m6!1s0x39e517deaa9f5927:0x6e6ed6e2a1de0df4!8m2!3d26.0847536!4d87.9671555!16s%2Fg%2F11tk79zs8h!19sChIJJ1mfqt4X5TkR9A3eoeLWbm4?authuser=0&hl=en&rclk=1",
        "coordinates": {
            "latitude": 26.0847536,
            "longitude": 87.96715549999999
        }
    },
    {
        "name": "Masjid uttaohid",
        "main_category": "Mosque",
        "address": "4WHW+V5X Masjid uttaohid, Pipla, Mahesh Bathna Khas, Bihar 855108",
        "detailed_address": {
            "ward": null,
            "street": "4WHW+V5X",
            "city": "Pipla, Mahesh Bathna Khas",
            "postal_code": "855108",
            "state": "Bihar",
            "country_code": "IN"
        },
        "images": [
            {
                "about": "All",
                "link": "https://streetviewpixels-pa.googleapis.com/v1/thumbnail?panoid=62qoyuFncAj4aWSJ27hQ9Q&cb_client=maps_sv.tactile.gps&w=224&h=298&yaw=262.9193&pitch=0&thumbfov=100"
            },
            {
                "about": "Street View & 360deg",
                "link": "https://streetviewpixels-pa.googleapis.com/v1/thumbnail?panoid=62qoyuFncAj4aWSJ27hQ9Q&cb_client=maps_sv.tactile.gps&w=224&h=298&yaw=262.9193&pitch=0&thumbfov=100"
            }
        ],
        "link": "https://www.google.com/maps/place/Masjid+uttaohid/data=!4m7!3m6!1s0x39e5114ff50e3265:0x8364c3638e3a5241!8m2!3d26.1297485!4d87.9454815!16s%2Fg%2F11rg9wh94y!19sChIJZTIO9U8R5TkRQVI6jmPDZIM?authuser=0&hl=en&rclk=1",
        "coordinates": {
            "latitude": 26.129748499999998,
            "longitude": 87.9454815
        }
    },
    {
        "name": "Masjid Al wilayat",
        "main_category": "Mosque",
        "address": "4VCF+M4J Masjid Al wilayat, Chairya Bagalbadi, Kochadhaman, Kishanganj, Charaiyya, Bihar 855107",
        "detailed_address": {
            "ward": "Kochadhaman",
            "street": "4VCF+M4J, Chairya Bagalbadi",
            "city": "Kishanganj, Charaiyya",
            "postal_code": "855107",
            "state": "Bihar",
            "country_code": "IN"
        },
        "images": [],
        "link": "https://www.google.com/maps/place/Masjid+Al+wilayat/data=!4m7!3m6!1s0x39e513bd005bf479:0x5ee3f1c0acca1fac!8m2!3d26.1217096!4d87.8727595!16s%2Fg%2F11sp52qy1j!19sChIJefRbAL0T5TkRrB_KrMDx414?authuser=0&hl=en&rclk=1",
        "coordinates": {
            "latitude": 26.1217096,
            "longitude": 87.8727595
        }
    },
    {
        "name": "Masjid-e-ali",
        "main_category": "Mosque",
        "address": "4W7Q+34M Masjid-e-ali, Phulwari, Bihar 855107",
        "detailed_address": {
            "ward": null,
            "street": "4W7Q+34M",
            "city": "Phulwari",
            "postal_code": "855107",
            "state": "Bihar",
            "country_code": "IN"
        },
        "images": [],
        "link": "https://www.google.com/maps/place/Masjid-e-ali/data=!4m7!3m6!1s0x39e517bf12402ebd:0x847e1988ac30846!8m2!3d26.1127885!4d87.9383506!16s%2Fg%2F11sds4kdk0!19sChIJvS5AEr8X5TkRRgjDipjhRwg?authuser=0&hl=en&rclk=1",
        "coordinates": {
            "latitude": 26.112788499999997,
            "longitude": 87.93835059999999
        }
    },
    {
        "name": "Jame masjid pathan tola",
        "main_category": "Mosque",
        "address": "ward no. 34, Jame masjid pathan tola, paithan tola majhia ward no. 34 paithan tola, Majhiya Rd, Bihar 855107",
        "detailed_address": {
            "ward": null,
            "street": "ward no. 34, paithan tola majhia ward no. 34 paithan tola, Majhiya Rd",
            "city": null,
            "postal_code": "855107",
            "state": "Bihar",
            "country_code": "IN"
        },
        "images": [],
        "link": "https://www.google.com/maps/place/Jame+masjid+pathan+tola/data=!4m7!3m6!1s0x39e517fafb1583dd:0x9245c060e63f73fc!8m2!3d26.0864059!4d87.964662!16s%2Fg%2F11sc0z1gq3!19sChIJ3YMV-_oX5TkR_HM_5mDARZI?authuser=0&hl=en&rclk=1",
        "coordinates": {
            "latitude": 26.0864059,
            "longitude": 87.96466199999999
        }
    },
    {
        "name": "Jame Masjid Tengarmari Hat",
        "main_category": "Mosque",
        "address": "5X98+QWC Jame Masjid Tengarmari Hat, KTTG Rd, Tengarmari, Kishanganj, Tengramari, Bihar 855107",
        "detailed_address": {
            "ward": "Tengarmari",
            "street": "5X98+QWC, KTTG Rd",
            "city": "Kishanganj, Tengramari",
            "postal_code": "855107",
            "state": "Bihar",
            "country_code": "IN"
        },
        "images": [
            {
                "about": "All",
                "link": "https://streetviewpixels-pa.googleapis.com/v1/thumbnail?panoid=vLxw_P5hGzbxCgcgJSGiYA&cb_client=maps_sv.tactile.gps&w=224&h=298&yaw=107.16484&pitch=0&thumbfov=100"
            },
            {
                "about": "Street View & 360deg",
                "link": "https://streetviewpixels-pa.googleapis.com/v1/thumbnail?panoid=vLxw_P5hGzbxCgcgJSGiYA&cb_client=maps_sv.tactile.gps&w=224&h=298&yaw=107.16484&pitch=0&thumbfov=100"
            }
        ],
        "link": "https://www.google.com/maps/place/Jame+Masjid+Tengarmari+Hat/data=!4m7!3m6!1s0x39e51167308dc8e1:0x1fa4c20d9a7db43e!8m2!3d26.1694362!4d87.9672765!16s%2Fg%2F11n1_y8_64!19sChIJ4ciNMGcR5TkRPrR9mg3CpB8?authuser=0&hl=en&rclk=1",
        "coordinates": {
            "latitude": 26.1694362,
            "longitude": 87.9672765
        }
    },
    {
        "name": "Sunni jama masjid paschim lohadanga gachhpara kishanganj bihar india",
        "main_category": "Mosque",
        "address": "5X4C+H46 Sunni jama masjid paschim lohadanga gachhpara kishanganj bihar india, Tengramari, Bihar 733208",
        "detailed_address": {
            "ward": null,
            "street": "5X4C+H46",
            "city": "Tengramari",
            "postal_code": "733208",
            "state": "Bihar",
            "country_code": "IN"
        },
        "images": [
            {
                "about": "All",
                "link": "https://streetviewpixels-pa.googleapis.com/v1/thumbnail?panoid=EJdYXGsCFyGdaq-2SvCMTg&cb_client=maps_sv.tactile.gps&w=224&h=298&yaw=135.7541&pitch=0&thumbfov=100"
            },
            {
                "about": "Street View & 360deg",
                "link": "https://streetviewpixels-pa.googleapis.com/v1/thumbnail?panoid=EJdYXGsCFyGdaq-2SvCMTg&cb_client=maps_sv.tactile.gps&w=224&h=298&yaw=135.7541&pitch=0&thumbfov=100"
            }
        ],
        "link": "https://www.google.com/maps/place/Sunni+jama+masjid+paschim+lohadanga+gachhpara+kishanganj+bihar+india/data=!4m7!3m6!1s0x39e51138def02bdd:0x38e9c2ecf5ab7fb5!8m2!3d26.1564058!4d87.9702507!16s%2Fg%2F11t5wqlxbg!19sChIJ3Svw3jgR5TkRtX-r9ezC6Tg?authuser=0&hl=en&rclk=1",
        "coordinates": {
            "latitude": 26.156405799999998,
            "longitude": 87.9702507
        }
    },
    {
        "name": "Qadiri jama masjid",
        "main_category": "Mosque",
        "address": "4W94+6QG Qadiri jama masjid, Chakla, Bihar 855108",
        "detailed_address": {
            "ward": null,
            "street": "4W94+6QG",
            "city": "Chakla",
            "postal_code": "855108",
            "state": "Bihar",
            "country_code": "IN"
        },
        "images": [
            {
                "about": "All",
                "link": "https://lh5.googleusercontent.com/p/AF1QipP0LsyWxLDKiEIUegWitUO9SdDuhW26KEZQtofn=w529-h298-k-no"
            }
        ],
        "link": "https://www.google.com/maps/place/Qadiri+jama+masjid/data=!4m7!3m6!1s0x39e515fce0fbd5c7:0xbc3ea9d9e60ec039!8m2!3d26.1180703!4d87.9069516!16s%2Fg%2F11nxswfprq!19sChIJx9X74PwV5TkROcAO5tmpPrw?authuser=0&hl=en&rclk=1",
        "coordinates": {
            "latitude": 26.1180703,
            "longitude": 87.9069516
        }
    },
    {
        "name": "Abdur Rahman masjid",
        "main_category": "Mosque",
        "address": "3WQJ+V6J Abdur Rahman masjid, Halim Chowk, bhutiduha, Kishanganj, Bihar 733209",
        "detailed_address": {
            "ward": "bhutiduha",
            "street": "3WQJ+V6J, Halim Chowk",
            "city": "Kishanganj",
            "postal_code": "733209",
            "state": "Bihar",
            "country_code": "IN"
        },
        "images": [
            {
                "about": "All",
                "link": "https://streetviewpixels-pa.googleapis.com/v1/thumbnail?panoid=-5SfYshUkB178JxpjVtCmw&cb_client=maps_sv.tactile.gps&w=224&h=298&yaw=86.26333&pitch=0&thumbfov=100"
            },
            {
                "about": "Latest",
                "link": "https://lh5.googleusercontent.com/p/AF1QipPEk_buE1TdDTVMKrGWPpykFcP9VhMrJaGF8YhW=w224-h398-k-no"
            },
            {
                "about": "Street View & 360deg",
                "link": "https://streetviewpixels-pa.googleapis.com/v1/thumbnail?panoid=-5SfYshUkB178JxpjVtCmw&cb_client=maps_sv.tactile.gps&w=224&h=298&yaw=86.26333&pitch=0&thumbfov=100"
            }
        ],
        "link": "https://www.google.com/maps/place/Abdur+Rahman+masjid/data=!4m7!3m6!1s0x39e515896aad6061:0x151671cf1d4c43b2!8m2!3d26.0897002!4d87.9305191!16s%2Fg%2F11lc9tdtqc!19sChIJYWCtaokV5TkRskNMHc9xFhU?authuser=0&hl=en&rclk=1",
        "coordinates": {
            "latitude": 26.0897002,
            "longitude": 87.9305191
        }
    },
    {
        "name": "Abdul Rahman choti Masjid Halim chowk bhutiduha",
        "main_category": "Mosque",
        "address": "3WXV+7XX Abdul Rahman choti Masjid Halim chowk bhutiduha, Kishanganj, Bihar 733208",
        "detailed_address": {
            "ward": null,
            "street": "3WXV+7XX",
            "city": "Kishanganj",
            "postal_code": null,
            "state": "Bihar",
            "country_code": "IN"
        },
        "images": [
            {
                "about": "All",
                "link": "https://streetviewpixels-pa.googleapis.com/v1/thumbnail?panoid=VLAtwUBj5i32FotsGkTfww&cb_client=maps_sv.tactile.gps&w=224&h=298&yaw=205.93507&pitch=0&thumbfov=100"
            },
            {
                "about": "Latest",
                "link": "https://lh5.googleusercontent.com/p/AF1QipPaeeGcEdAJTYHdY-Myhd2R30RjAYT2XYsNl49W=w224-h398-k-no"
            },
            {
                "about": "Street View & 360deg",
                "link": "https://streetviewpixels-pa.googleapis.com/v1/thumbnail?panoid=VLAtwUBj5i32FotsGkTfww&cb_client=maps_sv.tactile.gps&w=224&h=298&yaw=205.93507&pitch=0&thumbfov=100"
            }
        ],
        "link": "https://www.google.com/maps/place/Abdul+Rahman+choti+Masjid+Halim+chowk+bhutiduha/data=!4m7!3m6!1s0x39e517563087443d:0xfcc452e320a5cd1b!8m2!3d26.0982475!4d87.9449895!16s%2Fg%2F11vlv87wg_!19sChIJPUSHMFYX5TkRG82lIONSxPw?authuser=0&hl=en&rclk=1",
        "coordinates": {
            "latitude": 26.0982475,
            "longitude": 87.94498949999999
        }
    },
    {
        "name": "Raza jama masjid",
        "main_category": "Mosque",
        "address": "4VJ6+P68 Raza jama masjid, Kamalpur, kochadhaman, Kishanganj",
        "detailed_address": {
            "ward": "kochadhaman",
            "street": "4VJ6+P68, Kamalpur",
            "city": "Kishanganj",
            "postal_code": null,
            "state": "Bihar",
            "country_code": "IN"
        },
        "images": [
            {
                "about": "All",
                "link": "https://lh5.googleusercontent.com/p/AF1QipOa0pG_BBKBeQVAk-HAQMg1pgb5XfWbRfBfR0ID=w397-h298-k-no"
            },
            {
                "about": "Dome",
                "link": "https://lh5.googleusercontent.com/p/AF1QipOa0pG_BBKBeQVAk-HAQMg1pgb5XfWbRfBfR0ID=w397-h298-k-no"
            }
        ],
        "link": "https://www.google.com/maps/place/Raza+jama+masjid/data=!4m7!3m6!1s0x39e513f0f2a970c7:0x9211d64c49ee8d04!8m2!3d26.131781!4d87.8605692!16s%2Fg%2F11sb00r4vf!19sChIJx3Cp8vAT5TkRBI3uSUzWEZI?authuser=0&hl=en&rclk=1",
        "coordinates": {
            "latitude": 26.131781,
            "longitude": 87.8605692
        }
    }
]