[
    {
        "name": "Zama Masjid, Kanker",
        "main_category": "Mosque",
        "address": "7F9R+759 Zama Masjid, Kanker, NH 43, Kanker, Chhattisgarh 494334",
        "detailed_address": {
            "ward": null,
            "street": "7F9R+759, NH 43",
            "city": "Kanker",
            "postal_code": "494334",
            "state": "Chhattisgarh",
            "country_code": "IN"
        },
        "images": [
            {
                "about": "All",
                "link": "https://lh5.googleusercontent.com/p/AF1QipO8zYZFTPMLGgVkSlEsZT7_LcJWvBFVVka81Jzf=w596-h298-k-no"
            },
            {
                "about": "Dome",
                "link": "https://lh5.googleusercontent.com/p/AF1QipOoFXHoJyBDTAQh2tEPeBoMzAOZPnIrD4Xw1U5j=w397-h298-k-no"
            },
            {
                "about": "Videos",
                "link": "https://lh5.googleusercontent.com/p/AF1QipPzF43cqHnD6iuDdh1QcM86r5OVwO2D-NGQdnQ4=w529-h298-k-no"
            }
        ],
        "link": "https://www.google.com/maps/place/Zama+Masjid,+Kanker/data=!4m7!3m6!1s0x3a2efd0a66f49645:0x26c9cf219f6eae94!8m2!3d20.2681572!4d81.490497!16s%2Fg%2F1tjxd21p!19sChIJRZb0Zgr9LjoRlK5unyHPySY?authuser=0&hl=en&rclk=1",
        "coordinates": {
            "latitude": 20.268157199999997,
            "longitude": 81.49049699999999
        }
    },
    {
        "name": "RAJA MASJID",
        "main_category": "Mosque",
        "address": "7G45+43V RAJA MASJID, NH 30, Kanker, Chhattisgarh 494334",
        "detailed_address": {
            "ward": null,
            "street": "7G45+43V, NH 30",
            "city": "Kanker",
            "postal_code": "494334",
            "state": "Chhattisgarh",
            "country_code": "IN"
        },
        "images": [
            {
                "about": "All",
                "link": "https://lh5.googleusercontent.com/p/AF1QipPyY2hlqWBBJ7eC4Q5cCZiharS3NSOnmIU1Zlyf=w397-h298-k-no"
            },
            {
                "about": "Dome",
                "link": "https://lh5.googleusercontent.com/p/AF1QipM_G_Y2c_rfOT9raV12DSEFdanEEE9fLlOqp81p=w397-h298-k-no"
            },
            {
                "about": "Street View & 360deg",
                "link": "https://streetviewpixels-pa.googleapis.com/v1/thumbnail?panoid=Em9kDgrAzMbaigbxah9_sA&cb_client=maps_sv.tactile.gps&w=224&h=298&yaw=266.55353&pitch=0&thumbfov=100"
            }
        ],
        "link": "https://www.google.com/maps/place/RAJA+MASJID/data=!4m7!3m6!1s0x3a2efd9875aa8a35:0x5d29b95591211d9d!8m2!3d20.2553557!4d81.5076663!16s%2Fg%2F11glyc4w58!19sChIJNYqqdZj9LjoRnR0hkVW5KV0?authuser=0&hl=en&rclk=1",
        "coordinates": {
            "latitude": 20.2553557,
            "longitude": 81.5076663
        }
    },
    {
        "name": "Masjid-e-Fatima",
        "main_category": "Mosque",
        "address": "2MHQ+5PC Masjid-e-Fatima, Natesh Puram St, Kanker Khera, Meerut, Uttar Pradesh 250001",
        "detailed_address": {
            "ward": "Kanker Khera",
            "street": "2MHQ+5PC, Natesh Puram St",
            "city": "Meerut",
            "postal_code": "250001",
            "state": "Uttar Pradesh",
            "country_code": "IN"
        },
        "images": [
            {
                "about": "All",
                "link": "https://lh5.googleusercontent.com/p/AF1QipMgOwtrZnkeHUIv80nPuunqegVOFnS7jCelRa25=w224-h298-k-no"
            },
            {
                "about": "Street View & 360deg",
                "link": "https://streetviewpixels-pa.googleapis.com/v1/thumbnail?panoid=7n7xaiqKStpSMJRdLWOkCw&cb_client=maps_sv.tactile.gps&w=224&h=298&yaw=101.72876&pitch=0&thumbfov=100"
            },
            {
                "about": "Videos",
                "link": "https://lh5.googleusercontent.com/p/AF1QipM36922vH0AGZZpLW7jDV43ZMfCNCmXqdqpRBjR=w224-h398-k-no"
            }
        ],
        "link": "https://www.google.com/maps/place/Masjid-e-Fatima/data=!4m7!3m6!1s0x390c658f8ea8fb7f:0xe683a9bfd606f5a5!8m2!3d29.0279326!4d77.6892588!16s%2Fg%2F11gdw1p606!19sChIJf_uojo9lDDkRpfUG1r-pg-Y?authuser=0&hl=en&rclk=1",
        "coordinates": {
            "latitude": 29.0279326,
            "longitude": 77.68925879999999
        }
    },
    {
        "name": "Juma Masjid, Kanker Khera",
        "main_category": "Mosque",
        "address": "2M9M+H92 Juma Masjid, Kanker Khera, Govindpuri, Nand Puri, Meerut, Uttar Pradesh 250001",
        "detailed_address": {
            "ward": "Govindpuri, Nand Puri",
            "street": "2M9M+H92",
            "city": "Meerut",
            "postal_code": "250001",
            "state": "Uttar Pradesh",
            "country_code": "IN"
        },
        "images": [
            {
                "about": "All",
                "link": "https://lh5.googleusercontent.com/p/AF1QipOll7RABEekkBkfETOCJYizGG-3vZkFcLT2jsWG=w397-h298-k-no"
            }
        ],
        "link": "https://www.google.com/maps/place/Juma+Masjid,+Kanker+Khera/data=!4m7!3m6!1s0x390c65916df3fd43:0x184c26a9aea7627b!8m2!3d29.0188986!4d77.683385!16s%2Fg%2F11f2_s0gj_!19sChIJQ_3zbZFlDDkRe2KnrqkmTBg?authuser=0&hl=en&rclk=1",
        "coordinates": {
            "latitude": 29.0188986,
            "longitude": 77.683385
        }
    },
    {
        "name": "Masjid Sanjay Nagar",
        "main_category": "Place of worship",
        "address": "7FCP+WH9 Masjid Sanjay Nagar, Kanker, Chhattisgarh 494334",
        "detailed_address": {
            "ward": null,
            "street": "7FCP+WH9",
            "city": "Kanker",
            "postal_code": null,
            "state": "Chhattisgarh",
            "country_code": "IN"
        },
        "images": [],
        "link": "https://www.google.com/maps/place/Masjid+Sanjay+Nagar/data=!4m7!3m6!1s0x3a2efd721dbd3ea1:0xc15acbf51407e5ec!8m2!3d20.272289!4d81.4864741!16s%2Fg%2F11hf1pldy7!19sChIJoT69HXL9LjoR7OUHFPXLWsE?authuser=0&hl=en&rclk=1",
        "coordinates": {
            "latitude": 20.272289,
            "longitude": 81.4864741
        }
    },
    {
        "name": "Noorani Masjid, Moh. Nambardaar",
        "main_category": "Mosque",
        "address": "VGC3+M9R Noorani Masjid, Moh. Nambardaar, Kazi Sarai Urf Kanker Sarai, Malli Khera Urf Shahbaj Pur, Uttar Pradesh 244221",
        "detailed_address": {
            "ward": null,
            "street": "VGC3+M9R",
            "city": "Kazi Sarai Urf Kanker Sarai, Malli Khera Urf Shahbaj Pur",
            "postal_code": "244221",
            "state": "Uttar Pradesh",
            "country_code": "IN"
        },
        "images": [
            {
                "about": "All",
                "link": "https://lh5.googleusercontent.com/p/AF1QipN73Q_8B5Eudqq8568SBdAk0XlfcyNeMatw2Omj=w397-h298-k-no"
            },
            {
                "about": "Latest",
                "link": "https://lh5.googleusercontent.com/p/AF1QipO4Co7_6x39ddwET9oLQz12hB19CLe0AOvmjvF8=w224-h298-k-no"
            },
            {
                "about": "Street View & 360deg",
                "link": "https://streetviewpixels-pa.googleapis.com/v1/thumbnail?panoid=_cGQek9mJxINpXexIG2nsQ&cb_client=maps_sv.tactile.gps&w=224&h=298&yaw=244.12553&pitch=0&thumbfov=100"
            }
        ],
        "link": "https://www.google.com/maps/place/Noorani+Masjid,+Moh.+Nambardaar/data=!4m7!3m6!1s0x390b064954720dc3:0x570791e4c8a62ed7!8m2!3d28.8717441!4d78.5033899!16s%2Fg%2F11gf5xfbnl!19sChIJww1yVEkGCzkR1y6myOSRB1c?authuser=0&hl=en&rclk=1",
        "coordinates": {
            "latitude": 28.871744099999997,
            "longitude": 78.5033899
        }
    },
    {
        "name": "Ek Minara Masjid",
        "main_category": "Mosque",
        "address": "2M9M+VPR Ek Minara Masjid, Patel puri, Kanker Khera, Meerut Cantt, Meerut, Uttar Pradesh 250001",
        "detailed_address": {
            "ward": "New Ashok Puri, Kanker Khera, Meerut Cantt",
            "street": "2M9M+VPR, Patel puri",
            "city": "Meerut",
            "postal_code": "250001",
            "state": "Uttar Pradesh",
            "country_code": "IN"
        },
        "images": [
            {
                "about": "All",
                "link": "https://lh5.googleusercontent.com/p/AF1QipN17Lj8hI0xEvIl9aKTElWRsy4xiJX9dQClxhvk=w224-h398-k-no"
            }
        ],
        "link": "https://www.google.com/maps/place/Ek+Minara+Masjid/data=!4m7!3m6!1s0x390c6591a789965b:0x55cf1841c386d20b!8m2!3d29.0197293!4d77.6842744!16s%2Fg%2F11f2_s4rgv!19sChIJW5aJp5FlDDkRC9KGw0EYz1U?authuser=0&hl=en&rclk=1",
        "coordinates": {
            "latitude": 29.019729299999998,
            "longitude": 77.68427439999999
        }
    },
    {
        "name": "Sunni Jama Masjid",
        "main_category": "Mosque",
        "address": "Sunni Jama Masjid, jama masjid, Kanker, Chhattisgarh 494334",
        "detailed_address": {
            "ward": null,
            "street": "jama masjid",
            "city": "Kanker",
            "postal_code": null,
            "state": "Chhattisgarh",
            "country_code": "IN"
        },
        "images": [
            {
                "about": "All",
                "link": "https://lh5.googleusercontent.com/p/AF1QipPFaWPv_JniN90leZLcEfNrUj1h6ny8vXcmkZVd=w397-h298-k-no"
            },
            {
                "about": "Videos",
                "link": "https://lh5.googleusercontent.com/p/AF1QipP4JVLBqVkSJeuI6o0dDc-Pnk00hX0isb3aOe19=w224-h398-k-no"
            }
        ],
        "link": "https://www.google.com/maps/place/Sunni+Jama+Masjid/data=!4m7!3m6!1s0x3a2efd9c4241cdf7:0x368eef7f2835aec!8m2!3d20.2681601!4d81.4905515!16s%2Fg%2F11fd44syvx!19sChIJ981BQpz9LjoR7FqD8vfuaAM?authuser=0&hl=en&rclk=1",
        "coordinates": {
            "latitude": 20.2681601,
            "longitude": 81.4905515
        }
    },
    {
        "name": "Minar wali Maszid,",
        "main_category": "Mosque",
        "address": "2M9M+VPJ Minar wali Maszid,, Maithaniya Mohalla, Ward 5, Kanker Khera, Meerut Cantt, Meerut, Uttar Pradesh 250001",
        "detailed_address": {
            "ward": "Maithaniya Mohalla, Ward 5, Kanker Khera, Meerut Cantt",
            "street": "2M9M+VPJ",
            "city": "Meerut",
            "postal_code": "250001",
            "state": "Uttar Pradesh",
            "country_code": "IN"
        },
        "images": [],
        "link": "https://www.google.com/maps/place/Minar+wali+Maszid,/data=!4m7!3m6!1s0x390c65910827bbab:0x7ce547831c55248a!8m2!3d29.0197133!4d77.6842647!16s%2Fg%2F11gdp_7j0m!19sChIJq7snCJFlDDkRiiRVHINH5Xw?authuser=0&hl=en&rclk=1",
        "coordinates": {
            "latitude": 29.0197133,
            "longitude": 77.6842647
        }
    }
]