[
    {
        "name": "Masjid Mujeeb Bagh",
        "main_category": "Mosque",
        "address": "H74R+R4J Masjid Mujeeb Bagh, Mujeeb Bagh, Jamia Nagar, Okhla, New Delhi, Delhi 110025",
        "detailed_address": {
            "ward": "Mujeeb Bagh, Jamia Nagar, Okhla",
            "street": "H74R+R4J",
            "city": "New Delhi",
            "postal_code": "110025",
            "state": "Delhi",
            "country_code": "IN"
        },
        "images": [
            {
                "about": "All",
                "link": "https://lh5.googleusercontent.com/p/AF1QipPuvEEBl7TFqidewO8nsNOsC2QdlIhKzeO8wTqs=w420-h298-k-no"
            },
            {
                "about": "Dome",
                "link": "https://lh5.googleusercontent.com/p/AF1QipPsDBtmO8rEKXfaej3f3ZAybZnhNsdB53hBEPBz=w224-h298-k-no"
            }
        ],
        "link": "https://www.google.com/maps/place/Masjid+Mujeeb+Bagh/data=!4m7!3m6!1s0x390ce40bc79e1ce9:0x18ab01f5fdcf10b3!8m2!3d28.5570856!4d77.2902574!16s%2Fg%2F11hbvrlrnj!19sChIJ6RyexwvkDDkRsxDP_fUBqxg?authuser=0&hl=en&rclk=1",
        "coordinates": {
            "latitude": 28.557085599999997,
            "longitude": 77.2902574
        }
    },
    {
        "name": "Hari Masjid - hry msjd",
        "main_category": "Mosque",
        "address": "Hari Masjid - hry msjd, S5, Rajguru Marg, Chuna Mandi, Paharganj, New Delhi, Delhi 110055",
        "detailed_address": {
            "ward": "Bazar Sangatrashan, Chuna Mandi, Paharganj",
            "street": "S5, Rajguru Marg",
            "city": "New Delhi",
            "postal_code": "110055",
            "state": "Delhi",
            "country_code": "IN"
        },
        "images": [
            {
                "about": "All",
                "link": "https://lh5.googleusercontent.com/p/AF1QipOLK7ajAVLDjk4coYkJvG5iB81b4WtVrA0uiyU2=w397-h298-k-no"
            },
            {
                "about": "Latest",
                "link": "https://streetviewpixels-pa.googleapis.com/v1/thumbnail?panoid=_eCE45TTpHLpI4TEgNrPnA&cb_client=maps_sv.tactile.gps&w=224&h=298&yaw=292.73248&pitch=0&thumbfov=100"
            },
            {
                "about": "Videos",
                "link": "https://lh5.googleusercontent.com/p/AF1QipOjfcKmCUyfEiXZkPIuvVTo5CGr0xOh1tttoiNF=w224-h398-k-no"
            },
            {
                "about": "Dome",
                "link": "https://lh5.googleusercontent.com/p/AF1QipMJzcXfpUC-VhuA_ik3Ux1fYt5ln8Z0LN9PQ76I=w397-h298-k-no"
            },
            {
                "about": "Street View & 360deg",
                "link": "https://streetviewpixels-pa.googleapis.com/v1/thumbnail?panoid=_eCE45TTpHLpI4TEgNrPnA&cb_client=maps_sv.tactile.gps&w=224&h=298&yaw=292.73248&pitch=0&thumbfov=100"
            }
        ],
        "link": "https://www.google.com/maps/place/Hari+Masjid+-+%DB%81%D8%B1%DB%8C+%D9%85%D8%B3%D8%AC%D8%AF%E2%80%AD/data=!4m7!3m6!1s0x390cfd420fb3ca0d:0xb47391289f663fde!8m2!3d28.6451083!4d77.2107922!16s%2Fg%2F12ml2wx8n!19sChIJDcqzD0L9DDkR3j9mnyiRc7Q?authuser=0&hl=en&rclk=1",
        "coordinates": {
            "latitude": 28.6451083,
            "longitude": 77.2107922
        }
    },
    {
        "name": "Noorani Masjid",
        "main_category": "Mosque",
        "address": "Noorani Masjid, 204, Sultanpur, New Delhi, Delhi 110030",
        "detailed_address": {
            "ward": "Sultanpur",
            "street": "204",
            "city": "New Delhi",
            "postal_code": "110030",
            "state": "Delhi",
            "country_code": "IN"
        },
        "images": [
            {
                "about": "All",
                "link": "https://lh5.googleusercontent.com/p/AF1QipPGZHs6HljSM3OwQr3KUVe5IgyLOvVnh-zzEhPG=w224-h373-k-no"
            },
            {
                "about": "Latest",
                "link": "https://lh5.googleusercontent.com/p/AF1QipMtJhXnfxprTzaaDrn_gDF63EUg0aJ-mRdj_BpV=w224-h298-k-no"
            },
            {
                "about": "Street View & 360deg",
                "link": "https://streetviewpixels-pa.googleapis.com/v1/thumbnail?panoid=bTM29L4cf0m8VlFYXi7Kog&cb_client=maps_sv.tactile.gps&w=224&h=298&yaw=280.78098&pitch=0&thumbfov=100"
            }
        ],
        "link": "https://www.google.com/maps/place/Noorani+Masjid/data=!4m7!3m6!1s0x390d1e4551a7abdf:0x537a2e081ba4c18c!8m2!3d28.4911875!4d77.1591791!16s%2Fg%2F11ckqn8fzb!19sChIJ36unUUUeDTkRjMGkGwguelM?authuser=0&hl=en&rclk=1",
        "coordinates": {
            "latitude": 28.4911875,
            "longitude": 77.1591791
        }
    },
    {
        "name": "Dibiya wali Masjid",
        "main_category": "Mosque",
        "address": "G54H+M78 Dibiya wali Masjid, Mehrauli-Gurgaon Road, M G Road, Dr Ambedkar Colony, Chhatarpur, New Delhi, Delhi 110030",
        "detailed_address": {
            "ward": "Dr Ambedkar Colony, Chhatarpur",
            "street": "G54H+M78, Mehrauli-Gurgaon Road, M G Road",
            "city": "New Delhi",
            "postal_code": "110030",
            "state": "Delhi",
            "country_code": "IN"
        },
        "images": [
            {
                "about": "All",
                "link": "https://lh5.googleusercontent.com/p/AF1QipOaB-_SIDDz9JMwlYCkCKmSYc0I70vyT3BSB-6e=w529-h298-k-no"
            },
            {
                "about": "Street View & 360deg",
                "link": "https://streetviewpixels-pa.googleapis.com/v1/thumbnail?panoid=asP0HAuuAIuIzHZsDgez7Q&cb_client=maps_sv.tactile.gps&w=224&h=298&yaw=141.23785&pitch=0&thumbfov=100"
            },
            {
                "about": "Videos",
                "link": "https://lh5.googleusercontent.com/p/AF1QipO8lb0EhLHoJ2Vs0EN6y7isW2BjKluAEbCuF38p=w529-h298-k-no"
            }
        ],
        "link": "https://www.google.com/maps/place/Dibiya+wali+Masjid/data=!4m7!3m6!1s0x390d1e16e71c9d4d:0x176d7f6163772932!8m2!3d28.5091206!4d77.1796709!16s%2Fg%2F119w0d7q4!19sChIJTZ0c5xYeDTkRMil3Y2F_bRc?authuser=0&hl=en&rclk=1",
        "coordinates": {
            "latitude": 28.5091206,
            "longitude": 77.17967089999999
        }
    },
    {
        "name": "Madina Masjid msjd mdynh",
        "main_category": "Mosque",
        "address": "G5F3+86X Madina Masjid msjd mdynh, Pocket 5, Sector D, Vasant Kunj, New Delhi, Delhi 110070",
        "detailed_address": {
            "ward": "Pocket 5, Sector D, Vasant Kunj",
            "street": "G5F3+86X",
            "city": "New Delhi",
            "postal_code": "110070",
            "state": "Delhi",
            "country_code": "IN"
        },
        "images": [
            {
                "about": "All",
                "link": "https://lh5.googleusercontent.com/p/AF1QipMBYT6BzAl_yHCB0TmVU_se7QomBN0-ZXoDaOYH=w397-h298-k-no"
            },
            {
                "about": "Videos",
                "link": "https://lh5.googleusercontent.com/p/AF1QipNbvnNrHL_P8r9b_sKionIbmPgyLGk7nZOwGnSp=w224-h398-k-no"
            }
        ],
        "link": "https://www.google.com/maps/place/Madina+Masjid+%D9%85%D8%B3%D8%AC%D8%AF+%D9%85%D8%AF%DB%8C%D9%86%DB%81%E2%80%AD/data=!4m7!3m6!1s0x390d1e7f3ce8a9cf:0xb481f0aa48b311f9!8m2!3d28.5233679!4d77.1530999!16s%2Fg%2F11g8fn63n6!19sChIJz6noPH8eDTkR-RGzSKrwgbQ?authuser=0&hl=en&rclk=1",
        "coordinates": {
            "latitude": 28.5233679,
            "longitude": 77.1530999
        }
    },
    {
        "name": "Masjid Alishan `lyshn msjd",
        "main_category": "Mosque",
        "address": "H74P+4C2 Masjid Alishan `lyshn msjd, Ajmal Bagh, Noor Nagar Extn I, Noor Nagar, Okhla, New Delhi, Delhi 110025",
        "detailed_address": {
            "ward": "Ajmal Bagh, Noor Nagar Extn I, Noor Nagar, Okhla",
            "street": "H74P+4C2",
            "city": "New Delhi",
            "postal_code": "110025",
            "state": "Delhi",
            "country_code": "IN"
        },
        "images": [
            {
                "about": "All",
                "link": "https://lh5.googleusercontent.com/p/AF1QipPqH0jm8K27JFhOVaQrhsSmlz8I_pMh5wHt7fD-=w397-h298-k-no"
            },
            {
                "about": "Videos",
                "link": "https://lh5.googleusercontent.com/p/AF1QipMOacQpPNcZcQjjgUwWFxmzxIRqsX79BTaY-Gsw=w224-h407-k-no"
            }
        ],
        "link": "https://www.google.com/maps/place/Masjid+Alishan+%D8%B9%D8%A7%D9%84%DB%8C%D8%B4%D8%A7%D9%86+%D9%85%D8%B3%D8%AC%D8%AF%E2%80%AD/data=!4m7!3m6!1s0x390ce3f602454533:0xcfc3736868fe546a!8m2!3d28.5552743!4d77.2860168!16s%2Fg%2F1ptvvnp64!19sChIJM0VFAvbjDDkRalT-aGhzw88?authuser=0&hl=en&rclk=1",
        "coordinates": {
            "latitude": 28.555274299999997,
            "longitude": 77.2860168
        }
    },
    {
        "name": "Jama masjid",
        "main_category": "Mosque",
        "address": "Jama masjid, Metro station, Giri Nagar, Maa Anandmayee Marg, near Govindpuri, Kalkaji, New Delhi, Delhi 110019",
        "detailed_address": {
            "ward": "Ami Chand Khand, Block AC, Giri Nagar, Kalkaji",
            "street": "Metro station, Giri Nagar, Maa Anandmayee Marg, near Govindpuri",
            "city": "New Delhi",
            "postal_code": "110019",
            "state": "Delhi",
            "country_code": "IN"
        },
        "images": [
            {
                "about": "All",
                "link": "https://lh5.googleusercontent.com/p/AF1QipMZNf6XjvOK_B-KB8ol57caY4LYAdqgQP_j3t9c=w224-h298-k-no"
            },
            {
                "about": "Street View & 360deg",
                "link": "https://streetviewpixels-pa.googleapis.com/v1/thumbnail?panoid=3s-hDRGEHwIRuCCvmJyoiQ&cb_client=maps_sv.tactile.gps&w=224&h=298&yaw=131.55365&pitch=0&thumbfov=100"
            },
            {
                "about": "Videos",
                "link": "https://lh5.googleusercontent.com/p/AF1QipM_3N1OIPwl57rpBayrtMRE0yzTSBOw-aTPxtb3=w224-h398-k-no"
            }
        ],
        "link": "https://www.google.com/maps/place/Jama+masjid/data=!4m7!3m6!1s0x390ce3915ddf4023:0xc0785bd0f9e63fa0!8m2!3d28.5435534!4d77.2644385!16s%2Fg%2F11fj32cs9z!19sChIJI0DfXZHjDDkRoD_m-dBbeMA?authuser=0&hl=en&rclk=1",
        "coordinates": {
            "latitude": 28.5435534,
            "longitude": 77.2644385
        }
    },
    {
        "name": "Ahle Sunnat wal jamaat RazaeMuhammadi Masjid",
        "main_category": "Mosque",
        "address": "J6X8+JC2 Ahle Sunnat wal jamaat RazaeMuhammadi Masjid, Aram Nagar, Paharganj, New Delhi, Delhi 110055",
        "detailed_address": {
            "ward": "Aram Nagar, Paharganj",
            "street": "J6X8+JC2",
            "city": "New Delhi",
            "postal_code": "110055",
            "state": "Delhi",
            "country_code": "IN"
        },
        "images": [
            {
                "about": "All",
                "link": "https://lh5.googleusercontent.com/p/AF1QipMOftqzYyh0jDv5Jgl5YMmCXPptf7Jw9UVN1eCH=w224-h298-k-no"
            },
            {
                "about": "Videos",
                "link": "https://lh5.googleusercontent.com/p/AF1QipPQXKpKQF6HexpGXX7DX3it2X0fBnbMlYjkatvF=w224-h398-k-no"
            }
        ],
        "link": "https://www.google.com/maps/place/Ahle+Sunnat+wal+jamaat+RazaeMuhammadi+Masjid/data=!4m7!3m6!1s0x390cfd6b1c55570b:0xb6cbdaabca9cc6b2!8m2!3d28.6490022!4d77.2160178!16s%2Fg%2F11g6mj_5x9!19sChIJC1dVHGv9DDkRssacyqvay7Y?authuser=0&hl=en&rclk=1",
        "coordinates": {
            "latitude": 28.649002199999998,
            "longitude": 77.2160178
        }
    },
    {
        "name": "Inayati Masjid",
        "main_category": "Mosque",
        "address": "a132, Inayati Masjid, A132, Pocket A, Mayur Vihar Phase II, Patparganj, New Delhi, Delhi, 110091",
        "detailed_address": {
            "ward": "Pocket A, Mayur Vihar Phase II, Patparganj",
            "street": "a132, A132",
            "city": "New Delhi, Delhi",
            "postal_code": "110091",
            "state": "Delhi",
            "country_code": "IN"
        },
        "images": [
            {
                "about": "All",
                "link": "https://lh5.googleusercontent.com/p/AF1QipMhXMrMJIGr8dCb6z5ViQ1oq9cK3LM2MOCRZBlT=w224-h298-k-no"
            }
        ],
        "link": "https://www.google.com/maps/place/Inayati+Masjid/data=!4m7!3m6!1s0x390ce4bb25f8c36f:0xa0d251b5e9230397!8m2!3d28.6162024!4d77.2992068!16s%2Fg%2F11b7gmcs_f!19sChIJb8P4JbvkDDkRlwMj6bVR0qA?authuser=0&hl=en&rclk=1",
        "coordinates": {
            "latitude": 28.6162024,
            "longitude": 77.2992068
        }
    },
    {
        "name": "Noorani Masjid",
        "main_category": "Mosque",
        "address": "F59M+H46 Noorani Masjid, Chandan Hola, New Delhi, Delhi 110074",
        "detailed_address": {
            "ward": "Chandan Hola",
            "street": "F59M+H46",
            "city": "New Delhi",
            "postal_code": "110074",
            "state": "Delhi",
            "country_code": "IN"
        },
        "images": [
            {
                "about": "All",
                "link": "https://lh5.googleusercontent.com/p/AF1QipNast_4mAdh1qH3AomBlwtQk_zsyZm-gbA3TWXx=w224-h398-k-no"
            },
            {
                "about": "Street View & 360deg",
                "link": "https://streetviewpixels-pa.googleapis.com/v1/thumbnail?panoid=rFo1ahQs4iW_Xpw0w30_IA&cb_client=maps_sv.tactile.gps&w=224&h=298&yaw=338.91962&pitch=0&thumbfov=100"
            },
            {
                "about": "Videos",
                "link": "https://lh5.googleusercontent.com/p/AF1QipNfSYogfizYXG3aFpis4PfXYc93xia1j6N88iew=w224-h336-k-no"
            }
        ],
        "link": "https://www.google.com/maps/place/Noorani+Masjid/data=!4m7!3m6!1s0x390d1fc532333ee3:0x8f9790e5b736649b!8m2!3d28.4689233!4d77.1827702!16s%2Fg%2F11b7hpcszy!19sChIJ4z4zMsUfDTkRm2Q2t-WQl48?authuser=0&hl=en&rclk=1",
        "coordinates": {
            "latitude": 28.4689233,
            "longitude": 77.1827702
        }
    },
    {
        "name": "MASJID AMROOD WALI",
        "main_category": "Mosque",
        "address": "MASJID AMROOD WALI, Bulbuli khana, near kala masjid, Turkman Gate, Old Delhi, New Delhi, Delhi, 110006",
        "detailed_address": {
            "ward": "Turkman Gate, Old Delhi",
            "street": "Bulbuli khana, near kala masjid",
            "city": "New Delhi, Delhi",
            "postal_code": "110006",
            "state": "Delhi",
            "country_code": "IN"
        },
        "images": [
            {
                "about": "All",
                "link": "https://lh5.googleusercontent.com/p/AF1QipOAsheBOBZcIiifhN5nDPHY1dzkYl6XDeDRvPjp=w397-h298-k-no"
            }
        ],
        "link": "https://www.google.com/maps/place/MASJID+AMROOD+WALI/data=!4m7!3m6!1s0x390cfd22f0eb7eef:0xc91420f046ba3b88!8m2!3d28.6410797!4d77.2337194!16s%2Fg%2F11d_x09zhj!19sChIJ737r8CL9DDkRiDu6RvAgFMk?authuser=0&hl=en&rclk=1",
        "coordinates": {
            "latitude": 28.6410797,
            "longitude": 77.2337194
        }
    },
    {
        "name": "MASJID",
        "main_category": "Mosque",
        "address": "MASJID, Wz 173a/1 new ranjeet nagar, Guru Nanak Nagar, Shadipur, Delhi 110008",
        "detailed_address": {
            "ward": "Guru Nanak Nagar, Shadipur",
            "street": "Wz 173a/1 new ranjeet nagar",
            "city": "New Delhi",
            "postal_code": "110008",
            "state": "Delhi",
            "country_code": "IN"
        },
        "images": [
            {
                "about": "All",
                "link": "https://lh5.googleusercontent.com/p/AF1QipON-GjL1qRe_wMdgl0WsVg_H4XmnTAJtBE9uvA=w224-h298-k-no"
            },
            {
                "about": "Videos",
                "link": "https://lh5.googleusercontent.com/p/AF1QipM4E-6NPs0PCh9E4YXw4aIrp77VZMm3fE7IfbDz=w224-h398-k-no"
            }
        ],
        "link": "https://www.google.com/maps/place/MASJID/data=!4m7!3m6!1s0x390d0327bb6f6129:0xe8342be2eca63326!8m2!3d28.6456917!4d77.1597324!16s%2Fg%2F11h5lkhmc2!19sChIJKWFvuycDDTkRJjOm7OIrNOg?authuser=0&hl=en&rclk=1",
        "coordinates": {
            "latitude": 28.6456917,
            "longitude": 77.1597324
        }
    },
    {
        "name": "Masjid Jamun Wali",
        "main_category": "Mosque",
        "address": "Masjid Jamun Wali, Jamun Street, Kalan Mahal Rd, Kalan Mahal, Daryaganj, Delhi, 110002",
        "detailed_address": {
            "ward": "Kalan Mahal, Daryaganj",
            "street": "Jamun Street, Kalan Mahal Rd",
            "city": "Delhi",
            "postal_code": "110002",
            "state": "Delhi",
            "country_code": "IN"
        },
        "images": [
            {
                "about": "All",
                "link": "https://lh5.googleusercontent.com/p/AF1QipOdS4JiyltnkOSnaMbSw40T0Z9Rr78DELjnCJJE=w397-h298-k-no"
            }
        ],
        "link": "https://www.google.com/maps/place/Masjid+Jamun+Wali/data=!4m7!3m6!1s0x390cfd21e86c6d67:0xebc83db6fbea62a8!8m2!3d28.6473277!4d77.2360868!16s%2Fg%2F11g6qh_snj!19sChIJZ21s6CH9DDkRqGLq-7Y9yOs?authuser=0&hl=en&rclk=1",
        "coordinates": {
            "latitude": 28.647327699999998,
            "longitude": 77.2360868
        }
    },
    {
        "name": "Masjid Dhobiyan",
        "main_category": "Mosque",
        "address": "Masjid Dhobiyan, 3280, Delhi Gate Bazar, Kucha Alam, Old Dariya Ganj, New Delhi, Delhi 110002",
        "detailed_address": {
            "ward": "Chatta lal Miya, Chandni Mahal, Old Delhi",
            "street": "3280, Delhi Gate Bazar, Kucha Alam, Old Dariya Ganj",
            "city": "New Delhi, Delhi",
            "postal_code": "110002",
            "state": "Delhi",
            "country_code": "IN"
        },
        "images": [],
        "link": "https://www.google.com/maps/place/Masjid+Dhobiyan/data=!4m7!3m6!1s0x390cfd273340d127:0x7d6d2edf4a35f8d9!8m2!3d28.6425263!4d77.2386389!16s%2Fg%2F11cs5s2vzb!19sChIJJ9FAMyf9DDkR2fg1St8ubX0?authuser=0&hl=en&rclk=1",
        "coordinates": {
            "latitude": 28.6425263,
            "longitude": 77.2386389
        }
    },
    {
        "name": "Masjid Abdul Ghani (Connaught Place) Advocate Feroz Khan Ghazi",
        "main_category": "Mosque",
        "address": "Masjid Abdul Ghani (Connaught Place) Advocate Feroz Khan Ghazi, 23 A, Chelmsford Rd, Railway Colony, Paharganj, New Delhi, Delhi 110055",
        "detailed_address": {
            "ward": "Railway Colony, Paharganj",
            "street": "23 A, Chelmsford Rd",
            "city": "New Delhi",
            "postal_code": "110055",
            "state": "Delhi",
            "country_code": "IN"
        },
        "images": [
            {
                "about": "All",
                "link": "https://lh5.googleusercontent.com/p/AF1QipMlGLl4FtdOLVahE7HfOKjCsUeFJgAF16OplF6P=w224-h298-k-no"
            },
            {
                "about": "Street View & 360deg",
                "link": "https://streetviewpixels-pa.googleapis.com/v1/thumbnail?panoid=BdFmo8vMai6ceTPpt4DBLw&cb_client=maps_sv.tactile.gps&w=224&h=298&yaw=305.25217&pitch=0&thumbfov=100"
            }
        ],
        "link": "https://www.google.com/maps/place/Masjid+Abdul+Ghani+%28Connaught+Place%29+Advocate+Feroz+Khan+Ghazi/data=!4m7!3m6!1s0x390cfd3870115457:0x6ea3f798cfa92403!8m2!3d28.6368217!4d77.2181646!16s%2Fg%2F1hm35b78b!19sChIJV1QRcDj9DDkRAySpz5j3o24?authuser=0&hl=en&rclk=1",
        "coordinates": {
            "latitude": 28.6368217,
            "longitude": 77.2181646
        }
    },
    {
        "name": "MOsque, Adhichini msjd",
        "main_category": "Mosque",
        "address": "G5QW+9W4 MOsque, Adhichini msjd, Sri Aurobindo Marg, Adchini, Adhchini Village, Adchini, New Delhi, Delhi 110016",
        "detailed_address": {
            "ward": "Adchini, Adhchini Village, Adchini",
            "street": "G5QW+9W4, Sri Aurobindo Marg",
            "city": "New Delhi",
            "postal_code": "110016",
            "state": "Delhi",
            "country_code": "IN"
        },
        "images": [
            {
                "about": "All",
                "link": "https://lh5.googleusercontent.com/p/AF1QipN_j1GMacTWwvwD5qir3aYDhTdzMxsuwZbhanm-=w397-h298-k-no"
            }
        ],
        "link": "https://www.google.com/maps/place/MOsque,+Adhichini+%D9%85%D8%B3%D8%AC%D8%AF%E2%80%AD/data=!4m7!3m6!1s0x390ce206fa4ab215:0xd8dd5b48102a18ee!8m2!3d28.5383861!4d77.1973319!16s%2Fg%2F124yj8n65!19sChIJFbJK-gbiDDkR7hgqEEhb3dg?authuser=0&hl=en&rclk=1",
        "coordinates": {
            "latitude": 28.5383861,
            "longitude": 77.1973319
        }
    },
    {
        "name": "Masjid Amaniya Jamalu ka Bagh msjd mnyh jmlw kh bG",
        "main_category": "Mosque",
        "address": "Masjid Amaniya Jamalu ka Bagh msjd mnyh jmlw kh bG, Main, Maujpur Rd, Shahdara, Delhi, 110053",
        "detailed_address": {
            "ward": "Shahdara",
            "street": "Main, Maujpur Rd",
            "city": "Delhi",
            "postal_code": "110053",
            "state": "Delhi",
            "country_code": "IN"
        },
        "images": [
            {
                "about": "All",
                "link": "https://lh5.googleusercontent.com/p/AF1QipNypzxewqtWdN4x_ku7VHxmNPH9DG7D57l2iKg2=w224-h317-k-no"
            },
            {
                "about": "Dome",
                "link": "https://lh5.googleusercontent.com/p/AF1QipNypzxewqtWdN4x_ku7VHxmNPH9DG7D57l2iKg2=w224-h317-k-no"
            },
            {
                "about": "Street View & 360deg",
                "link": "https://streetviewpixels-pa.googleapis.com/v1/thumbnail?panoid=qpG1Vl3E3BEvtJ4JANkHNw&cb_client=maps_sv.tactile.gps&w=224&h=298&yaw=135.33005&pitch=0&thumbfov=100"
            }
        ],
        "link": "https://www.google.com/maps/place/Masjid+Amaniya+Jamalu+ka+Bagh+%D9%85%D8%B3%D8%AC%D8%AF+%D8%A7%D9%85%D8%A7%D9%86%DB%8C%DB%81+%D8%AC%D9%85%D8%A7%D9%84%D9%88+%DA%A9%D8%A7+%D8%A8%D8%A7%D8%BA%E2%80%AD/data=!4m7!3m6!1s0x390cfc7abcd4bae7:0xe8588606af183e3c!8m2!3d28.6855897!4d77.2762341!16s%2Fg%2F11bxdtk5g1!19sChIJ57rUvHr8DDkRPD4YrwaGWOg?authuser=0&hl=en&rclk=1",
        "coordinates": {
            "latitude": 28.685589699999998,
            "longitude": 77.2762341
        }
    },
    {
        "name": "MASJID (Aram park ) msjd arm prkh",
        "main_category": "Mosque",
        "address": "Shop No-97, MASJID (Aram park ) msjd arm prkh, Sarojini Park, Shastri Nagar, Geeta Colony, New Delhi, Delhi 110031",
        "detailed_address": {
            "ward": "Shastri Nagar, Geeta Colony",
            "street": "Shop No-97, Sarojini Park",
            "city": "New Delhi, Delhi",
            "postal_code": "110031",
            "state": "Delhi",
            "country_code": "IN"
        },
        "images": [
            {
                "about": "All",
                "link": "https://lh5.googleusercontent.com/p/AF1QipMh2loESyT5crVhDPzUKFjRA64Np2TV8zbX9UZH=w224-h496-k-no"
            }
        ],
        "link": "https://www.google.com/maps/place/MASJID+%28Aram+park+%29+%D9%85%D8%B3%D8%AC%D8%AF+%D8%A2%D8%B1%D8%A7%D9%85+%D9%BE%D8%A7%D8%B1%DA%A9%E2%80%AD/data=!4m7!3m6!1s0x390cfca5ad5ea739:0x5eee56b2e4485484!8m2!3d28.6434642!4d77.2785658!16s%2Fg%2F11gfnjwk83!19sChIJOaderaX8DDkRhFRI5LJW7l4?authuser=0&hl=en&rclk=1",
        "coordinates": {
            "latitude": 28.6434642,
            "longitude": 77.2785658
        }
    },
    {
        "name": "Ata E Rasool Masjid",
        "main_category": "Mosque",
        "address": "P744+V55 Ata E Rasool Masjid, Shriram Colony, Block A, Rajiv Nagar, Sonia Vihar, Delhi, 110094",
        "detailed_address": {
            "ward": "Shriram Colony, Block A, Rajiv Nagar, Sonia Vihar",
            "street": "P744+V55",
            "city": "Delhi",
            "postal_code": "110094",
            "state": "Delhi",
            "country_code": "IN"
        },
        "images": [
            {
                "about": "All",
                "link": "https://lh5.googleusercontent.com/p/AF1QipOUus8LgsfwO_fnr5u_YY5sQ63zK_WYZAjptlv9=w492-h298-k-no"
            },
            {
                "about": "Dome",
                "link": "https://lh5.googleusercontent.com/p/AF1QipOUus8LgsfwO_fnr5u_YY5sQ63zK_WYZAjptlv9=w492-h298-k-no"
            }
        ],
        "link": "https://www.google.com/maps/place/Ata+E+Rasool+Masjid/data=!4m7!3m6!1s0x390cfc3b2d10341f:0xd365e06455e65096!8m2!3d28.7071349!4d77.2554772!16s%2Fg%2F11dxrw2d2x!19sChIJHzQQLTv8DDkRllDmVWTgZdM?authuser=0&hl=en&rclk=1",
        "coordinates": {
            "latitude": 28.7071349,
            "longitude": 77.2554772
        }
    },
    {
        "name": "Masjid-e-Anjum",
        "main_category": "Mosque",
        "address": "Masjid-e-Anjum, Indira Gandhi Camp Part 2, New Friends Colony, New Delhi, Delhi 110065",
        "detailed_address": {
            "ward": "Block A, Taimoor Nagar, New Friends Colony",
            "street": "Indira Gandhi Camp Part 2, New Friends Colony",
            "city": "New Delhi",
            "postal_code": "110065",
            "state": "Delhi",
            "country_code": "IN"
        },
        "images": [
            {
                "about": "All",
                "link": "https://lh3.googleusercontent.com/gps-proxy/AMy85WKojmQSrJY4csjWF4s0jYS01MINyq1t3rzI-RD9HiEnoqmlxmxUQlqg70M534uCOiwi8nia7eveOkKdDhkulRoIn5coL8IUeYes1d1Qs872zbGCqUeWZx005yHc5zJqX9RWnrO44-wMc8Vz3TBn6tPpwzEUPddwlfdTEDc3owgUZ3b9FA_nWAU7sELG3nghHu-fpw=w224-h398-k-no"
            },
            {
                "about": "Videos",
                "link": "https://lh5.googleusercontent.com/p/AF1QipPeDZAqRZcdYcH2EEBVWifpRNW1cpAKpOyrK-8_=w224-h407-k-no"
            }
        ],
        "link": "https://www.google.com/maps/place/Masjid-e-Anjum/data=!4m7!3m6!1s0x390ce39a2cbe5dad:0x263099a5cc320902!8m2!3d28.573773!4d77.2696933!16s%2Fg%2F11ckkxbn_t!19sChIJrV2-LJrjDDkRAgkyzKWZMCY?authuser=0&hl=en&rclk=1",
        "coordinates": {
            "latitude": 28.573773,
            "longitude": 77.2696933
        }
    },
    {
        "name": "Masjid Rehel Wali",
        "main_category": "Mosque",
        "address": "Masjid Rehel Wali, 1138, Matia Mahal Rd, Manohar Market, Jama Masjid, Old Delhi, New Delhi, Delhi, 110006",
        "detailed_address": {
            "ward": "Manohar Market, Jama Masjid, Old Delhi",
            "street": "1138, Matia Mahal Rd",
            "city": "New Delhi, Delhi",
            "postal_code": "110006",
            "state": "Delhi",
            "country_code": "IN"
        },
        "images": [
            {
                "about": "All",
                "link": "https://lh5.googleusercontent.com/p/AF1QipMTP-d_Cgi0PtwM9smCVgjXR-nzjBPzmfKqu3PW=w660-h298-k-no"
            },
            {
                "about": "Videos",
                "link": "https://lh5.googleusercontent.com/p/AF1QipNM84cq3c4LKqvnlCtiuM9eoeKtNMHdVCh8OCWy=w224-h398-k-no"
            }
        ],
        "link": "https://www.google.com/maps/place/Masjid+Rehel+Wali/data=!4m7!3m6!1s0x390cfd2209bda88f:0xf6c2b99a4522250f!8m2!3d28.6477449!4d77.2337881!16s%2Fg%2F11cs22c5d9!19sChIJj6i9CSL9DDkRDyUiRZq5wvY?authuser=0&hl=en&rclk=1",
        "coordinates": {
            "latitude": 28.6477449,
            "longitude": 77.2337881
        }
    },
    {
        "name": "Masjid Badi msjd",
        "main_category": "Mosque",
        "address": "Masjid Badi msjd, 893,, Chittli Qabar Bazar Rd, Jama Masjid, Chandni Chowk, New Delhi, Delhi 110006",
        "detailed_address": {
            "ward": "Bazar Chitli Qabar, Kucha Chelan, Jama Masjid, Chandni Chowk",
            "street": "893,, Chittli Qabar Bazar Rd",
            "city": "New Delhi, Delhi",
            "postal_code": "110006",
            "state": "Delhi",
            "country_code": "IN"
        },
        "images": [
            {
                "about": "All",
                "link": "https://lh5.googleusercontent.com/p/AF1QipMv3dJUod1k8kUgXwL85usmybd-8tX6XcB5-BPW=w397-h298-k-no"
            },
            {
                "about": "Dome",
                "link": "https://lh5.googleusercontent.com/p/AF1QipM5G6M6udRuekulA88NQ_2zpdC1iLOlIDdsQsdJ=w224-h298-k-no"
            }
        ],
        "link": "https://www.google.com/maps/place/Masjid+Badi+%D9%85%D8%B3%D8%AC%D8%AF%E2%80%AD/data=!4m7!3m6!1s0x390cfd219cfec1f3:0x93ccacb281d71709!8m2!3d28.645321!4d77.2357133!16s%2Fg%2F12m98gjn5!19sChIJ88H-nCH9DDkRCRfXgbKszJM?authuser=0&hl=en&rclk=1",
        "coordinates": {
            "latitude": 28.645321,
            "longitude": 77.2357133
        }
    },
    {
        "name": "Masjid Chaman Wali",
        "main_category": "Mosque",
        "address": "J6VQ+35F Masjid Chaman Wali, Chatta Lal Main Rd, Chatta lal Miya, Chandni Mahal, Old Delhi, New Delhi, Delhi, 110006",
        "detailed_address": {
            "ward": "Chatta lal Miya, Chandni Mahal, Old Delhi",
            "street": "J6VQ+35F, Chatta Lal Main Rd",
            "city": "New Delhi, Delhi",
            "postal_code": "110006",
            "state": "Delhi",
            "country_code": "IN"
        },
        "images": [
            {
                "about": "All",
                "link": "https://lh5.googleusercontent.com/p/AF1QipNW4HAAPVnV8dkU2W7X80WMk6E4rWQsOKF8JRXt=w224-h398-k-no"
            },
            {
                "about": "Videos",
                "link": "https://lh5.googleusercontent.com/p/AF1QipNS4dFiYIdQFmO9HNHtbHdghPJCCZ1B6f060Th2=w224-h398-k-no"
            }
        ],
        "link": "https://www.google.com/maps/place/Masjid+Chaman+Wali/data=!4m7!3m6!1s0x390cfd20d48b3cf5:0x916e89198649cad7!8m2!3d28.6426911!4d77.2379154!16s%2Fg%2F11dylqpy8c!19sChIJ9TyL1CD9DDkR18pJhhmJbpE?authuser=0&hl=en&rclk=1",
        "coordinates": {
            "latitude": 28.6426911,
            "longitude": 77.23791539999999
        }
    },
    {
        "name": "Mosque",
        "main_category": "Mosque",
        "address": "Mosque, C-194, Industrial Area Phase I, Block C, Naraina Industrial Area Phase 1, Naraina, New Delhi, Delhi 110028",
        "detailed_address": {
            "ward": "Industrial Area Phase I, Block C, Naraina Industrial Area Phase 1, Naraina",
            "street": "C-194",
            "city": "New Delhi",
            "postal_code": "110028",
            "state": "Delhi",
            "country_code": "IN"
        },
        "images": [
            {
                "about": "All",
                "link": "https://lh5.googleusercontent.com/p/AF1QipN9ShIAX9AlGwKnHCimE9Ni69z2MQSUKkqP4tqP=w224-h398-k-no"
            },
            {
                "about": "Latest",
                "link": "https://lh5.googleusercontent.com/p/AF1QipNHb2A0jpvoOJYTyg32gDz-jBmmVaep80e7BWyJ=w224-h298-k-no"
            },
            {
                "about": "Videos",
                "link": "https://lh5.googleusercontent.com/p/AF1QipMzhHXUke8yUPhqf2GuJl6M8KFwCzptoR-ql2sD=w224-h398-k-no"
            }
        ],
        "link": "https://www.google.com/maps/place/Mosque/data=!4m7!3m6!1s0x390d03e44e562277:0xcc16aa56e8c113fd!8m2!3d28.6307669!4d77.137273!16s%2Fg%2F11gl13ryh3!19sChIJdyJWTuQDDTkR_RPB6FaqFsw?authuser=0&hl=en&rclk=1",
        "coordinates": {
            "latitude": 28.630766899999998,
            "longitude": 77.137273
        }
    },
    {
        "name": "Masjid msjd",
        "main_category": "Mosque",
        "address": "H6VX+34H Masjid msjd, Nizamuddin, Nizamuddin East, New Delhi, Delhi 110013",
        "detailed_address": {
            "ward": "Nizamuddin, Nizamuddin East",
            "street": "H6VX+34H",
            "city": "New Delhi",
            "postal_code": "110013",
            "state": "Delhi",
            "country_code": "IN"
        },
        "images": [
            {
                "about": "All",
                "link": "https://lh5.googleusercontent.com/p/AF1QipNHvHu-8ovoCAtR39t3_gJwW9QqyPIUtlvwXNQh=w527-h298-k-no"
            },
            {
                "about": "Latest",
                "link": "https://lh5.googleusercontent.com/p/AF1QipPmxi8zKZJqO_dM8YcpyHzjt52iw4NLCElswb1M=w529-h298-k-no"
            },
            {
                "about": "Videos",
                "link": "https://lh5.googleusercontent.com/p/AF1QipMijXrqxC9R_AQyT0dhlHZMkwy-FY7aaSdl2yKe=w529-h298-k-no"
            },
            {
                "about": "Afsarwala Tomb",
                "link": "https://lh5.googleusercontent.com/p/AF1QipN04y5yZAY3FG-Pqfxs2ef21WcxltaTEttAkl8x=w448-h298-k-no"
            },
            {
                "about": "Dome",
                "link": "https://lh5.googleusercontent.com/p/AF1QipMonNRGdOfhN52SdzPVCecjCA0o9vb8LiFyyb_c=w224-h298-k-no"
            },
            {
                "about": "Street View & 360deg",
                "link": "https://lh5.googleusercontent.com/p/AF1QipMBhitKyo3gj4fQd5du37FBcxTd9t4f_d85cgT_=w224-h298-k-no-pi-17.750061-ya1.4841931-ro-0.30110374-fo100"
            }
        ],
        "link": "https://www.google.com/maps/place/Masjid+%D9%85%D8%B3%D8%AC%D8%AF%E2%80%AD/data=!4m7!3m6!1s0x390ce31b384dab99:0x1853a43e8d3f0e37!8m2!3d28.592699!4d77.247867!16s%2Fg%2F11g6vgsy16!19sChIJmatNOBvjDDkRNw4_jT6kUxg?authuser=0&hl=en&rclk=1",
        "coordinates": {
            "latitude": 28.592699,
            "longitude": 77.247867
        }
    },
    {
        "name": "Masjid",
        "main_category": "Mosque",
        "address": "H769+P87 Masjid, Block A, Friends Colony East, New Friends Colony, New Delhi, Delhi 110025",
        "detailed_address": {
            "ward": "Block A, Friends Colony East, New Friends Colony",
            "street": "H769+P87",
            "city": "New Delhi",
            "postal_code": "110025",
            "state": "Delhi",
            "country_code": "IN"
        },
        "images": [
            {
                "about": "All",
                "link": "https://streetviewpixels-pa.googleapis.com/v1/thumbnail?panoid=NcRXfKPnQLaPH-Vh57RXGA&cb_client=maps_sv.tactile.gps&w=224&h=298&yaw=105.47298&pitch=0&thumbfov=100"
            },
            {
                "about": "Street View & 360deg",
                "link": "https://streetviewpixels-pa.googleapis.com/v1/thumbnail?panoid=NcRXfKPnQLaPH-Vh57RXGA&cb_client=maps_sv.tactile.gps&w=224&h=298&yaw=105.47298&pitch=0&thumbfov=100"
            }
        ],
        "link": "https://www.google.com/maps/place/Masjid/data=!4m7!3m6!1s0x390ce3a3874c1a6d:0x3777b5148e43553a!8m2!3d28.5617917!4d77.2683072!16s%2Fg%2F11grc87l61!19sChIJbRpMh6PjDDkROlVDjhS1dzc?authuser=0&hl=en&rclk=1",
        "coordinates": {
            "latitude": 28.561791699999997,
            "longitude": 77.2683072
        }
    },
    {
        "name": "Masjid E Umar",
        "main_category": "Mosque",
        "address": "M3P6+W5W Masjid E Umar, Nomadic Banjara Community, Railway Colony, Prem Nagar II, Prem Nagar, Delhi, 110086",
        "detailed_address": {
            "ward": "Nomadic Banjara Community, Railway Colony, Prem Nagar II, Prem Nagar",
            "street": "M3P6+W5W",
            "city": "Delhi",
            "postal_code": "110086",
            "state": "Delhi",
            "country_code": "IN"
        },
        "images": [
            {
                "about": "All",
                "link": "https://lh5.googleusercontent.com/p/AF1QipNukjM5NMSq65fv5gddOf-2wHI6NHi4oyKR360B=w224-h473-k-no"
            }
        ],
        "link": "https://www.google.com/maps/place/Masjid+E+Umar/data=!4m7!3m6!1s0x390d04326bc31b0f:0xa6e2b96d7dadb38d!8m2!3d28.6873504!4d77.0604564!16s%2Fg%2F11g9npm5_d!19sChIJDxvDazIEDTkRjbOtfW254qY?authuser=0&hl=en&rclk=1",
        "coordinates": {
            "latitude": 28.6873504,
            "longitude": 77.06045639999999
        }
    },
    {
        "name": "Ramzania Masjid",
        "main_category": "Mosque",
        "address": "M7G8+H3W Ramzania Masjid, Phase 1, Block J, Shahdara, Delhi, 110053",
        "detailed_address": {
            "ward": "Phase 1, Block J, Shahdara",
            "street": "M7G8+H3W",
            "city": "Delhi",
            "postal_code": "110053",
            "state": "Delhi",
            "country_code": "IN"
        },
        "images": [
            {
                "about": "All",
                "link": "https://streetviewpixels-pa.googleapis.com/v1/thumbnail?panoid=NUiuE8BJ2mRbGzsE6VVTbw&cb_client=maps_sv.tactile.gps&w=224&h=298&yaw=113.41934&pitch=0&thumbfov=100"
            },
            {
                "about": "Street View & 360deg",
                "link": "https://streetviewpixels-pa.googleapis.com/v1/thumbnail?panoid=NUiuE8BJ2mRbGzsE6VVTbw&cb_client=maps_sv.tactile.gps&w=224&h=298&yaw=113.41934&pitch=0&thumbfov=100"
            }
        ],
        "link": "https://www.google.com/maps/place/Ramzania+Masjid/data=!4m7!3m6!1s0x390cfc605f1fc6dd:0x8e4ff1e8c957f8c9!8m2!3d28.6764861!4d77.2652025!16s%2Fg%2F11dxrtb5q8!19sChIJ3cYfX2D8DDkRyfhXyejxT44?authuser=0&hl=en&rclk=1",
        "coordinates": {
            "latitude": 28.676486099999998,
            "longitude": 77.2652025
        }
    },
    {
        "name": "Minara Masjid",
        "main_category": "Mosque",
        "address": "Q78H+MC7 Minara Masjid, Ghaziabad, Uttar Pradesh 201102",
        "detailed_address": {
            "ward": null,
            "street": "Q78H+MC7",
            "city": "Ghaziabad",
            "postal_code": null,
            "state": "Uttar Pradesh",
            "country_code": "IN"
        },
        "images": [
            {
                "about": "All",
                "link": "https://lh5.googleusercontent.com/p/AF1QipPAavikAMZ0TdHAnW02mggrGDQa173N3BMIVcuq=w298-h298-k-no"
            },
            {
                "about": "Street View & 360deg",
                "link": "https://streetviewpixels-pa.googleapis.com/v1/thumbnail?panoid=TjVyKWBMh9D5vyd9nCZO_A&cb_client=maps_sv.tactile.gps&w=224&h=298&yaw=318.25186&pitch=0&thumbfov=100"
            },
            {
                "about": "Videos",
                "link": "https://lh5.googleusercontent.com/p/AF1QipPivVUVcS5_MciwctMgMs8txwKmvnvg0xX5GGlI=w224-h398-k-no"
            }
        ],
        "link": "https://www.google.com/maps/place/Minara+Masjid/data=!4m7!3m6!1s0x390cfed628f5c28f:0x6c63711d6c363dd6!8m2!3d28.7666689!4d77.2785548!16s%2Fg%2F11hbc20ck7!19sChIJj8L1KNb-DDkR1j02bB1xY2w?authuser=0&hl=en&rclk=1",
        "coordinates": {
            "latitude": 28.7666689,
            "longitude": 77.2785548
        }
    },
    {
        "name": "Masjid Al Firdous",
        "main_category": "Mosque",
        "address": "H6WR+56G Masjid Al Firdous, Delhi Golf Club, Golf Links, New Delhi, Delhi 110003",
        "detailed_address": {
            "ward": "Delhi Golf Club, Golf Links",
            "street": "H6WR+56G",
            "city": "New Delhi",
            "postal_code": "110003",
            "state": "Delhi",
            "country_code": "IN"
        },
        "images": [
            {
                "about": "All",
                "link": "https://lh5.googleusercontent.com/p/AF1QipO2rpqszfj3nex9qUyScYPPv2IHCV-Ly_K2pXVr=w224-h298-k-no"
            },
            {
                "about": "Dome",
                "link": "https://lh5.googleusercontent.com/p/AF1QipOshDwWCt81m5CRK8GC9zuuoVfhol8JcMIccyB_=w224-h298-k-no"
            },
            {
                "about": "Street View & 360deg",
                "link": "https://streetviewpixels-pa.googleapis.com/v1/thumbnail?panoid=Man_Gp1-XfSTf2B54xWnAQ&cb_client=maps_sv.tactile.gps&w=224&h=298&yaw=72.28475&pitch=0&thumbfov=100"
            }
        ],
        "link": "https://www.google.com/maps/place/Masjid+Al+Firdous/data=!4m7!3m6!1s0x390ce31d8aba7277:0xdaa66bdae288c0a1!8m2!3d28.595438!4d77.2405761!16s%2Fg%2F11c6snq8n9!19sChIJd3K6ih3jDDkRocCI4tprpto?authuser=0&hl=en&rclk=1",
        "coordinates": {
            "latitude": 28.595437999999998,
            "longitude": 77.2405761
        }
    },
    {
        "name": "Jahtari Wali Masjid",
        "main_category": "Mosque",
        "address": "Jahtari Wali Masjid, 5077, Main Bazar Rd, Bharat Nagar, Main Bazar, Aram Bagh, Paharganj, New Delhi, Delhi 110055",
        "detailed_address": {
            "ward": "Bharat Nagar, Main Bazar, Aram Bagh, Paharganj",
            "street": "5077, Main Bazar Rd",
            "city": "New Delhi",
            "postal_code": "110055",
            "state": "Delhi",
            "country_code": "IN"
        },
        "images": [
            {
                "about": "All",
                "link": "https://lh5.googleusercontent.com/p/AF1QipP0cPpKWi9HXvUvBF7SNRfES3Ly8pD0S5uEGqm5=w398-h298-k-no"
            },
            {
                "about": "Latest",
                "link": "https://streetviewpixels-pa.googleapis.com/v1/thumbnail?panoid=Z2MlVgibB9ss1o2s8NtFvg&cb_client=maps_sv.tactile.gps&w=224&h=298&yaw=190.70903&pitch=0&thumbfov=100"
            },
            {
                "about": "Street View & 360deg",
                "link": "https://streetviewpixels-pa.googleapis.com/v1/thumbnail?panoid=Z2MlVgibB9ss1o2s8NtFvg&cb_client=maps_sv.tactile.gps&w=224&h=298&yaw=190.70903&pitch=0&thumbfov=100"
            }
        ],
        "link": "https://www.google.com/maps/place/Jahtari+Wali+Masjid/data=!4m7!3m6!1s0x390cfd815a030b8b:0xe18350aa13859d7a!8m2!3d28.6406795!4d77.2115511!16s%2Fg%2F11gjxtbc0j!19sChIJiwsDWoH9DDkRep2FE6pQg-E?authuser=0&hl=en&rclk=1",
        "coordinates": {
            "latitude": 28.640679499999997,
            "longitude": 77.2115511
        }
    },
    {
        "name": "Masjid annoor Jahan",
        "main_category": "Mosque",
        "address": "H78J+HQ5 Masjid annoor Jahan, Street Number 2, Mehboob Nagar, Jogabai Extension, Okhla, New Delhi, Delhi 110025",
        "detailed_address": {
            "ward": "Mehboob Nagar, Jogabai Extension, Okhla",
            "street": "H78J+HQ5, Street Number 2",
            "city": "New Delhi",
            "postal_code": "110025",
            "state": "Delhi",
            "country_code": "IN"
        },
        "images": [
            {
                "about": "All",
                "link": "https://streetviewpixels-pa.googleapis.com/v1/thumbnail?panoid=mW4zQziqOK8FfOlNSoxpSw&cb_client=maps_sv.tactile.gps&w=224&h=298&yaw=48.18557&pitch=0&thumbfov=100"
            },
            {
                "about": "Street View & 360deg",
                "link": "https://streetviewpixels-pa.googleapis.com/v1/thumbnail?panoid=mW4zQziqOK8FfOlNSoxpSw&cb_client=maps_sv.tactile.gps&w=224&h=298&yaw=48.18557&pitch=0&thumbfov=100"
            }
        ],
        "link": "https://www.google.com/maps/place/Masjid+annoor+Jahan/data=!4m7!3m6!1s0x390ce38edd294515:0xf9f6a26d69a9d112!8m2!3d28.5663801!4d77.2819754!16s%2Fg%2F11g6rd5s7t!19sChIJFUUp3Y7jDDkREtGpaW2i9vk?authuser=0&hl=en&rclk=1",
        "coordinates": {
            "latitude": 28.5663801,
            "longitude": 77.2819754
        }
    },
    {
        "name": "masjid alshirin",
        "main_category": "Mosque",
        "address": "P742+XW3 masjid alshirin, Aurangzeb Rd, Shriram Colony, Block C, Rajiv Nagar, Khazoori Khas, Delhi, 110094",
        "detailed_address": {
            "ward": "Shriram Colony, Block C, Rajiv Nagar, Khazoori Khas",
            "street": "P742+XW3, Aurangzeb Rd",
            "city": "Delhi",
            "postal_code": "110094",
            "state": "Delhi",
            "country_code": "IN"
        },
        "images": [
            {
                "about": "All",
                "link": "https://lh5.googleusercontent.com/p/AF1QipPXWyZsR9Hsl0OayBv1BcvCNFcOsIFawjs4RAqW=w397-h298-k-no"
            },
            {
                "about": "Videos",
                "link": "https://lh5.googleusercontent.com/p/AF1QipNrgJk-cQI-KcpO9uEoEeOVeYBEro0wq5_chc0C=w224-h399-k-no"
            }
        ],
        "link": "https://www.google.com/maps/place/masjid+alshirin/data=!4m7!3m6!1s0x390cfda8e0df6f63:0xda4e08b680a09e45!8m2!3d28.7073834!4d77.2523086!16s%2Fg%2F11gxgrx95b!19sChIJY2_f4Kj9DDkRRZ6ggLYITto?authuser=0&hl=en&rclk=1",
        "coordinates": {
            "latitude": 28.707383399999998,
            "longitude": 77.25230859999999
        }
    },
    {
        "name": "Masjid Sanauji",
        "main_category": "Mosque",
        "address": "Masjid Sanauji, Shop No. 1630, Lal Kuan, Lalkuan Bazar Rd, Baradari, Chandni Chowk, New Delhi, Delhi 110006",
        "detailed_address": {
            "ward": "Bazar Sirkiwalan, Baradari, Chandni Chowk",
            "street": "Shop No. 1630, Lal Kuan, Lalkuan Bazar Rd",
            "city": "New Delhi, Delhi",
            "postal_code": "110006",
            "state": "Delhi",
            "country_code": "IN"
        },
        "images": [
            {
                "about": "All",
                "link": "https://lh5.googleusercontent.com/p/AF1QipOgHpJ-5Fj2fJqfxuo0o-ACUwG8mpQuIjAJkqA=w224-h343-k-no"
            },
            {
                "about": "By owner",
                "link": "https://lh5.googleusercontent.com/p/AF1QipOMbkVhSOIUMNe6_YNWS11Nk5TH8gCrPaEX0cs=w224-h378-k-no"
            },
            {
                "about": "Street View & 360deg",
                "link": "https://streetviewpixels-pa.googleapis.com/v1/thumbnail?panoid=DyR3PllY1iQq1cn0nXaGVA&cb_client=maps_sv.tactile.gps&w=224&h=298&yaw=53.981697&pitch=0&thumbfov=100"
            }
        ],
        "link": "https://www.google.com/maps/place/Masjid+Sanauji/data=!4m7!3m6!1s0x390cfd13fe3ea72d:0x27ea23bc5f650202!8m2!3d28.6529317!4d77.2232485!16s%2Fg%2F12hplq4pp!19sChIJLac-_hP9DDkRAgJlX7wj6ic?authuser=0&hl=en&rclk=1",
        "coordinates": {
            "latitude": 28.6529317,
            "longitude": 77.2232485
        }
    },
    {
        "name": "khwy'yN wly msjd Kuein Wali Masjid",
        "main_category": "Mosque",
        "address": "khwy'yN wly msjd Kuein Wali Masjid, 3017, Ram Bazar Marg, Mori Gate, Delhi, 110006",
        "detailed_address": {
            "ward": "Ganda Nala Bazar, South Indian Madrasi Colony, Mori Gate",
            "street": "3017, Ram Bazar Marg",
            "city": "Delhi",
            "postal_code": "110006",
            "state": "Delhi",
            "country_code": "IN"
        },
        "images": [
            {
                "about": "All",
                "link": "https://lh5.googleusercontent.com/p/AF1QipMZTvc_gX3DbGzadjbXZS1pKYFeMLZ8Uoyn11k4=w298-h298-k-no"
            }
        ],
        "link": "https://www.google.com/maps/place/%DA%A9%D9%88%D8%A6%DB%8C%DA%BA+%D9%88%D8%A7%D9%84%DB%8C+%D9%85%D8%B3%D8%AC%D8%AF+Kuein+Wali+Masjid%E2%80%AD/data=!4m7!3m6!1s0x390cfd0eb6b8bd09:0x18933362fd3b39e4!8m2!3d28.663729!4d77.224411!16s%2Fg%2F12hqtrvvz!19sChIJCb24tg79DDkR5Dk7_WIzkxg?authuser=0&hl=en&rclk=1",
        "coordinates": {
            "latitude": 28.663729,
            "longitude": 77.224411
        }
    },
    {
        "name": "Anarwali Masjid msjd nr wly",
        "main_category": "Mosque",
        "address": "Anarwali Masjid msjd nr wly, hno.230/ mandavali, 3, Mandawali Main Road, Fazalpur, Railway Colony, Mandawali, Delhi, 110092",
        "detailed_address": {
            "ward": "Railway Colony, Mandawali",
            "street": "hno.230/ mandavali, 3, Mandawali Main Road, Fazalpur, Railway Colony, Mandawali",
            "city": "Delhi",
            "postal_code": "110092",
            "state": "Delhi",
            "country_code": "IN"
        },
        "images": [],
        "link": "https://www.google.com/maps/place/Anarwali+Masjid+%D9%85%D8%B3%D8%AC%D8%AF+%D8%A7%D9%86%D8%A7%D8%B1+%D9%88%D8%A7%D9%84%DB%8C%E2%80%AD/data=!4m7!3m6!1s0x390ce4aceaaaaaab:0xf35cfc3b5a9a894a!8m2!3d28.6291881!4d77.2936695!16s%2Fg%2F11cmfdyfyg!19sChIJq6qq6qzkDDkRSomaWjv8XPM?authuser=0&hl=en&rclk=1",
        "coordinates": {
            "latitude": 28.6291881,
            "longitude": 77.2936695
        }
    },
    {
        "name": "Masjid",
        "main_category": "Mosque",
        "address": "P26W+G9R Masjid, Sharma Enclave, Phase II, Rohini, New Delhi, Delhi, 110086",
        "detailed_address": {
            "ward": "Sharma Enclave, Phase II, Rohini",
            "street": "P26W+G9R",
            "city": "New Delhi, Delhi",
            "postal_code": "110086",
            "state": "Delhi",
            "country_code": "IN"
        },
        "images": [
            {
                "about": "All",
                "link": "https://streetviewpixels-pa.googleapis.com/v1/thumbnail?panoid=ucpmnCq0Aq1S6D4NszdTbQ&cb_client=maps_sv.tactile.gps&w=224&h=298&yaw=336.26425&pitch=0&thumbfov=100"
            },
            {
                "about": "Street View & 360deg",
                "link": "https://streetviewpixels-pa.googleapis.com/v1/thumbnail?panoid=ucpmnCq0Aq1S6D4NszdTbQ&cb_client=maps_sv.tactile.gps&w=224&h=298&yaw=336.26425&pitch=0&thumbfov=100"
            }
        ],
        "link": "https://www.google.com/maps/place/Masjid/data=!4m7!3m6!1s0x390d0665424343cf:0xe967304e46362a9e!8m2!3d28.7113688!4d77.045882!16s%2Fg%2F11gfgxlbhp!19sChIJz0NDQmUGDTkRnio2Rk4wZ-k?authuser=0&hl=en&rclk=1",
        "coordinates": {
            "latitude": 28.7113688,
            "longitude": 77.04588199999999
        }
    },
    {
        "name": "Anisa Masjid msjd nys",
        "main_category": "Mosque",
        "address": "Anisa Masjid msjd nys, G-98/a, Chungi No 2, Kotla Mahingiran, Lal Kuan, New Delhi, Delhi 110044",
        "detailed_address": {
            "ward": "Chungi No 2, Kotla Mahingiran, Lal Kuan",
            "street": "G-98/a",
            "city": "New Delhi",
            "postal_code": "110044",
            "state": "Delhi",
            "country_code": "IN"
        },
        "images": [
            {
                "about": "All",
                "link": "https://streetviewpixels-pa.googleapis.com/v1/thumbnail?panoid=2ovQP1ahVt6glE-S15S28Q&cb_client=maps_sv.tactile.gps&w=224&h=298&yaw=86.02286&pitch=0&thumbfov=100"
            },
            {
                "about": "Street View & 360deg",
                "link": "https://streetviewpixels-pa.googleapis.com/v1/thumbnail?panoid=2ovQP1ahVt6glE-S15S28Q&cb_client=maps_sv.tactile.gps&w=224&h=298&yaw=86.02286&pitch=0&thumbfov=100"
            }
        ],
        "link": "https://www.google.com/maps/place/Anisa+Masjid+%D9%85%D8%B3%D8%AC%D8%AF+%D8%A7%D9%86%DB%8C%D8%B3%D8%A7%E2%80%AD/data=!4m7!3m6!1s0x390ce1c7a0cef4bf:0x5e4d72c51a51992b!8m2!3d28.5003582!4d77.2823266!16s%2Fg%2F11fl8_svcx!19sChIJv_TOoMfhDDkRK5lRGsVyTV4?authuser=0&hl=en&rclk=1",
        "coordinates": {
            "latitude": 28.500358199999997,
            "longitude": 77.28232659999999
        }
    },
    {
        "name": "Noor masjid",
        "main_category": "Mosque",
        "address": "Noor masjid, 88-A, Meharchand Market, Lodi Colony, New Delhi, Delhi 110003",
        "detailed_address": {
            "ward": "Meharchand Market, Lodi Colony",
            "street": "88-A",
            "city": "New Delhi",
            "postal_code": "110003",
            "state": "Delhi",
            "country_code": "IN"
        },
        "images": [
            {
                "about": "All",
                "link": "https://lh5.googleusercontent.com/p/AF1QipOh6J84UlT_eVkjAQxAV1pGO6OxZ4MSsUm-HqG2=w397-h298-k-no"
            }
        ],
        "link": "https://www.google.com/maps/place/Noor+masjid/data=!4m7!3m6!1s0x390ce3bde048d651:0x31a744236a19398c!8m2!3d28.5863397!4d77.2271578!16s%2Fg%2F11j0z5cnj_!19sChIJUdZI4L3jDDkRjDkZaiNEpzE?authuser=0&hl=en&rclk=1",
        "coordinates": {
            "latitude": 28.5863397,
            "longitude": 77.2271578
        }
    },
    {
        "name": "Masjid Mehendiyan msjd mhndyn",
        "main_category": "Mosque",
        "address": "J6MP+QX3 Masjid Mehendiyan msjd mhndyn, Qabrastan Mehendiyan, Mirdard Road, Delh, Gandhi Market Area, Barakhamba, New Delhi, Delhi 110002",
        "detailed_address": {
            "ward": "Maulana Azad Medical College Campus, Gandhi Market Area, Barakhamba",
            "street": "J6MP+QX3, Qabrastan Mehendiyan, Mirdard Road, Delh",
            "city": "New Delhi, Delhi",
            "postal_code": "110002",
            "state": "Delhi",
            "country_code": "IN"
        },
        "images": [
            {
                "about": "All",
                "link": "https://lh5.googleusercontent.com/p/AF1QipO09jke25ZZE6sy-7EnlvTBh-M1dgkatVFjK6tJ=w397-h298-k-no"
            }
        ],
        "link": "https://www.google.com/maps/place/Masjid+Mehendiyan+%D9%85%D8%B3%D8%AC%D8%AF+%D9%85%DB%81%D9%86%D8%AF%DB%8C%D8%A7%D9%86%E2%80%AD/data=!4m7!3m6!1s0x390cfd28f90517f3:0xd21a0ff0de2e7447!8m2!3d28.6343771!4d77.2374252!16s%2Fg%2F11d_9hcbf5!19sChIJ8xcF-Sj9DDkRR3Qu3vAPGtI?authuser=0&hl=en&rclk=1",
        "coordinates": {
            "latitude": 28.6343771,
            "longitude": 77.23742519999999
        }
    },
    {
        "name": "Masjid Hussainiya",
        "main_category": "Mosque",
        "address": "J6XM+GHP Masjid Hussainiya, Matia Mahal Rd, Kalan Mehal, Old Delhi, Delhi, 110006",
        "detailed_address": {
            "ward": "Kalan Mehal, Old Delhi",
            "street": "J6XM+GHP, Matia Mahal Rd",
            "city": "Delhi",
            "postal_code": "110006",
            "state": "Delhi",
            "country_code": "IN"
        },
        "images": [
            {
                "about": "All",
                "link": "https://lh5.googleusercontent.com/p/AF1QipOHCoLcDN76JlXgO6oXRVDy3vqhGQ5ItL0YMEMW=w224-h298-k-no"
            },
            {
                "about": "Videos",
                "link": "https://lh5.googleusercontent.com/p/AF1QipNU4LBupQ7ERfosDFSCiyvQa_FKyUNnJJHP8uCn=w224-h398-k-no"
            }
        ],
        "link": "https://www.google.com/maps/place/Masjid+Hussainiya/data=!4m7!3m6!1s0x390cfd18ba6b0bd5:0xced4d691b8d1a3fb!8m2!3d28.6488459!4d77.2339534!16s%2Fg%2F11gc9g4rkv!19sChIJ1Qtruhj9DDkR-6PRuJHW1M4?authuser=0&hl=en&rclk=1",
        "coordinates": {
            "latitude": 28.648845899999998,
            "longitude": 77.23395339999999
        }
    },
    {
        "name": "Masjid Aashikan-E-Rasool",
        "main_category": "Mosque",
        "address": "Masjid Aashikan-E-Rasool, B168A, Block B, Baljit Nagar, Patel Nagar, New Delhi, Delhi, 110008",
        "detailed_address": {
            "ward": "Block B, Baljit Nagar, Patel Nagar",
            "street": "B168A",
            "city": "New Delhi, Delhi",
            "postal_code": "110008",
            "state": "Delhi",
            "country_code": "IN"
        },
        "images": [
            {
                "about": "All",
                "link": "https://lh5.googleusercontent.com/p/AF1QipOhxrUqRSEqVNvduefSotjDrm4jmlZimPF-0bD3=w224-h497-k-no"
            }
        ],
        "link": "https://www.google.com/maps/place/Masjid+Aashikan-E-Rasool/data=!4m7!3m6!1s0x390d03568277eb99:0x27959f1a230ab399!8m2!3d28.6610366!4d77.1631945!16s%2Fg%2F11qz5hv88s!19sChIJmet3glYDDTkRmbMKIxqflSc?authuser=0&hl=en&rclk=1",
        "coordinates": {
            "latitude": 28.6610366,
            "longitude": 77.1631945
        }
    },
    {
        "name": "Noorani Mosque msjd",
        "main_category": "Mosque",
        "address": "J6X9+264 Noorani Mosque msjd, Ram Nagar Market, Prem Nagar, Paharganj, New Delhi, Delhi, 110006",
        "detailed_address": {
            "ward": "Ram Nagar Market, Prem Nagar, Paharganj",
            "street": "J6X9+264",
            "city": "New Delhi, Delhi",
            "postal_code": "110006",
            "state": "Delhi",
            "country_code": "IN"
        },
        "images": [
            {
                "about": "All",
                "link": "https://lh5.googleusercontent.com/p/AF1QipO1ahtv-e5I5uMnNPjq2zA4E_1lhomz7SZZ6Vg=w232-h298-k-no"
            },
            {
                "about": "Dome",
                "link": "https://lh5.googleusercontent.com/p/AF1QipOmbY1N2LvbikcxJEKDhUnJ3JhqT6mYA5DWZnE=w397-h298-k-no"
            },
            {
                "about": "Street View & 360deg",
                "link": "https://streetviewpixels-pa.googleapis.com/v1/thumbnail?panoid=mcx5kGGopGSdhTOfMFqeiw&cb_client=maps_sv.tactile.gps&w=224&h=298&yaw=66.581116&pitch=0&thumbfov=100"
            }
        ],
        "link": "https://www.google.com/maps/place/Noorani+Mosque+%D9%85%D8%B3%D8%AC%D8%AF%E2%80%AD/data=!4m7!3m6!1s0x390cfd15484b7eeb:0xa62a930e2393d479!8m2!3d28.6475072!4d77.218065!16s%2Fg%2F11gdm60sn2!19sChIJ635LSBX9DDkRedSTIw6TKqY?authuser=0&hl=en&rclk=1",
        "coordinates": {
            "latitude": 28.6475072,
            "longitude": 77.218065
        }
    },
    {
        "name": "Mr.SAHEEM MALIK",
        "main_category": "Mosque",
        "address": "Mr.SAHEEM MALIK, Gali no. 3 - Tirpal Factory Mustafabad, near Ayisha masjid, 25 Futa Rd, near by Aisha Masjid, chowk, Delhi 110094",
        "detailed_address": {
            "ward": "Shakti Vihar, Old Mustafabad, chowk",
            "street": "Gali no. 3 - Tirpal Factory Mustafabad, near Ayisha masjid, 25 Futa Rd, near by Aisha Masjid",
            "city": "Delhi",
            "postal_code": "110094",
            "state": "Delhi",
            "country_code": "IN"
        },
        "images": [
            {
                "about": "All",
                "link": "https://streetviewpixels-pa.googleapis.com/v1/thumbnail?panoid=mnDvqKgVbPOgbskB0cRBOg&cb_client=maps_sv.tactile.gps&w=224&h=298&yaw=306.35242&pitch=0&thumbfov=100"
            },
            {
                "about": "Street View & 360deg",
                "link": "https://streetviewpixels-pa.googleapis.com/v1/thumbnail?panoid=mnDvqKgVbPOgbskB0cRBOg&cb_client=maps_sv.tactile.gps&w=224&h=298&yaw=306.35242&pitch=0&thumbfov=100"
            }
        ],
        "link": "https://www.google.com/maps/place/Mr.SAHEEM+MALIK/data=!4m7!3m6!1s0x390cfd9a44cd4997:0xffdc8860c53e3f2b!8m2!3d28.7159667!4d77.272238!16s%2Fg%2F11h3cwgc8y!19sChIJl0nNRJr9DDkRKz8-xWCI3P8?authuser=0&hl=en&rclk=1",
        "coordinates": {
            "latitude": 28.7159667,
            "longitude": 77.272238
        }
    },
    {
        "name": "Haji Rojdaar Wali Masjid",
        "main_category": "Mosque",
        "address": "Haji Rojdaar Wali Masjid, 110074, Kharak, Sat Bari, New Delhi, Delhi 110074",
        "detailed_address": {
            "ward": "Kharak, Sat Bari",
            "street": "110074",
            "city": "New Delhi",
            "postal_code": "110074",
            "state": "Delhi",
            "country_code": "IN"
        },
        "images": [
            {
                "about": "All",
                "link": "https://lh5.googleusercontent.com/p/AF1QipOKBNzk8N147cNmXRUGkJ5a-sAMj564QmHla9zR=w529-h298-k-no"
            },
            {
                "about": "Street View & 360deg",
                "link": "https://streetviewpixels-pa.googleapis.com/v1/thumbnail?panoid=birB_J6MZR3AJapb7BFTHw&cb_client=maps_sv.tactile.gps&w=224&h=298&yaw=88.30046&pitch=0&thumbfov=100"
            },
            {
                "about": "Videos",
                "link": "https://lh5.googleusercontent.com/p/AF1QipNW-7M2tzo-_GjIXvD9ZWEYJNplHAOVy3Zt5T7h=w224-h398-k-no"
            }
        ],
        "link": "https://www.google.com/maps/place/Haji+Rojdaar+Wali+Masjid/data=!4m7!3m6!1s0x390ce024a51f068f:0x1d8c2d91ee022fdd!8m2!3d28.4679055!4d77.2051939!16s%2Fg%2F11c5_hph3y!19sChIJjwYfpSTgDDkR3S8C7pEtjB0?authuser=0&hl=en&rclk=1",
        "coordinates": {
            "latitude": 28.467905499999997,
            "longitude": 77.2051939
        }
    },
    {
        "name": "Masjid Anar Wali",
        "main_category": "Mosque",
        "address": "Masjid Anar Wali, 847-893, Tilak Gali, Mori Gate, New Delhi, Delhi, 110006",
        "detailed_address": {
            "ward": "Mori Gate",
            "street": "847-893, Tilak Gali",
            "city": "New Delhi, Delhi",
            "postal_code": "110006",
            "state": "Delhi",
            "country_code": "IN"
        },
        "images": [
            {
                "about": "All",
                "link": "https://streetviewpixels-pa.googleapis.com/v1/thumbnail?panoid=wEsc3ENIixkxjmVnDSFNFA&cb_client=maps_sv.tactile.gps&w=224&h=298&yaw=339.10416&pitch=0&thumbfov=100"
            },
            {
                "about": "Street View & 360deg",
                "link": "https://streetviewpixels-pa.googleapis.com/v1/thumbnail?panoid=wEsc3ENIixkxjmVnDSFNFA&cb_client=maps_sv.tactile.gps&w=224&h=298&yaw=339.10416&pitch=0&thumbfov=100"
            }
        ],
        "link": "https://www.google.com/maps/place/Masjid+Anar+Wali/data=!4m7!3m6!1s0x390cfdb5e13e91e7:0x8093a0c1f6de61be!8m2!3d28.6629573!4d77.2291866!16s%2Fg%2F11gmfybb2k!19sChIJ55E-4bX9DDkRvmHe9sGgk4A?authuser=0&hl=en&rclk=1",
        "coordinates": {
            "latitude": 28.6629573,
            "longitude": 77.22918659999999
        }
    },
    {
        "name": "Masjid e umar",
        "main_category": "Mosque",
        "address": "M386+XJC Masjid e umar, Peer Baba Rd, Block C, Kamruddin Nagar, Delhi, 110041",
        "detailed_address": {
            "ward": "Block C, Kamruddin Nagar",
            "street": "M386+XJC, Peer Baba Rd",
            "city": "Delhi",
            "postal_code": "110041",
            "state": "Delhi",
            "country_code": "IN"
        },
        "images": [
            {
                "about": "All",
                "link": "https://streetviewpixels-pa.googleapis.com/v1/thumbnail?panoid=qaPFLh3RUUhGp0rbvjxW1Q&cb_client=maps_sv.tactile.gps&w=224&h=298&yaw=357.83536&pitch=0&thumbfov=100"
            },
            {
                "about": "Street View & 360deg",
                "link": "https://streetviewpixels-pa.googleapis.com/v1/thumbnail?panoid=qaPFLh3RUUhGp0rbvjxW1Q&cb_client=maps_sv.tactile.gps&w=224&h=298&yaw=357.83536&pitch=0&thumbfov=100"
            }
        ],
        "link": "https://www.google.com/maps/place/Masjid+e+umar/data=!4m7!3m6!1s0x390d05173408e429:0xa967bf9a5ce35560!8m2!3d28.6674328!4d77.0615213!16s%2Fg%2F11jsztfkmf!19sChIJKeQINBcFDTkRYFXjXJq_Z6k?authuser=0&hl=en&rclk=1",
        "coordinates": {
            "latitude": 28.6674328,
            "longitude": 77.0615213
        }
    },
    {
        "name": "Purani Masjid",
        "main_category": "Mosque",
        "address": "J6X9+Q5Q Purani Masjid, Ram Nagar Market, Prem Nagar, Ajmeri Gate, New Delhi, Delhi, 110006",
        "detailed_address": {
            "ward": "Ram Nagar Market, Prem Nagar, Ajmeri Gate",
            "street": "J6X9+Q5Q",
            "city": "New Delhi, Delhi",
            "postal_code": "110006",
            "state": "Delhi",
            "country_code": "IN"
        },
        "images": [
            {
                "about": "All",
                "link": "https://lh5.googleusercontent.com/p/AF1QipOyOgvY6CGZ253nT8XFkc9SldTTYRscaDYP4-JZ=w397-h298-k-no"
            },
            {
                "about": "Street View & 360deg",
                "link": "https://streetviewpixels-pa.googleapis.com/v1/thumbnail?panoid=yriuvyi7JTU2MCnwcPuokw&cb_client=maps_sv.tactile.gps&w=224&h=298&yaw=57.20997&pitch=0&thumbfov=100"
            }
        ],
        "link": "https://www.google.com/maps/place/Purani+Masjid/data=!4m7!3m6!1s0x390cfdd4fb09e8e3:0xc0634defce74b9aa!8m2!3d28.6494674!4d77.2179722!16s%2Fg%2F11h288cp8c!19sChIJ4-gJ-9T9DDkRqrl0zu9NY8A?authuser=0&hl=en&rclk=1",
        "coordinates": {
            "latitude": 28.6494674,
            "longitude": 77.21797219999999
        }
    },
    {
        "name": "Masjid Akhundji",
        "main_category": "Mosque",
        "address": "M63C+W27 Masjid Akhundji, Shardhanand Market, Farash Khana, Chandni Chowk, Delhi, 110006",
        "detailed_address": {
            "ward": "Shardhanand Market, Farash Khana, Chandni Chowk",
            "street": "M63C+W27",
            "city": "Delhi",
            "postal_code": "110006",
            "state": "Delhi",
            "country_code": "IN"
        },
        "images": [
            {
                "about": "All",
                "link": "https://lh5.googleusercontent.com/p/AF1QipP2xOLp_VWh9h8wU-6JtEE8RX1pNBPv_BSIE50i=w224-h298-k-no"
            }
        ],
        "link": "https://www.google.com/maps/place/Masjid+Akhundji/data=!4m7!3m6!1s0x390cfd1304000001:0x72fdec335cb3985d!8m2!3d28.6547977!4d77.2200373!16s%2Fg%2F11cjkvmmtk!19sChIJAQAABBP9DDkRXZizXDPs_XI?authuser=0&hl=en&rclk=1",
        "coordinates": {
            "latitude": 28.6547977,
            "longitude": 77.2200373
        }
    },
    {
        "name": "Nurani Masjid",
        "main_category": "Mosque",
        "address": "Q6CX+8QH Nurani Masjid, Haqiqatpur, Uttar Pradesh 201102",
        "detailed_address": {
            "ward": null,
            "street": "Q6CX+8QH",
            "city": "Haqiqatpur",
            "postal_code": "201102",
            "state": "Uttar Pradesh",
            "country_code": "IN"
        },
        "images": [
            {
                "about": "All",
                "link": "https://lh5.googleusercontent.com/p/AF1QipMjSOKQ1Wa3v15onGebRxG-xe2CFxArQSsbGEWZ=w224-h470-k-no"
            }
        ],
        "link": "https://www.google.com/maps/place/Nurani+Masjid/data=!4m7!3m6!1s0x390cff06d1a26571:0x2a7700db518ef62a!8m2!3d28.7708199!4d77.2494795!16s%2Fg%2F11q8vqwpg_!19sChIJcWWi0Qb_DDkRKvaOUdsAdyo?authuser=0&hl=en&rclk=1",
        "coordinates": {
            "latitude": 28.7708199,
            "longitude": 77.24947949999999
        }
    },
    {
        "name": "Masjid msjd",
        "main_category": "Mosque",
        "address": "G59J+WQR Masjid msjd, Mehrauli Village, Mehrauli, New Delhi, Delhi 110030",
        "detailed_address": {
            "ward": "Mehrauli Village, Mehrauli",
            "street": "G59J+WQR",
            "city": "New Delhi",
            "postal_code": "110030",
            "state": "Delhi",
            "country_code": "IN"
        },
        "images": [
            {
                "about": "All",
                "link": "https://lh5.googleusercontent.com/p/AF1QipPsNeDWPdlSXIslEs37zLjTRRlqvLvo3RhyBFFl=w529-h298-k-no"
            },
            {
                "about": "Street View & 360deg",
                "link": "https://streetviewpixels-pa.googleapis.com/v1/thumbnail?panoid=B5yYDgqSwXVhZEguRMycQA&cb_client=maps_sv.tactile.gps&w=224&h=298&yaw=130.8781&pitch=0&thumbfov=100"
            },
            {
                "about": "Videos",
                "link": "https://lh5.googleusercontent.com/p/AF1QipM36yS6L20JUQiv-qGtRrBTFSimFNew757LOeUP=w529-h298-k-no"
            }
        ],
        "link": "https://www.google.com/maps/place/Masjid+%D9%85%D8%B3%D8%AC%D8%AF%E2%80%AD/data=!4m7!3m6!1s0x390d1e0f7415e86f:0x4b3d0ac303c4f65!8m2!3d28.5198715!4d77.1818757!16s%2Fg%2F11dzdrhdgj!19sChIJb-gVdA8eDTkRZU88MKzQswQ?authuser=0&hl=en&rclk=1",
        "coordinates": {
            "latitude": 28.519871499999997,
            "longitude": 77.18187569999999
        }
    },
    {
        "name": "taaj masjid",
        "main_category": "Mosque",
        "address": "9CM9+65J taaj masjid, Aron, Madhya Pradesh 473101",
        "detailed_address": {
            "ward": null,
            "street": "9CM9+65J",
            "city": "Aron",
            "postal_code": "473101",
            "state": "Madhya Pradesh",
            "country_code": "IN"
        },
        "images": [
            {
                "about": "All",
                "link": "https://lh5.googleusercontent.com/p/AF1QipOZkiN1KFj_CSi4Y8BLFgAkP6elWerLuCNz8dlN=w224-h298-k-no"
            },
            {
                "about": "Street View & 360deg",
                "link": "https://streetviewpixels-pa.googleapis.com/v1/thumbnail?panoid=PJm08MWeTyuuIngPB71T8A&cb_client=maps_sv.tactile.gps&w=224&h=298&yaw=255.38556&pitch=0&thumbfov=100"
            },
            {
                "about": "Videos",
                "link": "https://lh5.googleusercontent.com/p/AF1QipM6IlunNFCOobnl0liL6U7QHC5BWIayUCkkTRNn=w224-h398-k-no"
            }
        ],
        "link": "https://www.google.com/maps/place/taaj+masjid/data=!4m7!3m6!1s0x397a4d2eb06c506f:0x85f04acfa3fa6486!8m2!3d24.3830908!4d77.4178903!16s%2Fg%2F11c601fsx2!19sChIJb1BssC5NejkRhmT6o89K8IU?authuser=0&hl=en&rclk=1",
        "coordinates": {
            "latitude": 24.383090799999998,
            "longitude": 77.4178903
        }
    },
    {
        "name": "Masjid Anar Wali",
        "main_category": "Mosque",
        "address": "J6WP+H6G Masjid Anar Wali, Haveli Azam Khan, Chittli Qabar Bazar Rd, Delhi, 110006",
        "detailed_address": {
            "ward": "Kalan Mehal, Old Delhi",
            "street": "J6WP+H6G, Haveli Azam Khan, Chittli Qabar Bazar Rd",
            "city": "Delhi",
            "postal_code": "110006",
            "state": "Delhi",
            "country_code": "IN"
        },
        "images": [],
        "link": "https://www.google.com/maps/place/Masjid+Anar+Wali/data=!4m7!3m6!1s0x390cfd2192f45833:0xddf1e01c9e23f7d3!8m2!3d28.6464403!4d77.2355876!16s%2Fg%2F11f4v9j1sy!19sChIJM1j0kiH9DDkR0_cjnhzg8d0?authuser=0&hl=en&rclk=1",
        "coordinates": {
            "latitude": 28.6464403,
            "longitude": 77.2355876
        }
    },
    {
        "name": "Masjid Ramzan Shah",
        "main_category": "Mosque",
        "address": "Masjid Ramzan Shah, 2426-27, Tilak Bazar, Chhota Chamarwara, Khari Baoli, Chandni Chowk, Delhi, 110006",
        "detailed_address": {
            "ward": "Tilak Bazar, Chhota Chamarwara, Khari Baoli, Chandni Chowk",
            "street": "2426-27",
            "city": "Delhi",
            "postal_code": "110006",
            "state": "Delhi",
            "country_code": "IN"
        },
        "images": [],
        "link": "https://www.google.com/maps/place/Masjid+Ramzan+Shah/data=!4m7!3m6!1s0x390cfd0d753d925d:0x642ac5cf3bf4413b!8m2!3d28.6593521!4d77.2201978!16s%2Fg%2F11cnczp9wn!19sChIJXZI9dQ39DDkRO0H0O8_FKmQ?authuser=0&hl=en&rclk=1",
        "coordinates": {
            "latitude": 28.6593521,
            "longitude": 77.2201978
        }
    },
    {
        "name": "Masjid",
        "main_category": "Mosque",
        "address": "Masjid, 242, Masjid Jheel Pio, Near ITO metro GateNo.3, Bahadur Shah Zafar Marg, Balmiki Basti, Vikram Nagar, Delhi, 110002",
        "detailed_address": {
            "ward": "Bahadur Shah Zafar Marg, Balmiki Basti, Vikram Nagar",
            "street": "242, Masjid Jheel Pio, Near ITO metro GateNo.3, Bahadur Shah Zafar Marg",
            "city": "Delhi",
            "postal_code": "110002",
            "state": "Delhi",
            "country_code": "IN"
        },
        "images": [
            {
                "about": "All",
                "link": "https://lh5.googleusercontent.com/p/AF1QipN5OIjFkkkgGTvUKU3X0RBq6O9cBwfBTptPMeSA=w529-h298-k-no"
            },
            {
                "about": "Latest",
                "link": "https://streetviewpixels-pa.googleapis.com/v1/thumbnail?panoid=TdjZf0mnRqsq_KV6xB3IhQ&cb_client=maps_sv.tactile.gps&w=224&h=298&yaw=67.971146&pitch=0&thumbfov=100"
            },
            {
                "about": "Street View & 360deg",
                "link": "https://streetviewpixels-pa.googleapis.com/v1/thumbnail?panoid=TdjZf0mnRqsq_KV6xB3IhQ&cb_client=maps_sv.tactile.gps&w=224&h=298&yaw=67.971146&pitch=0&thumbfov=100"
            }
        ],
        "link": "https://www.google.com/maps/place/Masjid/data=!4m7!3m6!1s0x390cfd441769149d:0xa1929f1b4f5921d6!8m2!3d28.6298914!4d77.2415098!16s%2Fg%2F11s2n38r9b!19sChIJnRRpF0T9DDkR1iFZTxufkqE?authuser=0&hl=en&rclk=1",
        "coordinates": {
            "latitude": 28.629891399999998,
            "longitude": 77.2415098
        }
    },
    {
        "name": "Masjid",
        "main_category": "Mosque",
        "address": "Masjid, 2508, Fasil Rd, Gali Sakko Wali, Shah Ganj, Chandni Chowk, New Delhi, Delhi, 110006",
        "detailed_address": {
            "ward": "Gali Sakko Wali, Shah Ganj, Chandni Chowk",
            "street": "2508, Fasil Rd",
            "city": "New Delhi, Delhi",
            "postal_code": "110006",
            "state": "Delhi",
            "country_code": "IN"
        },
        "images": [
            {
                "about": "All",
                "link": "https://streetviewpixels-pa.googleapis.com/v1/thumbnail?panoid=Mtyk_aswPXhCJ3sOrj7kog&cb_client=maps_sv.tactile.gps&w=224&h=298&yaw=88.42564&pitch=0&thumbfov=100"
            },
            {
                "about": "Street View & 360deg",
                "link": "https://streetviewpixels-pa.googleapis.com/v1/thumbnail?panoid=Mtyk_aswPXhCJ3sOrj7kog&cb_client=maps_sv.tactile.gps&w=224&h=298&yaw=88.42564&pitch=0&thumbfov=100"
            }
        ],
        "link": "https://www.google.com/maps/place/Masjid/data=!4m7!3m6!1s0x390cfd15c9a8a4b1:0xf975aada141da03e!8m2!3d28.6491552!4d77.2220471!16s%2Fg%2F1hm4gjxkd!19sChIJsaSoyRX9DDkRPqAdFNqqdfk?authuser=0&hl=en&rclk=1",
        "coordinates": {
            "latitude": 28.6491552,
            "longitude": 77.2220471
        }
    },
    {
        "name": "Masjid",
        "main_category": "Mosque",
        "address": "Masjid, 191/1, JJ Colony, New Krishna Park, Vikaspuri, New Delhi, Delhi, 110018",
        "detailed_address": {
            "ward": "JJ Colony, New Krishna Park, Vikaspuri",
            "street": "191/1",
            "city": "New Delhi, Delhi",
            "postal_code": "110018",
            "state": "Delhi",
            "country_code": "IN"
        },
        "images": [
            {
                "about": "All",
                "link": "https://lh5.googleusercontent.com/p/AF1QipNVC-NUUWtHMSEs4t3aj1boKxs05sOIk4En3mJl=w397-h298-k-no"
            }
        ],
        "link": "https://www.google.com/maps/place/Masjid/data=!4m7!3m6!1s0x390d0523e13f6ebf:0xcf430f5986189794!8m2!3d28.6318645!4d77.0776203!16s%2Fg%2F11kq3krq6c!19sChIJv24_4SMFDTkRlJcYhlkPQ88?authuser=0&hl=en&rclk=1",
        "coordinates": {
            "latitude": 28.6318645,
            "longitude": 77.07762029999999
        }
    },
    {
        "name": "Masjid Amania",
        "main_category": "Mosque",
        "address": "Masjid Amania, Main, Maujpur Rd, Shahdara, Delhi, 110053",
        "detailed_address": {
            "ward": "Shahdara",
            "street": "Main, Maujpur Rd",
            "city": "Delhi",
            "postal_code": "110053",
            "state": "Delhi",
            "country_code": "IN"
        },
        "images": [
            {
                "about": "All",
                "link": "https://streetviewpixels-pa.googleapis.com/v1/thumbnail?panoid=qpG1Vl3E3BEvtJ4JANkHNw&cb_client=maps_sv.tactile.gps&w=224&h=298&yaw=135.33005&pitch=0&thumbfov=100"
            },
            {
                "about": "Street View & 360deg",
                "link": "https://streetviewpixels-pa.googleapis.com/v1/thumbnail?panoid=qpG1Vl3E3BEvtJ4JANkHNw&cb_client=maps_sv.tactile.gps&w=224&h=298&yaw=135.33005&pitch=0&thumbfov=100"
            }
        ],
        "link": "https://www.google.com/maps/place/Masjid+Amania/data=!4m7!3m6!1s0x390cfd4212229ecb:0x56b4673279cdc3f1!8m2!3d28.6855897!4d77.2762341!16s%2Fg%2F11s0s2pf6g!19sChIJy54iEkL9DDkR8cPNeTJntFY?authuser=0&hl=en&rclk=1",
        "coordinates": {
            "latitude": 28.685589699999998,
            "longitude": 77.2762341
        }
    },
    {
        "name": "Masjid",
        "main_category": "Mosque",
        "address": "Masjid, Generator section LNH, Maulana Azad Medical College Campus, LNJP Colony, New Delhi, Delhi, 110002",
        "detailed_address": {
            "ward": "Maulana Azad Medical College Campus, LNJP Colony",
            "street": "Generator section LNH",
            "city": "New Delhi, Delhi",
            "postal_code": "110002",
            "state": "Delhi",
            "country_code": "IN"
        },
        "images": [
            {
                "about": "All",
                "link": "https://lh5.googleusercontent.com/p/AF1QipMcVrzxsq7gFBOknyy0ye1EfK1FkrQKmfkF79f5=w662-h298-k-no"
            }
        ],
        "link": "https://www.google.com/maps/place/Masjid/data=!4m7!3m6!1s0x390cfda80d3a142f:0x7e63ba6e21dc1e97!8m2!3d28.6378466!4d77.2379581!16s%2Fg%2F11ss881009!19sChIJLxQ6Daj9DDkRlx7cIW66Y34?authuser=0&hl=en&rclk=1",
        "coordinates": {
            "latitude": 28.6378466,
            "longitude": 77.2379581
        }
    },
    {
        "name": "Masjid Aziziya",
        "main_category": "Mosque",
        "address": "M7WF+M75 Masjid Aziziya, Near Ilai, Vijay Park, Shahdara, Delhi, 110053",
        "detailed_address": {
            "ward": "Vijay Park, Shahdara",
            "street": "M7WF+M75, Near Ilai",
            "city": "Delhi",
            "postal_code": "110053",
            "state": "Delhi",
            "country_code": "IN"
        },
        "images": [
            {
                "about": "All",
                "link": "https://lh5.googleusercontent.com/p/AF1QipMhuoz42ITj6rE0VGhWvnPsLdeJ2M0ZePd4iDNO=w224-h496-k-no"
            }
        ],
        "link": "https://www.google.com/maps/place/Masjid+Aziziya/data=!4m7!3m6!1s0x390cfc6d3bc7013b:0xc12e6f3fb4fe15ec!8m2!3d28.6966475!4d77.2732278!16s%2Fg%2F12hlx66g3!19sChIJOwHHO238DDkR7BX-tD9vLsE?authuser=0&hl=en&rclk=1",
        "coordinates": {
            "latitude": 28.696647499999997,
            "longitude": 77.2732278
        }
    },
    {
        "name": "Masjid Ahangaran",
        "main_category": "Mosque",
        "address": "Masjid Ahangaran, 956, Gali Chandiwali, Montola, Paharganj, New Delhi, Delhi 110025",
        "detailed_address": {
            "ward": "Ratan Lal Market, Kaseru Walan, Paharganj",
            "street": "956, Gali Chandiwali, Montola, Paharganj",
            "city": "New Delhi",
            "postal_code": "110025",
            "state": "Delhi",
            "country_code": "IN"
        },
        "images": [
            {
                "about": "All",
                "link": "https://lh3.googleusercontent.com/gps-proxy/AMy85WIwztTorh-gm93wh1raJ4D1O3mp8l1YkJg1iiq8DqmGvYE0zJC87Owprn5sOi3pcE3VgNyZUxxz7HHX8_SKwvjsw_0gKfHLn5YeZrtqw_AVLfQGF5kjLMLEPF5Di8lB5wfvK6D3MvmRFFEL6FpwUKTcaOCAZSRKd3bylIFRfJRvyHh49ghyE6VwZk7gCR5TDmi_sP8=w397-h298-k-no"
            }
        ],
        "link": "https://www.google.com/maps/place/Masjid+Ahangaran/data=!4m7!3m6!1s0x390cfd40e88a2d05:0x1c630582e126ec60!8m2!3d28.642006!4d77.215436!16s%2Fg%2F11cn95g4v1!19sChIJBS2K6ED9DDkRYOwm4YIFYxw?authuser=0&hl=en&rclk=1",
        "coordinates": {
            "latitude": 28.642006,
            "longitude": 77.215436
        }
    },
    {
        "name": "Masjid/prayer room",
        "main_category": "Mosque",
        "address": "H76F+7H6 Masjid/prayer room, Fortis Escorts Hospital Sukhdev metro station, Delhi",
        "detailed_address": {
            "ward": "New Friends Colony",
            "street": "H76F+7H6, Fortis Escorts Hospital Sukhdev metro station",
            "city": "Delhi, New Delhi",
            "postal_code": null,
            "state": "Delhi",
            "country_code": "IN"
        },
        "images": [],
        "link": "https://www.google.com/maps/place/Masjid%2Fprayer+room/data=!4m7!3m6!1s0x390ce3c02d7da811:0x388ca404d02fd2b3!8m2!3d28.5606583!4d77.2739036!16s%2Fg%2F11rj_njv5d!19sChIJEah9LcDjDDkRs9Iv0ASkjDg?authuser=0&hl=en&rclk=1",
        "coordinates": {
            "latitude": 28.5606583,
            "longitude": 77.2739036
        }
    },
    {
        "name": "Masjid",
        "main_category": "Mosque",
        "address": "M65J+GV7 Masjid, Chhippy Wada, Chandni Chowk, Delhi, 110006",
        "detailed_address": {
            "ward": "Chhippy Wada, Chandni Chowk",
            "street": "M65J+GV7",
            "city": "Delhi",
            "postal_code": "110006",
            "state": "Delhi",
            "country_code": "IN"
        },
        "images": [
            {
                "about": "All",
                "link": "https://streetviewpixels-pa.googleapis.com/v1/thumbnail?panoid=QvZwxWJJNT-qTwKywuXH8w&cb_client=maps_sv.tactile.gps&w=224&h=298&yaw=79.48017&pitch=0&thumbfov=100"
            },
            {
                "about": "Street View & 360deg",
                "link": "https://streetviewpixels-pa.googleapis.com/v1/thumbnail?panoid=QvZwxWJJNT-qTwKywuXH8w&cb_client=maps_sv.tactile.gps&w=224&h=298&yaw=79.48017&pitch=0&thumbfov=100"
            }
        ],
        "link": "https://www.google.com/maps/place/Masjid/data=!4m7!3m6!1s0x390cfd04823e663b:0x88920d6fe0b74a65!8m2!3d28.6587916!4d77.2321828!16s%2Fg%2F11n0gg69p2!19sChIJO2Y-ggT9DDkRZUq34G8Nkog?authuser=0&hl=en&rclk=1",
        "coordinates": {
            "latitude": 28.658791599999997,
            "longitude": 77.23218279999999
        }
    },
    {
        "name": "Syed Hasan Masjid",
        "main_category": "Mosque",
        "address": "Syed Hasan Masjid, 124, Sector C, Gole Market, New Delhi, Delhi 110001",
        "detailed_address": {
            "ward": "Sector C, Gole Market",
            "street": "124",
            "city": "New Delhi",
            "postal_code": "110001",
            "state": "Delhi",
            "country_code": "IN"
        },
        "images": [
            {
                "about": "All",
                "link": "https://lh5.googleusercontent.com/p/AF1QipPP5JapPjr-ARv-GxrAIad4dijWV3bC2oORjaOp=w224-h501-k-no"
            },
            {
                "about": "Latest",
                "link": "https://streetviewpixels-pa.googleapis.com/v1/thumbnail?panoid=zYzPvmekszlUG66nggUjYg&cb_client=maps_sv.tactile.gps&w=224&h=298&yaw=184.49135&pitch=0&thumbfov=100"
            },
            {
                "about": "Street View & 360deg",
                "link": "https://streetviewpixels-pa.googleapis.com/v1/thumbnail?panoid=zYzPvmekszlUG66nggUjYg&cb_client=maps_sv.tactile.gps&w=224&h=298&yaw=184.49135&pitch=0&thumbfov=100"
            }
        ],
        "link": "https://www.google.com/maps/place/Syed+Hasan+Masjid/data=!4m7!3m6!1s0x390cfd263f536697:0x174e102183d9d2d1!8m2!3d28.63939!4d77.2065116!16s%2Fg%2F11pvclr7q6!19sChIJl2ZTPyb9DDkR0dLZgyEQThc?authuser=0&hl=en&rclk=1",
        "coordinates": {
            "latitude": 28.63939,
            "longitude": 77.2065116
        }
    },
    {
        "name": "Madina Maszid",
        "main_category": "Mosque",
        "address": "P432+JXG Madina Maszid, Pocket 25, Sector 3G, Rohini, Delhi, 110085",
        "detailed_address": {
            "ward": "Pocket 25, Sector 3G, Rohini",
            "street": "P432+JXG",
            "city": "Delhi",
            "postal_code": "110085",
            "state": "Delhi",
            "country_code": "IN"
        },
        "images": [],
        "link": "https://www.google.com/maps/place/Madina+Maszid/data=!4m7!3m6!1s0x390d018613fc13e1:0xb7a57d9d5623c997!8m2!3d28.7040585!4d77.1024588!16s%2Fg%2F11f6dnn289!19sChIJ4RP8E4YBDTkRl8kjVp19pbc?authuser=0&hl=en&rclk=1",
        "coordinates": {
            "latitude": 28.7040585,
            "longitude": 77.1024588
        }
    },
    {
        "name": "Masjid",
        "main_category": "Mosque",
        "address": "9M74+66G Masjid, Hirnoti, Uttar Pradesh 203203",
        "detailed_address": {
            "ward": null,
            "street": "9M74+66G",
            "city": "Hirnoti",
            "postal_code": "203203",
            "state": "Uttar Pradesh",
            "country_code": "IN"
        },
        "images": [
            {
                "about": "All",
                "link": "https://lh5.googleusercontent.com/p/AF1QipMgnMNfK5SYo3J-0eZKmTloSb_AexTTgq2gqvIr=w224-h407-k-no"
            },
            {
                "about": "Videos",
                "link": "https://lh5.googleusercontent.com/p/AF1QipMgnMNfK5SYo3J-0eZKmTloSb_AexTTgq2gqvIr=w224-h407-k-no"
            }
        ],
        "link": "https://www.google.com/maps/place/Masjid/data=!4m7!3m6!1s0x390cbbdfa6584727:0x4a1e67c0bd32dfaf!8m2!3d28.36306!4d77.6555641!16s%2Fg%2F11dzwm3m09!19sChIJJ0dYpt-7DDkRr98yvcBnHko?authuser=0&hl=en&rclk=1",
        "coordinates": {
            "latitude": 28.363059999999997,
            "longitude": 77.65556409999999
        }
    },
    {
        "name": "Khaliliya Masjid",
        "main_category": "Mosque",
        "address": "9CG7+M95 Khaliliya Masjid, Unnamed Road, Aron, Madhya Pradesh 473101",
        "detailed_address": {
            "ward": null,
            "street": "9CG7+M95, Unnamed Road",
            "city": "Aron",
            "postal_code": "473101",
            "state": "Madhya Pradesh",
            "country_code": "IN"
        },
        "images": [
            {
                "about": "All",
                "link": "https://lh5.googleusercontent.com/p/AF1QipPu0s4hqZoIDOeMcAzxqFrtLQrsf1Jcy3kXIMMB=w224-h407-k-no"
            },
            {
                "about": "Videos",
                "link": "https://lh5.googleusercontent.com/p/AF1QipPu0s4hqZoIDOeMcAzxqFrtLQrsf1Jcy3kXIMMB=w224-h407-k-no"
            }
        ],
        "link": "https://www.google.com/maps/place/Khaliliya+Masjid/data=!4m7!3m6!1s0x397a4d1ce54fab23:0x7b1f7e5424595de6!8m2!3d24.3766459!4d77.4134757!16s%2Fg%2F11j91ybwj1!19sChIJI6tP5RxNejkR5l1ZJFR-H3s?authuser=0&hl=en&rclk=1",
        "coordinates": {
            "latitude": 24.3766459,
            "longitude": 77.41347569999999
        }
    },
    {
        "name": "Masjid Abdur Raheem",
        "main_category": "Mosque",
        "address": "M64G+QG2 Masjid Abdur Raheem, Kucha Qabil Attaar, Chandni Chowk Rd, Chandni Chowk, Delhi 110006",
        "detailed_address": {
            "ward": "New Krishna Cloth Market, Katra Neel, Chandni Chowk",
            "street": "M64G+QG2, Kucha Qabil Attaar, Chandni Chowk Rd",
            "city": "Delhi",
            "postal_code": "110006",
            "state": "Delhi",
            "country_code": "IN"
        },
        "images": [
            {
                "about": "All",
                "link": "https://streetviewpixels-pa.googleapis.com/v1/thumbnail?panoid=EWNxUZneN5pogjcHrOI3Jw&cb_client=maps_sv.tactile.gps&w=224&h=298&yaw=348.9094&pitch=0&thumbfov=100"
            },
            {
                "about": "Street View & 360deg",
                "link": "https://streetviewpixels-pa.googleapis.com/v1/thumbnail?panoid=EWNxUZneN5pogjcHrOI3Jw&cb_client=maps_sv.tactile.gps&w=224&h=298&yaw=348.9094&pitch=0&thumbfov=100"
            }
        ],
        "link": "https://www.google.com/maps/place/Masjid+Abdur+Raheem/data=!4m7!3m6!1s0x390cfd104b825bd9:0xb9f6b4db1db96bb7!8m2!3d28.656881!4d77.2262763!16s%2Fg%2F11clsyjt17!19sChIJ2VuCSxD9DDkRt2u5Hdu09rk?authuser=0&hl=en&rclk=1",
        "coordinates": {
            "latitude": 28.656881,
            "longitude": 77.2262763
        }
    },
    {
        "name": "Masjid gulshane ahmad rza",
        "main_category": "Mosque",
        "address": "P323+V95 Masjid gulshane ahmad rza, Phase I, Baljit Vihar, Delhi, 110086",
        "detailed_address": {
            "ward": "Phase I, Baljit Vihar",
            "street": "P323+V95",
            "city": "Delhi",
            "postal_code": "110086",
            "state": "Delhi",
            "country_code": "IN"
        },
        "images": [
            {
                "about": "All",
                "link": "https://streetviewpixels-pa.googleapis.com/v1/thumbnail?panoid=vE5qiJlIJcLAXtI7L6UTyw&cb_client=maps_sv.tactile.gps&w=224&h=298&yaw=88.68794&pitch=0&thumbfov=100"
            },
            {
                "about": "Street View & 360deg",
                "link": "https://streetviewpixels-pa.googleapis.com/v1/thumbnail?panoid=vE5qiJlIJcLAXtI7L6UTyw&cb_client=maps_sv.tactile.gps&w=224&h=298&yaw=88.68794&pitch=0&thumbfov=100"
            }
        ],
        "link": "https://www.google.com/maps/place/Masjid+gulshane+ahmad+rza/data=!4m7!3m6!1s0x390d0709508d6209:0x6199915298bc7e5c!8m2!3d28.702353!4d77.0530291!16s%2Fg%2F11q3tq1rsm!19sChIJCWKNUAkHDTkRXH68mFKRmWE?authuser=0&hl=en&rclk=1",
        "coordinates": {
            "latitude": 28.702353,
            "longitude": 77.0530291
        }
    },
    {
        "name": "Masjid Kaddan Wali",
        "main_category": "Mosque",
        "address": "Masjid Kaddan Wali, 3800,, Charkhiwalan Gali, Khush Dil, Chandni Chowk, New Delhi, Delhi 110006",
        "detailed_address": {
            "ward": "Khush Dil, Chandni Chowk",
            "street": "3800,, Charkhiwalan Gali",
            "city": "New Delhi, Delhi",
            "postal_code": "110006",
            "state": "Delhi",
            "country_code": "IN"
        },
        "images": [],
        "link": "https://www.google.com/maps/place/Masjid+Kaddan+Wali/data=!4m7!3m6!1s0x390cfd19d610452b:0xf81efc1a357adee8!8m2!3d28.6506731!4d77.2290561!16s%2Fg%2F12hkbxr_7!19sChIJK0UQ1hn9DDkR6N56NRr8Hvg?authuser=0&hl=en&rclk=1",
        "coordinates": {
            "latitude": 28.6506731,
            "longitude": 77.2290561
        }
    },
    {
        "name": "Masjid",
        "main_category": "Mosque",
        "address": "M794+RG5 Masjid, Block A, Shastri Park, Shahdara, Delhi, 110053",
        "detailed_address": {
            "ward": "Block A, Shastri Park, Shahdara",
            "street": "M794+RG5",
            "city": "Delhi",
            "postal_code": null,
            "state": "Delhi",
            "country_code": "IN"
        },
        "images": [
            {
                "about": "All",
                "link": "https://streetviewpixels-pa.googleapis.com/v1/thumbnail?panoid=fli0P2nRBx0m6kXAqZDz5g&cb_client=maps_sv.tactile.gps&w=224&h=298&yaw=208.39459&pitch=0&thumbfov=100"
            },
            {
                "about": "Street View & 360deg",
                "link": "https://streetviewpixels-pa.googleapis.com/v1/thumbnail?panoid=fli0P2nRBx0m6kXAqZDz5g&cb_client=maps_sv.tactile.gps&w=224&h=298&yaw=208.39459&pitch=0&thumbfov=100"
            }
        ],
        "link": "https://www.google.com/maps/place/Masjid/data=!4m7!3m6!1s0x390cfd74b6378221:0x2da5c9212f831088!8m2!3d28.6695164!4d77.2563643!16s%2Fg%2F11tb42z9g0!19sChIJIYI3tnT9DDkRiBCDLyHJpS0?authuser=0&hl=en&rclk=1",
        "coordinates": {
            "latitude": 28.6695164,
            "longitude": 77.2563643
        }
    },
    {
        "name": "Masjid",
        "main_category": "Mosque",
        "address": "Masjid, 94L, Adarsh Mohalla, Block P, Mayur Vihar, Delhi, 110091",
        "detailed_address": {
            "ward": "Adarsh Mohalla, Block P, Mayur Vihar",
            "street": "94L",
            "city": "Delhi",
            "postal_code": "110091",
            "state": "Delhi",
            "country_code": "IN"
        },
        "images": [
            {
                "about": "All",
                "link": "https://streetviewpixels-pa.googleapis.com/v1/thumbnail?panoid=7QxIZ7cY2dlVqmL_Uto3iQ&cb_client=maps_sv.tactile.gps&w=224&h=298&yaw=158.4657&pitch=0&thumbfov=100"
            },
            {
                "about": "Street View & 360deg",
                "link": "https://streetviewpixels-pa.googleapis.com/v1/thumbnail?panoid=7QxIZ7cY2dlVqmL_Uto3iQ&cb_client=maps_sv.tactile.gps&w=224&h=298&yaw=158.4657&pitch=0&thumbfov=100"
            }
        ],
        "link": "https://www.google.com/maps/place/Masjid/data=!4m7!3m6!1s0x390ce594aaf9a4ed:0x7705b6bd1214d779!8m2!3d28.6097585!4d77.2915521!16s%2Fg%2F11vdfgxvzr!19sChIJ7aT5qpTlDDkRedcUEr22BXc?authuser=0&hl=en&rclk=1",
        "coordinates": {
            "latitude": 28.609758499999998,
            "longitude": 77.29155209999999
        }
    },
    {
        "name": "Masjid",
        "main_category": "Mosque",
        "address": "Shop No: 5035, Masjid, Netaji Subhash Marg, Daryaganj, New Delhi, Delhi, 110002",
        "detailed_address": {
            "ward": "Daryaganj",
            "street": "Shop No: 5035, Netaji Subhash Marg",
            "city": "New Delhi, Delhi",
            "postal_code": "110002",
            "state": "Delhi",
            "country_code": "IN"
        },
        "images": [
            {
                "about": "All",
                "link": "https://streetviewpixels-pa.googleapis.com/v1/thumbnail?panoid=YSwhlhzTck_MDCSAiGS2Aw&cb_client=maps_sv.tactile.gps&w=224&h=298&yaw=322.97766&pitch=0&thumbfov=100"
            },
            {
                "about": "Street View & 360deg",
                "link": "https://streetviewpixels-pa.googleapis.com/v1/thumbnail?panoid=YSwhlhzTck_MDCSAiGS2Aw&cb_client=maps_sv.tactile.gps&w=224&h=298&yaw=322.97766&pitch=0&thumbfov=100"
            }
        ],
        "link": "https://www.google.com/maps/place/Masjid/data=!4m7!3m6!1s0x390cfdf175041b95:0x8ef57a2bc9f92c1c!8m2!3d28.6480954!4d77.2403964!16s%2Fg%2F11s664lvxh!19sChIJlRsEdfH9DDkRHCz5ySt69Y4?authuser=0&hl=en&rclk=1",
        "coordinates": {
            "latitude": 28.6480954,
            "longitude": 77.2403964
        }
    },
    {
        "name": "Jahidur Rahman",
        "main_category": "Mosque",
        "address": "M4H2+93C Jahidur Rahman, Block A, Paschim Vihar, Dharmasala, Delhi, 110063",
        "detailed_address": {
            "ward": "Block A, Paschim Vihar",
            "street": "M4H2+93C",
            "city": "Dharmasala, Delhi",
            "postal_code": null,
            "state": "Delhi",
            "country_code": "IN"
        },
        "images": [
            {
                "about": "All",
                "link": "https://lh5.googleusercontent.com/p/AF1QipOI4UoNCjVbH1UnFmMP-YJhQakyKqzbm4THGztn=w529-h298-k-no"
            },
            {
                "about": "Street View & 360deg",
                "link": "https://streetviewpixels-pa.googleapis.com/v1/thumbnail?panoid=yIHZDWubDMybzyYAEtcJUQ&cb_client=maps_sv.tactile.gps&w=224&h=298&yaw=37.622746&pitch=0&thumbfov=100"
            }
        ],
        "link": "https://www.google.com/maps/place/Jahidur+Rahman/data=!4m7!3m6!1s0x390d054582f47dfd:0xc993f2b3c1e0d5fa!8m2!3d28.678435!4d77.100154!16s%2Fg%2F11ns_vnhyj!19sChIJ_X30gkUFDTkR-tXgwbPyk8k?authuser=0&hl=en&rclk=1",
        "coordinates": {
            "latitude": 28.678435,
            "longitude": 77.100154
        }
    },
    {
        "name": "Masjid",
        "main_category": "Mosque",
        "address": "H662+8G4 Masjid, Green Park Ext Rd, Block J, Green Park Extension, Green Park, New Delhi, Delhi 110016",
        "detailed_address": {
            "ward": "Block J, Green Park Extension, Green Park",
            "street": "H662+8G4, Green Park Ext Rd",
            "city": "New Delhi",
            "postal_code": "110016",
            "state": "Delhi",
            "country_code": "IN"
        },
        "images": [
            {
                "about": "All",
                "link": "https://streetviewpixels-pa.googleapis.com/v1/thumbnail?panoid=KGfWyv1id67w9R2SxVM_jA&cb_client=maps_sv.tactile.gps&w=224&h=298&yaw=101.49368&pitch=0&thumbfov=100"
            },
            {
                "about": "Street View & 360deg",
                "link": "https://streetviewpixels-pa.googleapis.com/v1/thumbnail?panoid=KGfWyv1id67w9R2SxVM_jA&cb_client=maps_sv.tactile.gps&w=224&h=298&yaw=101.49368&pitch=0&thumbfov=100"
            }
        ],
        "link": "https://www.google.com/maps/place/Masjid/data=!4m7!3m6!1s0x390ce3053c6f74cf:0x33b8d79c09cb4f99!8m2!3d28.5607743!4d77.2013357!16s%2Fg%2F11krd8fpw7!19sChIJz3RvPAXjDDkRmU_LCZzXuDM?authuser=0&hl=en&rclk=1",
        "coordinates": {
            "latitude": 28.5607743,
            "longitude": 77.2013357
        }
    },
    {
        "name": "Masjid Road",
        "main_category": "Mosque",
        "address": "M3X2+MWG Masjid Road, Block W, Prem Nagar I, Kirari Suleman Nagar, Delhi, 110086",
        "detailed_address": {
            "ward": "Block W, Prem Nagar I, Kirari Suleman Nagar",
            "street": "M3X2+MWG, Masjid Road",
            "city": "Delhi",
            "postal_code": "110086",
            "state": "Delhi",
            "country_code": "IN"
        },
        "images": [
            {
                "about": "All",
                "link": "https://streetviewpixels-pa.googleapis.com/v1/thumbnail?panoid=UvpZOcwcO5oCc9tCu1dBRQ&cb_client=maps_sv.tactile.gps&w=224&h=298&yaw=100.99118&pitch=0&thumbfov=100"
            },
            {
                "about": "Street View & 360deg",
                "link": "https://streetviewpixels-pa.googleapis.com/v1/thumbnail?panoid=UvpZOcwcO5oCc9tCu1dBRQ&cb_client=maps_sv.tactile.gps&w=224&h=298&yaw=100.99118&pitch=0&thumbfov=100"
            }
        ],
        "link": "https://www.google.com/maps/place/Masjid+Road/data=!4m7!3m6!1s0x390d07a86e5263e9:0x9201e9cfb39a2044!8m2!3d28.6991868!4d77.052315!16s%2Fg%2F11vfb9h06f!19sChIJ6WNSbqgHDTkRRCCas8_pAZI?authuser=0&hl=en&rclk=1",
        "coordinates": {
            "latitude": 28.6991868,
            "longitude": 77.052315
        }
    },
    {
        "name": "Abdul rain",
        "main_category": "Mosque",
        "address": "Block G, Abdul rain, G, 13, Inder Enclave Rd., Kirari Suleman Nagar, Delhi, 86",
        "detailed_address": {
            "ward": "Inder Enclave, Kirari Suleman Nagar",
            "street": "Block G, G, 13, Inder Enclave Rd.",
            "city": "Delhi",
            "postal_code": "86",
            "state": "Delhi",
            "country_code": "IN"
        },
        "images": [
            {
                "about": "All",
                "link": "https://streetviewpixels-pa.googleapis.com/v1/thumbnail?panoid=xacCaQZYaHossjRAQTiacw&cb_client=maps_sv.tactile.gps&w=224&h=298&yaw=188.4066&pitch=0&thumbfov=100"
            },
            {
                "about": "Street View & 360deg",
                "link": "https://streetviewpixels-pa.googleapis.com/v1/thumbnail?panoid=xacCaQZYaHossjRAQTiacw&cb_client=maps_sv.tactile.gps&w=224&h=298&yaw=188.4066&pitch=0&thumbfov=100"
            }
        ],
        "link": "https://www.google.com/maps/place/Abdul+rain/data=!4m7!3m6!1s0x390d077b8a1dd961:0xb20a6b1456f92a4d!8m2!3d28.7086728!4d77.0463717!16s%2Fg%2F11rx87xfk8!19sChIJYdkdinsHDTkRTSr5VhRrCrI?authuser=0&hl=en&rclk=1",
        "coordinates": {
            "latitude": 28.7086728,
            "longitude": 77.0463717
        }
    },
    {
        "name": "Masjid",
        "main_category": "Mosque",
        "address": "Masjid, L385, Block L, JJ Colony No 3, Nangloi, New Delhi, Delhi, 110041",
        "detailed_address": {
            "ward": "Block L, JJ Colony No 3, Nangloi",
            "street": "L385",
            "city": "New Delhi, Delhi",
            "postal_code": "110041",
            "state": "Delhi",
            "country_code": "IN"
        },
        "images": [],
        "link": "https://www.google.com/maps/place/Masjid/data=!4m7!3m6!1s0x390d0530462f99ad:0xf47aa8290ce093fa!8m2!3d28.6842352!4d77.0742041!16s%2Fg%2F11smtj7p27!19sChIJrZkvRjAFDTkR-pPgDCmoevQ?authuser=0&hl=en&rclk=1",
        "coordinates": {
            "latitude": 28.6842352,
            "longitude": 77.0742041
        }
    },
    {
        "name": "msjd",
        "main_category": "Mosque",
        "address": "msjd, B-110, Panday Enclave, Prem Nagar III, Kirari Suleman Nagar, Delhi, 110086",
        "detailed_address": {
            "ward": "Panday Enclave, Prem Nagar III, Kirari Suleman Nagar",
            "street": "B-110",
            "city": "Delhi",
            "postal_code": "110086",
            "state": "Delhi",
            "country_code": "IN"
        },
        "images": [],
        "link": "https://www.google.com/maps/place/%D9%85%D8%B3%D8%AC%D8%AF%E2%80%AD/data=!4m7!3m6!1s0x390d050ee02471eb:0xd53bfc94df598bf3!8m2!3d28.6920282!4d77.041928!16s%2Fg%2F11swfzfnz9!19sChIJ63Ek4A4FDTkR84tZ35T8O9U?authuser=0&hl=en&rclk=1",
        "coordinates": {
            "latitude": 28.6920282,
            "longitude": 77.041928
        }
    },
    {
        "name": "Masjid",
        "main_category": "Mosque",
        "address": "J2WM+MXF Masjid, Sunni Masjid Rd, Deep Enclave, Hastsal, Delhi, 110059",
        "detailed_address": {
            "ward": "Deep Enclave, Hastsal",
            "street": "J2WM+MXF, Sunni Masjid Rd",
            "city": "Delhi",
            "postal_code": "110059",
            "state": "Delhi",
            "country_code": "IN"
        },
        "images": [
            {
                "about": "All",
                "link": "https://streetviewpixels-pa.googleapis.com/v1/thumbnail?panoid=nlgBb5RlpqHsCVPru-0y6A&cb_client=maps_sv.tactile.gps&w=224&h=298&yaw=352.28363&pitch=0&thumbfov=100"
            },
            {
                "about": "Street View & 360deg",
                "link": "https://streetviewpixels-pa.googleapis.com/v1/thumbnail?panoid=nlgBb5RlpqHsCVPru-0y6A&cb_client=maps_sv.tactile.gps&w=224&h=298&yaw=352.28363&pitch=0&thumbfov=100"
            }
        ],
        "link": "https://www.google.com/maps/place/Masjid/data=!4m7!3m6!1s0x390d05267bb46283:0xaef6f06f366d7113!8m2!3d28.6466834!4d77.0349292!16s%2Fg%2F11vl8tpxw1!19sChIJg2K0eyYFDTkRE3FtNm_w9q4?authuser=0&hl=en&rclk=1",
        "coordinates": {
            "latitude": 28.646683399999997,
            "longitude": 77.0349292
        }
    }
]