[
    {
        "name": "Home",
        "main_category": "Housing complex",
        "address": "Home, 11-1-256/2, Noor Masjid Rd, opposite line, Macherla, Andhra Pradesh 522426",
        "detailed_address": {
            "ward": null,
            "street": "11-1-256/2, Noor Masjid Rd, opposite line",
            "city": "Macherla",
            "postal_code": "522426",
            "state": "Andhra Pradesh",
            "country_code": "IN"
        },
        "images": [],
        "link": "https://www.google.com/maps/place/Home/data=!4m7!3m6!1s0x3a354d98107330dd:0x995a231452d03214!8m2!3d16.4778958!4d79.4358999!16s%2Fg%2F11bvt8mkxt!19sChIJ3TBzEJhNNToRFDLQUhQjWpk?authuser=0&hl=en&rclk=1",
        "coordinates": {
            "latitude": 16.4778958,
            "longitude": 79.4358999
        }
    },
    {
        "name": "MASJID E BILAAL",
        "main_category": "Mosque",
        "address": "FCGW+FWC MASJID E BILAAL, Nehru Nagar 2nd Line, Macherla, Andhra Pradesh 522426",
        "detailed_address": {
            "ward": null,
            "street": "FCGW+FWC, Nehru Nagar 2nd Line",
            "city": "Macherla",
            "postal_code": "522426",
            "state": "Andhra Pradesh",
            "country_code": "IN"
        },
        "images": [
            {
                "about": "All",
                "link": "https://lh5.googleusercontent.com/p/AF1QipMDJcM-wCm8KQZMvmEzm-aANHV3-Wjr-eaHKy2C=w529-h298-k-no"
            },
            {
                "about": "Dome",
                "link": "https://lh5.googleusercontent.com/p/AF1QipOYhwoXZbeXtHgWxFDEB-_2ihjo_2UFKP353zk=w397-h298-k-no"
            },
            {
                "about": "Videos",
                "link": "https://lh5.googleusercontent.com/p/AF1QipOzN86lEsJc6Rd0fd5UigTRfMeqquNHbWvKkENj=w529-h298-k-no"
            },
            {
                "about": "Street View & 360deg",
                "link": "https://streetviewpixels-pa.googleapis.com/v1/thumbnail?panoid=80dU4YEeUBFryw3BojEXbw&cb_client=maps_sv.tactile.gps&w=224&h=298&yaw=167.05635&pitch=0&thumbfov=100"
            }
        ],
        "link": "https://www.google.com/maps/place/MASJID+E+BILAAL/data=!4m7!3m6!1s0x3a354d94d7738fbd:0xe700a766bf3c9fb0!8m2!3d16.4761964!4d79.4472568!16s%2Fg%2F11c3vg438_!19sChIJvY9z15RNNToRsJ88v2anAOc?authuser=0&hl=en&rclk=1",
        "coordinates": {
            "latitude": 16.4761964,
            "longitude": 79.44725679999999
        }
    },
    {
        "name": "Rehmania Masjid & Madarsa",
        "main_category": "Mosque",
        "address": "FCHP+X2R Rehmania Masjid & Madarsa, old city, Macherla, Andhra Pradesh 522426",
        "detailed_address": {
            "ward": null,
            "street": "FCHP+X2R, old city",
            "city": "Macherla",
            "postal_code": "522426",
            "state": "Andhra Pradesh",
            "country_code": "IN"
        },
        "images": [
            {
                "about": "All",
                "link": "https://streetviewpixels-pa.googleapis.com/v1/thumbnail?panoid=PwR0rS8-oUVYYSgg87Hzxw&cb_client=maps_sv.tactile.gps&w=224&h=298&yaw=36.648228&pitch=0&thumbfov=100"
            },
            {
                "about": "Street View & 360deg",
                "link": "https://streetviewpixels-pa.googleapis.com/v1/thumbnail?panoid=PwR0rS8-oUVYYSgg87Hzxw&cb_client=maps_sv.tactile.gps&w=224&h=298&yaw=36.648228&pitch=0&thumbfov=100"
            }
        ],
        "link": "https://www.google.com/maps/place/Rehmania+Masjid+%26+Madarsa/data=!4m7!3m6!1s0x3a354da294e52e7f:0x11e298133a23b433!8m2!3d16.4799894!4d79.4350147!16s%2Fg%2F11bvv5fr8y!19sChIJfy7llKJNNToRM7QjOhOY4hE?authuser=0&hl=en&rclk=1",
        "coordinates": {
            "latitude": 16.4799894,
            "longitude": 79.4350147
        }
    },
    {
        "name": "MASJID E ABOOBAKER",
        "main_category": "Mosque",
        "address": "MASJID E ABOOBAKER, 7th ward, kodela sivaprasad colony, MACHERLA, Kcp Mines Rd, Andhra Pradesh 522426",
        "detailed_address": {
            "ward": null,
            "street": "7th ward, kodela sivaprasad colony, MACHERLA, Kcp Mines Rd",
            "city": null,
            "postal_code": "522426",
            "state": "Andhra Pradesh",
            "country_code": "IN"
        },
        "images": [
            {
                "about": "All",
                "link": "https://lh5.googleusercontent.com/p/AF1QipMRkNZpQElO45808OMSuCY50JxSEUwPGMO5tOW_=w397-h298-k-no"
            }
        ],
        "link": "https://www.google.com/maps/place/MASJID+E+ABOOBAKER/data=!4m7!3m6!1s0x3a354d86959ed4e7:0x7c17492b4aec40fb!8m2!3d16.4597737!4d79.4324593!16s%2Fg%2F11ckkxkp4p!19sChIJ59SelYZNNToR-0DsSitJF3w?authuser=0&hl=en&rclk=1",
        "coordinates": {
            "latitude": 16.4597737,
            "longitude": 79.43245929999999
        }
    },
    {
        "name": "Eidga",
        "main_category": "Mosque",
        "address": "FCGH+RPH Eidga, Maram Vari Veedhi, Macherla, Andhra Pradesh 522426",
        "detailed_address": {
            "ward": null,
            "street": "FCGH+RPH, Maram Vari Veedhi",
            "city": "Macherla",
            "postal_code": "522426",
            "state": "Andhra Pradesh",
            "country_code": "IN"
        },
        "images": [
            {
                "about": "All",
                "link": "https://lh5.googleusercontent.com/p/AF1QipNXROXeQohdqLTAEgF6JYbZB1ZCLDoEHpuPzetB=w397-h298-k-no"
            },
            {
                "about": "Dome",
                "link": "https://lh5.googleusercontent.com/p/AF1QipNXROXeQohdqLTAEgF6JYbZB1ZCLDoEHpuPzetB=w397-h298-k-no"
            }
        ],
        "link": "https://www.google.com/maps/place/Eidga/data=!4m7!3m6!1s0x3a354d9f6b119bd5:0x42e90e8d15bcb132!8m2!3d16.4770582!4d79.4293559!16s%2Fg%2F11bw1gsph6!19sChIJ1ZsRa59NNToRMrG8FY0O6UI?authuser=0&hl=en&rclk=1",
        "coordinates": {
            "latitude": 16.4770582,
            "longitude": 79.42935589999999
        }
    },
    {
        "name": "Hussainia Masjid",
        "main_category": "Mosque",
        "address": "FCGR+9FJ Hussainia Masjid, behind Zph Girls School, Macherla, Andhra Pradesh 522426",
        "detailed_address": {
            "ward": null,
            "street": "FCGR+9FJ, behind Zph Girls School",
            "city": "Macherla",
            "postal_code": "522426",
            "state": "Andhra Pradesh",
            "country_code": "IN"
        },
        "images": [
            {
                "about": "All",
                "link": "https://lh5.googleusercontent.com/p/AF1QipPtAi5xkVCfyyya4gf8RzEsO_hhlGIJTAwlek1C=w529-h298-k-no"
            }
        ],
        "link": "https://www.google.com/maps/place/Hussainia+Masjid/data=!4m7!3m6!1s0x3a354d968a37a33b:0xbee90d9a8546cb54!8m2!3d16.4759545!4d79.4411267!16s%2Fg%2F11bvt5b8mt!19sChIJO6M3ipZNNToRVMtGhZoN6b4?authuser=0&hl=en&rclk=1",
        "coordinates": {
            "latitude": 16.4759545,
            "longitude": 79.4411267
        }
    },
    {
        "name": "Masjid Fateh Mohammed",
        "main_category": "Mosque",
        "address": "M6RG+F2 Masjid Fateh Mohammed, Macherla, Telangana 502313",
        "detailed_address": {
            "ward": null,
            "street": "M6RG+F2",
            "city": "Macherla",
            "postal_code": null,
            "state": "Telangana",
            "country_code": "IN"
        },
        "images": [
            {
                "about": "All",
                "link": "https://lh5.googleusercontent.com/p/AF1QipMvUzd-IUOtz0aUEJ6V7WM2NQcEtB58dcYpI3zI=w224-h398-k-no"
            },
            {
                "about": "Videos",
                "link": "https://lh5.googleusercontent.com/p/AF1QipNxzF99RElqgeIk1dTjNNpQHGABox_4yPA6UWDy=w224-h407-k-no"
            }
        ],
        "link": "https://www.google.com/maps/place/Masjid+Fateh+Mohammed/data=!4m7!3m6!1s0x3bcbf5b76ac5efab:0xa81ef53fbe6804e0!8m2!3d17.6911974!4d78.2251237!16s%2Fg%2F11s32wf_sv!19sChIJq-_Farf1yzsR4ARovj_1Hqg?authuser=0&hl=en&rclk=1",
        "coordinates": {
            "latitude": 17.6911974,
            "longitude": 78.2251237
        }
    },
    {
        "name": "Makkah Masjid",
        "main_category": "Mosque",
        "address": "FCJR+QFM Makkah Masjid, aazaad nagar, Macherla, Andhra Pradesh 522426",
        "detailed_address": {
            "ward": null,
            "street": "FCJR+QFM, aazaad nagar",
            "city": "Macherla",
            "postal_code": "522426",
            "state": "Andhra Pradesh",
            "country_code": "IN"
        },
        "images": [
            {
                "about": "All",
                "link": "https://streetviewpixels-pa.googleapis.com/v1/thumbnail?panoid=4jH7z_gmH1C7vYMSZTFiWg&cb_client=maps_sv.tactile.gps&w=224&h=298&yaw=220.3575&pitch=0&thumbfov=100"
            },
            {
                "about": "Street View & 360deg",
                "link": "https://streetviewpixels-pa.googleapis.com/v1/thumbnail?panoid=4jH7z_gmH1C7vYMSZTFiWg&cb_client=maps_sv.tactile.gps&w=224&h=298&yaw=220.3575&pitch=0&thumbfov=100"
            }
        ],
        "link": "https://www.google.com/maps/place/Makkah+Masjid/data=!4m7!3m6!1s0x3a354dbc33580695:0x981b6719a03acd76!8m2!3d16.4819624!4d79.441165!16s%2Fg%2F11bvt8mn6b!19sChIJlQZYM7xNNToRds06oBlnG5g?authuser=0&hl=en&rclk=1",
        "coordinates": {
            "latitude": 16.4819624,
            "longitude": 79.441165
        }
    },
    {
        "name": "Jamia Markaz Masjid",
        "main_category": "Mosque",
        "address": "Jamia Markaz Masjid, Zaamiya Markas maszid, Pata bajaaru ,near burju, Macherla, Andhra Pradesh 522426",
        "detailed_address": {
            "ward": null,
            "street": "Zaamiya Markas maszid, Pata bajaaru ,near burju",
            "city": "Macherla",
            "postal_code": "522426",
            "state": "Andhra Pradesh",
            "country_code": "IN"
        },
        "images": [
            {
                "about": "All",
                "link": "https://streetviewpixels-pa.googleapis.com/v1/thumbnail?panoid=MqG_woeyvd5pA2zVQ8cCmA&cb_client=maps_sv.tactile.gps&w=224&h=298&yaw=226.42732&pitch=0&thumbfov=100"
            },
            {
                "about": "Street View & 360deg",
                "link": "https://streetviewpixels-pa.googleapis.com/v1/thumbnail?panoid=MqG_woeyvd5pA2zVQ8cCmA&cb_client=maps_sv.tactile.gps&w=224&h=298&yaw=226.42732&pitch=0&thumbfov=100"
            }
        ],
        "link": "https://www.google.com/maps/place/Jamia+Markaz+Masjid/data=!4m7!3m6!1s0x3a354d98f2eb9c19:0xa7ca30487cc6726a!8m2!3d16.4770203!4d79.4331762!16s%2Fg%2F11dfsw4lfw!19sChIJGZzr8phNNToRanLGfEgwyqc?authuser=0&hl=en&rclk=1",
        "coordinates": {
            "latitude": 16.4770203,
            "longitude": 79.43317619999999
        }
    },
    {
        "name": "Masjid Osmania",
        "main_category": "Lodging",
        "address": "FCJV+3JH Masjid Osmania, Macherla, Andhra Pradesh 522426",
        "detailed_address": {
            "ward": null,
            "street": "FCJV+3JH",
            "city": "Macherla",
            "postal_code": "522426",
            "state": "Andhra Pradesh",
            "country_code": "IN"
        },
        "images": [
            {
                "about": "All",
                "link": "https://lh5.googleusercontent.com/p/AF1QipOrzDtw4-BPT61HdWciAePqcABSIsD3fzIH9lkm=w298-h298-k-no"
            },
            {
                "about": "Exterior",
                "link": "https://lh5.googleusercontent.com/p/AF1QipMHRmO2TFHtLuafg3IVI7_Gceym9hdP8dSpq-0W=w224-h298-k-no"
            },
            {
                "about": "From visitors",
                "link": "https://lh5.googleusercontent.com/p/AF1QipNrY_Bq5dJ5HXvA1UXlPqe-TYmZFz1N88YkiOQh=w397-h298-k-no"
            }
        ],
        "link": "https://www.google.com/maps/place/Masjid+Osmania/data=!4m7!3m6!1s0x3a354dbe3bddfec3:0xbf3eac730b5b7df3!8m2!3d16.4801981!4d79.4441064!16s%2Fg%2F11gffcbqhw!19sChIJw_7dO75NNToR831bC3OsPr8?authuser=0&hl=en&rclk=1",
        "coordinates": {
            "latitude": 16.4801981,
            "longitude": 79.4441064
        }
    },
    {
        "name": "MADINA MASZID",
        "main_category": "Mosque",
        "address": "MADINA MASZID, Shaik Khasim saida, Macherla, Andhra Pradesh 522426",
        "detailed_address": {
            "ward": null,
            "street": "Shaik Khasim saida",
            "city": "Macherla",
            "postal_code": "522426",
            "state": "Andhra Pradesh",
            "country_code": "IN"
        },
        "images": [
            {
                "about": "All",
                "link": "https://lh5.googleusercontent.com/p/AF1QipPKK4L_fjOiBtJ2n1I843voLflSp4oPa7L7n_tI=w224-h484-k-no"
            },
            {
                "about": "Street View & 360deg",
                "link": "https://streetviewpixels-pa.googleapis.com/v1/thumbnail?panoid=0Qh7cMTAnbPIviSjuTpkSg&cb_client=maps_sv.tactile.gps&w=224&h=298&yaw=284.0551&pitch=0&thumbfov=100"
            }
        ],
        "link": "https://www.google.com/maps/place/MADINA+MASZID/data=!4m7!3m6!1s0x3a354d91a61f0f4d:0xe87a18c052b6f0d2!8m2!3d16.46993!4d79.4401616!16s%2Fg%2F11bv3qz2yx!19sChIJTQ8fppFNNToR0vC2UsAYeug?authuser=0&hl=en&rclk=1",
        "coordinates": {
            "latitude": 16.469929999999998,
            "longitude": 79.4401616
        }
    },
    {
        "name": "Jama Masjid macherla",
        "main_category": "Mosque",
        "address": "V664+H3Q Jama Masjid macherla, Macherla, Telangana 503224",
        "detailed_address": {
            "ward": null,
            "street": "V664+H3Q",
            "city": "Macherla",
            "postal_code": "503224",
            "state": "Telangana",
            "country_code": "IN"
        },
        "images": [
            {
                "about": "All",
                "link": "https://lh5.googleusercontent.com/p/AF1QipNVm9RSkz4vZsn85c5FTMhnOI9mLy060l4ppNO5=w224-h298-k-no"
            },
            {
                "about": "Street View & 360deg",
                "link": "https://streetviewpixels-pa.googleapis.com/v1/thumbnail?panoid=n1UHgAlM93Hbd-9h07EZsw&cb_client=maps_sv.tactile.gps&w=224&h=298&yaw=255.22649&pitch=0&thumbfov=100"
            },
            {
                "about": "Videos",
                "link": "https://lh5.googleusercontent.com/p/AF1QipN0vAJ4JfxlE6mWrzyzwo-HSmbot1cknIXaQDgb=w224-h398-k-no"
            }
        ],
        "link": "https://www.google.com/maps/place/Jama+Masjid+macherla/data=!4m7!3m6!1s0x3bcdebbe847e17f9:0xa7ca8509c00660df!8m2!3d18.8614578!4d78.2052226!16s%2Fg%2F11tcv0w2sk!19sChIJ-Rd-hL7rzTsR32AGwAmFyqc?authuser=0&hl=en&rclk=1",
        "coordinates": {
            "latitude": 18.8614578,
            "longitude": 78.2052226
        }
    },
    {
        "name": "Masjid e AAZAM SHAHI",
        "main_category": "Mosque",
        "address": "FCHQ+WF5 Masjid e AAZAM SHAHI, Macherla, Andhra Pradesh 522426",
        "detailed_address": {
            "ward": null,
            "street": "FCHQ+WF5",
            "city": "Macherla",
            "postal_code": "522426",
            "state": "Andhra Pradesh",
            "country_code": "IN"
        },
        "images": [],
        "link": "https://www.google.com/maps/place/Masjid+e+AAZAM+SHAHI/data=!4m7!3m6!1s0x3a354da184888f1d:0xab8f7c9d15311bcc!8m2!3d16.4797521!4d79.4387323!16s%2Fg%2F11rfm_1qx6!19sChIJHY-IhKFNNToRzBsxFZ18j6s?authuser=0&hl=en&rclk=1",
        "coordinates": {
            "latitude": 16.4797521,
            "longitude": 79.4387323
        }
    },
    {
        "name": "Aqsa Masjid",
        "main_category": "Mosque",
        "address": "FCFX+23P Aqsa Masjid, Macherla, Andhra Pradesh 522426",
        "detailed_address": {
            "ward": null,
            "street": "FCFX+23P",
            "city": "Macherla",
            "postal_code": "522426",
            "state": "Andhra Pradesh",
            "country_code": "IN"
        },
        "images": [
            {
                "about": "All",
                "link": "https://streetviewpixels-pa.googleapis.com/v1/thumbnail?panoid=oAEOcNJuOpTAGDkpz1DkvQ&cb_client=maps_sv.tactile.gps&w=224&h=298&yaw=229.22667&pitch=0&thumbfov=100"
            },
            {
                "about": "Street View & 360deg",
                "link": "https://streetviewpixels-pa.googleapis.com/v1/thumbnail?panoid=oAEOcNJuOpTAGDkpz1DkvQ&cb_client=maps_sv.tactile.gps&w=224&h=298&yaw=229.22667&pitch=0&thumbfov=100"
            }
        ],
        "link": "https://www.google.com/maps/place/Aqsa+Masjid/data=!4m7!3m6!1s0x3a354d934db56f2b:0xaf91fd44115d3e1f!8m2!3d16.472593!4d79.4476917!16s%2Fg%2F11hblnzrhj!19sChIJK2-1TZNNNToRHz5dEUT9ka8?authuser=0&hl=en&rclk=1",
        "coordinates": {
            "latitude": 16.472593,
            "longitude": 79.4476917
        }
    },
    {
        "name": "masjid",
        "main_category": "Mosque",
        "address": "M22M+7Q3 masjid, Macherla, Telangana 506134",
        "detailed_address": {
            "ward": null,
            "street": "M22M+7Q3",
            "city": "Macherla",
            "postal_code": "506134",
            "state": "Telangana",
            "country_code": "IN"
        },
        "images": [],
        "link": "https://www.google.com/maps/place/masjid/data=!4m7!3m6!1s0x3a348708a7c6a181:0x60386c60b396cb63!8m2!3d17.6496267!4d80.0348881!16s%2Fg%2F11s93lbkmz!19sChIJgaHGpwiHNDoRY8uWs2BsOGA?authuser=0&hl=en&rclk=1",
        "coordinates": {
            "latitude": 17.6496267,
            "longitude": 80.0348881
        }
    },
    {
        "name": "khbrstaan",
        "main_category": "Mosque",
        "address": "FCHP+W47 khbrstaan, Macherla, Andhra Pradesh 522426",
        "detailed_address": {
            "ward": null,
            "street": "FCHP+W47",
            "city": "Macherla",
            "postal_code": "522426",
            "state": "Andhra Pradesh",
            "country_code": "IN"
        },
        "images": [
            {
                "about": "All",
                "link": "https://streetviewpixels-pa.googleapis.com/v1/thumbnail?panoid=PwR0rS8-oUVYYSgg87Hzxw&cb_client=maps_sv.tactile.gps&w=224&h=298&yaw=104.6228&pitch=0&thumbfov=100"
            },
            {
                "about": "Street View & 360deg",
                "link": "https://streetviewpixels-pa.googleapis.com/v1/thumbnail?panoid=PwR0rS8-oUVYYSgg87Hzxw&cb_client=maps_sv.tactile.gps&w=224&h=298&yaw=104.6228&pitch=0&thumbfov=100"
            }
        ],
        "link": "https://www.google.com/maps/place/%E0%B0%96%E0%B0%AC%E0%B0%B0%E0%B0%B8%E0%B1%8D%E0%B0%A4%E0%B0%BE%E0%B0%A8%E0%B1%8D/data=!4m7!3m6!1s0x3a354d1c6dc2b817:0x2989eab8f47e81bb!8m2!3d16.4797949!4d79.4352866!16s%2Fg%2F11qndw53pz!19sChIJF7jCbRxNNToRu4F-9LjqiSk?authuser=0&hl=en&rclk=1",
        "coordinates": {
            "latitude": 16.479794899999998,
            "longitude": 79.4352866
        }
    }
]