[
    {
        "name": "SUFI MASZID",
        "main_category": "Mosque",
        "address": "4JH6+JG4 SUFI MASZID, SH1, Kasrawad, Madhya Pradesh 451228",
        "detailed_address": {
            "ward": null,
            "street": "4JH6+JG4, SH1",
            "city": "Kasrawad",
            "postal_code": "451228",
            "state": "Madhya Pradesh",
            "country_code": "IN"
        },
        "images": [
            {
                "about": "All",
                "link": "https://lh5.googleusercontent.com/p/AF1QipONUAo8p1lcufXE2xRuvo1_vWc6gGm612Lm_35U=w224-h301-k-no"
            }
        ],
        "link": "https://www.google.com/maps/place/SUFI+MASZID/data=!4m7!3m6!1s0x39627b7a59cd7045:0x49e5722bfc862fe6!8m2!3d22.1290139!4d75.6113235!16s%2Fg%2F1ptwyzrw_!19sChIJRXDNWXp7YjkR5i-G_Cty5Uk?authuser=0&hl=en&rclk=1",
        "coordinates": {
            "latitude": 22.1290139,
            "longitude": 75.6113235
        }
    },
    {
        "name": "Markaz Masjid Madarsa Dawatul Haq",
        "main_category": "Mosque",
        "address": "4JC5+86Q Markaz Masjid Madarsa Dawatul Haq, Khargone - Indore Hwy, Kasrawad, Madhya Pradesh 451228",
        "detailed_address": {
            "ward": null,
            "street": "4JC5+86Q, Khargone - Indore Hwy",
            "city": "Kasrawad",
            "postal_code": "451228",
            "state": "Madhya Pradesh",
            "country_code": "IN"
        },
        "images": [
            {
                "about": "All",
                "link": "https://lh5.googleusercontent.com/p/AF1QipOxdTaQPXuKqUOuF27ocJtUuZlQSs-l8balOFBG=w397-h298-k-no"
            }
        ],
        "link": "https://www.google.com/maps/place/Markaz+Masjid+Madarsa+Dawatul+Haq/data=!4m7!3m6!1s0x39627b779bc354a5:0xc9c701923bba7dbf!8m2!3d22.1208309!4d75.608106!16s%2Fg%2F11g6w7ghmw!19sChIJpVTDm3d7YjkRv326O5IBx8k?authuser=0&hl=en&rclk=1",
        "coordinates": {
            "latitude": 22.120830899999998,
            "longitude": 75.60810599999999
        }
    },
    {
        "name": "Jama Masjid msjd",
        "main_category": "Mosque",
        "address": "4JH5+6VH Jama Masjid msjd, Kasrawad, Madhya Pradesh 451228",
        "detailed_address": {
            "ward": null,
            "street": "4JH5+6VH",
            "city": "Kasrawad",
            "postal_code": "451228",
            "state": "Madhya Pradesh",
            "country_code": "IN"
        },
        "images": [
            {
                "about": "All",
                "link": "https://lh5.googleusercontent.com/p/AF1QipPG3ZFUu6tDs9ef3tj2qQFUbumj22svtGqK000S=w529-h298-k-no"
            },
            {
                "about": "Dome",
                "link": "https://lh5.googleusercontent.com/p/AF1QipM7ERJQC-y3hSZjhytc12rwLZY1ehAcSHCw9qnS=w224-h398-k-no"
            },
            {
                "about": "Videos",
                "link": "https://lh5.googleusercontent.com/p/AF1QipN2yohIX5cgCagNZOMzca0UvC7nNM5_2mu4cSs=w224-h398-k-no"
            }
        ],
        "link": "https://www.google.com/maps/place/Jama+Masjid+%D9%85%D8%B3%D8%AC%D8%AF%E2%80%AD/data=!4m7!3m6!1s0x39627b7a9ad89803:0x137614661ce393f1!8m2!3d22.1280603!4d75.6097192!16s%2Fg%2F1ydpvbsfn!19sChIJA5jYmnp7YjkR8ZPjHGYUdhM?authuser=0&hl=en&rclk=1",
        "coordinates": {
            "latitude": 22.128060299999998,
            "longitude": 75.6097192
        }
    },
    {
        "name": "Bohra Masjid",
        "main_category": "Mosque",
        "address": "4JG6+H5Q Bohra Masjid, Kasrawad, Madhya Pradesh 451228",
        "detailed_address": {
            "ward": null,
            "street": "4JG6+H5Q",
            "city": "Kasrawad",
            "postal_code": "451228",
            "state": "Madhya Pradesh",
            "country_code": "IN"
        },
        "images": [
            {
                "about": "All",
                "link": "https://lh5.googleusercontent.com/p/AF1QipNdNfe_Oy_U-lap5KV65M-WIK2Uo_jFEQJKAIHX=w224-h298-k-no"
            }
        ],
        "link": "https://www.google.com/maps/place/Bohra+Masjid/data=!4m7!3m6!1s0x39627b7a6023c3fd:0x9a30373111146531!8m2!3d22.1264544!4d75.6104987!16s%2Fg%2F11c6tt5999!19sChIJ_cMjYHp7YjkRMWUUETE3MJo?authuser=0&hl=en&rclk=1",
        "coordinates": {
            "latitude": 22.1264544,
            "longitude": 75.6104987
        }
    },
    {
        "name": "muhmmdii msjid ksraavd",
        "main_category": "Mosque",
        "address": "4JG6+694 muhmmdii msjid ksraavd, Kasrawad, Madhya Pradesh 451228",
        "detailed_address": {
            "ward": null,
            "street": "4JG6+694",
            "city": "Kasrawad",
            "postal_code": "451228",
            "state": "Madhya Pradesh",
            "country_code": "IN"
        },
        "images": [
            {
                "about": "All",
                "link": "https://streetviewpixels-pa.googleapis.com/v1/thumbnail?panoid=F6aKt1TB_s5AyJltzkZ6sg&cb_client=maps_sv.tactile.gps&w=224&h=298&yaw=335.86185&pitch=0&thumbfov=100"
            },
            {
                "about": "Street View & 360deg",
                "link": "https://streetviewpixels-pa.googleapis.com/v1/thumbnail?panoid=F6aKt1TB_s5AyJltzkZ6sg&cb_client=maps_sv.tactile.gps&w=224&h=298&yaw=335.86185&pitch=0&thumbfov=100"
            }
        ],
        "link": "https://www.google.com/maps/place/%E0%A4%AE%E0%A5%81%E0%A4%B9%E0%A4%AE%E0%A5%8D%E0%A4%AE%E0%A4%A6%E0%A5%80+%E0%A4%AE%E0%A4%B8%E0%A5%8D%E0%A4%9C%E0%A4%BF%E0%A4%A6+%E0%A4%95%E0%A4%B8%E0%A4%B0%E0%A4%BE%E0%A4%B5%E0%A4%A6/data=!4m7!3m6!1s0x39627b7a3c6b118f:0x40150a496368bd4f!8m2!3d22.1255151!4d75.6109438!16s%2Fg%2F11f4_4wcxl!19sChIJjxFrPHp7YjkRT71oY0kKFUA?authuser=0&hl=en&rclk=1",
        "coordinates": {
            "latitude": 22.125515099999998,
            "longitude": 75.6109438
        }
    },
    {
        "name": "bdd'ii iidgaah msjid",
        "main_category": "Mosque",
        "address": "4JF7+9HX bdd'ii iidgaah msjid, Kasrawad, Madhya Pradesh 451228",
        "detailed_address": {
            "ward": null,
            "street": "4JF7+9HX",
            "city": "Kasrawad",
            "postal_code": "451228",
            "state": "Madhya Pradesh",
            "country_code": "IN"
        },
        "images": [],
        "link": "https://www.google.com/maps/place/%E0%A4%AC%E0%A4%A1%E0%A4%BC%E0%A5%80+%E0%A4%88%E0%A4%A6%E0%A4%97%E0%A4%BE%E0%A4%B9+%E0%A4%AE%E0%A4%B8%E0%A5%8D%E0%A4%9C%E0%A4%BF%E0%A4%A6/data=!4m7!3m6!1s0x39627b2eb03f1493:0xbc78d15df635948c!8m2!3d22.1234952!4d75.6139971!16s%2Fg%2F11mpnrm0db!19sChIJkxQ_sC57YjkRjJQ19l3ReLw?authuser=0&hl=en&rclk=1",
        "coordinates": {
            "latitude": 22.1234952,
            "longitude": 75.61399709999999
        }
    },
    {
        "name": "Goshiya Maszid",
        "main_category": "Mosque",
        "address": "4JF5+64M Goshiya Maszid, Kasrawad, Madhya Pradesh 451228",
        "detailed_address": {
            "ward": null,
            "street": "4JF5+64M",
            "city": "Kasrawad",
            "postal_code": "451228",
            "state": "Madhya Pradesh",
            "country_code": "IN"
        },
        "images": [],
        "link": "https://www.google.com/maps/place/Goshiya+Maszid/data=!4m7!3m6!1s0x39627bdfe75840a1:0x7d587e5e21faa5d!8m2!3d22.1230889!4d75.607937!16s%2Fg%2F11v5c1fw22!19sChIJoUBY5997YjkRXaof4uWH1Qc?authuser=0&hl=en&rclk=1",
        "coordinates": {
            "latitude": 22.1230889,
            "longitude": 75.60793699999999
        }
    }
]