[
    {
        "name": "Maqqa Maszid",
        "main_category": "Mosque",
        "address": "Maqqa Maszid, Makka masjid colony, near of savita ka pura, Joura Khurd, Madhya Pradesh 476001",
        "detailed_address": {
            "ward": null,
            "street": "Makka masjid colony, near of savita ka pura",
            "city": "Joura Khurd",
            "postal_code": "476001",
            "state": "Madhya Pradesh",
            "country_code": "IN"
        },
        "images": [
            {
                "about": "All",
                "link": "https://lh5.googleusercontent.com/p/AF1QipPCkbJIuYAkvCBVbUWM3JCjYINT-1CZ53IjSBko=w224-h472-k-no"
            },
            {
                "about": "By owner",
                "link": "https://lh5.googleusercontent.com/p/AF1QipPCkbJIuYAkvCBVbUWM3JCjYINT-1CZ53IjSBko=w224-h472-k-no"
            }
        ],
        "link": "https://www.google.com/maps/place/Maqqa+Maszid/data=!4m7!3m6!1s0x3976adc2e1184c4d:0x1e0f79bed7dae399!8m2!3d26.4789375!4d78.0086875!16s%2Fg%2F11qb3dq3jl!19sChIJTUwY4cKtdjkRmePa1755Dx4?authuser=0&hl=en&rclk=1",
        "coordinates": {
            "latitude": 26.478937499999997,
            "longitude": 78.0086875
        }
    },
    {
        "name": "Kalan Masjid",
        "main_category": "Mosque",
        "address": "Kalan Masjid, Humayun's Tomb, near Aalami Markaz bangle wali masjid, Nizamuddin, Nizamuddin West, New Delhi, Delhi 110013",
        "detailed_address": {
            "ward": "Nizamuddin, Nizamuddin West",
            "street": "Humayun's Tomb, near Aalami Markaz bangle wali masjid",
            "city": "New Delhi",
            "postal_code": "110013",
            "state": "Delhi",
            "country_code": "IN"
        },
        "images": [
            {
                "about": "All",
                "link": "https://lh5.googleusercontent.com/p/AF1QipOokSYSy-YY2RmhStO927ip1ELQGyM3_29z2KfY=w238-h298-k-no"
            },
            {
                "about": "Street View & 360deg",
                "link": "https://streetviewpixels-pa.googleapis.com/v1/thumbnail?panoid=HoxWhqMFpOy20cA0CMNzPg&cb_client=maps_sv.tactile.gps&w=224&h=298&yaw=124.59403&pitch=0&thumbfov=100"
            },
            {
                "about": "Videos",
                "link": "https://lh5.googleusercontent.com/p/AF1QipNYfzmR786Vo4tRHUNvviSg_G7CZYpZmjBOvEtP=w224-h448-k-no"
            }
        ],
        "link": "https://www.google.com/maps/place/Kalan+Masjid/data=!4m7!3m6!1s0x390ce346a05e9c1b:0xbe5fd55b9a3ba95d!8m2!3d28.5919929!4d77.2427248!16s%2Fg%2F11m3g28qmn!19sChIJG5xeoEbjDDkRXak7mlvVX74?authuser=0&hl=en&rclk=1",
        "coordinates": {
            "latitude": 28.591992899999997,
            "longitude": 77.24272479999999
        }
    },
    {
        "name": "Masjid Bawdi Wali",
        "main_category": "Mosque",
        "address": "FWH7+JMR Masjid Bawdi Wali, Bakayan, Madhya Pradesh 465337",
        "detailed_address": {
            "ward": null,
            "street": "FWH7+JMR",
            "city": "Bakayan",
            "postal_code": null,
            "state": "Madhya Pradesh",
            "country_code": "IN"
        },
        "images": [
            {
                "about": "All",
                "link": "https://lh5.googleusercontent.com/p/AF1QipPsaCDXUEThhM4_v8DDP9wB75X_MPW331tX3mwV=w529-h298-k-no"
            },
            {
                "about": "Videos",
                "link": "https://lh5.googleusercontent.com/p/AF1QipOkRvKI__pdgpwE-cN2uIHT94J1GSkdsIv1O3sb=w224-h398-k-no"
            }
        ],
        "link": "https://www.google.com/maps/place/Masjid+Bawdi+Wali/data=!4m7!3m6!1s0x397c994140fe69ab:0x6ea1d7d40a70476b!8m2!3d23.479119!4d76.914131!16s%2Fg%2F11h2mqt319!19sChIJq2n-QEGZfDkRa0dwCtTXoW4?authuser=0&hl=en&rclk=1",
        "coordinates": {
            "latitude": 23.479118999999997,
            "longitude": 76.914131
        }
    },
    {
        "name": "Zama Masjid",
        "main_category": "Mosque",
        "address": "8G26+HP5 Zama Masjid, Paslod, Madhya Pradesh 456221",
        "detailed_address": {
            "ward": null,
            "street": "8G26+HP5",
            "city": "Paslod",
            "postal_code": "456221",
            "state": "Madhya Pradesh",
            "country_code": "IN"
        },
        "images": [
            {
                "about": "All",
                "link": "https://lh5.googleusercontent.com/p/AF1QipPUQm5sOkU5y7CnsNxwPQUFXcr9ZcIanqv_Xj-g=w224-h493-k-no"
            },
            {
                "about": "Dome",
                "link": "https://lh5.googleusercontent.com/p/AF1QipPUQm5sOkU5y7CnsNxwPQUFXcr9ZcIanqv_Xj-g=w224-h493-k-no"
            },
            {
                "about": "Videos",
                "link": "https://lh5.googleusercontent.com/p/AF1QipMUSPceS7kvI3L0X63LaKrkSMhz2_rpnVgX8qGj=w224-h398-k-no"
            }
        ],
        "link": "https://www.google.com/maps/place/Zama+Masjid/data=!4m7!3m6!1s0x39638f93bdd92a8f:0x10d810d0de55ce1c!8m2!3d23.30138!4d75.5118555!16s%2Fg%2F11gcqwh2qn!19sChIJjyrZvZOPYzkRHM5V3tAQ2BA?authuser=0&hl=en&rclk=1",
        "coordinates": {
            "latitude": 23.301379999999998,
            "longitude": 75.5118555
        }
    },
    {
        "name": "jaamaa msjid",
        "main_category": "Mosque",
        "address": "78QM+33R jaamaa msjid, Harpalpur, Madhya Pradesh 471111",
        "detailed_address": {
            "ward": null,
            "street": "78QM+33R",
            "city": "Harpalpur",
            "postal_code": null,
            "state": "Madhya Pradesh",
            "country_code": "IN"
        },
        "images": [],
        "link": "https://www.google.com/maps/place/%E0%A4%9C%E0%A4%BE%E0%A4%AE%E0%A4%BE+%E0%A4%AE%E0%A4%B8%E0%A5%8D%E0%A4%9C%E0%A4%BF%E0%A4%A6/data=!4m7!3m6!1s0x3977ff779c2d61e9:0xee22fd32fd41aa91!8m2!3d25.2877464!4d79.3326506!16s%2Fg%2F11hbpps5z8!19sChIJ6WEtnHf_dzkRkapB_TL9Iu4?authuser=0&hl=en&rclk=1",
        "coordinates": {
            "latitude": 25.2877464,
            "longitude": 79.3326506
        }
    },
    {
        "name": "Masjid",
        "main_category": "Mosque",
        "address": "9W64+HMV Masjid, Thona, Madhya Pradesh 472445",
        "detailed_address": {
            "ward": null,
            "street": "9W64+HMV",
            "city": "Thona",
            "postal_code": null,
            "state": "Madhya Pradesh",
            "country_code": "IN"
        },
        "images": [
            {
                "about": "All",
                "link": "https://lh5.googleusercontent.com/p/AF1QipP35cMCW_yqYNDhgpfc6nNyYdwMNpQhiWEJrWYN=w662-h298-k-no"
            }
        ],
        "link": "https://www.google.com/maps/place/Masjid/data=!4m7!3m6!1s0x39778f7ab1851ad5:0xf67fbea24876ac28!8m2!3d25.3614856!4d78.9066802!16s%2Fg%2F11h230wzjn!19sChIJ1RqFsXqPdzkRKKx2SKK-f_Y?authuser=0&hl=en&rclk=1",
        "coordinates": {
            "latitude": 25.361485599999998,
            "longitude": 78.9066802
        }
    },
    {
        "name": "masjid msjid",
        "main_category": "Mosque",
        "address": "QM2H+H3M masjid msjid, Jwalapur, Soi Kalan, Madhya Pradesh 476337",
        "detailed_address": {
            "ward": null,
            "street": "QM2H+H3M",
            "city": "Jwalapur, Soi Kalan",
            "postal_code": null,
            "state": "Madhya Pradesh",
            "country_code": "IN"
        },
        "images": [
            {
                "about": "All",
                "link": "https://lh5.googleusercontent.com/p/AF1QipNPC1CQbr8WO-LRdLzmAqBklLwFa0m4JUO2rAkB=w397-h298-k-no"
            }
        ],
        "link": "https://www.google.com/maps/place/masjid+%E0%A4%AE%E0%A4%B8%E0%A5%8D%E0%A4%9C%E0%A4%BF%E0%A4%A6/data=!4m7!3m6!1s0x397033ce976c92f3:0x30ae43681995dfdd!8m2!3d25.7514734!4d76.6776731!16s%2Fg%2F11fr7f3xnz!19sChIJ85Jsl84zcDkR3d-VGWhDrjA?authuser=0&hl=en&rclk=1",
        "coordinates": {
            "latitude": 25.7514734,
            "longitude": 76.67767309999999
        }
    },
    {
        "name": "Fatima masjid",
        "main_category": "Mosque",
        "address": "FWM9+V8H Fatima masjid, Pipal kheda, Road, Bakayan, Madhya Pradesh",
        "detailed_address": {
            "ward": null,
            "street": "FWM9+V8H, Pipal kheda, Road",
            "city": "Bakayan",
            "postal_code": null,
            "state": "Madhya Pradesh",
            "country_code": "IN"
        },
        "images": [],
        "link": "https://www.google.com/maps/place/Fatima+masjid/data=!4m7!3m6!1s0x397c9b4ab210dfdf:0xa424fc421bf8d217!8m2!3d23.484692!4d76.918355!16s%2Fg%2F11qh40rzdv!19sChIJ398QskqbfDkRF9L4G0L8JKQ?authuser=0&hl=en&rclk=1",
        "coordinates": {
            "latitude": 23.484692,
            "longitude": 76.91835499999999
        }
    },
    {
        "name": "Masjid e Abubakar",
        "main_category": "Mosque",
        "address": "CC7R+JJQ Masjid e Abubakar, Banipura, Madhya Pradesh 477116",
        "detailed_address": {
            "ward": null,
            "street": "CC7R+JJQ",
            "city": "Banipura",
            "postal_code": "477116",
            "state": "Madhya Pradesh",
            "country_code": "IN"
        },
        "images": [
            {
                "about": "All",
                "link": "https://lh5.googleusercontent.com/p/AF1QipM4qZzbmZb7LL3xxAMOY0Nf7pRKGTg-JHtvLsMN=w224-h298-k-no"
            }
        ],
        "link": "https://www.google.com/maps/place/Masjid+e+Abubakar/data=!4m7!3m6!1s0x3976936ef9f6fd4f:0xc0cb35061d1e311a!8m2!3d26.4140774!4d78.4416083!16s%2Fg%2F11sgwr61jf!19sChIJT_32-W6TdjkRGjEeHQY1y8A?authuser=0&hl=en&rclk=1",
        "coordinates": {
            "latitude": 26.4140774,
            "longitude": 78.4416083
        }
    },
    {
        "name": "Masjid pagrawad kalan",
        "main_category": "Mosque",
        "address": "5H52+V4P Masjid pagrawad kalan, Pagrawad Kalan, Madhya Pradesh 465118",
        "detailed_address": {
            "ward": null,
            "street": "5H52+V4P",
            "city": "Pagrawad Kalan",
            "postal_code": null,
            "state": "Madhya Pradesh",
            "country_code": "IN"
        },
        "images": [
            {
                "about": "All",
                "link": "https://lh5.googleusercontent.com/p/AF1QipN4Q4oNSocx08dBTQ5tn1dg3T5jTq8ZU8diYHd3=w395-h298-k-no"
            }
        ],
        "link": "https://www.google.com/maps/place/Masjid+pagrawad+kalan/data=!4m7!3m6!1s0x397cc99ac79b91a5:0xf0571a74385adcd6!8m2!3d23.1597244!4d76.5503205!16s%2Fg%2F11tsscvc0v!19sChIJpZGbx5rJfDkR1txaOHQaV_A?authuser=0&hl=en&rclk=1",
        "coordinates": {
            "latitude": 23.159724399999998,
            "longitude": 76.5503205
        }
    },
    {
        "name": "Jama Masjid Khori",
        "main_category": "Mosque",
        "address": "76HJ+M5M Jama Masjid Khori, Khori, Madhya Pradesh 462030",
        "detailed_address": {
            "ward": null,
            "street": "76HJ+M5M",
            "city": "Khori",
            "postal_code": null,
            "state": "Madhya Pradesh",
            "country_code": "IN"
        },
        "images": [
            {
                "about": "All",
                "link": "https://lh5.googleusercontent.com/p/AF1QipO3Oo-_MmeBaKecnHmT6xiMliFfX48EXjoiXiIS=w224-h398-k-no"
            },
            {
                "about": "Street View & 360deg",
                "link": "https://streetviewpixels-pa.googleapis.com/v1/thumbnail?panoid=B01f4vpUYGwuV4SKFuxYjQ&cb_client=maps_sv.tactile.gps&w=224&h=298&yaw=316.19064&pitch=0&thumbfov=100"
            }
        ],
        "link": "https://www.google.com/maps/place/Jama+Masjid+Khori/data=!4m7!3m6!1s0x397c61a3e4071d27:0x7a5bc641ac1c235!8m2!3d23.2792011!4d77.2304203!16s%2Fg%2F11q4hz9wl3!19sChIJJx0H5KNhfDkRNcLBGmS8pQc?authuser=0&hl=en&rclk=1",
        "coordinates": {
            "latitude": 23.279201099999998,
            "longitude": 77.23042029999999
        }
    },
    {
        "name": "Jama Masjid Bhatiya Mohalla",
        "main_category": "Mosque",
        "address": "9PQW+239 Jama Masjid Bhatiya Mohalla, Kymore, Kaimori, Madhya Pradesh 483113",
        "detailed_address": {
            "ward": null,
            "street": "9PQW+239",
            "city": "Kymore, Kaimori",
            "postal_code": null,
            "state": "Madhya Pradesh",
            "country_code": "IN"
        },
        "images": [],
        "link": "https://www.google.com/maps/place/Jama+Masjid+Bhatiya+Mohalla/data=!4m7!3m6!1s0x3981bf5141753385:0xb22c92add2be3891!8m2!3d23.387531!4d79.7452447!16s%2Fg%2F11h2byc93b!19sChIJhTN1QVG_gTkRkTi-0q2SLLI?authuser=0&hl=en&rclk=1",
        "coordinates": {
            "latitude": 23.387531,
            "longitude": 79.7452447
        }
    },
    {
        "name": "Masjid Bairad",
        "main_category": "Mosque",
        "address": "PF44+VMP Masjid Bairad, Bairad, Bhadera, Madhya Pradesh 473793",
        "detailed_address": {
            "ward": null,
            "street": "PF44+VMP",
            "city": "Bairad, Bhadera",
            "postal_code": null,
            "state": "Madhya Pradesh",
            "country_code": "IN"
        },
        "images": [],
        "link": "https://www.google.com/maps/place/Masjid+Bairad/data=!4m7!3m6!1s0x3970e59e8999b29d:0x8c8d657d36ec4db1!8m2!3d25.7072051!4d77.4566895!16s%2Fg%2F11rtlchqgq!19sChIJnbKZiZ7lcDkRsU3sNn1ljYw?authuser=0&hl=en&rclk=1",
        "coordinates": {
            "latitude": 25.7072051,
            "longitude": 77.4566895
        }
    },
    {
        "name": "Jama Masjid Malaniya",
        "main_category": "Mosque",
        "address": "496R+8VQ Jama Masjid Malaniya, Veerpur Kalan, Madhya Pradesh 464114",
        "detailed_address": {
            "ward": null,
            "street": "496R+8VQ",
            "city": "Veerpur Kalan",
            "postal_code": "464114",
            "state": "Madhya Pradesh",
            "country_code": "IN"
        },
        "images": [],
        "link": "https://www.google.com/maps/place/Jama+Masjid+Malaniya/data=!4m7!3m6!1s0x397bbb0be540eb07:0x9a109757622c6595!8m2!3d24.1109946!4d77.3932754!16s%2Fg%2F11t2sfl56s!19sChIJB-tA5Qu7ezkRlWUsYleXEJo?authuser=0&hl=en&rclk=1",
        "coordinates": {
            "latitude": 24.110994599999998,
            "longitude": 77.3932754
        }
    },
    {
        "name": "Jumma masjid",
        "main_category": "Mosque",
        "address": "7778+M53 Jumma masjid, Khureri, Madhya Pradesh 474020",
        "detailed_address": {
            "ward": null,
            "street": "7778+M53",
            "city": "Khureri",
            "postal_code": null,
            "state": "Madhya Pradesh",
            "country_code": "IN"
        },
        "images": [
            {
                "about": "All",
                "link": "https://streetviewpixels-pa.googleapis.com/v1/thumbnail?panoid=5ZHz3DLihVZYHFAHcrg2kQ&cb_client=maps_sv.tactile.gps&w=224&h=298&yaw=205.59799&pitch=0&thumbfov=100"
            },
            {
                "about": "Street View & 360deg",
                "link": "https://streetviewpixels-pa.googleapis.com/v1/thumbnail?panoid=5ZHz3DLihVZYHFAHcrg2kQ&cb_client=maps_sv.tactile.gps&w=224&h=298&yaw=205.59799&pitch=0&thumbfov=100"
            },
            {
                "about": "Videos",
                "link": "https://lh5.googleusercontent.com/p/AF1QipOs0-ycNn9po6yuUTUix1NmZc9pRjRPNANJAKPZ=w224-h398-k-no"
            }
        ],
        "link": "https://www.google.com/maps/place/Jumma+masjid/data=!4m7!3m6!1s0x3976c1323c785b29:0xb3a7ffe10ae20b98!8m2!3d26.2641354!4d78.2654123!16s%2Fg%2F11s34vhhlq!19sChIJKVt4PDLBdjkRmAviCuH_p7M?authuser=0&hl=en&rclk=1",
        "coordinates": {
            "latitude": 26.264135399999997,
            "longitude": 78.2654123
        }
    },
    {
        "name": "Jama Masjid bamori shala",
        "main_category": "Mosque",
        "address": "7VXF+X3W Jama Masjid bamori shala, Bamori Sala, Madhya Pradesh 464228",
        "detailed_address": {
            "ward": null,
            "street": "7VXF+X3W",
            "city": "Bamori Sala",
            "postal_code": "464228",
            "state": "Madhya Pradesh",
            "country_code": "IN"
        },
        "images": [],
        "link": "https://www.google.com/maps/place/Jama+Masjid+bamori+shala/data=!4m7!3m6!1s0x397bd71a87a3d453:0x2cc0f66277bb885e!8m2!3d24.3000018!4d77.8727477!16s%2Fg%2F11pz6t8f0d!19sChIJU9SjhxrXezkRXoi7d2L2wCw?authuser=0&hl=en&rclk=1",
        "coordinates": {
            "latitude": 24.3000018,
            "longitude": 77.87274769999999
        }
    },
    {
        "name": "Jama masjid kalabag",
        "main_category": "Mosque",
        "address": "VJ52+WRW Jama masjid kalabag, Kala Bag, Raipur, Madhya Pradesh 473332",
        "detailed_address": {
            "ward": null,
            "street": "VJ52+WRW",
            "city": "Kala Bag, Raipur",
            "postal_code": "473332",
            "state": "Madhya Pradesh",
            "country_code": "IN"
        },
        "images": [
            {
                "about": "All",
                "link": "https://lh5.googleusercontent.com/p/AF1QipOZclkFj7FJxOuVHUOYiZdtY7RpA6MpND6-3bsn=w529-h298-k-no"
            },
            {
                "about": "Street View & 360deg",
                "link": "https://streetviewpixels-pa.googleapis.com/v1/thumbnail?panoid=ap14P3QYUnXVA-ar_lNwog&cb_client=maps_sv.tactile.gps&w=224&h=298&yaw=302.28543&pitch=0&thumbfov=100"
            }
        ],
        "link": "https://www.google.com/maps/place/Jama+masjid+kalabag/data=!4m7!3m6!1s0x397a13cc65e88067:0xd0084db0a7c24b7c!8m2!3d24.8598652!4d77.6020628!16s%2Fg%2F11ndxb820g!19sChIJZ4DoZcwTejkRfEvCp7BNCNA?authuser=0&hl=en&rclk=1",
        "coordinates": {
            "latitude": 24.859865199999998,
            "longitude": 77.6020628
        }
    },
    {
        "name": "Allah masjid",
        "main_category": "Mosque",
        "address": "QP7X+R73 Allah masjid, Dehri Baman, Dupadia, Madhya Pradesh 465683",
        "detailed_address": {
            "ward": null,
            "street": "QP7X+R73",
            "city": "Dehri Baman, Dupadia",
            "postal_code": null,
            "state": "Madhya Pradesh",
            "country_code": "IN"
        },
        "images": [],
        "link": "https://www.google.com/maps/place/Allah+masjid/data=!4m7!3m6!1s0x397b43e025e4e137:0x3084f43974e64869!8m2!3d23.764514!4d76.7481814!16s%2Fg%2F11sjjy9mf7!19sChIJN-HkJeBDezkRaUjmdDn0hDA?authuser=0&hl=en&rclk=1",
        "coordinates": {
            "latitude": 23.764514,
            "longitude": 76.74818139999999
        }
    },
    {
        "name": "maszid",
        "main_category": "Mosque",
        "address": "maszid, Bhagawan, Bhagwa Bazar Patti, Madhya Pradesh 471313",
        "detailed_address": {
            "ward": null,
            "street": null,
            "city": "Bhagawan, Bhagwa Bazar Patti",
            "postal_code": null,
            "state": "Madhya Pradesh",
            "country_code": "IN"
        },
        "images": [
            {
                "about": "All",
                "link": "https://streetviewpixels-pa.googleapis.com/v1/thumbnail?panoid=naYDrkxKsGKQjndmtzsCbA&cb_client=maps_sv.tactile.gps&w=224&h=298&yaw=172.07266&pitch=0&thumbfov=100"
            },
            {
                "about": "Street View & 360deg",
                "link": "https://streetviewpixels-pa.googleapis.com/v1/thumbnail?panoid=naYDrkxKsGKQjndmtzsCbA&cb_client=maps_sv.tactile.gps&w=224&h=298&yaw=172.07266&pitch=0&thumbfov=100"
            }
        ],
        "link": "https://www.google.com/maps/place/maszid/data=!4m7!3m6!1s0x39786321f8c10605:0x33ee038a3f1ef8d8!8m2!3d24.5664595!4d79.1778553!16s%2Fg%2F11r8qwtfh!19sChIJBQbB-CFjeDkR2PgeP4oD7jM?authuser=0&hl=en&rclk=1",
        "coordinates": {
            "latitude": 24.5664595,
            "longitude": 79.17785529999999
        }
    },
    {
        "name": "jaamaa msjid baamuliyaa",
        "main_category": "Mosque",
        "address": "F3GV+X9M jaamaa msjid baamuliyaa, Bamuliya, Madhya Pradesh 466651",
        "detailed_address": {
            "ward": null,
            "street": "F3GV+X9M",
            "city": "Bamuliya",
            "postal_code": "466651",
            "state": "Madhya Pradesh",
            "country_code": "IN"
        },
        "images": [],
        "link": "https://www.google.com/maps/place/%E0%A4%9C%E0%A4%BE%E0%A4%AE%E0%A4%BE+%E0%A4%AE%E0%A4%B8%E0%A5%8D%E0%A4%9C%E0%A4%BF%E0%A4%A6+%E0%A4%AC%E0%A4%BE%E0%A4%AE%E0%A5%81%E0%A4%B2%E0%A4%BF%E0%A4%AF%E0%A4%BE/data=!4m7!3m6!1s0x397c85d7c2c02be7:0xce69bb5ae0b780f8!8m2!3d23.4776926!4d77.093114!16s%2Fg%2F11t7c4gcbq!19sChIJ5yvAwteFfDkR-IC34Fq7ac4?authuser=0&hl=en&rclk=1",
        "coordinates": {
            "latitude": 23.477692599999997,
            "longitude": 77.093114
        }
    },
    {
        "name": "Mohammadi masjid",
        "main_category": "Mosque",
        "address": "MH25+CJ3 Mohammadi masjid, Lalaria, Madhya Pradesh 463111",
        "detailed_address": {
            "ward": null,
            "street": "MH25+CJ3",
            "city": "Lalaria",
            "postal_code": "463111",
            "state": "Madhya Pradesh",
            "country_code": "IN"
        },
        "images": [],
        "link": "https://www.google.com/maps/place/Mohammadi+masjid/data=!4m7!3m6!1s0x397b8b70c55ef141:0x6a7713b58faefb90!8m2!3d23.6510241!4d77.5590469!16s%2Fg%2F11mtjf16mt!19sChIJQfFexXCLezkRkPuuj7UTd2o?authuser=0&hl=en&rclk=1",
        "coordinates": {
            "latitude": 23.651024099999997,
            "longitude": 77.5590469
        }
    },
    {
        "name": "Masjid salman farsi",
        "main_category": "Mosque",
        "address": "97C7+PPX Masjid salman farsi, Crompton Greaves Ltd, Industrial Area, Malanpur, Madhya Pradesh",
        "detailed_address": {
            "ward": "Industrial Area, Malanpur",
            "street": "97C7+PPX, Crompton Greaves Ltd",
            "city": "Badwari",
            "postal_code": null,
            "state": "Madhya Pradesh",
            "country_code": "IN"
        },
        "images": [
            {
                "about": "All",
                "link": "https://lh5.googleusercontent.com/p/AF1QipMdW_XgBmOOZfcLTxaFnibRK-nkxLRZOlNq8pf8=w224-h398-k-no"
            }
        ],
        "link": "https://www.google.com/maps/place/Masjid+salman+farsi/data=!4m7!3m6!1s0x3976bfacded5ed33:0x5784c0e6c670406e!8m2!3d26.3718708!4d78.2643715!16s%2Fg%2F11t53y6yrr!19sChIJM-3V3qy_djkRbkBwxubAhFc?authuser=0&hl=en&rclk=1",
        "coordinates": {
            "latitude": 26.3718708,
            "longitude": 78.2643715
        }
    },
    {
        "name": "Abubakar masjid",
        "main_category": "Mosque",
        "address": "CHR4+8MX Abubakar masjid, Mudlay, Madhya Pradesh 465223",
        "detailed_address": {
            "ward": null,
            "street": "CHR4+8MX",
            "city": "Mudlay",
            "postal_code": null,
            "state": "Madhya Pradesh",
            "country_code": "IN"
        },
        "images": [
            {
                "about": "All",
                "link": "https://lh5.googleusercontent.com/p/AF1QipNrIOUY6jUhsGpT9HSMkS4_7XvvK60SLtNQAFkG=w395-h298-k-no"
            },
            {
                "about": "Videos",
                "link": "https://lh5.googleusercontent.com/p/AF1QipNB8OLQyNEucVRab3TpEUj0gEK70cqmaTn7L-0n=w224-h398-k-no"
            }
        ],
        "link": "https://www.google.com/maps/place/Abubakar+masjid/data=!4m7!3m6!1s0x397caf68487112ed:0x213502508ac85eec!8m2!3d23.4408603!4d76.5567416!16s%2Fg%2F11t9ksgn4v!19sChIJ7RJxSGivfDkR7F7IilACNSE?authuser=0&hl=en&rclk=1",
        "coordinates": {
            "latitude": 23.4408603,
            "longitude": 76.5567416
        }
    },
    {
        "name": "Masjid Bankhara Malaniya",
        "main_category": "Mosque",
        "address": "497W+4J2 Masjid Bankhara Malaniya, Veerpur Kalan, Madhya Pradesh 464114",
        "detailed_address": {
            "ward": null,
            "street": "497W+4J2",
            "city": "Veerpur Kalan",
            "postal_code": "464114",
            "state": "Madhya Pradesh",
            "country_code": "IN"
        },
        "images": [],
        "link": "https://www.google.com/maps/place/Masjid+Bankhara+Malaniya/data=!4m7!3m6!1s0x397bbb5877fad33b:0x1ffcc108f9758f70!8m2!3d24.1127743!4d77.3965268!16s%2Fg%2F11s334h887!19sChIJO9P6d1i7ezkRcI91-QjB_B8?authuser=0&hl=en&rclk=1",
        "coordinates": {
            "latitude": 24.112774299999998,
            "longitude": 77.39652679999999
        }
    },
    {
        "name": "Masjid Abubakar moyali kalan",
        "main_category": "Mosque",
        "address": "H2CX+2M3 Masjid Abubakar moyali kalan, Moyali Kalan, Tindoniya, Madhya Pradesh 465667",
        "detailed_address": {
            "ward": null,
            "street": "H2CX+2M3",
            "city": "Moyali Kalan, Tindoniya",
            "postal_code": "465667",
            "state": "Madhya Pradesh",
            "country_code": "IN"
        },
        "images": [],
        "link": "https://www.google.com/maps/place/Masjid+Abubakar+moyali+kalan/data=!4m7!3m6!1s0x397c835f566cdbb9:0x8081ff560959d701!8m2!3d23.5700083!4d77.0491724!16s%2Fg%2F11qqj2_4t8!19sChIJudtsVl-DfDkRAddZCVb_gYA?authuser=0&hl=en&rclk=1",
        "coordinates": {
            "latitude": 23.570008299999998,
            "longitude": 77.0491724
        }
    },
    {
        "name": "Umar Marooque Masjid Mosque",
        "main_category": "Mosque",
        "address": "VQXF+626 Umar Marooque Masjid Mosque, Mohana, Madhya Pradesh 475330",
        "detailed_address": {
            "ward": null,
            "street": "VQXF+626",
            "city": "Mohana",
            "postal_code": "475330",
            "state": "Madhya Pradesh",
            "country_code": "IN"
        },
        "images": [],
        "link": "https://www.google.com/maps/place/Umar+Marooque+Masjid+Mosque/data=!4m7!3m6!1s0x3970d71fd7eec87d:0x3e86f16aff02b491!8m2!3d25.8982331!4d77.7734183!16s%2Fg%2F11st85m0mr!19sChIJfcju1x_XcDkRkbQC_2rxhj4?authuser=0&hl=en&rclk=1",
        "coordinates": {
            "latitude": 25.8982331,
            "longitude": 77.7734183
        }
    },
    {
        "name": "Masjid bamuliya kalan",
        "main_category": "Mosque",
        "address": "48MR+5M6 Masjid bamuliya kalan, Bamuliya Kalan, Rajasthan 325209",
        "detailed_address": {
            "ward": null,
            "street": "48MR+5M6",
            "city": "Bamuliya Kalan",
            "postal_code": "325209",
            "state": "Rajasthan",
            "country_code": "IN"
        },
        "images": [
            {
                "about": "All",
                "link": "https://lh5.googleusercontent.com/p/AF1QipN8EW7qNXGmJKiCdHMrGRvPQlWy3pnVtqkiB4Vh=w224-h398-k-no"
            }
        ],
        "link": "https://www.google.com/maps/place/Masjid+bamuliya+kalan/data=!4m7!3m6!1s0x396ffb1276644cc7:0xb2023ffe8e456edd!8m2!3d25.1323857!4d76.3417578!16s%2Fg%2F11smnr_jnf!19sChIJx0xkdhL7bzkR3W5Fjv4_ArI?authuser=0&hl=en&rclk=1",
        "coordinates": {
            "latitude": 25.1323857,
            "longitude": 76.3417578
        }
    },
    {
        "name": "masjid madrse wali",
        "main_category": "Mosque",
        "address": "7XFV+GW masjid madrse wali, Mundla Kalan, Madhya Pradesh 466001",
        "detailed_address": {
            "ward": null,
            "street": "7XFV+GW",
            "city": "Mundla Kalan",
            "postal_code": null,
            "state": "Madhya Pradesh",
            "country_code": "IN"
        },
        "images": [
            {
                "about": "All",
                "link": "https://lh5.googleusercontent.com/p/AF1QipM-rUpFGJXDAcnwh55kp2hBQnPt-ytceR5L1F5v=w224-h398-k-no"
            },
            {
                "about": "Videos",
                "link": "https://lh5.googleusercontent.com/p/AF1QipM-rUpFGJXDAcnwh55kp2hBQnPt-ytceR5L1F5v=w224-h398-k-no"
            }
        ],
        "link": "https://www.google.com/maps/place/masjid+madrse+wali/data=!4m7!3m6!1s0x397c93986badd511:0xc84be45f49695d28!8m2!3d23.2738523!4d76.9948449!16s%2Fg%2F11ssr80bf7!19sChIJEdWta5iTfDkRKF1pSV_kS8g?authuser=0&hl=en&rclk=1",
        "coordinates": {
            "latitude": 23.273852299999998,
            "longitude": 76.99484489999999
        }
    },
    {
        "name": "Bamore Kalan",
        "main_category": null,
        "address": "Bamore Kalan, Madhya Pradesh 473585",
        "detailed_address": {
            "ward": null,
            "street": null,
            "city": "Bamore Kalan",
            "postal_code": null,
            "state": "Madhya Pradesh",
            "country_code": "IN"
        },
        "images": [
            {
                "about": "All",
                "link": "https://lh5.googleusercontent.com/p/AF1QipOmcX2jN0fprWyHTKOEz2IiQmFH7LMCeGhEaXWV=w397-h298-k-no"
            },
            {
                "about": "Videos",
                "link": "https://lh5.googleusercontent.com/p/AF1QipM7tTCuq5NEW0tSWbUZqQs4w_qRLkuWqNc9lAkd=w529-h298-k-no"
            }
        ],
        "link": "https://www.google.com/maps/place/Bamore+Kalan/data=!4m7!3m6!1s0x3979edd26ef34043:0x10737c2330e166c0!8m2!3d24.8862792!4d78.1501661!16s%2Fg%2F1tl0vrbf!19sChIJQ0DzbtLteTkRwGbhMCN8cxA?authuser=0&hl=en&rclk=1",
        "coordinates": {
            "latitude": 24.8862792,
            "longitude": 78.15016609999999
        }
    },
    {
        "name": "Masjid Nurabad",
        "main_category": "Mosque",
        "address": "C338+VC5 Masjid Nurabad, Nurabad, Madhya Pradesh 476444",
        "detailed_address": {
            "ward": null,
            "street": "C338+VC5",
            "city": "Nurabad",
            "postal_code": "476444",
            "state": "Madhya Pradesh",
            "country_code": "IN"
        },
        "images": [
            {
                "about": "All",
                "link": "https://streetviewpixels-pa.googleapis.com/v1/thumbnail?panoid=grEU-9VKBGdN8s2VrOIr9w&cb_client=maps_sv.tactile.gps&w=224&h=298&yaw=281.87848&pitch=0&thumbfov=100"
            },
            {
                "about": "Street View & 360deg",
                "link": "https://streetviewpixels-pa.googleapis.com/v1/thumbnail?panoid=grEU-9VKBGdN8s2VrOIr9w&cb_client=maps_sv.tactile.gps&w=224&h=298&yaw=281.87848&pitch=0&thumbfov=100"
            }
        ],
        "link": "https://www.google.com/maps/place/Masjid+Nurabad/data=!4m7!3m6!1s0x3976b12347732b73:0x5a182f453e020dd2!8m2!3d26.4046286!4d78.0661229!16s%2Fg%2F11stgrfbcg!19sChIJcytzRyOxdjkR0g0CPkUvGFo?authuser=0&hl=en&rclk=1",
        "coordinates": {
            "latitude": 26.4046286,
            "longitude": 78.0661229
        }
    },
    {
        "name": "Jama masjid",
        "main_category": "Mosque",
        "address": "Jama masjid, Rampur Kalan, Madhya Pradesh 476229",
        "detailed_address": {
            "ward": null,
            "street": null,
            "city": "Rampur Kalan",
            "postal_code": "476229",
            "state": "Madhya Pradesh",
            "country_code": "IN"
        },
        "images": [],
        "link": "https://www.google.com/maps/place/Jama+masjid/data=!4m7!3m6!1s0x39711553b94f67bd:0x649a35c90e4d8d75!8m2!3d26.1630173!4d77.4707338!16s%2Fg%2F11h45s_5ym!19sChIJvWdPuVMVcTkRdY1NDsk1mmQ?authuser=0&hl=en&rclk=1",
        "coordinates": {
            "latitude": 26.1630173,
            "longitude": 77.47073379999999
        }
    },
    {
        "name": "Masjid Budhor",
        "main_category": "Mosque",
        "address": "FFWX+XHP Masjid Budhor, Budhor Kalan, Madhya Pradesh 462101",
        "detailed_address": {
            "ward": null,
            "street": "FFWX+XHP",
            "city": "Budhor Kalan",
            "postal_code": null,
            "state": "Madhya Pradesh",
            "country_code": "IN"
        },
        "images": [
            {
                "about": "All",
                "link": "https://lh5.googleusercontent.com/p/AF1QipPLLcj-Ev_6BP3gq_i_I59pvNw71JeOU_N3qeXn=w224-h342-k-no"
            },
            {
                "about": "Videos",
                "link": "https://lh5.googleusercontent.com/p/AF1QipPEDOjJxOdk2nnN73e5CfP41S7rJ3262zOy8M7K=w224-h497-k-no"
            }
        ],
        "link": "https://www.google.com/maps/place/Masjid+Budhor/data=!4m7!3m6!1s0x397c73f8af883b55:0xd2ea469ae1ee328b!8m2!3d23.4974665!4d77.4989398!16s%2Fg%2F11h_vn648_!19sChIJVTuIr_hzfDkRizLu4ZpG6tI?authuser=0&hl=en&rclk=1",
        "coordinates": {
            "latitude": 23.497466499999998,
            "longitude": 77.4989398
        }
    },
    {
        "name": "jama masjid (dehri kalan)",
        "main_category": "Mosque",
        "address": "7FXV+RCQ jama masjid (dehri kalan), Dehri Kalan, Rusalli Kalan, Madhya Pradesh 473101",
        "detailed_address": {
            "ward": null,
            "street": "7FXV+RCQ",
            "city": "Dehri Kalan, Rusalli Kalan",
            "postal_code": "473101",
            "state": "Madhya Pradesh",
            "country_code": "IN"
        },
        "images": [],
        "link": "https://www.google.com/maps/place/jama+masjid+%28dehri+kalan%29/data=!4m7!3m6!1s0x397bb5ee0238f365:0x443d008173f1d43d!8m2!3d24.2995839!4d77.4936095!16s%2Fg%2F11sv11xcnb!19sChIJZfM4Au61ezkRPdTxc4EAPUQ?authuser=0&hl=en&rclk=1",
        "coordinates": {
            "latitude": 24.2995839,
            "longitude": 77.49360949999999
        }
    },
    {
        "name": "JAMA masjid kurraha",
        "main_category": "Mosque",
        "address": "JAMA masjid kurraha, Jama masjid, Kurraha, Madhya Pradesh 471411",
        "detailed_address": {
            "ward": null,
            "street": "Jama masjid",
            "city": "Kurraha",
            "postal_code": null,
            "state": "Madhya Pradesh",
            "country_code": "IN"
        },
        "images": [
            {
                "about": "All",
                "link": "https://lh5.googleusercontent.com/p/AF1QipN8HicpMx5sSo0lwsrTr0G6hTBr-OllkpOI6q5u=w224-h298-k-no"
            },
            {
                "about": "Latest",
                "link": "https://lh5.googleusercontent.com/p/AF1QipPth886DLTRXUBPwAcL2EWWPELNM2Bhj54qcmAe=w224-h398-k-no"
            },
            {
                "about": "Videos",
                "link": "https://lh5.googleusercontent.com/p/AF1QipPth886DLTRXUBPwAcL2EWWPELNM2Bhj54qcmAe=w224-h398-k-no"
            }
        ],
        "link": "https://www.google.com/maps/place/JAMA+masjid+kurraha/data=!4m7!3m6!1s0x3982b9481adc214d:0x66677700ad27b300!8m2!3d25.08209!4d79.6986534!16s%2Fg%2F11pzfhj278!19sChIJTSHcGki5gjkRALMnrQB3Z2Y?authuser=0&hl=en&rclk=1",
        "coordinates": {
            "latitude": 25.082089999999997,
            "longitude": 79.6986534
        }
    },
    {
        "name": "NURANI MASJID",
        "main_category": "Mosque",
        "address": "FJ7H+2H5 NURANI MASJID, Semartal, Madhya Pradesh 480886",
        "detailed_address": {
            "ward": null,
            "street": "FJ7H+2H5",
            "city": "Semartal",
            "postal_code": null,
            "state": "Madhya Pradesh",
            "country_code": "IN"
        },
        "images": [],
        "link": "https://www.google.com/maps/place/NURANI+MASJID/data=!4m7!3m6!1s0x39800f8f16c71f5b:0xcf90e7a562c51854!8m2!3d22.4625035!4d79.6289931!16s%2Fg%2F11r2d538jr!19sChIJWx_HFo8PgDkRVBjFYqXnkM8?authuser=0&hl=en&rclk=1",
        "coordinates": {
            "latitude": 22.4625035,
            "longitude": 79.6289931
        }
    },
    {
        "name": "jaamaa msjid baamuliyaa",
        "main_category": "Mosque",
        "address": "C536+775 jaamaa msjid baamuliyaa, Duraha, Sikandarganj, Madhya Pradesh 466661",
        "detailed_address": {
            "ward": null,
            "street": "C536+775",
            "city": "Duraha, Sikandarganj",
            "postal_code": null,
            "state": "Madhya Pradesh",
            "country_code": "IN"
        },
        "images": [
            {
                "about": "All",
                "link": "https://streetviewpixels-pa.googleapis.com/v1/thumbnail?panoid=tp92Aj466KE1pe6tpO5SLA&cb_client=maps_sv.tactile.gps&w=224&h=298&yaw=115.37886&pitch=0&thumbfov=100"
            },
            {
                "about": "Street View & 360deg",
                "link": "https://streetviewpixels-pa.googleapis.com/v1/thumbnail?panoid=tp92Aj466KE1pe6tpO5SLA&cb_client=maps_sv.tactile.gps&w=224&h=298&yaw=115.37886&pitch=0&thumbfov=100"
            }
        ],
        "link": "https://www.google.com/maps/place/%E0%A4%9C%E0%A4%BE%E0%A4%AE%E0%A4%BE+%E0%A4%AE%E0%A4%B8%E0%A5%8D%E0%A4%9C%E0%A4%BF%E0%A4%A6+%E0%A4%AC%E0%A4%BE%E0%A4%AE%E0%A5%81%E0%A4%B2%E0%A4%BF%E0%A4%AF%E0%A4%BE/data=!4m7!3m6!1s0x397c890bd825e1a1:0xa80e9747902e1220!8m2!3d23.4031339!4d77.1607391!16s%2Fg%2F11t7c4qkyc!19sChIJoeEl2AuJfDkRIBIukEeXDqg?authuser=0&hl=en&rclk=1",
        "coordinates": {
            "latitude": 23.4031339,
            "longitude": 77.1607391
        }
    },
    {
        "name": "Masjid Islam pura ( msjid islaampuraa )",
        "main_category": "Mosque",
        "address": "GRVW+R2P Masjid Islam pura ( msjid islaampuraa ), Islampura, Madhya Pradesh 465680",
        "detailed_address": {
            "ward": null,
            "street": "GRVW+R2P, Islampura",
            "city": "Bamanpura",
            "postal_code": "465680",
            "state": "Madhya Pradesh",
            "country_code": "IN"
        },
        "images": [
            {
                "about": "All",
                "link": "https://lh5.googleusercontent.com/p/AF1QipOovn342NT3EXUxx_0w9sqqx0Uko5kpcfUxDM90=w224-h298-k-no"
            },
            {
                "about": "Street View & 360deg",
                "link": "https://streetviewpixels-pa.googleapis.com/v1/thumbnail?panoid=8LjVHgW-LZfUfRY0fufcvA&cb_client=maps_sv.tactile.gps&w=224&h=298&yaw=160.13551&pitch=0&thumbfov=100"
            },
            {
                "about": "Videos",
                "link": "https://lh5.googleusercontent.com/p/AF1QipNyi-dC6Z9YVSXE0YZNpenkpPzhjsPqjvGtE7Xd=w224-h395-k-no"
            }
        ],
        "link": "https://www.google.com/maps/place/Masjid+Islam+pura+%28+%E0%A4%AE%E0%A4%B8%E0%A4%9C%E0%A4%BF%E0%A4%A6+%E0%A4%87%E0%A4%B8%E0%A5%8D%E0%A4%B2%E0%A4%BE%E0%A4%AE%E0%A4%AA%E0%A5%81%E0%A4%B0%E0%A4%BE+%29/data=!4m7!3m6!1s0x397c9f6f52cdb8ab:0x6b7d8d47ebf20729!8m2!3d23.5445902!4d76.8450874!16s%2Fg%2F11j3190810!19sChIJq7jNUm-ffDkRKQfy60eNfWs?authuser=0&hl=en&rclk=1",
        "coordinates": {
            "latitude": 23.5445902,
            "longitude": 76.8450874
        }
    }
]