[
    {
        "name": "Nag Devta Temple",
        "main_category": "Hindu temple",
        "address": "C3W7+QXW Nag Devta Temple, Cart Mecange Road, Sher Garhi, Mussoorie, Uttarakhand 248179",
        "detailed_address": {
            "ward": "Sher Garhi",
            "street": "C3W7+QXW, Cart Mecange Road",
            "city": "Mussoorie",
            "postal_code": "248179",
            "state": "Uttarakhand",
            "country_code": "IN"
        },
        "images": [
            {
                "about": "All",
                "link": "https://lh5.googleusercontent.com/p/AF1QipNEJOL-ai35ij18F0qsKYylyctSKng50LXkLh43=w447-h298-k-no"
            },
            {
                "about": "Street View & 360deg",
                "link": "https://lh5.googleusercontent.com/p/AF1QipODiYIoo-A2_5YIUrpy8s5lczcZP_YpRRnuv63O=w224-h298-k-no-pi-20-ya270-ro-0-fo100"
            },
            {
                "about": "Videos",
                "link": "https://lh5.googleusercontent.com/p/AF1QipMnrTtBPS-RHPbXGvpyf-rXFTBGHySWMddiKfJZ=w541-h298-k-no"
            }
        ],
        "link": "https://www.google.com/maps/place/Nag+Devta+Temple/data=!4m7!3m6!1s0x3908d128466915d9:0x3de7a4c716be8e42!8m2!3d30.4469909!4d78.0649464!16s%2Fg%2F11g6rjjl1c!19sChIJ2RVpRijRCDkRQo6-Fsek5z0?authuser=0&hl=en&rclk=1",
        "coordinates": {
            "latitude": 30.4469909,
            "longitude": 78.0649464
        }
    },
    {
        "name": "Map",
        "main_category": "Mosque",
        "address": "Map, Park 100, Luxmanpuri, Rajmandi, Landour, Mussoorie, Uttarakhand 248179",
        "detailed_address": {
            "ward": "Luxmanpuri, Rajmandi, Landour",
            "street": "Park 100",
            "city": "Mussoorie",
            "postal_code": "248179",
            "state": "Uttarakhand",
            "country_code": "IN"
        },
        "images": [],
        "link": "https://www.google.com/maps/place/Map/data=!4m7!3m6!1s0x3908d12b078ab49d:0x6b7f624014cbc00c!8m2!3d30.4574259!4d78.089865!16s%2Fg%2F11vdhkmnds!19sChIJnbSKByvRCDkRDMDLFEBif2s?authuser=0&hl=en&rclk=1",
        "coordinates": {
            "latitude": 30.457425899999997,
            "longitude": 78.089865
        }
    },
    {
        "name": "Map",
        "main_category": "General store",
        "address": "F367+2W7 Map, Mall Rd, The Mall Road, Mussoorie, Uttarakhand 248179",
        "detailed_address": {
            "ward": "The Mall Road",
            "street": "F367+2W7, Mall Rd",
            "city": "Mussoorie",
            "postal_code": "248179",
            "state": "Uttarakhand",
            "country_code": "IN"
        },
        "images": [
            {
                "about": "All",
                "link": "https://lh5.googleusercontent.com/p/AF1QipNUTnHBrDbR3wfBhp9qrgA7ApxGBES5dAj2YG3V=w224-h298-k-no"
            },
            {
                "about": "Inside",
                "link": "https://lh5.googleusercontent.com/p/AF1QipOm0xdQMk9QsgsFE9VeC10UEsG4PgD4XUcuWHEH=w224-h298-k-no"
            },
            {
                "about": "Videos",
                "link": "https://lh5.googleusercontent.com/p/AF1QipO1eGBHpTDHoOWDbcDrhKokQsuAy1bREoUkhGc9=w224-h398-k-no"
            }
        ],
        "link": "https://www.google.com/maps/place/Map/data=!4m7!3m6!1s0x3908d1f8237adeef:0x4476e53c60b940bb!8m2!3d30.4611601!4d78.0647127!16s%2Fg%2F11t1jjncs8!19sChIJ7956I_jRCDkRu0C5YDzldkQ?authuser=0&hl=en&rclk=1",
        "coordinates": {
            "latitude": 30.461160099999997,
            "longitude": 78.0647127
        }
    },
    {
        "name": "MASJID AMANIA",
        "main_category": "Mosque",
        "address": "F34H+C69 MASJID AMANIA, Mall Rd, The Mall Road, Mussoorie, Uttarakhand 248179",
        "detailed_address": {
            "ward": "The Mall Road",
            "street": "F34H+C69, Mall Rd",
            "city": "Mussoorie",
            "postal_code": "248179",
            "state": "Uttarakhand",
            "country_code": "IN"
        },
        "images": [],
        "link": "https://www.google.com/maps/place/MASJID+AMANIA/data=!4m7!3m6!1s0x3908d100033539fb:0x4502740c6993f492!8m2!3d30.4560295!4d78.0781246!16s%2Fg%2F11y28_7m89!19sChIJ-zk1AwDRCDkRkvSTaQx0AkU?authuser=0&hl=en&rclk=1",
        "coordinates": {
            "latitude": 30.4560295,
            "longitude": 78.0781246
        }
    }
]