[
    {
        "name": "Jama Masjid",
        "main_category": "Mosque",
        "address": "JM7P+W4R Jama Masjid, Jintur, Maharashtra 431509",
        "detailed_address": {
            "ward": null,
            "street": "JM7P+W4R",
            "city": "Jintur",
            "postal_code": "431509",
            "state": "Maharashtra",
            "country_code": "IN"
        },
        "images": [
            {
                "about": "All",
                "link": "https://lh5.googleusercontent.com/p/AF1QipNCRrfYRUDB7nBCVP8JgqipZ1UzxnWFwtvulH2z=w224-h298-k-no"
            }
        ],
        "link": "https://www.google.com/maps/place/Jama+Masjid/data=!4m7!3m6!1s0x3bd06fa05744b759:0x5d300831881d4103!8m2!3d19.6148634!4d76.685257!16s%2Fg%2F1hc1_jpkc!19sChIJWbdEV6Bv0DsRA0EdiDEIMF0?authuser=0&hl=en&rclk=1",
        "coordinates": {
            "latitude": 19.6148634,
            "longitude": 76.685257
        }
    },
    {
        "name": "Masjid-E-Mashaykh",
        "main_category": "Mosque",
        "address": "JM9Q+CF6 Masjid-E-Mashaykh, Nemgiri Road, Jintur, Maharashtra 431509",
        "detailed_address": {
            "ward": null,
            "street": "JM9Q+CF6, Nemgiri Road",
            "city": "Jintur",
            "postal_code": "431509",
            "state": "Maharashtra",
            "country_code": "IN"
        },
        "images": [
            {
                "about": "All",
                "link": "https://lh5.googleusercontent.com/p/AF1QipOd5obC00TDcocbt5Rus4rHzUD7zjtdZ7oYkNBd=w224-h398-k-no"
            },
            {
                "about": "Street View & 360deg",
                "link": "https://streetviewpixels-pa.googleapis.com/v1/thumbnail?panoid=ejgORZoft0G2RE0retavuQ&cb_client=maps_sv.tactile.gps&w=224&h=298&yaw=348.6837&pitch=0&thumbfov=100"
            }
        ],
        "link": "https://www.google.com/maps/place/Masjid-E-Mashaykh/data=!4m7!3m6!1s0x3bd06f754606c9f9:0x6a84ca3c287decab!8m2!3d19.6185291!4d76.6886355!16s%2Fg%2F1hc5n_vk1!19sChIJ-ckGRnVv0DsRq-x9KDzKhGo?authuser=0&hl=en&rclk=1",
        "coordinates": {
            "latitude": 19.6185291,
            "longitude": 76.68863549999999
        }
    },
    {
        "name": "Masjid-E-Ayesha",
        "main_category": "Mosque",
        "address": "JM5P+MGJ Masjid-E-Ayesha, Jintur, Maharashtra 431509",
        "detailed_address": {
            "ward": null,
            "street": "JM5P+MGJ",
            "city": "Jintur",
            "postal_code": "431509",
            "state": "Maharashtra",
            "country_code": "IN"
        },
        "images": [
            {
                "about": "All",
                "link": "https://lh5.googleusercontent.com/p/AF1QipOVCmIeKT_oSy6lJ9AVpFBtMdIWHw_R9EZa-LdQ=w290-h298-k-no"
            },
            {
                "about": "Videos",
                "link": "https://lh5.googleusercontent.com/p/AF1QipPIvCenjF3DXGpowg_6TQocTPfPEONWx5XWJzvF=w529-h298-k-no"
            }
        ],
        "link": "https://www.google.com/maps/place/Masjid-E-Ayesha/data=!4m7!3m6!1s0x3bd06fa7749a8e81:0xba0bc5f0bbc60303!8m2!3d19.6092187!4d76.6862735!16s%2Fg%2F1hc1t85jc!19sChIJgY6adKdv0DsRAwPGu_DFC7o?authuser=0&hl=en&rclk=1",
        "coordinates": {
            "latitude": 19.6092187,
            "longitude": 76.6862735
        }
    },
    {
        "name": "masjid-e-hidayatul quran",
        "main_category": "Mosque",
        "address": "JM8R+MXG masjid-e-hidayatul quran, Hidayat Nagar, Jintur, Maharashtra 431509",
        "detailed_address": {
            "ward": "Hidayat Nagar",
            "street": "JM8R+MXG",
            "city": "Jintur",
            "postal_code": "431509",
            "state": "Maharashtra",
            "country_code": "IN"
        },
        "images": [
            {
                "about": "All",
                "link": "https://lh5.googleusercontent.com/p/AF1QipOCvMZ7JkxsHwOvuVvWKm20v5Gtmrh-D5EWzdH3=w224-h486-k-no"
            },
            {
                "about": "Dome",
                "link": "https://lh5.googleusercontent.com/p/AF1QipO6Y5UoI8PTCZWmgYmZRGDzHs26_q4YVE7_pqij=w224-h486-k-no"
            },
            {
                "about": "Videos",
                "link": "https://lh5.googleusercontent.com/p/AF1QipN4wHMvZmcoD6NxPCqkTcjGUPB7zioLBoqBPWpe=w224-h398-k-no"
            },
            {
                "about": "Street View & 360deg",
                "link": "https://streetviewpixels-pa.googleapis.com/v1/thumbnail?panoid=HRF_8Gp-qjT84pOweAOJrw&cb_client=maps_sv.tactile.gps&w=224&h=298&yaw=348.9854&pitch=0&thumbfov=100"
            }
        ],
        "link": "https://www.google.com/maps/place/masjid-e-hidayatul+quran/data=!4m7!3m6!1s0x3bd06f0b42db2ba3:0x6b5fb8a7e02b3c91!8m2!3d19.6166977!4d76.6924647!16s%2Fg%2F11f3sczbn4!19sChIJoyvbQgtv0DsRkTwr4Ke4X2s?authuser=0&hl=en&rclk=1",
        "coordinates": {
            "latitude": 19.6166977,
            "longitude": 76.6924647
        }
    },
    {
        "name": "Masjid-E-Teen",
        "main_category": "Mosque",
        "address": "Masjid-E-Teen, Jintur, Maharashtra 431509",
        "detailed_address": {
            "ward": null,
            "street": null,
            "city": "Jintur",
            "postal_code": null,
            "state": "Maharashtra",
            "country_code": "IN"
        },
        "images": [
            {
                "about": "All",
                "link": "https://lh5.googleusercontent.com/p/AF1QipOlTt3el1XQGn4s489DSdVhWJYCUI3LkwIqSN2Y=w298-h298-k-no"
            },
            {
                "about": "Street View & 360deg",
                "link": "https://streetviewpixels-pa.googleapis.com/v1/thumbnail?panoid=2K8fg8ia1je3tZe4fA4yag&cb_client=maps_sv.tactile.gps&w=224&h=298&yaw=57.29255&pitch=0&thumbfov=100"
            },
            {
                "about": "Videos",
                "link": "https://lh5.googleusercontent.com/p/AF1QipOFRIT6UwjJU3rLxTnPfYzYfdR9Ti-sxngBOExs=w224-h398-k-no"
            }
        ],
        "link": "https://www.google.com/maps/place/Masjid-E-Teen/data=!4m7!3m6!1s0x3bd06f9ff7df5925:0x240a38b3e676ed40!8m2!3d19.6175833!4d76.6866396!16s%2Fg%2F1hc4b9kr_!19sChIJJVnf959v0DsRQO125rM4CiQ?authuser=0&hl=en&rclk=1",
        "coordinates": {
            "latitude": 19.6175833,
            "longitude": 76.68663959999999
        }
    },
    {
        "name": "Madina Masjid",
        "main_category": "Mosque",
        "address": "JM7P+8JX Madina Masjid, Jintur, Maharashtra 431509",
        "detailed_address": {
            "ward": null,
            "street": "JM7P+8JX",
            "city": "Jintur",
            "postal_code": "431509",
            "state": "Maharashtra",
            "country_code": "IN"
        },
        "images": [
            {
                "about": "All",
                "link": "https://lh5.googleusercontent.com/p/AF1QipN202UUzSK7EQCe_l8_bnW4WkFqsDmrW2Dw6jDd=w224-h298-k-no"
            }
        ],
        "link": "https://www.google.com/maps/place/Madina+Masjid/data=!4m7!3m6!1s0x3bd06fa097af1013:0xd3beac02d77fdc00!8m2!3d19.6133567!4d76.6866048!16s%2Fg%2F11c2p1p09l!19sChIJExCvl6Bv0DsRANx_1wKsvtM?authuser=0&hl=en&rclk=1",
        "coordinates": {
            "latitude": 19.6133567,
            "longitude": 76.6866048
        }
    },
    {
        "name": "Safa Masjid",
        "main_category": "Mosque",
        "address": "JMCP+JJ2 Safa Masjid, Jintur, Maharashtra 431509",
        "detailed_address": {
            "ward": null,
            "street": "JMCP+JJ2",
            "city": "Jintur",
            "postal_code": "431509",
            "state": "Maharashtra",
            "country_code": "IN"
        },
        "images": [
            {
                "about": "All",
                "link": "https://streetviewpixels-pa.googleapis.com/v1/thumbnail?panoid=5fbEJnTboKcxFfbtbX5f4Q&cb_client=maps_sv.tactile.gps&w=224&h=298&yaw=15.173108&pitch=0&thumbfov=100"
            },
            {
                "about": "Street View & 360deg",
                "link": "https://streetviewpixels-pa.googleapis.com/v1/thumbnail?panoid=5fbEJnTboKcxFfbtbX5f4Q&cb_client=maps_sv.tactile.gps&w=224&h=298&yaw=15.173108&pitch=0&thumbfov=100"
            }
        ],
        "link": "https://www.google.com/maps/place/Safa+Masjid/data=!4m7!3m6!1s0x3bd06f12b750c283:0xe1df77815e338af4!8m2!3d19.6215233!4d76.6865166!16s%2Fg%2F11gr5t51px!19sChIJg8JQtxJv0DsR9IozXoF33-E?authuser=0&hl=en&rclk=1",
        "coordinates": {
            "latitude": 19.6215233,
            "longitude": 76.68651659999999
        }
    },
    {
        "name": "Masjid Dar-E-Arqam",
        "main_category": "Mosque",
        "address": "JM8Q+7MV Masjid Dar-E-Arqam, Jintur, Maharashtra 431509",
        "detailed_address": {
            "ward": null,
            "street": "JM8Q+7MV",
            "city": "Jintur",
            "postal_code": "431509",
            "state": "Maharashtra",
            "country_code": "IN"
        },
        "images": [
            {
                "about": "All",
                "link": "https://lh5.googleusercontent.com/p/AF1QipOmtKTGTLfustEyVPT6w2OaDIhSiejwkxGJuPTz=w397-h298-k-no"
            }
        ],
        "link": "https://www.google.com/maps/place/Masjid+Dar-E-Arqam/data=!4m7!3m6!1s0x3bd06f0aedb8fd55:0x2805725b9385186d!8m2!3d19.6157452!4d76.6891787!16s%2Fg%2F1hc18yqtk!19sChIJVf247Qpv0DsRbRiFk1tyBSg?authuser=0&hl=en&rclk=1",
        "coordinates": {
            "latitude": 19.6157452,
            "longitude": 76.6891787
        }
    },
    {
        "name": "Makkaha Masjid",
        "main_category": "Mosque",
        "address": "JM9P+G2P Makkaha Masjid, Jintur, Maharashtra 431509",
        "detailed_address": {
            "ward": null,
            "street": "JM9P+G2P",
            "city": "Jintur",
            "postal_code": "431509",
            "state": "Maharashtra",
            "country_code": "IN"
        },
        "images": [
            {
                "about": "All",
                "link": "https://streetviewpixels-pa.googleapis.com/v1/thumbnail?panoid=KqtIo90hTDH9jD35Iq-dww&cb_client=maps_sv.tactile.gps&w=224&h=298&yaw=350.55026&pitch=0&thumbfov=100"
            },
            {
                "about": "Street View & 360deg",
                "link": "https://streetviewpixels-pa.googleapis.com/v1/thumbnail?panoid=KqtIo90hTDH9jD35Iq-dww&cb_client=maps_sv.tactile.gps&w=224&h=298&yaw=350.55026&pitch=0&thumbfov=100"
            }
        ],
        "link": "https://www.google.com/maps/place/Makkaha+Masjid/data=!4m7!3m6!1s0x3bd06f1eaafd1c33:0x2ab03f1fc70c126c!8m2!3d19.618832!4d76.6850819!16s%2Fg%2F11g4hs2t9k!19sChIJMxz9qh5v0DsRbBIMxx8_sCo?authuser=0&hl=en&rclk=1",
        "coordinates": {
            "latitude": 19.618831999999998,
            "longitude": 76.6850819
        }
    },
    {
        "name": "Markaz Masjid Jintur",
        "main_category": "Mosque",
        "address": "JM7Q+C9F Markaz Masjid Jintur, Jintur, Maharashtra 431509",
        "detailed_address": {
            "ward": null,
            "street": "JM7Q+C9F",
            "city": "Jintur",
            "postal_code": "431509",
            "state": "Maharashtra",
            "country_code": "IN"
        },
        "images": [
            {
                "about": "All",
                "link": "https://lh5.googleusercontent.com/p/AF1QipNOlayB1eLqq5k5hfNooaCVHgjW7AEp27Em1T2a=w224-h398-k-no"
            }
        ],
        "link": "https://www.google.com/maps/place/Markaz+Masjid+Jintur/data=!4m7!3m6!1s0x3bd06f4fb525defd:0x216a53077e5e63f5!8m2!3d19.6135659!4d76.6884307!16s%2Fg%2F11qncyb2c5!19sChIJ_d4ltU9v0DsR9WNefgdTaiE?authuser=0&hl=en&rclk=1",
        "coordinates": {
            "latitude": 19.613565899999998,
            "longitude": 76.6884307
        }
    },
    {
        "name": "Masjid- hazrat miskin",
        "main_category": "Mosque",
        "address": "JM7R+C93 Masjid- hazrat miskin, Jintur, Maharashtra 431509",
        "detailed_address": {
            "ward": null,
            "street": "JM7R+C93",
            "city": "Jintur",
            "postal_code": "431509",
            "state": "Maharashtra",
            "country_code": "IN"
        },
        "images": [
            {
                "about": "All",
                "link": "https://lh5.googleusercontent.com/p/AF1QipPFNlWvavyZv4Uytdkde_95GDYuBTUHVqS51U5E=w662-h298-k-no"
            }
        ],
        "link": "https://www.google.com/maps/place/Masjid-+hazrat+miskin/data=!4m7!3m6!1s0x3bd06f7dcba36a05:0x3063312b00421398!8m2!3d19.6135066!4d76.6909211!16s%2Fg%2F11h4q3fdpf!19sChIJBWqjy31v0DsRmBNCACsxYzA?authuser=0&hl=en&rclk=1",
        "coordinates": {
            "latitude": 19.613506599999997,
            "longitude": 76.6909211
        }
    },
    {
        "name": "Noorani Kali Masjid",
        "main_category": "Mosque",
        "address": "JM6Q+JJ4 Noorani Kali Masjid, Jintur, Maharashtra 431509",
        "detailed_address": {
            "ward": null,
            "street": "JM6Q+JJ4",
            "city": "Jintur",
            "postal_code": "431509",
            "state": "Maharashtra",
            "country_code": "IN"
        },
        "images": [
            {
                "about": "All",
                "link": "https://lh5.googleusercontent.com/p/AF1QipMHl8LMpmSwV97jqoNUdjfubQGazBGY_o_Ji4b7=w270-h298-k-no"
            },
            {
                "about": "Dome",
                "link": "https://lh5.googleusercontent.com/p/AF1QipMHl8LMpmSwV97jqoNUdjfubQGazBGY_o_Ji4b7=w270-h298-k-no"
            }
        ],
        "link": "https://www.google.com/maps/place/Noorani+Kali+Masjid/data=!4m7!3m6!1s0x3bd06f098c8626f7:0x9cd943cbf2aa6d76!8m2!3d19.6115233!4d76.6890791!16s%2Fg%2F1hc4hnsbr!19sChIJ9yaGjAlv0DsRdm2q8stD2Zw?authuser=0&hl=en&rclk=1",
        "coordinates": {
            "latitude": 19.611523299999998,
            "longitude": 76.6890791
        }
    },
    {
        "name": "Fatima Masjid",
        "main_category": "Mosque",
        "address": "JM9R+83J Fatima Masjid, Jintur, Maharashtra 431509",
        "detailed_address": {
            "ward": null,
            "street": "JM9R+83J",
            "city": "Jintur",
            "postal_code": "431509",
            "state": "Maharashtra",
            "country_code": "IN"
        },
        "images": [
            {
                "about": "All",
                "link": "https://lh5.googleusercontent.com/p/AF1QipPXJjIKjyVpce1pZOlUZuDUtlw842DQxZIjs68=w224-h496-k-no"
            }
        ],
        "link": "https://www.google.com/maps/place/Fatima+Masjid/data=!4m7!3m6!1s0x3bd06f1f34fb6fe3:0xf454af4b66c39f6d!8m2!3d19.6183257!4d76.6901426!16s%2Fg%2F11st7c_nlz!19sChIJ42_7NB9v0DsRbZ_DZkuvVPQ?authuser=0&hl=en&rclk=1",
        "coordinates": {
            "latitude": 19.6183257,
            "longitude": 76.6901426
        }
    },
    {
        "name": "Masjid-E-Noorani",
        "main_category": "Mosque",
        "address": "Shop No 1, Masjid-E-Noorani, Nurani Colony, Sai Shradhha Nagar, Jintur, Maharashtra 431509",
        "detailed_address": {
            "ward": "Sai Shradhha Nagar",
            "street": "Shop No 1, Nurani Colony",
            "city": "Jintur",
            "postal_code": "431509",
            "state": "Maharashtra",
            "country_code": "IN"
        },
        "images": [],
        "link": "https://www.google.com/maps/place/Masjid-E-Noorani/data=!4m7!3m6!1s0x3bd06f6da0d94ce1:0xd072e67637cfe414!8m2!3d19.6112742!4d76.684892!16s%2Fg%2F11tt631k_2!19sChIJ4UzZoG1v0DsRFOTPN3bmctA?authuser=0&hl=en&rclk=1",
        "coordinates": {
            "latitude": 19.6112742,
            "longitude": 76.68489199999999
        }
    },
    {
        "name": "MASJID - E - ABUZAR",
        "main_category": "Mosque",
        "address": "MASJID - E - ABUZAR, Abuzar Colony, near Vilasrao deshmukh urdu high school & junior CollegeJintur, Jintur, Maharashtra 431509",
        "detailed_address": {
            "ward": null,
            "street": "Abuzar Colony, near Vilasrao deshmukh urdu high school & junior CollegeJintur",
            "city": "Jintur",
            "postal_code": "431509",
            "state": "Maharashtra",
            "country_code": "IN"
        },
        "images": [
            {
                "about": "All",
                "link": "https://lh5.googleusercontent.com/p/AF1QipOTWdtoO38zT-xGeWbI8ctbmNKiXNDxokf9HzsX=w224-h398-k-no"
            },
            {
                "about": "Videos",
                "link": "https://lh5.googleusercontent.com/p/AF1QipOwUrdeo9Iq5wDiQyDcRQsbqvCHFOrvEna0hKi8=w224-h398-k-no"
            }
        ],
        "link": "https://www.google.com/maps/place/MASJID+-+E+-+ABUZAR/data=!4m7!3m6!1s0x3bd06ff777420545:0x7e3fc789393b97ff!8m2!3d19.6187227!4d76.6822207!16s%2Fg%2F11pqtlflvf!19sChIJRQVCd_dv0DsR_5c7OYnHP34?authuser=0&hl=en&rclk=1",
        "coordinates": {
            "latitude": 19.6187227,
            "longitude": 76.6822207
        }
    },
    {
        "name": "masjid E hilal",
        "main_category": "Mosque",
        "address": "JM9P+JH6 masjid E hilal, Jintur, Maharashtra 431509",
        "detailed_address": {
            "ward": null,
            "street": "JM9P+JH6",
            "city": "Jintur",
            "postal_code": "431509",
            "state": "Maharashtra",
            "country_code": "IN"
        },
        "images": [
            {
                "about": "All",
                "link": "https://lh5.googleusercontent.com/p/AF1QipNErHvAfyf_qITYOykmy3_8UWvrlDM-gMve4V1Q=w224-h298-k-no"
            },
            {
                "about": "Dome",
                "link": "https://lh5.googleusercontent.com/p/AF1QipNypS1bXKmH8rTo0gezDTbj6bdx2FTNuXn5BGlX=w224-h500-k-no"
            },
            {
                "about": "Street View & 360deg",
                "link": "https://streetviewpixels-pa.googleapis.com/v1/thumbnail?panoid=CHqn3t-ovfaB2vJpOXsH7A&cb_client=maps_sv.tactile.gps&w=224&h=298&yaw=236.32092&pitch=0&thumbfov=100"
            }
        ],
        "link": "https://www.google.com/maps/place/masjid+E+hilal/data=!4m7!3m6!1s0x3bd06f2f88a57561:0x88cbc6000e727abd!8m2!3d19.6190391!4d76.6864023!16s%2Fg%2F11v7115w3t!19sChIJYXWliC9v0DsRvXpyDgDGy4g?authuser=0&hl=en&rclk=1",
        "coordinates": {
            "latitude": 19.6190391,
            "longitude": 76.6864023
        }
    },
    {
        "name": "Masjid E Quresh",
        "main_category": "Mosque",
        "address": "JM8R+J7J Masjid E Quresh, Jintur, Maharashtra 431509",
        "detailed_address": {
            "ward": null,
            "street": "JM8R+J7J",
            "city": "Jintur",
            "postal_code": "431509",
            "state": "Maharashtra",
            "country_code": "IN"
        },
        "images": [],
        "link": "https://www.google.com/maps/place/Masjid+E+Quresh/data=!4m7!3m6!1s0x3bd06f5f75c12e15:0x35c9b7b39fd09b43!8m2!3d19.6165815!4d76.6906358!16s%2Fg%2F11s57kkpj6!19sChIJFS7BdV9v0DsRQ5vQn7O3yTU?authuser=0&hl=en&rclk=1",
        "coordinates": {
            "latitude": 19.6165815,
            "longitude": 76.6906358
        }
    },
    {
        "name": "HILAL MASJID",
        "main_category": "Mosque",
        "address": "JM5M+FRG HILAL MASJID, Sai Shradhha Nagar, Jintur, Maharashtra 431509",
        "detailed_address": {
            "ward": "Sai Shradhha Nagar",
            "street": "JM5M+FRG",
            "city": "Jintur",
            "postal_code": "431509",
            "state": "Maharashtra",
            "country_code": "IN"
        },
        "images": [],
        "link": "https://www.google.com/maps/place/HILAL+MASJID/data=!4m7!3m6!1s0x3bd06fdd5dfec707:0x1eb48ca5015f613!8m2!3d19.6086799!4d76.6845832!16s%2Fg%2F11kqt70p36!19sChIJB8f-Xd1v0DsRE_YVUMpI6wE?authuser=0&hl=en&rclk=1",
        "coordinates": {
            "latitude": 19.6086799,
            "longitude": 76.68458319999999
        }
    }
]