[
    {
        "name": "Jama Masjid, Naraini",
        "main_category": "Mosque",
        "address": "5FQF+FVG Jama Masjid, Naraini, Naraini, Uttar Pradesh 210129",
        "detailed_address": {
            "ward": null,
            "street": "5FQF+FVG",
            "city": "Naraini",
            "postal_code": "210129",
            "state": "Uttar Pradesh",
            "country_code": "IN"
        },
        "images": [
            {
                "about": "All",
                "link": "https://lh5.googleusercontent.com/p/AF1QipMrSw994Ir1GMuIiWUVTAGTyQNVFxUQ0yEJ9oB5=w397-h298-k-no"
            },
            {
                "about": "Videos",
                "link": "https://lh5.googleusercontent.com/p/AF1QipPxWk_jd-r3K9i7TEF7HTupi63YEq0nsppqqf4c=w224-h398-k-no"
            }
        ],
        "link": "https://www.google.com/maps/place/Jama+Masjid,+Naraini/data=!4m7!3m6!1s0x398348157a3712fd:0x789d6487eab8e398!8m2!3d25.188697!4d80.4747003!16s%2Fg%2F11c44kkmmr!19sChIJ_RI3ehVIgzkRmOO46odknXg?authuser=0&hl=en&rclk=1",
        "coordinates": {
            "latitude": 25.188696999999998,
            "longitude": 80.4747003
        }
    },
    {
        "name": "Jama Masjid, Naraini",
        "main_category": "Mosque",
        "address": "36HR+GJ3 Jama Masjid, Naraini, Narayani, Jharkhand 814154",
        "detailed_address": {
            "ward": null,
            "street": "36HR+GJ3",
            "city": "Narayani",
            "postal_code": "814154",
            "state": "Jharkhand",
            "country_code": "IN"
        },
        "images": [
            {
                "about": "All",
                "link": "https://lh5.googleusercontent.com/p/AF1QipNAQH20pPFfcd0g5CmtuuqEH6ksxKm3y1it8Mqx=w662-h298-k-no"
            }
        ],
        "link": "https://www.google.com/maps/place/Jama+Masjid,+Naraini/data=!4m7!3m6!1s0x39f069b006595023:0xef3323917331abff!8m2!3d25.0787633!4d87.241554!16s%2Fg%2F11gyxljgpn!19sChIJI1BZBrBp8DkR_6sxc5EjM-8?authuser=0&hl=en&rclk=1",
        "coordinates": {
            "latitude": 25.0787633,
            "longitude": 87.241554
        }
    },
    {
        "name": "Mosque",
        "main_category": "Mosque",
        "address": "Mosque, C-194, Industrial Area Phase I, Block C, Naraina Industrial Area Phase 1, Naraina, New Delhi, Delhi 110028",
        "detailed_address": {
            "ward": "Industrial Area Phase I, Block C, Naraina Industrial Area Phase 1, Naraina",
            "street": "C-194",
            "city": "New Delhi",
            "postal_code": "110028",
            "state": "Delhi",
            "country_code": "IN"
        },
        "images": [
            {
                "about": "All",
                "link": "https://lh5.googleusercontent.com/p/AF1QipN9ShIAX9AlGwKnHCimE9Ni69z2MQSUKkqP4tqP=w224-h398-k-no"
            },
            {
                "about": "Latest",
                "link": "https://lh5.googleusercontent.com/p/AF1QipNHb2A0jpvoOJYTyg32gDz-jBmmVaep80e7BWyJ=w224-h298-k-no"
            },
            {
                "about": "Videos",
                "link": "https://lh5.googleusercontent.com/p/AF1QipMzhHXUke8yUPhqf2GuJl6M8KFwCzptoR-ql2sD=w224-h398-k-no"
            }
        ],
        "link": "https://www.google.com/maps/place/Mosque/data=!4m7!3m6!1s0x390d03e44e562277:0xcc16aa56e8c113fd!8m2!3d28.6307669!4d77.137273!16s%2Fg%2F11gl13ryh3!19sChIJdyJWTuQDDTkR_RPB6FaqFsw?authuser=0&hl=en&rclk=1",
        "coordinates": {
            "latitude": 28.630766899999998,
            "longitude": 77.137273
        }
    },
    {
        "name": "Chunea Masjid",
        "main_category": "Mosque",
        "address": "M648+P7G Chunea Masjid, Qutab Rd, Narain Market, Sadar Bazaar, New Delhi, Delhi, 110006",
        "detailed_address": {
            "ward": "Narain Market, Sadar Bazaar",
            "street": "M648+P7G, Qutab Rd",
            "city": "New Delhi, Delhi",
            "postal_code": "110006",
            "state": "Delhi",
            "country_code": "IN"
        },
        "images": [
            {
                "about": "All",
                "link": "https://streetviewpixels-pa.googleapis.com/v1/thumbnail?panoid=MNY62dn03URLw7A0esPVPw&cb_client=maps_sv.tactile.gps&w=224&h=298&yaw=287.5121&pitch=0&thumbfov=100"
            },
            {
                "about": "Street View & 360deg",
                "link": "https://streetviewpixels-pa.googleapis.com/v1/thumbnail?panoid=MNY62dn03URLw7A0esPVPw&cb_client=maps_sv.tactile.gps&w=224&h=298&yaw=287.5121&pitch=0&thumbfov=100"
            }
        ],
        "link": "https://www.google.com/maps/place/Chunea+Masjid/data=!4m7!3m6!1s0x390cfd6d6f537365:0xcebe2432937bc7dd!8m2!3d28.6568022!4d77.2157157!16s%2Fg%2F1pp2tjj5g!19sChIJZXNTb239DDkR3cd7kzIkvs4?authuser=0&hl=en&rclk=1",
        "coordinates": {
            "latitude": 28.656802199999998,
            "longitude": 77.21571569999999
        }
    },
    {
        "name": "Noorani Masjid, Moh. Nambardaar",
        "main_category": "Mosque",
        "address": "VGC3+M9R Noorani Masjid, Moh. Nambardaar, Kazi Sarai Urf Kanker Sarai, Malli Khera Urf Shahbaj Pur, Uttar Pradesh 244221",
        "detailed_address": {
            "ward": null,
            "street": "VGC3+M9R",
            "city": "Kazi Sarai Urf Kanker Sarai, Malli Khera Urf Shahbaj Pur",
            "postal_code": "244221",
            "state": "Uttar Pradesh",
            "country_code": "IN"
        },
        "images": [
            {
                "about": "All",
                "link": "https://lh5.googleusercontent.com/p/AF1QipN73Q_8B5Eudqq8568SBdAk0XlfcyNeMatw2Omj=w397-h298-k-no"
            },
            {
                "about": "Latest",
                "link": "https://lh5.googleusercontent.com/p/AF1QipO4Co7_6x39ddwET9oLQz12hB19CLe0AOvmjvF8=w224-h298-k-no"
            },
            {
                "about": "Street View & 360deg",
                "link": "https://streetviewpixels-pa.googleapis.com/v1/thumbnail?panoid=_cGQek9mJxINpXexIG2nsQ&cb_client=maps_sv.tactile.gps&w=224&h=298&yaw=244.12553&pitch=0&thumbfov=100"
            }
        ],
        "link": "https://www.google.com/maps/place/Noorani+Masjid,+Moh.+Nambardaar/data=!4m7!3m6!1s0x390b064954720dc3:0x570791e4c8a62ed7!8m2!3d28.8717441!4d78.5033899!16s%2Fg%2F11gf5xfbnl!19sChIJww1yVEkGCzkR1y6myOSRB1c?authuser=0&hl=en&rclk=1",
        "coordinates": {
            "latitude": 28.871744099999997,
            "longitude": 78.5033899
        }
    },
    {
        "name": "Naraina Masjid",
        "main_category": "Mosque",
        "address": "JP3Q+M27 Naraina Masjid, Unnamed Road, Naraina, Uttar Pradesh 245101",
        "detailed_address": {
            "ward": null,
            "street": "JP3Q+M27, Unnamed Road",
            "city": "Naraina",
            "postal_code": "245101",
            "state": "Uttar Pradesh",
            "country_code": "IN"
        },
        "images": [
            {
                "about": "All",
                "link": "https://lh5.googleusercontent.com/p/AF1QipOX06TRIA5k8mLnasRppYQ2G1oe_ybaWspajFS1=w224-h449-k-no"
            },
            {
                "about": "Videos",
                "link": "https://lh5.googleusercontent.com/p/AF1QipN3IDDdXbmxshrOE80juanTHsbcrILBvBVHdWDd=w224-h398-k-no"
            }
        ],
        "link": "https://www.google.com/maps/place/Naraina+Masjid/data=!4m7!3m6!1s0x390c91837af3940d:0x2accec8f8a4fe0c9!8m2!3d28.6041532!4d77.7375462!16s%2Fg%2F11nn2g3y78!19sChIJDZTzeoORDDkRyeBPio_szCo?authuser=0&hl=en&rclk=1",
        "coordinates": {
            "latitude": 28.6041532,
            "longitude": 77.7375462
        }
    },
    {
        "name": "Noorani Musalla maktab e Islamia",
        "main_category": "Mosque",
        "address": "Noorani Musalla maktab e Islamia, C-16, Masjid Wali Gali, Bhim Nagar, sbj'ii mNddii, Nangloi, Delhi, 110087",
        "detailed_address": {
            "ward": "Bhim Nagar, sbj'ii mNddii, Nangloi",
            "street": "C-16, Masjid Wali Gali",
            "city": "Delhi",
            "postal_code": "110087",
            "state": "Delhi",
            "country_code": "IN"
        },
        "images": [
            {
                "about": "All",
                "link": "https://lh5.googleusercontent.com/p/AF1QipMwwiIgiak29ZuMBO5Ymw4AJ6CaEjf4npbMWbAU=w397-h298-k-no"
            },
            {
                "about": "By owner",
                "link": "https://lh5.googleusercontent.com/p/AF1QipN3xnnqrR-c_1IvVfZZWZuPft3RaWEbSx0iccv5=w224-h398-k-no"
            },
            {
                "about": "Videos",
                "link": "https://lh5.googleusercontent.com/p/AF1QipNXcLYgYpmEYokzbnv5PZct154cotp6X1_R4zNv=w224-h398-k-no"
            },
            {
                "about": "Street View & 360deg",
                "link": "https://streetviewpixels-pa.googleapis.com/v1/thumbnail?panoid=ysrxBo6U-Sr24MabrRasmg&cb_client=maps_sv.tactile.gps&w=224&h=298&yaw=55.017193&pitch=0&thumbfov=100"
            }
        ],
        "link": "https://www.google.com/maps/place/Noorani+Musalla+maktab+e+Islamia/data=!4m7!3m6!1s0x390d05807bd58cb7:0xf58bf525582d6006!8m2!3d28.6841403!4d77.0775018!16s%2Fg%2F11jzpgtm71!19sChIJt4zVe4AFDTkRBmAtWCX1i_U?authuser=0&hl=en&rclk=1",
        "coordinates": {
            "latitude": 28.6841403,
            "longitude": 77.0775018
        }
    },
    {
        "name": "Masjid",
        "main_category": "Mosque",
        "address": "M647+7CW Masjid, Narain Market, Sadar Bazaar, New Delhi, Delhi, 110006",
        "detailed_address": {
            "ward": "Narain Market, Sadar Bazaar",
            "street": "M647+7CW",
            "city": "New Delhi, Delhi",
            "postal_code": "110006",
            "state": "Delhi",
            "country_code": "IN"
        },
        "images": [],
        "link": "https://www.google.com/maps/place/Masjid/data=!4m7!3m6!1s0x390cfde8cbf21c77:0x8550d15998f1660d!8m2!3d28.6557316!4d77.2135821!16s%2Fg%2F11gx_wrsm_!19sChIJdxzyy-j9DDkRDWbxmFnRUIU?authuser=0&hl=en&rclk=1",
        "coordinates": {
            "latitude": 28.6557316,
            "longitude": 77.2135821
        }
    },
    {
        "name": "sunni raza jama masjid kartal rood naraini",
        "main_category": "Mosque",
        "address": "5FM9+5G2 sunni raza jama masjid kartal rood naraini, Naraini, Uttar Pradesh 210129",
        "detailed_address": {
            "ward": null,
            "street": "5FM9+5G2",
            "city": "Naraini",
            "postal_code": "210129",
            "state": "Uttar Pradesh",
            "country_code": "IN"
        },
        "images": [
            {
                "about": "All",
                "link": "https://streetviewpixels-pa.googleapis.com/v1/thumbnail?panoid=dnIrTgLofSTqRDFfyCAtvw&cb_client=maps_sv.tactile.gps&w=224&h=298&yaw=154.61565&pitch=0&thumbfov=100"
            },
            {
                "about": "Street View & 360deg",
                "link": "https://streetviewpixels-pa.googleapis.com/v1/thumbnail?panoid=dnIrTgLofSTqRDFfyCAtvw&cb_client=maps_sv.tactile.gps&w=224&h=298&yaw=154.61565&pitch=0&thumbfov=100"
            }
        ],
        "link": "https://www.google.com/maps/place/sunni+raza+jama+masjid+kartal+rood+naraini/data=!4m7!3m6!1s0x39834930c7942cc3:0x28092b1a09cfedee!8m2!3d25.1828723!4d80.4690822!16s%2Fg%2F11t9h6d_9c!19sChIJwyyUxzBJgzkR7u3PCRorCSg?authuser=0&hl=en&rclk=1",
        "coordinates": {
            "latitude": 25.1828723,
            "longitude": 80.4690822
        }
    },
    {
        "name": "Marina masjid kansera",
        "main_category": "Mosque",
        "address": "2H4Q+2X2 Marina masjid kansera, Kansera, Uttar Pradesh 202165",
        "detailed_address": {
            "ward": null,
            "street": "2H4Q+2X2",
            "city": "Kansera",
            "postal_code": "202165",
            "state": "Uttar Pradesh",
            "country_code": "IN"
        },
        "images": [
            {
                "about": "All",
                "link": "https://lh5.googleusercontent.com/p/AF1QipM3XfELLHm-wHpeBYVD6RVk-6TJJCroA2_yxAEs=w224-h398-k-no"
            },
            {
                "about": "Videos",
                "link": "https://lh5.googleusercontent.com/p/AF1QipPOxp50vngQxUw5xyO5-wGYe6uvfLUeYiNeBfJc=w224-h398-k-no"
            }
        ],
        "link": "https://www.google.com/maps/place/Marina+masjid+kansera/data=!4m7!3m6!1s0x3973490f0f5c80a3:0x26d3457c0d5632c5!8m2!3d28.0050203!4d77.5898851!16s%2Fg%2F11flgd369j!19sChIJo4BcDw9JczkRxTJWDXxF0yY?authuser=0&hl=en&rclk=1",
        "coordinates": {
            "latitude": 28.005020299999998,
            "longitude": 77.58988509999999
        }
    },
    {
        "name": "MASJID BURNA QURESH NAGAR",
        "main_category": "Mosque",
        "address": "MASJID BURNA QURESH NAGAR, Masjid, Gali Barna, Quresh Nagar, Naulakha, Sarai Khalil, Sadar Bazaar, Delhi, 110006",
        "detailed_address": {
            "ward": "Quresh Nagar, Naulakha, Sarai Khalil, Sadar Bazaar",
            "street": "Masjid, Gali Barna",
            "city": "Delhi",
            "postal_code": "110006",
            "state": "Delhi",
            "country_code": "IN"
        },
        "images": [],
        "link": "https://www.google.com/maps/place/MASJID+BURNA+QURESH+NAGAR/data=!4m7!3m6!1s0x390cfd3d778af761:0x1c8c55265cb97e56!8m2!3d28.6558265!4d77.2088988!16s%2Fg%2F11jz6fqf68!19sChIJYfeKdz39DDkRVn65XCZVjBw?authuser=0&hl=en&rclk=1",
        "coordinates": {
            "latitude": 28.6558265,
            "longitude": 77.2088988
        }
    },
    {
        "name": "New Masjid",
        "main_category": "Mosque",
        "address": "VX8Q+2GP New Masjid, Fatehpur, Fatehpur Narain, Uttar Pradesh 250104",
        "detailed_address": {
            "ward": null,
            "street": "VX8Q+2GP",
            "city": "Fatehpur, Fatehpur Narain",
            "postal_code": "250104",
            "state": "Uttar Pradesh",
            "country_code": "IN"
        },
        "images": [
            {
                "about": "All",
                "link": "https://streetviewpixels-pa.googleapis.com/v1/thumbnail?panoid=N21YWw6Dajvbi3XR2uGblA&cb_client=maps_sv.tactile.gps&w=224&h=298&yaw=43.55076&pitch=0&thumbfov=100"
            },
            {
                "about": "Street View & 360deg",
                "link": "https://streetviewpixels-pa.googleapis.com/v1/thumbnail?panoid=N21YWw6Dajvbi3XR2uGblA&cb_client=maps_sv.tactile.gps&w=224&h=298&yaw=43.55076&pitch=0&thumbfov=100"
            }
        ],
        "link": "https://www.google.com/maps/place/New+Masjid/data=!4m7!3m6!1s0x390b7f4882e697d7:0x57a461d9fed5a55b!8m2!3d28.8650829!4d77.9888276!16s%2Fg%2F11sr6rz4bv!19sChIJ15fmgkh_CzkRW6XV_tlhpFc?authuser=0&hl=en&rclk=1",
        "coordinates": {
            "latitude": 28.865082899999997,
            "longitude": 77.9888276
        }
    },
    {
        "name": "Jumma masjid",
        "main_category": "Farm",
        "address": "5FQF+455 Jumma masjid, Naraini, Uttar Pradesh 210129",
        "detailed_address": {
            "ward": null,
            "street": "5FQF+455",
            "city": "Naraini",
            "postal_code": null,
            "state": "Uttar Pradesh",
            "country_code": "IN"
        },
        "images": [],
        "link": "https://www.google.com/maps/place/Jumma+masjid/data=!4m7!3m6!1s0x398349da756791ad:0xc0af312183c4055e!8m2!3d25.1877535!4d80.4729768!16s%2Fg%2F11nmt5vc_j!19sChIJrZFnddpJgzkRXgXEgyExr8A?authuser=0&hl=en&rclk=1",
        "coordinates": {
            "latitude": 25.1877535,
            "longitude": 80.4729768
        }
    }
]