[
    {
        "name": "Jama Masjid",
        "main_category": "Mosque",
        "address": "MGGQ+F5Q Jama Masjid, Jama Masjid Rd, Mahalaxmiwada, Adilabad, Telangana 504001",
        "detailed_address": {
            "ward": "Mahalaxmiwada",
            "street": "MGGQ+F5Q, Jama Masjid Rd",
            "city": "Adilabad",
            "postal_code": "504001",
            "state": "Telangana",
            "country_code": "IN"
        },
        "images": [
            {
                "about": "All",
                "link": "https://lh5.googleusercontent.com/p/AF1QipNdTCCpjT4t2OBpBahpDVnWNKAVzB0u2qEZpKeP=w397-h298-k-no"
            },
            {
                "about": "Street View & 360deg",
                "link": "https://lh5.googleusercontent.com/p/AF1QipPo2PUhUk-_NBic66BHYz9HLRA1PuHJwnurxWHf=w224-h298-k-no-pi-20-ya349-ro-0-fo100"
            },
            {
                "about": "Videos",
                "link": "https://lh5.googleusercontent.com/p/AF1QipOuvlTWfYBRcdP6KLk4Jspx5n0H2HE1EEPHKZ33=w224-h398-k-no"
            }
        ],
        "link": "https://www.google.com/maps/place/Jama+Masjid/data=!4m7!3m6!1s0x3bd25c75f87e8a01:0x25a95ee1fbab37d0!8m2!3d19.6762137!4d78.5379985!16s%2Fg%2F1tlqnfwv!19sChIJAYp--HVc0jsR0Der--FeqSU?authuser=0&hl=en&rclk=1",
        "coordinates": {
            "latitude": 19.676213699999998,
            "longitude": 78.5379985
        }
    },
    {
        "name": "Gulzaar Masjid",
        "main_category": "Mosque",
        "address": "MGCR+66Q Gulzaar Masjid, Bokkalguda St, Brahmanwadi, Adilabad, Telangana 504001",
        "detailed_address": {
            "ward": "Brahmanwadi",
            "street": "MGCR+66Q, Bokkalguda St",
            "city": "Adilabad",
            "postal_code": "504001",
            "state": "Telangana",
            "country_code": "IN"
        },
        "images": [
            {
                "about": "All",
                "link": "https://lh5.googleusercontent.com/p/AF1QipPmV3_7b_4d4-yd3TDYdhSwh-dkAtQLbh-hwyA=w397-h298-k-no"
            },
            {
                "about": "Street View & 360deg",
                "link": "https://streetviewpixels-pa.googleapis.com/v1/thumbnail?panoid=Hjurfo0YTHMAMkuvVanxqg&cb_client=maps_sv.tactile.gps&w=224&h=298&yaw=359.00403&pitch=0&thumbfov=100"
            }
        ],
        "link": "https://www.google.com/maps/place/Gulzaar+Masjid/data=!4m7!3m6!1s0x3bd25c7477d00337:0x3dc61fe7489f62b1!8m2!3d19.6704596!4d78.5395986!16s%2Fg%2F1tcz6sjz!19sChIJNwPQd3Rc0jsRsWKfSOcfxj0?authuser=0&hl=en&rclk=1",
        "coordinates": {
            "latitude": 19.670459599999997,
            "longitude": 78.53959859999999
        }
    },
    {
        "name": "Masjid e Noor Khursheed Nagar",
        "main_category": "Mosque",
        "address": "Masjid e Noor Khursheed Nagar, khursheed Nagar, Adilabad, Telangana 504001",
        "detailed_address": {
            "ward": "khursheed Nagar",
            "street": null,
            "city": "Adilabad",
            "postal_code": null,
            "state": "Telangana",
            "country_code": "IN"
        },
        "images": [
            {
                "about": "All",
                "link": "https://lh5.googleusercontent.com/p/AF1QipPyoDMYqI3OO884Ocs9uk4CPjjRa0EOjJ6k8j-q=w397-h298-k-no"
            },
            {
                "about": "Street View & 360deg",
                "link": "https://streetviewpixels-pa.googleapis.com/v1/thumbnail?panoid=5fxzjQj1QLUlTBK5S_u0Kw&cb_client=maps_sv.tactile.gps&w=224&h=298&yaw=351.5925&pitch=0&thumbfov=100"
            },
            {
                "about": "Videos",
                "link": "https://lh5.googleusercontent.com/p/AF1QipMHV1tpT_iLVbFwCMg3JnsxtRwnGztyPSPSpHTQ=w224-h398-k-no"
            }
        ],
        "link": "https://www.google.com/maps/place/Masjid+e+Noor+Khursheed+Nagar/data=!4m7!3m6!1s0x3bd25b7f77891187:0xd64d9d2522c68201!8m2!3d19.6780656!4d78.5199255!16s%2Fg%2F1pp2x6dd1!19sChIJhxGJd39b0jsRAYLGIiWdTdY?authuser=0&hl=en&rclk=1",
        "coordinates": {
            "latitude": 19.6780656,
            "longitude": 78.5199255
        }
    },
    {
        "name": "MADEENA MASJID ECHODA",
        "main_category": "Mosque",
        "address": "CFG3+256 MADEENA MASJID ECHODA, Ichoda, Telangana 504307",
        "detailed_address": {
            "ward": null,
            "street": "CFG3+256",
            "city": "Ichoda",
            "postal_code": "504307",
            "state": "Telangana",
            "country_code": "IN"
        },
        "images": [
            {
                "about": "All",
                "link": "https://lh5.googleusercontent.com/p/AF1QipMaPMXKDMaXjBrt-CwRr0A-q1_GzqhYBUUgB-zr=w224-h398-k-no"
            },
            {
                "about": "Latest",
                "link": "https://lh5.googleusercontent.com/p/AF1QipMaPMXKDMaXjBrt-CwRr0A-q1_GzqhYBUUgB-zr=w224-h398-k-no"
            },
            {
                "about": "Street View & 360deg",
                "link": "https://streetviewpixels-pa.googleapis.com/v1/thumbnail?panoid=4SLl4VxlHGbx5vpHkVmUHg&cb_client=maps_sv.tactile.gps&w=224&h=298&yaw=147.98671&pitch=0&thumbfov=100"
            }
        ],
        "link": "https://www.google.com/maps/place/MADEENA+MASJID+ECHODA/data=!4m7!3m6!1s0x3bd26f98044820f1:0xb0592db733389086!8m2!3d19.42503!4d78.4529037!16s%2Fg%2F11c3tqr4t1!19sChIJ8SBIBJhv0jsRhpA4M7ctWbA?authuser=0&hl=en&rclk=1",
        "coordinates": {
            "latitude": 19.42503,
            "longitude": 78.4529037
        }
    },
    {
        "name": "Sailani Baba Darga",
        "main_category": "Mosque",
        "address": "9C7M+498 Sailani Baba Darga, Ghandari, Telangana 504307",
        "detailed_address": {
            "ward": null,
            "street": "9C7M+498",
            "city": "Ghandari",
            "postal_code": "504307",
            "state": "Telangana",
            "country_code": "IN"
        },
        "images": [
            {
                "about": "All",
                "link": "https://lh5.googleusercontent.com/p/AF1QipO3hFTOghF0nci8wYzWlVPNeN8wK5A1HHLL-VbY=w662-h298-k-no"
            }
        ],
        "link": "https://www.google.com/maps/place/Sailani+Baba+Darga/data=!4m7!3m6!1s0x3bd2704a4462bce5:0xaa2af9617addbce!8m2!3d19.362789!4d78.4334491!16s%2Fg%2F11c6tv5p6p!19sChIJ5bxiREpw0jsRztutF5avogo?authuser=0&hl=en&rclk=1",
        "coordinates": {
            "latitude": 19.362789,
            "longitude": 78.43344909999999
        }
    },
    {
        "name": "Eidgah",
        "main_category": "Mosque",
        "address": "JF73+FR Eidgah, Devpur, Telangana 504001",
        "detailed_address": {
            "ward": null,
            "street": "JF73+FR",
            "city": "Devpur",
            "postal_code": null,
            "state": "Telangana",
            "country_code": "IN"
        },
        "images": [],
        "link": "https://www.google.com/maps/place/Eidgah/data=!4m7!3m6!1s0x3bd243f012ca812f:0x1e400f615285656f!8m2!3d19.6136687!4d78.4545208!16s%2Fg%2F11pkbw1ydp!19sChIJL4HKEvBD0jsRb2WFUmEPQB4?authuser=0&hl=en&rclk=1",
        "coordinates": {
            "latitude": 19.613668699999998,
            "longitude": 78.4545208
        }
    },
    {
        "name": "Jama Masjid Bazar Hathnoor",
        "main_category": "Mosque",
        "address": "F952+7MR Jama Masjid Bazar Hathnoor, Bazarhatnoor, Telangana 504304",
        "detailed_address": {
            "ward": null,
            "street": "F952+7MR",
            "city": "Bazarhatnoor",
            "postal_code": "504304",
            "state": "Telangana",
            "country_code": "IN"
        },
        "images": [],
        "link": "https://www.google.com/maps/place/Jama+Masjid+Bazar+Hathnoor/data=!4m7!3m6!1s0x3bd26c68c7cf939b:0xc6ede85c8413c632!8m2!3d19.4582258!4d78.3516474!16s%2Fg%2F11gdqfb5kj!19sChIJm5PPx2hs0jsRMsYThFzo7cY?authuser=0&hl=en&rclk=1",
        "coordinates": {
            "latitude": 19.458225799999997,
            "longitude": 78.35164739999999
        }
    },
    {
        "name": "JAMA masjid Devapur",
        "main_category": "Mosque",
        "address": "JF65+PVQ JAMA masjid Devapur, Unnamed Road, Devpur, Telangana 504308",
        "detailed_address": {
            "ward": null,
            "street": "JF65+PVQ, Unnamed Road",
            "city": "Devpur",
            "postal_code": "504308",
            "state": "Telangana",
            "country_code": "IN"
        },
        "images": [
            {
                "about": "All",
                "link": "https://lh5.googleusercontent.com/p/AF1QipNEWODKk6vE1pQxrk7EsiDykL18YZhZ3tjAFqDh=w596-h298-k-no"
            }
        ],
        "link": "https://www.google.com/maps/place/JAMA+masjid+Devapur/data=!4m7!3m6!1s0x3bd24302f69b407f:0x99ca94e9fc151aa!8m2!3d19.6118457!4d78.4597213!16s%2Fg%2F11j2c2qfql!19sChIJf0Cb9gJD0jsRqlHBn06pnAk?authuser=0&hl=en&rclk=1",
        "coordinates": {
            "latitude": 19.6118457,
            "longitude": 78.4597213
        }
    },
    {
        "name": "Masjid -e- Dawathul Haq",
        "main_category": "Mosque",
        "address": "CFH2+G89 Masjid -e- Dawathul Haq, Ichoda Main Rd, Ichoda, Telangana 504307",
        "detailed_address": {
            "ward": null,
            "street": "CFH2+G89, Ichoda Main Rd",
            "city": "Ichoda",
            "postal_code": "504307",
            "state": "Telangana",
            "country_code": "IN"
        },
        "images": [
            {
                "about": "All",
                "link": "https://streetviewpixels-pa.googleapis.com/v1/thumbnail?panoid=TlJx0UgEp8ZpimzC7GcfQA&cb_client=maps_sv.tactile.gps&w=224&h=298&yaw=212.80678&pitch=0&thumbfov=100"
            },
            {
                "about": "Street View & 360deg",
                "link": "https://streetviewpixels-pa.googleapis.com/v1/thumbnail?panoid=TlJx0UgEp8ZpimzC7GcfQA&cb_client=maps_sv.tactile.gps&w=224&h=298&yaw=212.80678&pitch=0&thumbfov=100"
            }
        ],
        "link": "https://www.google.com/maps/place/Masjid+-e-+Dawathul+Haq/data=!4m7!3m6!1s0x3bd26fa240811f53:0x84ebb182ea5a35e4!8m2!3d19.4287993!4d78.4508528!16s%2Fg%2F11b75hw8dx!19sChIJUx-BQKJv0jsR5DVa6oKx64Q?authuser=0&hl=en&rclk=1",
        "coordinates": {
            "latitude": 19.428799299999998,
            "longitude": 78.45085279999999
        }
    },
    {
        "name": "Makka Masjid",
        "main_category": "Mosque",
        "address": "CFG3+QPG Makka Masjid, Ichoda, Telangana 504307",
        "detailed_address": {
            "ward": null,
            "street": "CFG3+QPG",
            "city": "Ichoda",
            "postal_code": "504307",
            "state": "Telangana",
            "country_code": "IN"
        },
        "images": [
            {
                "about": "All",
                "link": "https://lh5.googleusercontent.com/p/AF1QipMbXDp4an-5Ck3M1LeVWRN4IXm4KdVBr-_B4B5B=w397-h298-k-no"
            },
            {
                "about": "Street View & 360deg",
                "link": "https://streetviewpixels-pa.googleapis.com/v1/thumbnail?panoid=0CeQHIkPttv4CoiA8RxDrA&cb_client=maps_sv.tactile.gps&w=224&h=298&yaw=52.33259&pitch=0&thumbfov=100"
            }
        ],
        "link": "https://www.google.com/maps/place/Makka+Masjid/data=!4m7!3m6!1s0x3bd26f985b7ba91f:0xff30f7087fea8336!8m2!3d19.4269309!4d78.4543422!16s%2Fg%2F11fxx3q066!19sChIJH6l7W5hv0jsRNoPqfwj3MP8?authuser=0&hl=en&rclk=1",
        "coordinates": {
            "latitude": 19.4269309,
            "longitude": 78.4543422
        }
    },
    {
        "name": "JAMIA MASJID SWARNA",
        "main_category": "Mosque",
        "address": "66W7+547 JAMIA MASJID SWARNA, Swarna, Ponkur, Telangana 504323",
        "detailed_address": {
            "ward": null,
            "street": "66W7+547",
            "city": "Swarna, Ponkur",
            "postal_code": "504323",
            "state": "Telangana",
            "country_code": "IN"
        },
        "images": [],
        "link": "https://www.google.com/maps/place/JAMIA+MASJID+SWARNA/data=!4m7!3m6!1s0x3bd20b6c6efd2209:0x46d6150156f25bd5!8m2!3d19.2454192!4d78.2127894!16s%2Fg%2F11f5t_lvnx!19sChIJCSL9bmwL0jsR1VvyVgEV1kY?authuser=0&hl=en&rclk=1",
        "coordinates": {
            "latitude": 19.2454192,
            "longitude": 78.21278939999999
        }
    },
    {
        "name": "JAMMA-E-MASJID",
        "main_category": "Mosque",
        "address": "7CX4+86J JAMMA-E-MASJID, Neradigonda 2, Telangana 504323",
        "detailed_address": {
            "ward": null,
            "street": "7CX4+86J",
            "city": "Neradigonda 2",
            "postal_code": "504323",
            "state": "Telangana",
            "country_code": "IN"
        },
        "images": [
            {
                "about": "All",
                "link": "https://streetviewpixels-pa.googleapis.com/v1/thumbnail?panoid=0K7VXaVStnwlxCK78AQ-jA&cb_client=maps_sv.tactile.gps&w=224&h=298&yaw=260.8777&pitch=0&thumbfov=100"
            },
            {
                "about": "Street View & 360deg",
                "link": "https://streetviewpixels-pa.googleapis.com/v1/thumbnail?panoid=0K7VXaVStnwlxCK78AQ-jA&cb_client=maps_sv.tactile.gps&w=224&h=298&yaw=260.8777&pitch=0&thumbfov=100"
            }
        ],
        "link": "https://www.google.com/maps/place/JAMMA-E-MASJID/data=!4m7!3m6!1s0x3bd2714a1f9ceb83:0xaeacfbdd07ea5319!8m2!3d19.2983415!4d78.4055211!16s%2Fg%2F11c2nkk_c_!19sChIJg-ucH0px0jsRGVPqB937rK4?authuser=0&hl=en&rclk=1",
        "coordinates": {
            "latitude": 19.2983415,
            "longitude": 78.4055211
        }
    },
    {
        "name": "EIDGAH JAMA MASJID SWARNA",
        "main_category": "Mosque",
        "address": "EIDGAH JAMA MASJID SWARNA, Sarangapur Mandal, Ponkur, Telangana 504323",
        "detailed_address": {
            "ward": null,
            "street": "Sarangapur Mandal",
            "city": "Ponkur",
            "postal_code": "504323",
            "state": "Telangana",
            "country_code": "IN"
        },
        "images": [],
        "link": "https://www.google.com/maps/place/EIDGAH+JAMA+MASJID+SWARNA/data=!4m7!3m6!1s0x3bd20bc4554a1a21:0x8dd0f4fa4f16d3e4!8m2!3d19.2482263!4d78.2163682!16s%2Fg%2F11fy_5_fhk!19sChIJIRpKVcQL0jsR5NMWT_r00I0?authuser=0&hl=en&rclk=1",
        "coordinates": {
            "latitude": 19.2482263,
            "longitude": 78.21636819999999
        }
    },
    {
        "name": "Masjid E Umar Farooq",
        "main_category": "Mosque",
        "address": "CFG3+GFW Masjid E Umar Farooq, Ichoda, Telangana 504307",
        "detailed_address": {
            "ward": null,
            "street": "CFG3+GFW",
            "city": "Ichoda",
            "postal_code": "504307",
            "state": "Telangana",
            "country_code": "IN"
        },
        "images": [
            {
                "about": "All",
                "link": "https://streetviewpixels-pa.googleapis.com/v1/thumbnail?panoid=pvhLvJh4lJ2Ptton9FogZg&cb_client=maps_sv.tactile.gps&w=224&h=298&yaw=230.99861&pitch=0&thumbfov=100"
            },
            {
                "about": "Street View & 360deg",
                "link": "https://streetviewpixels-pa.googleapis.com/v1/thumbnail?panoid=pvhLvJh4lJ2Ptton9FogZg&cb_client=maps_sv.tactile.gps&w=224&h=298&yaw=230.99861&pitch=0&thumbfov=100"
            }
        ],
        "link": "https://www.google.com/maps/place/Masjid+E+Umar+Farooq/data=!4m7!3m6!1s0x3bd26f986a32f5f1:0xa79367774c71be95!8m2!3d19.4263502!4d78.4537135!16s%2Fg%2F11f03zm31b!19sChIJ8fUyaphv0jsRlb5xTHdnk6c?authuser=0&hl=en&rclk=1",
        "coordinates": {
            "latitude": 19.426350199999998,
            "longitude": 78.45371349999999
        }
    },
    {
        "name": "Jama masjid",
        "main_category": "Mosque",
        "address": "CFH3+8WC Jama masjid, Ichoda, Telangana 504307",
        "detailed_address": {
            "ward": null,
            "street": "CFH3+8WC",
            "city": "Ichoda",
            "postal_code": "504307",
            "state": "Telangana",
            "country_code": "IN"
        },
        "images": [
            {
                "about": "All",
                "link": "https://lh5.googleusercontent.com/p/AF1QipPwixJGN6XaZGjGCl9QfIMgJo5pjuEhrxNHkxPN=w529-h298-k-no"
            }
        ],
        "link": "https://www.google.com/maps/place/Jama+masjid/data=!4m7!3m6!1s0x3bd26fcb3b2536e3:0x24b38adada85879e!8m2!3d19.4283175!4d78.454781!16s%2Fg%2F11ppybzh_0!19sChIJ4zYlO8tv0jsRnoeF2tqKsyQ?authuser=0&hl=en&rclk=1",
        "coordinates": {
            "latitude": 19.4283175,
            "longitude": 78.454781
        }
    },
    {
        "name": "Masjid Talamadugu",
        "main_category": "Mosque",
        "address": "J9RR+JXQ Masjid Talamadugu, Beside Kosai-Umri Road, Gandhi Chowk Talamadugu, Talamadugu, Telangana 504312",
        "detailed_address": {
            "ward": null,
            "street": "J9RR+JXQ, Beside Kosai-Umri Road, Gandhi Chowk Talamadugu",
            "city": "Talamadugu",
            "postal_code": "504312",
            "state": "Telangana",
            "country_code": "IN"
        },
        "images": [
            {
                "about": "All",
                "link": "https://lh5.googleusercontent.com/p/AF1QipOTcBq7IgxC7geAZSfKNzSgmN482cDR92_sVUL6=w397-h298-k-no"
            }
        ],
        "link": "https://www.google.com/maps/place/Masjid+Talamadugu/data=!4m7!3m6!1s0x3bd243dda122044d:0x297cde2c0be87a46!8m2!3d19.6415875!4d78.3924899!16s%2Fg%2F11b6wd4j7z!19sChIJTQQiod1D0jsRRnroCyzefCk?authuser=0&hl=en&rclk=1",
        "coordinates": {
            "latitude": 19.6415875,
            "longitude": 78.3924899
        }
    },
    {
        "name": "masjid maryam",
        "main_category": "Mosque",
        "address": "8C23+XWH masjid maryam, Neradigonda 2, Telangana 504323",
        "detailed_address": {
            "ward": null,
            "street": "8C23+XWH",
            "city": "Neradigonda 2",
            "postal_code": "504323",
            "state": "Telangana",
            "country_code": "IN"
        },
        "images": [],
        "link": "https://www.google.com/maps/place/masjid+maryam/data=!4m7!3m6!1s0x3bd27148448e1f3b:0x3791c6c4bb7c37e7!8m2!3d19.3024304!4d78.404857!16s%2Fg%2F11c5rmjfg4!19sChIJOx-OREhx0jsR5zd8u8TGkTc?authuser=0&hl=en&rclk=1",
        "coordinates": {
            "latitude": 19.3024304,
            "longitude": 78.40485699999999
        }
    },
    {
        "name": "Mahimba Drgah",
        "main_category": "Mosque",
        "address": "C3C9+5CM Mahimba Drgah, SH-230, Ritha, Maharashtra 431803",
        "detailed_address": {
            "ward": null,
            "street": "C3C9+5CM, SH-230",
            "city": "Ritha",
            "postal_code": null,
            "state": "Maharashtra",
            "country_code": "IN"
        },
        "images": [
            {
                "about": "All",
                "link": "https://lh5.googleusercontent.com/p/AF1QipPVftp4KRL__XHRt5WJQ9DBuiWuR8FrmKHsB4OF=w529-h298-k-no"
            },
            {
                "about": "Latest",
                "link": "https://lh5.googleusercontent.com/p/AF1QipPEFRbhxpHAT2luC195CQbwOguOapmltShYspir=w224-h398-k-no"
            },
            {
                "about": "Videos",
                "link": "https://lh5.googleusercontent.com/p/AF1QipPEFRbhxpHAT2luC195CQbwOguOapmltShYspir=w224-h398-k-no"
            }
        ],
        "link": "https://www.google.com/maps/place/Mahimba+Drgah/data=!4m7!3m6!1s0x3bd21b0316765077:0xefe33c5c199d737d!8m2!3d19.420463!4d78.0685409!16s%2Fg%2F11rfqp99rk!19sChIJd1B2FgMb0jsRfXOdGVw84-8?authuser=0&hl=en&rclk=1",
        "coordinates": {
            "latitude": 19.420462999999998,
            "longitude": 78.0685409
        }
    },
    {
        "name": "JAMA MASJID",
        "main_category": "Mosque",
        "address": "9829+4GF JAMA MASJID, Boath Buzurg, Telangana 504304",
        "detailed_address": {
            "ward": null,
            "street": "9829+4GF",
            "city": "Boath Buzurg",
            "postal_code": "504304",
            "state": "Telangana",
            "country_code": "IN"
        },
        "images": [
            {
                "about": "All",
                "link": "https://lh5.googleusercontent.com/p/AF1QipOMyYwCT_py64TUYE8118nl1Ch8zhvgA1OvLcN8=w224-h298-k-no"
            }
        ],
        "link": "https://www.google.com/maps/place/JAMA+MASJID/data=!4m7!3m6!1s0x3bd272e975f77229:0x9b59ab055d5647d2!8m2!3d19.3503023!4d78.3188004!16s%2Fg%2F11fy9g9qym!19sChIJKXL3dely0jsR0kdWXQWrWZs?authuser=0&hl=en&rclk=1",
        "coordinates": {
            "latitude": 19.3503023,
            "longitude": 78.3188004
        }
    },
    {
        "name": "Masjid e Abubakar Siddiqe Rz (Ahle Hadees)",
        "main_category": "Mosque",
        "address": "66W7+CXQ Masjid e Abubakar Siddiqe Rz (Ahle Hadees), Swarna, Ponkur, Telangana 504323",
        "detailed_address": {
            "ward": null,
            "street": "66W7+CXQ",
            "city": "Swarna, Ponkur",
            "postal_code": "504323",
            "state": "Telangana",
            "country_code": "IN"
        },
        "images": [
            {
                "about": "All",
                "link": "https://lh5.googleusercontent.com/p/AF1QipPQk2lRWhe8emaAQZUGGILpspwux0r2nLNHcQzZ=w529-h298-k-no"
            }
        ],
        "link": "https://www.google.com/maps/place/Masjid+e+Abubakar+Siddiqe+Rz+%28Ahle+Hadees%29/data=!4m7!3m6!1s0x3bd20b47175f92cd:0xcb2bb92ffbba3442!8m2!3d19.2460903!4d78.2149797!16s%2Fg%2F11s0xl6zg7!19sChIJzZJfF0cL0jsRQjS6-y-5K8s?authuser=0&hl=en&rclk=1",
        "coordinates": {
            "latitude": 19.2460903,
            "longitude": 78.2149797
        }
    },
    {
        "name": "Jama Masjid Pardi B",
        "main_category": "Mosque",
        "address": "6XVR+PJM Jama Masjid Pardi B, Pardi busirg Mandal kubeer District nirmal, Pardi Buzurg, Telangana 504103",
        "detailed_address": {
            "ward": null,
            "street": "6XVR+PJM, Pardi busirg Mandal kubeer District nirmal",
            "city": "Pardi Buzurg",
            "postal_code": "504103",
            "state": "Telangana",
            "country_code": "IN"
        },
        "images": [
            {
                "about": "All",
                "link": "https://lh5.googleusercontent.com/p/AF1QipPJ3qccJ-QXe5TW3JkRrj0kNvwcZXMGBunX_LqE=w224-h298-k-no"
            }
        ],
        "link": "https://www.google.com/maps/place/Jama+Masjid+Pardi+B/data=!4m7!3m6!1s0x3bd201e0084b5091:0x17b1e1fad65c2105!8m2!3d19.2443343!4d77.9915575!16s%2Fg%2F11jcjmtwwt!19sChIJkVBLCOAB0jsRBSFc1vrhsRc?authuser=0&hl=en&rclk=1",
        "coordinates": {
            "latitude": 19.2443343,
            "longitude": 77.9915575
        }
    },
    {
        "name": "Jama masjid",
        "main_category": "Mosque",
        "address": "MC8G+7J9 Jama masjid, Unnamed Road, Umadam, Telangana 504001",
        "detailed_address": {
            "ward": null,
            "street": "MC8G+7J9, Unnamed Road",
            "city": "Umadam",
            "postal_code": "504001",
            "state": "Telangana",
            "country_code": "IN"
        },
        "images": [
            {
                "about": "All",
                "link": "https://lh5.googleusercontent.com/p/AF1QipNNVZp0BT2OgsEmUBymSOFvO7piNv0yOCxzbflr=w529-h298-k-no"
            }
        ],
        "link": "https://www.google.com/maps/place/Jama+masjid/data=!4m7!3m6!1s0x3bd2438922bc7361:0x90f6ce9e5e66ddca!8m2!3d19.6656543!4d78.426601!16s%2Fg%2F11qsvy6d57!19sChIJYXO8IolD0jsRyt1mXp7O9pA?authuser=0&hl=en&rclk=1",
        "coordinates": {
            "latitude": 19.6656543,
            "longitude": 78.42660099999999
        }
    },
    {
        "name": "Jama masjid",
        "main_category": "Mosque",
        "address": "Jama masjid, Mahendher fertiliser, Ola, Telangana 504109",
        "detailed_address": {
            "ward": null,
            "street": "Mahendher fertiliser",
            "city": "Ola",
            "postal_code": "504109",
            "state": "Telangana",
            "country_code": "IN"
        },
        "images": [
            {
                "about": "All",
                "link": "https://lh5.googleusercontent.com/p/AF1QipNtbaCXVv1Oz3MKcnN6tBOIH0Vui1TGVQGRE7yQ=w224-h497-k-no"
            }
        ],
        "link": "https://www.google.com/maps/place/Jama+masjid/data=!4m7!3m6!1s0x3bd207e78142f0d5:0xfe16d5ecc5fee1da!8m2!3d19.1802439!4d78.0713271!16s%2Fg%2F11fv3lytz1!19sChIJ1fBCgecH0jsR2uH-xezVFv4?authuser=0&hl=en&rclk=1",
        "coordinates": {
            "latitude": 19.1802439,
            "longitude": 78.07132709999999
        }
    },
    {
        "name": "Jama MaSjid",
        "main_category": "Mosque",
        "address": "69HV+CH5 Jama MaSjid, Bondemregod, Telangana 504323",
        "detailed_address": {
            "ward": null,
            "street": "69HV+CH5",
            "city": "Bondemregod",
            "postal_code": "504323",
            "state": "Telangana",
            "country_code": "IN"
        },
        "images": [
            {
                "about": "All",
                "link": "https://streetviewpixels-pa.googleapis.com/v1/thumbnail?panoid=5IDFwXyZAkOKMUPWYx9Trg&cb_client=maps_sv.tactile.gps&w=224&h=298&yaw=237.50278&pitch=0&thumbfov=100"
            },
            {
                "about": "Street View & 360deg",
                "link": "https://streetviewpixels-pa.googleapis.com/v1/thumbnail?panoid=5IDFwXyZAkOKMUPWYx9Trg&cb_client=maps_sv.tactile.gps&w=224&h=298&yaw=237.50278&pitch=0&thumbfov=100"
            }
        ],
        "link": "https://www.google.com/maps/place/Jama+MaSjid/data=!4m7!3m6!1s0x3bd2767193830f55:0xb6bc8cfd60a42707!8m2!3d19.2285041!4d78.393985!16s%2Fg%2F11gf071m2m!19sChIJVQ-Dk3F20jsRByekYP2MvLY?authuser=0&hl=en&rclk=1",
        "coordinates": {
            "latitude": 19.2285041,
            "longitude": 78.393985
        }
    },
    {
        "name": "Jama Masjid Pardi B",
        "main_category": "Mosque",
        "address": "6XCW+6F9 Jama Masjid Pardi B, Pardi Buzurg, Telangana 504103",
        "detailed_address": {
            "ward": null,
            "street": "6XCW+6F9",
            "city": "Pardi Buzurg",
            "postal_code": null,
            "state": "Telangana",
            "country_code": "IN"
        },
        "images": [],
        "link": "https://www.google.com/maps/place/Jama+Masjid+Pardi+B/data=!4m7!3m6!1s0x3bd20148945ee801:0xd11637936393bbec!8m2!3d19.2205263!4d77.9962228!16s%2Fg%2F11fthgbfmp!19sChIJAehelEgB0jsR7LuTY5M3FtE?authuser=0&hl=en&rclk=1",
        "coordinates": {
            "latitude": 19.2205263,
            "longitude": 77.9962228
        }
    },
    {
        "name": "Masjid Waddadi",
        "main_category": "Mosque",
        "address": "MFQ2+97H Masjid Waddadi, Waddadi, Telangana 504312",
        "detailed_address": {
            "ward": null,
            "street": "MFQ2+97H",
            "city": "Waddadi",
            "postal_code": "504312",
            "state": "Telangana",
            "country_code": "IN"
        },
        "images": [],
        "link": "https://www.google.com/maps/place/Masjid+Waddadi/data=!4m7!3m6!1s0x3bd24570a42893d9:0xa7a2fcdf69505a5c!8m2!3d19.6884309!4d78.4507428!16s%2Fg%2F11fk0ptcc4!19sChIJ2ZMopHBF0jsRXFpQad_8oqc?authuser=0&hl=en&rclk=1",
        "coordinates": {
            "latitude": 19.6884309,
            "longitude": 78.4507428
        }
    },
    {
        "name": "Masjid",
        "main_category": "Mosque",
        "address": "99C5+Q23 Masjid, Unnamed Road, Kouta, Telangana 504304",
        "detailed_address": {
            "ward": null,
            "street": "99C5+Q23, Unnamed Road",
            "city": "Kouta",
            "postal_code": "504304",
            "state": "Telangana",
            "country_code": "IN"
        },
        "images": [
            {
                "about": "All",
                "link": "https://lh5.googleusercontent.com/p/AF1QipPaWWNNj7mw3JWm3BOCjVqNaAKc4vaTmfEl6Nnt=w224-h497-k-no"
            },
            {
                "about": "Videos",
                "link": "https://lh5.googleusercontent.com/p/AF1QipOLHOGqND_x-SEzKVG_SPhg0rumrajWzQqSsBuD=w224-h398-k-no"
            }
        ],
        "link": "https://www.google.com/maps/place/Masjid/data=!4m7!3m6!1s0x3bd273b7fe3f089d:0x6f89811a9f3116dc!8m2!3d19.3718832!4d78.3575559!16s%2Fg%2F11rclc79ch!19sChIJnQg__rdz0jsR3BYxnxqBiW8?authuser=0&hl=en&rclk=1",
        "coordinates": {
            "latitude": 19.3718832,
            "longitude": 78.3575559
        }
    },
    {
        "name": "Jama masjid",
        "main_category": "Mosque",
        "address": "9C9X+FR5 Jama masjid, Mukhra-B, Telangana 504307",
        "detailed_address": {
            "ward": null,
            "street": "9C9X+FR5",
            "city": "Mukhra-B",
            "postal_code": "504307",
            "state": "Telangana",
            "country_code": "IN"
        },
        "images": [
            {
                "about": "All",
                "link": "https://lh5.googleusercontent.com/p/AF1QipPdk6DLZacTN24R5V0MWWPyikO_-g5eCf0KiQzb=w529-h298-k-no"
            }
        ],
        "link": "https://www.google.com/maps/place/Jama+masjid/data=!4m7!3m6!1s0x3bd271baede69955:0x5d9ae47fedd0e556!8m2!3d19.3686472!4d78.4496168!16s%2Fg%2F11qb3ykyy3!19sChIJVZnm7bpx0jsRVuXQ7X_kml0?authuser=0&hl=en&rclk=1",
        "coordinates": {
            "latitude": 19.368647199999998,
            "longitude": 78.4496168
        }
    },
    {
        "name": "Home",
        "main_category": "Religious destination",
        "address": "9829+7JQ Home, Boath Buzurg, Telangana 504304",
        "detailed_address": {
            "ward": null,
            "street": "9829+7JQ",
            "city": "Boath Buzurg",
            "postal_code": "504304",
            "state": "Telangana",
            "country_code": "IN"
        },
        "images": [],
        "link": "https://www.google.com/maps/place/Home/data=!4m7!3m6!1s0x3bd2738770ded4a9:0x530d75df28414420!8m2!3d19.3507076!4d78.3191043!16s%2Fg%2F11t1b99gty!19sChIJqdTecIdz0jsRIERBKN91DVM?authuser=0&hl=en&rclk=1",
        "coordinates": {
            "latitude": 19.3507076,
            "longitude": 78.31910429999999
        }
    },
    {
        "name": "Eidgah",
        "main_category": "Mosque",
        "address": "8C44+42J Eidgah, Neradigonda 2, Telangana 504323",
        "detailed_address": {
            "ward": null,
            "street": "8C44+42J",
            "city": "Neradigonda 2",
            "postal_code": null,
            "state": "Telangana",
            "country_code": "IN"
        },
        "images": [],
        "link": "https://www.google.com/maps/place/Eidgah/data=!4m7!3m6!1s0x3bd2711f57b8bb4f:0x6f2bb5fd75de974c!8m2!3d19.3053472!4d78.4050139!16s%2Fg%2F11jnpjl672!19sChIJT7u4Vx9x0jsRTJfedf21K28?authuser=0&hl=en&rclk=1",
        "coordinates": {
            "latitude": 19.3053472,
            "longitude": 78.4050139
        }
    },
    {
        "name": "Masjid-e-ubaidullah",
        "main_category": "Mosque",
        "address": "6763+MPH Masjid-e-ubaidullah, Sarangpur, Telangana 504110",
        "detailed_address": {
            "ward": null,
            "street": "6763+MPH",
            "city": "Sarangpur",
            "postal_code": null,
            "state": "Telangana",
            "country_code": "IN"
        },
        "images": [],
        "link": "https://www.google.com/maps/place/Masjid-e-ubaidullah/data=!4m7!3m6!1s0x3bd20b252120dd91:0x7c73203f3c9c251a!8m2!3d19.2116901!4d78.2543469!16s%2Fg%2F11t9pbrlmq!19sChIJkd0gISUL0jsRGiWcPD8gc3w?authuser=0&hl=en&rclk=1",
        "coordinates": {
            "latitude": 19.2116901,
            "longitude": 78.2543469
        }
    },
    {
        "name": "MASJIDE MUSTAFA",
        "main_category": "Mosque",
        "address": "7W6R+5RH MASJIDE MUSTAFA, Kubeer, Telangana 504103",
        "detailed_address": {
            "ward": null,
            "street": "7W6R+5RH",
            "city": "Kubeer",
            "postal_code": "504103",
            "state": "Telangana",
            "country_code": "IN"
        },
        "images": [
            {
                "about": "All",
                "link": "https://lh5.googleusercontent.com/p/AF1QipNwZnAjdozosqiOu_dwTdtxnrM30gTYdey2Lx0Z=w529-h298-k-no"
            }
        ],
        "link": "https://www.google.com/maps/place/MASJIDE+MUSTAFA/data=!4m7!3m6!1s0x3bd201ed686f678f:0x7633282881e75a49!8m2!3d19.2604289!4d77.942096!16s%2Fg%2F11ftvbkbd3!19sChIJj2dvaO0B0jsRSVrngSgoM3Y?authuser=0&hl=en&rclk=1",
        "coordinates": {
            "latitude": 19.2604289,
            "longitude": 77.94209599999999
        }
    },
    {
        "name": "MASJID-E-MUNEER",
        "main_category": "Mosque",
        "address": "PFWC+945 MASJID-E-MUNEER, Unnamed Road, Pippalkhoti, Telangana 504312",
        "detailed_address": {
            "ward": null,
            "street": "PFWC+945, Unnamed Road",
            "city": "Pippalkhoti",
            "postal_code": "504312",
            "state": "Telangana",
            "country_code": "IN"
        },
        "images": [],
        "link": "https://www.google.com/maps/place/MASJID-E-MUNEER/data=!4m7!3m6!1s0x3bd2450b9ff3cfbd:0x97b7ef8dfe5f1003!8m2!3d19.7458914!4d78.4703567!16s%2Fg%2F11ndxwjpl6!19sChIJvc_znwtF0jsRAxBf_o3vt5c?authuser=0&hl=en&rclk=1",
        "coordinates": {
            "latitude": 19.745891399999998,
            "longitude": 78.4703567
        }
    },
    {
        "name": "Jamamasjid",
        "main_category": "Mosque",
        "address": "7W6V+HF4 Jamamasjid, Main Road, Kubeer, Telangana 504103",
        "detailed_address": {
            "ward": null,
            "street": "7W6V+HF4, Main Road",
            "city": "Kubeer",
            "postal_code": "504103",
            "state": "Telangana",
            "country_code": "IN"
        },
        "images": [],
        "link": "https://www.google.com/maps/place/Jamamasjid/data=!4m7!3m6!1s0x3bd201f63f663507:0xcf27423fc86287f2!8m2!3d19.2613867!4d77.943711!16s%2Fg%2F11hd6y_1v0!19sChIJBzVmP_YB0jsR8odiyD9CJ88?authuser=0&hl=en&rclk=1",
        "coordinates": {
            "latitude": 19.2613867,
            "longitude": 77.943711
        }
    },
    {
        "name": "Mosjid",
        "main_category": "Mosque",
        "address": "57VH+C32 Mosjid, Jam, Telangana 504110",
        "detailed_address": {
            "ward": null,
            "street": "57VH+C32",
            "city": "Jam",
            "postal_code": "504110",
            "state": "Telangana",
            "country_code": "IN"
        },
        "images": [],
        "link": "https://www.google.com/maps/place/Mosjid/data=!4m7!3m6!1s0x3bd20aa71fb74d15:0xcc40be7cde396639!8m2!3d19.1935185!4d78.2776496!16s%2Fg%2F1261h6240!19sChIJFU23H6cK0jsROWY53ny-QMw?authuser=0&hl=en&rclk=1",
        "coordinates": {
            "latitude": 19.1935185,
            "longitude": 78.27764959999999
        }
    },
    {
        "name": "MASJID",
        "main_category": "Mosque",
        "address": "88VH+QXG MASJID, Boath Buzurg, Telangana 504304",
        "detailed_address": {
            "ward": null,
            "street": "88VH+QXG",
            "city": "Boath Buzurg",
            "postal_code": "504304",
            "state": "Telangana",
            "country_code": "IN"
        },
        "images": [],
        "link": "https://www.google.com/maps/place/MASJID/data=!4m7!3m6!1s0x3bd273a5ccb6c791:0xf37853e1363ccaa0!8m2!3d19.344726!4d78.330825!16s%2Fg%2F11snwzzbc5!19sChIJkce2zKVz0jsRoMo8NuFTePM?authuser=0&hl=en&rclk=1",
        "coordinates": {
            "latitude": 19.344725999999998,
            "longitude": 78.33082499999999
        }
    },
    {
        "name": "Gulzar masjid",
        "main_category": "Mosque",
        "address": "88W7+PVX Gulzar masjid, beside Gulzaar Masjid, Boath Buzurg, Telangana 504304",
        "detailed_address": {
            "ward": null,
            "street": "88W7+PVX, beside Gulzaar Masjid",
            "city": "Boath Buzurg",
            "postal_code": "504304",
            "state": "Telangana",
            "country_code": "IN"
        },
        "images": [],
        "link": "https://www.google.com/maps/place/Gulzar+masjid/data=!4m7!3m6!1s0x3bd27302c48930b5:0xd6f8a49697d95467!8m2!3d19.3468045!4d78.3147885!16s%2Fg%2F11s8y5s4b7!19sChIJtTCJxAJz0jsRZ1TZl5ak-NY?authuser=0&hl=en&rclk=1",
        "coordinates": {
            "latitude": 19.346804499999998,
            "longitude": 78.31478849999999
        }
    },
    {
        "name": "Masjid e Umar",
        "main_category": "Mosque",
        "address": "88W9+PMV Masjid e Umar, Boath Buzurg, Telangana 504304",
        "detailed_address": {
            "ward": null,
            "street": "88W9+PMV",
            "city": "Boath Buzurg",
            "postal_code": "504304",
            "state": "Telangana",
            "country_code": "IN"
        },
        "images": [],
        "link": "https://www.google.com/maps/place/Masjid+e+Umar/data=!4m7!3m6!1s0x3bd273af0b80cd5d:0x4344839cf7d24f12!8m2!3d19.3467375!4d78.319247!16s%2Fg%2F11t7b7gxtw!19sChIJXc2AC69z0jsREk_S95yDREM?authuser=0&hl=en&rclk=1",
        "coordinates": {
            "latitude": 19.3467375,
            "longitude": 78.31924699999999
        }
    },
    {
        "name": "Eid Gah and muslim burial ground",
        "main_category": "Mosque",
        "address": "F942+CJP Eid Gah and muslim burial ground, Bazarhatnoor Rd, Bazarhatnoor, Telangana 504304",
        "detailed_address": {
            "ward": null,
            "street": "F942+CJP, Bazarhatnoor Rd",
            "city": "Bazarhatnoor",
            "postal_code": "504304",
            "state": "Telangana",
            "country_code": "IN"
        },
        "images": [],
        "link": "https://www.google.com/maps/place/Eid+Gah+and+muslim+burial+ground/data=!4m7!3m6!1s0x3bd26c68f55bd4df:0x37802d22bc216b99!8m2!3d19.4560996!4d78.3515659!16s%2Fg%2F11cmv2275y!19sChIJ39Rb9Whs0jsRmWshvCItgDc?authuser=0&hl=en&rclk=1",
        "coordinates": {
            "latitude": 19.456099599999998,
            "longitude": 78.3515659
        }
    },
    {
        "name": "JAMA MASJID SONALA",
        "main_category": "Mosque",
        "address": "C898+5MG JAMA MASJID SONALA, Sonala, Telangana 504304",
        "detailed_address": {
            "ward": null,
            "street": "C898+5MG",
            "city": "Sonala",
            "postal_code": "504304",
            "state": "Telangana",
            "country_code": "IN"
        },
        "images": [
            {
                "about": "All",
                "link": "https://lh5.googleusercontent.com/p/AF1QipN9SSvlpo20wl_bWKlJQhHmp1twWJalwOPumS3E=w224-h443-k-no"
            }
        ],
        "link": "https://www.google.com/maps/place/JAMA+MASJID+SONALA/data=!4m7!3m6!1s0x3bd26d23b3215fe7:0x2ecf57cb2074d1c0!8m2!3d19.4179334!4d78.3166892!16s%2Fg%2F11p1048s3j!19sChIJ518hsyNt0jsRwNF0IMtXzy4?authuser=0&hl=en&rclk=1",
        "coordinates": {
            "latitude": 19.4179334,
            "longitude": 78.3166892
        }
    },
    {
        "name": "Masjid e Aqsa",
        "main_category": "Mosque",
        "address": "9CPV+55W Masjid e Aqsa, Islamnagar, Telangana 504307",
        "detailed_address": {
            "ward": null,
            "street": "9CPV+55W",
            "city": "Islamnagar",
            "postal_code": "504307",
            "state": "Telangana",
            "country_code": "IN"
        },
        "images": [],
        "link": "https://www.google.com/maps/place/Masjid+e+Aqsa/data=!4m7!3m6!1s0x3bd271c95b560a13:0xeac4c3253af1fd04!8m2!3d19.3854802!4d78.4429394!16s%2Fg%2F11vdh6g0fk!19sChIJEwpWW8lx0jsRBP3xOiXDxOo?authuser=0&hl=en&rclk=1",
        "coordinates": {
            "latitude": 19.3854802,
            "longitude": 78.4429394
        }
    },
    {
        "name": "JAMA MASJID KOKASMANNUR",
        "main_category": "Mosque",
        "address": "9CVG+R3P JAMA MASJID KOKASMANNUR, Kokasmannur, Telangana 504307",
        "detailed_address": {
            "ward": null,
            "street": "9CVG+R3P",
            "city": "Kokasmannur",
            "postal_code": "504307",
            "state": "Telangana",
            "country_code": "IN"
        },
        "images": [],
        "link": "https://www.google.com/maps/place/JAMA+MASJID+KOKASMANNUR/data=!4m7!3m6!1s0x3bd26f0bf72abcd9:0x2e252e9b84fb3fef!8m2!3d19.3945997!4d78.4251886!16s%2Fg%2F11gtc4ft5k!19sChIJ2bwq9wtv0jsR7z_7hJsuJS4?authuser=0&hl=en&rclk=1",
        "coordinates": {
            "latitude": 19.3945997,
            "longitude": 78.4251886
        }
    },
    {
        "name": "MASJIDE ZAHED",
        "main_category": "Mosque",
        "address": "7W6W+6C8 MASJIDE ZAHED, Unnamed Road, Kubeer, Telangana 504103",
        "detailed_address": {
            "ward": null,
            "street": "7W6W+6C8, Unnamed Road",
            "city": "Kubeer",
            "postal_code": "504103",
            "state": "Telangana",
            "country_code": "IN"
        },
        "images": [],
        "link": "https://www.google.com/maps/place/MASJIDE+ZAHED/data=!4m7!3m6!1s0x3bd201d240c1d4d9:0x9a09b54656d17b2f!8m2!3d19.2605386!4d77.9460674!16s%2Fg%2F11jfjjz3rr!19sChIJ2dTBQNIB0jsRL3vRVka1CZo?authuser=0&hl=en&rclk=1",
        "coordinates": {
            "latitude": 19.2605386,
            "longitude": 77.94606739999999
        }
    },
    {
        "name": "hazrath khader basha Quadri chincholi",
        "main_category": "Mosque",
        "address": "56VJ+C62 hazrath khader basha Quadri chincholi, Chincholi, Telangana 504110",
        "detailed_address": {
            "ward": null,
            "street": "56VJ+C62",
            "city": "Chincholi",
            "postal_code": "504110",
            "state": "Telangana",
            "country_code": "IN"
        },
        "images": [],
        "link": "https://www.google.com/maps/place/hazrath+khader+basha+Quadri+chincholi/data=!4m7!3m6!1s0x3bd20b0ec69493f7:0x2344091ad9340cd0!8m2!3d19.1935169!4d78.230526!16s%2Fg%2F11kp_0rjxd!19sChIJ95OUxg4L0jsR0Aw02RoJRCM?authuser=0&hl=en&rclk=1",
        "coordinates": {
            "latitude": 19.1935169,
            "longitude": 78.230526
        }
    },
    {
        "name": "Madeena Masjid",
        "main_category": "Mosque",
        "address": "PFW4+MM8 Madeena Masjid, Nipani, Telangana 504312",
        "detailed_address": {
            "ward": null,
            "street": "PFW4+MM8",
            "city": "Nipani",
            "postal_code": "504312",
            "state": "Telangana",
            "country_code": "IN"
        },
        "images": [
            {
                "about": "All",
                "link": "https://lh5.googleusercontent.com/p/AF1QipPj-VgmAVlfCVWujgW6jYj7rUavuxoH4WxOKE0F=w224-h497-k-no"
            }
        ],
        "link": "https://www.google.com/maps/place/Madeena+Masjid/data=!4m7!3m6!1s0x3bd24555eac2f72b:0x120ce6521c49e338!8m2!3d19.7466596!4d78.456695!16s%2Fg%2F11j3rmv0vx!19sChIJK_fC6lVF0jsROONJHFLmDBI?authuser=0&hl=en&rclk=1",
        "coordinates": {
            "latitude": 19.746659599999997,
            "longitude": 78.456695
        }
    }
]