[
    {
        "name": "Jama Masjid",
        "main_category": "Mosque",
        "address": "4P8H+PXP Jama Masjid, Tiraha, Gursahaiganj - Jalaun Rd, Gursahaiganj, Uttar Pradesh 209722",
        "detailed_address": {
            "ward": null,
            "street": "4P8H+PXP, Tiraha, Gursahaiganj - Jalaun Rd",
            "city": "Gursahaiganj",
            "postal_code": "209722",
            "state": "Uttar Pradesh",
            "country_code": "IN"
        },
        "images": [
            {
                "about": "All",
                "link": "https://lh5.googleusercontent.com/p/AF1QipN19laQR5xqLHlO-ElshE4FrtiXhh3lYEPv8bRE=w224-h298-k-no"
            },
            {
                "about": "Street View & 360deg",
                "link": "https://streetviewpixels-pa.googleapis.com/v1/thumbnail?panoid=73Wi6ipPjNceySM5GyfoRQ&cb_client=maps_sv.tactile.gps&w=224&h=298&yaw=150.16254&pitch=0&thumbfov=100"
            },
            {
                "about": "Videos",
                "link": "https://lh5.googleusercontent.com/p/AF1QipPf4BEZrvU_G72dxaPEtIOphje8YX0iUxnU7wos=w224-h471-k-no"
            }
        ],
        "link": "https://www.google.com/maps/place/Jama+Masjid/data=!4m7!3m6!1s0x399e14d08bb97a11:0xa5bb72fab0fa712c!8m2!3d27.1168433!4d79.7299581!16s%2Fg%2F11c6mdyl02!19sChIJEXq5i9AUnjkRLHH6sPpyu6U?authuser=0&hl=en&rclk=1",
        "coordinates": {
            "latitude": 27.1168433,
            "longitude": 79.72995809999999
        }
    },
    {
        "name": "Yakubi Nuri Masjid",
        "main_category": "Mosque",
        "address": "4P7P+GM4 Yakubi Nuri Masjid, Gursahaiganj, Uttar Pradesh 209722",
        "detailed_address": {
            "ward": null,
            "street": "4P7P+GM4",
            "city": "Gursahaiganj",
            "postal_code": "209722",
            "state": "Uttar Pradesh",
            "country_code": "IN"
        },
        "images": [
            {
                "about": "All",
                "link": "https://lh5.googleusercontent.com/p/AF1QipP7Fx_yVuZJDawN3C1mFxyqvMuJVjsnQCgPpB6f=w224-h398-k-no"
            }
        ],
        "link": "https://www.google.com/maps/place/Yakubi+Nuri+Masjid/data=!4m7!3m6!1s0x399e14cd8449b3bd:0x80766b1dca7c9d86!8m2!3d27.1137581!4d79.7366941!16s%2Fg%2F11g88gj33r!19sChIJvbNJhM0UnjkRhp18yh1rdoA?authuser=0&hl=en&rclk=1",
        "coordinates": {
            "latitude": 27.1137581,
            "longitude": 79.7366941
        }
    },
    {
        "name": "Noori jama masjid",
        "main_category": "Mosque",
        "address": "Noori jama masjid, 27deg07'11. 79deg44'03., 6\"E, SH 2, Bharathidasan Colony, West Jafferkhanpet, Chennai, Tamil Nadu 600083",
        "detailed_address": {
            "ward": "Bharathidasan Colony, West Jafferkhanpet",
            "street": "27deg07'11. 79deg44'03., 6\"E, SH 2",
            "city": "Chennai, Gursahaiganj",
            "postal_code": "600083",
            "state": "Tamil Nadu",
            "country_code": "IN"
        },
        "images": [
            {
                "about": "All",
                "link": "https://lh5.googleusercontent.com/p/AF1QipMx0KIsCONCPN3UxMHvMbF6s3rR-LHyZU6BoBrZ=w366-h298-k-no"
            },
            {
                "about": "Dome",
                "link": "https://lh5.googleusercontent.com/p/AF1QipNdyN4RM6WTgDX5M9nF0SjgQLSIVFiuM6Zi3WV_=w448-h298-k-no"
            },
            {
                "about": "Videos",
                "link": "https://lh5.googleusercontent.com/p/AF1QipPdoCIARMC0TrCxhN540Vn_VI93G1N6vjq9YMOE=w298-h298-k-no"
            },
            {
                "about": "Street View & 360deg",
                "link": "https://streetviewpixels-pa.googleapis.com/v1/thumbnail?panoid=zYs_nWz3cj0TBt_-aeElpA&cb_client=maps_sv.tactile.gps&w=224&h=298&yaw=38.316498&pitch=0&thumbfov=100"
            }
        ],
        "link": "https://www.google.com/maps/place/Noori+jama+masjid/data=!4m7!3m6!1s0x399e14d155452aa1:0x47a3acce37a7aff7!8m2!3d27.119779!4d79.734335!16s%2Fg%2F11csrgmzfn!19sChIJoSpFVdEUnjkR96-nN86so0c?authuser=0&hl=en&rclk=1",
        "coordinates": {
            "latitude": 27.119778999999998,
            "longitude": 79.734335
        }
    },
    {
        "name": "Gaosiya Masjid",
        "main_category": "Mosque",
        "address": "4P7R+M48 Gaosiya Masjid, Majh Purwa, Gursahaiganj, Uttar Pradesh 209722",
        "detailed_address": {
            "ward": null,
            "street": "4P7R+M48",
            "city": "Majh Purwa, Gursahaiganj",
            "postal_code": "209722",
            "state": "Uttar Pradesh",
            "country_code": "IN"
        },
        "images": [],
        "link": "https://www.google.com/maps/place/Gaosiya+Masjid/data=!4m7!3m6!1s0x399e6b32a95a16e3:0xe5cb2fd0f66f0ff2!8m2!3d27.1141594!4d79.7403334!16s%2Fg%2F11f15mvs5m!19sChIJ4xZaqTJrnjkR8g9v9tAvy-U?authuser=0&hl=en&rclk=1",
        "coordinates": {
            "latitude": 27.1141594,
            "longitude": 79.7403334
        }
    },
    {
        "name": "Eid Gah Build By Murad Khan",
        "main_category": "Mosque",
        "address": "4P5Q+JMH Eid Gah Build By Murad Khan, Majh Purwa, Gursahaiganj, Uttar Pradesh 209722",
        "detailed_address": {
            "ward": null,
            "street": "4P5Q+JMH",
            "city": "Majh Purwa, Gursahaiganj",
            "postal_code": "209722",
            "state": "Uttar Pradesh",
            "country_code": "IN"
        },
        "images": [
            {
                "about": "All",
                "link": "https://lh5.googleusercontent.com/p/AF1QipMMvZYryXPMSILf6zL2VMKrzkEXcU4Oh09yLxfw=w667-h298-k-no"
            },
            {
                "about": "Street View & 360deg",
                "link": "https://streetviewpixels-pa.googleapis.com/v1/thumbnail?panoid=961jmgJ0vRxkDfvP6DqP7g&cb_client=maps_sv.tactile.gps&w=224&h=298&yaw=206.20605&pitch=0&thumbfov=100"
            }
        ],
        "link": "https://www.google.com/maps/place/Eid+Gah+Build+By+Murad+Khan/data=!4m7!3m6!1s0x399e14ccaf620e15:0xe38fe73df1dda735!8m2!3d27.1090716!4d79.7392438!16s%2Fg%2F11gfb55y5r!19sChIJFQ5ir8wUnjkRNafd8T3nj-M?authuser=0&hl=en&rclk=1",
        "coordinates": {
            "latitude": 27.1090716,
            "longitude": 79.7392438
        }
    },
    {
        "name": "ala hazrat Masjid",
        "main_category": "Mosque",
        "address": "4P95+423 ala hazrat Masjid, Islam nagar ,Ismailpur, Gursahaiganj, Uttar Pradesh",
        "detailed_address": {
            "ward": null,
            "street": "4P95+423, Islam nagar ,Ismailpur",
            "city": "Gursahaiganj",
            "postal_code": null,
            "state": "Uttar Pradesh",
            "country_code": "IN"
        },
        "images": [
            {
                "about": "All",
                "link": "https://lh5.googleusercontent.com/p/AF1QipOvyCdEGybxbcOVveYwAh4m-7sVI-tvFaQea7F8=w224-h398-k-no"
            },
            {
                "about": "Dome",
                "link": "https://lh5.googleusercontent.com/p/AF1QipPUlxLr5T5ki63eH5jhIEy2fAdmvjQjoxtUiD4X=w228-h298-k-no"
            },
            {
                "about": "Videos",
                "link": "https://lh5.googleusercontent.com/p/AF1QipOEhO8MKuU5pdmuYpZqEZkuRCpyBfTJXSf4Kgfj=w224-h398-k-no"
            }
        ],
        "link": "https://www.google.com/maps/place/ala+hazrat+Masjid/data=!4m7!3m6!1s0x399e14e4a04db8eb:0xde1fb851ed79e2aa!8m2!3d27.1177602!4d79.7075487!16s%2Fg%2F11gbf8wqzg!19sChIJ67hNoOQUnjkRquJ57VG4H94?authuser=0&hl=en&rclk=1",
        "coordinates": {
            "latitude": 27.1177602,
            "longitude": 79.70754869999999
        }
    },
    {
        "name": "Madina Masjid",
        "main_category": "Mosque",
        "address": "Madina Masjid, V/P Majpurwaa, Gursahaiganj, Murad Ganj, Uttar Pradesh 209722",
        "detailed_address": {
            "ward": null,
            "street": "V/P Majpurwaa",
            "city": "Gursahaiganj, Murad Ganj",
            "postal_code": null,
            "state": "Uttar Pradesh",
            "country_code": "IN"
        },
        "images": [
            {
                "about": "All",
                "link": "https://lh5.googleusercontent.com/p/AF1QipObktQBc-xnboiF89vRVgayqGOdRhnSLv3kcu3v=w529-h298-k-no"
            },
            {
                "about": "Street View & 360deg",
                "link": "https://streetviewpixels-pa.googleapis.com/v1/thumbnail?panoid=9T7U7FiINkvNRoWhJgmLqQ&cb_client=maps_sv.tactile.gps&w=224&h=298&yaw=329.31668&pitch=0&thumbfov=100"
            },
            {
                "about": "Videos",
                "link": "https://lh5.googleusercontent.com/p/AF1QipNtTIQp90lnqnY1P24NVrkIDhPIjpi20zF4qNox=w224-h398-k-no"
            }
        ],
        "link": "https://www.google.com/maps/place/Madina+Masjid/data=!4m7!3m6!1s0x399e6bfe60163d31:0xcea0ca399cd320f1!8m2!3d27.1040688!4d79.7426556!16s%2Fg%2F11flkby4kf!19sChIJMT0WYP5rnjkR8SDTnDnKoM4?authuser=0&hl=en&rclk=1",
        "coordinates": {
            "latitude": 27.1040688,
            "longitude": 79.74265559999999
        }
    },
    {
        "name": "Mohammadi Masjid",
        "main_category": "Mosque",
        "address": "4P8H+G4F Mohammadi Masjid, Gursahaiganj, Uttar Pradesh 209722",
        "detailed_address": {
            "ward": null,
            "street": "4P8H+G4F",
            "city": "Gursahaiganj",
            "postal_code": "209722",
            "state": "Uttar Pradesh",
            "country_code": "IN"
        },
        "images": [
            {
                "about": "All",
                "link": "https://lh5.googleusercontent.com/p/AF1QipMeQ4XERgQt6iPhIiSbV64F0LuF0R7T2dQeYud0=w224-h398-k-no"
            },
            {
                "about": "Videos",
                "link": "https://lh5.googleusercontent.com/p/AF1QipO30DPvo-BCXLg3N6iMJukcOZn6bkKcL7XlSbau=w224-h398-k-no"
            }
        ],
        "link": "https://www.google.com/maps/place/Mohammadi+Masjid/data=!4m7!3m6!1s0x399e15353ff5e71f:0x71a03b7841855fa!8m2!3d27.1163154!4d79.727782!16s%2Fg%2F11ghpzbwsy!19sChIJH-f1PzUVnjkR-lUYhLcDGgc?authuser=0&hl=en&rclk=1",
        "coordinates": {
            "latitude": 27.116315399999998,
            "longitude": 79.72778199999999
        }
    },
    {
        "name": "Jama Masjid",
        "main_category": "Mosque",
        "address": "Jama Masjid, V/P, Majh Purwa, Murad Ganj, Uttar Pradesh 209722",
        "detailed_address": {
            "ward": null,
            "street": "V/P",
            "city": "Majh Purwa, Murad Ganj",
            "postal_code": null,
            "state": "Uttar Pradesh",
            "country_code": "IN"
        },
        "images": [
            {
                "about": "All",
                "link": "https://streetviewpixels-pa.googleapis.com/v1/thumbnail?panoid=9KAj5HYvydrQ03srHAIIVA&cb_client=maps_sv.tactile.gps&w=224&h=298&yaw=307.57965&pitch=0&thumbfov=100"
            },
            {
                "about": "Street View & 360deg",
                "link": "https://streetviewpixels-pa.googleapis.com/v1/thumbnail?panoid=9KAj5HYvydrQ03srHAIIVA&cb_client=maps_sv.tactile.gps&w=224&h=298&yaw=307.57965&pitch=0&thumbfov=100"
            }
        ],
        "link": "https://www.google.com/maps/place/Jama+Masjid/data=!4m7!3m6!1s0x399e1553dd17cb95:0x69ec50b7f0496fc6!8m2!3d27.1058216!4d79.7417276!16s%2Fg%2F11h0yfbdz6!19sChIJlcsX3VMVnjkRxm9J8LdQ7Gk?authuser=0&hl=en&rclk=1",
        "coordinates": {
            "latitude": 27.1058216,
            "longitude": 79.74172759999999
        }
    },
    {
        "name": "Masjid Quba",
        "main_category": "Mosque",
        "address": "4P4P+6VM Masjid Quba, Majh Purwa, Uttar Pradesh 209722",
        "detailed_address": {
            "ward": null,
            "street": "4P4P+6VM",
            "city": "Majh Purwa",
            "postal_code": "209722",
            "state": "Uttar Pradesh",
            "country_code": "IN"
        },
        "images": [
            {
                "about": "All",
                "link": "https://lh5.googleusercontent.com/p/AF1QipMaD2DnF455CXV2VERcHpY9ytorLRWVAZSk17FU=w529-h298-k-no"
            },
            {
                "about": "Street View & 360deg",
                "link": "https://streetviewpixels-pa.googleapis.com/v1/thumbnail?panoid=qMh9uB__ShxLEq5phKu6lg&cb_client=maps_sv.tactile.gps&w=224&h=298&yaw=313.1932&pitch=0&thumbfov=100"
            }
        ],
        "link": "https://www.google.com/maps/place/Masjid+Quba/data=!4m7!3m6!1s0x399e14cbaaaaaaab:0xc86768ee3a5ba71a!8m2!3d27.1055754!4d79.7371819!16s%2Fg%2F11c6cjcf63!19sChIJq6qqqssUnjkRGqdbOu5oZ8g?authuser=0&hl=en&rclk=1",
        "coordinates": {
            "latitude": 27.1055754,
            "longitude": 79.7371819
        }
    },
    {
        "name": "Noori Masjid",
        "main_category": "Mosque",
        "address": "4PCG+Q2P Noori Masjid, Unnamed Road, Gursahaiganj, Uttar Pradesh 209722",
        "detailed_address": {
            "ward": null,
            "street": "4PCG+Q2P, Unnamed Road",
            "city": "Gursahaiganj",
            "postal_code": "209722",
            "state": "Uttar Pradesh",
            "country_code": "IN"
        },
        "images": [
            {
                "about": "All",
                "link": "https://lh5.googleusercontent.com/p/AF1QipMk3b85oCQMrfm1lnPgEYEcBwKdGzUZKGd0dzSj=w397-h298-k-no"
            }
        ],
        "link": "https://www.google.com/maps/place/Noori+Masjid/data=!4m7!3m6!1s0x399e15c8cac9b6b9:0x1762fdc0769a432a!8m2!3d27.1219601!4d79.7250913!16s%2Fg%2F11lkznktkh!19sChIJubbJysgVnjkRKkOadsD9Yhc?authuser=0&hl=en&rclk=1",
        "coordinates": {
            "latitude": 27.1219601,
            "longitude": 79.7250913
        }
    },
    {
        "name": "Aysha Masjid",
        "main_category": "Mosque",
        "address": "4P3R+P6P Aysha Masjid, Majh Purwa, Murad Ganj, Uttar Pradesh 209722",
        "detailed_address": {
            "ward": null,
            "street": "4P3R+P6P",
            "city": "Majh Purwa, Murad Ganj",
            "postal_code": "209722",
            "state": "Uttar Pradesh",
            "country_code": "IN"
        },
        "images": [
            {
                "about": "All",
                "link": "https://streetviewpixels-pa.googleapis.com/v1/thumbnail?panoid=6-evVJyxvbz-0gzmNbWE5A&cb_client=maps_sv.tactile.gps&w=224&h=298&yaw=284.5219&pitch=0&thumbfov=100"
            },
            {
                "about": "Street View & 360deg",
                "link": "https://streetviewpixels-pa.googleapis.com/v1/thumbnail?panoid=6-evVJyxvbz-0gzmNbWE5A&cb_client=maps_sv.tactile.gps&w=224&h=298&yaw=284.5219&pitch=0&thumbfov=100"
            }
        ],
        "link": "https://www.google.com/maps/place/Aysha+Masjid/data=!4m7!3m6!1s0x399e6b1ee98d87f5:0xf8e5c5f3a46fc09d!8m2!3d27.1043434!4d79.7405642!16s%2Fg%2F11fmmtxn86!19sChIJ9YeN6R5rnjkRncBvpPPF5fg?authuser=0&hl=en&rclk=1",
        "coordinates": {
            "latitude": 27.104343399999998,
            "longitude": 79.7405642
        }
    },
    {
        "name": "Markaz Masjid",
        "main_category": "School",
        "address": "4P7P+WW5 Markaz Masjid, Gursahaiganj, Uttar Pradesh 209722",
        "detailed_address": {
            "ward": null,
            "street": "4P7P+WW5",
            "city": "Gursahaiganj",
            "postal_code": "209722",
            "state": "Uttar Pradesh",
            "country_code": "IN"
        },
        "images": [],
        "link": "https://www.google.com/maps/place/Markaz+Masjid/data=!4m7!3m6!1s0x399e14d28721a4c9:0x43b7d68270d776ab!8m2!3d27.1147663!4d79.7373698!16s%2Fg%2F11c1tt7919!19sChIJyaQhh9IUnjkRq3bXcILWt0M?authuser=0&hl=en&rclk=1",
        "coordinates": {
            "latitude": 27.1147663,
            "longitude": 79.7373698
        }
    },
    {
        "name": "1 minara masjid",
        "main_category": "Mosque",
        "address": "4P7M+X4H 1 minara masjid, Gursahaiganj - Jalaun Rd, Gursahaiganj, Uttar Pradesh 209722",
        "detailed_address": {
            "ward": null,
            "street": "4P7M+X4H, Gursahaiganj - Jalaun Rd",
            "city": "Gursahaiganj",
            "postal_code": "209722",
            "state": "Uttar Pradesh",
            "country_code": "IN"
        },
        "images": [
            {
                "about": "All",
                "link": "https://streetviewpixels-pa.googleapis.com/v1/thumbnail?panoid=M4XfOpzaJeoY7pXUVq4o2A&cb_client=maps_sv.tactile.gps&w=224&h=298&yaw=129.49248&pitch=0&thumbfov=100"
            },
            {
                "about": "Street View & 360deg",
                "link": "https://streetviewpixels-pa.googleapis.com/v1/thumbnail?panoid=M4XfOpzaJeoY7pXUVq4o2A&cb_client=maps_sv.tactile.gps&w=224&h=298&yaw=129.49248&pitch=0&thumbfov=100"
            }
        ],
        "link": "https://www.google.com/maps/place/1+minara+masjid/data=!4m7!3m6!1s0x399e15d7ddf3bf39:0xc4fd220c74c5ce56!8m2!3d27.1149395!4d79.7328716!16s%2Fg%2F11p14x7hhq!19sChIJOb_z3dcVnjkRVs7FdAwi_cQ?authuser=0&hl=en&rclk=1",
        "coordinates": {
            "latitude": 27.1149395,
            "longitude": 79.7328716
        }
    },
    {
        "name": "Kadri Masjid",
        "main_category": "Mosque",
        "address": "4P9P+WQC Kadri Masjid, Gandhi Nagar, Gursahaiganj, Uttar Pradesh 209722",
        "detailed_address": {
            "ward": "Gandhi Nagar",
            "street": "4P9P+WQC",
            "city": "Gursahaiganj",
            "postal_code": null,
            "state": "Uttar Pradesh",
            "country_code": "IN"
        },
        "images": [],
        "link": "https://www.google.com/maps/place/Kadri+Masjid/data=!4m7!3m6!1s0x399e15f8f00e336d:0x880fd4f3a81e18a9!8m2!3d27.1198098!4d79.7368796!16s%2Fg%2F11t5wy4ks4!19sChIJbTMO8PgVnjkRqRgeqPPUD4g?authuser=0&hl=en&rclk=1",
        "coordinates": {
            "latitude": 27.1198098,
            "longitude": 79.7368796
        }
    },
    {
        "name": "Raza Buraq Masjid",
        "main_category": "Mosque",
        "address": "4P9P+5GF Raza Buraq Masjid, Gursahaiganj, Uttar Pradesh 209722",
        "detailed_address": {
            "ward": null,
            "street": "4P9P+5GF",
            "city": "Gursahaiganj",
            "postal_code": null,
            "state": "Uttar Pradesh",
            "country_code": "IN"
        },
        "images": [],
        "link": "https://www.google.com/maps/place/Raza+Buraq+Masjid/data=!4m7!3m6!1s0x399e1545deb269dd:0x1025f1391c489dbc!8m2!3d27.1179495!4d79.7362825!16s%2Fg%2F11s56qyhy3!19sChIJ3Wmy3kUVnjkRvJ1IHDnxJRA?authuser=0&hl=en&rclk=1",
        "coordinates": {
            "latitude": 27.117949499999998,
            "longitude": 79.7362825
        }
    },
    {
        "name": "Gausiya Masjid Sultan Aalam Nagar",
        "main_category": "Mosque",
        "address": "4P7R+Q2W Gausiya Masjid Sultan Aalam Nagar, Gursahaiganj, Uttar Pradesh 209722",
        "detailed_address": {
            "ward": null,
            "street": "4P7R+Q2W",
            "city": "Gursahaiganj",
            "postal_code": "209722",
            "state": "Uttar Pradesh",
            "country_code": "IN"
        },
        "images": [],
        "link": "https://www.google.com/maps/place/Gausiya+Masjid+Sultan+Aalam+Nagar/data=!4m7!3m6!1s0x399e6bb536b0e8c5:0xacceb8a4f9371159!8m2!3d27.1144956!4d79.7400929!16s%2Fg%2F11y1f9_kq8!19sChIJxeiwNrVrnjkRWRE3-aS4zqw?authuser=0&hl=en&rclk=1",
        "coordinates": {
            "latitude": 27.114495599999998,
            "longitude": 79.7400929
        }
    },
    {
        "name": "Sayyed Mir Ibrahimi Masjid",
        "main_category": "Mosque",
        "address": "4P7Q+58H Sayyed Mir Ibrahimi Masjid, Gursahaiganj, Uttar Pradesh 209722",
        "detailed_address": {
            "ward": null,
            "street": "4P7Q+58H",
            "city": "Gursahaiganj",
            "postal_code": "209722",
            "state": "Uttar Pradesh",
            "country_code": "IN"
        },
        "images": [],
        "link": "https://www.google.com/maps/place/Sayyed+Mir+Ibrahimi+Masjid/data=!4m7!3m6!1s0x399e152dd4408731:0x7dd8dce6ffec71!8m2!3d27.1129433!4d79.7383564!16s%2Fg%2F11lm2smrdd!19sChIJMYdA1C0VnjkRcez_5tzYfQA?authuser=0&hl=en&rclk=1",
        "coordinates": {
            "latitude": 27.112943299999998,
            "longitude": 79.7383564
        }
    }
]