[
    {
        "name": "Jama Masjid Neral",
        "main_category": "Mosque",
        "address": "28G8+4M5 Jama Masjid Neral, Neral, Maharashtra 410101",
        "detailed_address": {
            "ward": null,
            "street": "28G8+4M5",
            "city": "Neral",
            "postal_code": "410101",
            "state": "Maharashtra",
            "country_code": "IN"
        },
        "images": [
            {
                "about": "All",
                "link": "https://lh5.googleusercontent.com/p/AF1QipM1fVnIwYgL6u2VMRvj5HQAolgvnPbJCdrXJgo=w224-h298-k-no"
            },
            {
                "about": "Street View & 360deg",
                "link": "https://streetviewpixels-pa.googleapis.com/v1/thumbnail?panoid=sGisUiA2HP1nNZSRDoj0aQ&cb_client=maps_sv.tactile.gps&w=224&h=298&yaw=326.84943&pitch=0&thumbfov=100"
            },
            {
                "about": "Videos",
                "link": "https://lh5.googleusercontent.com/p/AF1QipOerO9BDdRWztl63oHtTdL0JtSBfGKEjlhYMvKx=w224-h398-k-no"
            }
        ],
        "link": "https://www.google.com/maps/place/Jama+Masjid+Neral/data=!4m7!3m6!1s0x3be7f050dec7f1bf:0x4b1fdd713a0d96fa!8m2!3d19.0252714!4d73.316737!16s%2Fg%2F11cjp8cp4m!19sChIJv_HH3lDw5zsR-pYNOnHdH0s?authuser=0&hl=en&rclk=1",
        "coordinates": {
            "latitude": 19.025271399999998,
            "longitude": 73.316737
        }
    },
    {
        "name": "Dawoodi Bohra Masjid",
        "main_category": "Mosque",
        "address": "28G8+QM7 Dawoodi Bohra Masjid, Shivaji Chowk, Neral, Maharashtra 410101",
        "detailed_address": {
            "ward": "Shivaji Chowk",
            "street": "28G8+QM7",
            "city": "Neral",
            "postal_code": "410101",
            "state": "Maharashtra",
            "country_code": "IN"
        },
        "images": [
            {
                "about": "All",
                "link": "https://lh5.googleusercontent.com/p/AF1QipP6BRa4mMf62mp8fHRBsym11sdMbGmWBShZUGX3=w224-h298-k-no"
            }
        ],
        "link": "https://www.google.com/maps/place/Dawoodi+Bohra+Masjid/data=!4m7!3m6!1s0x3be7f0513f4f40b1:0x9eadc85ee9abe683!8m2!3d19.02691!4d73.3166661!16s%2Fg%2F11c6cyjdxh!19sChIJsUBPP1Hw5zsRg-ar6V7IrZ4?authuser=0&hl=en&rclk=1",
        "coordinates": {
            "latitude": 19.02691,
            "longitude": 73.31666609999999
        }
    },
    {
        "name": "Al-Imran Masjid",
        "main_category": "Mosque",
        "address": "28H9+72G Al-Imran Masjid, Shivaji Chowk, Neral, Maharashtra 410101",
        "detailed_address": {
            "ward": "Shivaji Chowk",
            "street": "28H9+72G",
            "city": "Neral",
            "postal_code": "410101",
            "state": "Maharashtra",
            "country_code": "IN"
        },
        "images": [
            {
                "about": "All",
                "link": "https://lh5.googleusercontent.com/p/AF1QipP4smHdWOAKJjh_9dlfUT3VvBZ7UvkcZiS0StSM=w397-h298-k-no"
            },
            {
                "about": "Street View & 360deg",
                "link": "https://streetviewpixels-pa.googleapis.com/v1/thumbnail?panoid=nbqK9JhpFzM6OjkYTzkWUg&cb_client=maps_sv.tactile.gps&w=224&h=298&yaw=245.04428&pitch=0&thumbfov=100"
            }
        ],
        "link": "https://www.google.com/maps/place/Al-Imran+Masjid/data=!4m7!3m6!1s0x3be7f1fa18daf005:0x91b8af70f28f9161!8m2!3d19.0281868!4d73.3175786!16s%2Fg%2F11gnpbbhkm!19sChIJBfDaGPrx5zsRYZGP8nCvuJE?authuser=0&hl=en&rclk=1",
        "coordinates": {
            "latitude": 19.0281868,
            "longitude": 73.31757859999999
        }
    },
    {
        "name": "Masjid",
        "main_category": "Mosque",
        "address": "28CC+PW2 Masjid, Neral, Maharashtra 410101",
        "detailed_address": {
            "ward": null,
            "street": "28CC+PW2",
            "city": "Neral",
            "postal_code": "410101",
            "state": "Maharashtra",
            "country_code": "IN"
        },
        "images": [],
        "link": "https://www.google.com/maps/place/Masjid/data=!4m7!3m6!1s0x3be7f166af2b8dc7:0xfc26fc6c677a852b!8m2!3d19.0217665!4d73.3222791!16s%2Fg%2F11pvhqxbry!19sChIJx40rr2bx5zsRK4V6Z2z8Jvw?authuser=0&hl=en&rclk=1",
        "coordinates": {
            "latitude": 19.0217665,
            "longitude": 73.3222791
        }
    },
    {
        "name": "Jama Masjid Neral",
        "main_category": "Mosque",
        "address": "28H8+4RF Jama Masjid Neral, Shivaji Chowk, Neral, Maharashtra 410101",
        "detailed_address": {
            "ward": "Shivaji Chowk",
            "street": "28H8+4RF",
            "city": "Neral",
            "postal_code": "410101",
            "state": "Maharashtra",
            "country_code": "IN"
        },
        "images": [
            {
                "about": "All",
                "link": "https://streetviewpixels-pa.googleapis.com/v1/thumbnail?panoid=ZmkvAcXw0YMdZtKtmZtAnA&cb_client=maps_sv.tactile.gps&w=224&h=298&yaw=194.34398&pitch=0&thumbfov=100"
            },
            {
                "about": "Street View & 360deg",
                "link": "https://streetviewpixels-pa.googleapis.com/v1/thumbnail?panoid=ZmkvAcXw0YMdZtKtmZtAnA&cb_client=maps_sv.tactile.gps&w=224&h=298&yaw=194.34398&pitch=0&thumbfov=100"
            }
        ],
        "link": "https://www.google.com/maps/place/Jama+Masjid+Neral/data=!4m7!3m6!1s0x3be7f13654d1dfff:0xd25812a3348d393a!8m2!3d19.0278011!4d73.3170586!16s%2Fg%2F11stnz_z0v!19sChIJ_9_RVDbx5zsROjmNNKMSWNI?authuser=0&hl=en&rclk=1",
        "coordinates": {
            "latitude": 19.027801099999998,
            "longitude": 73.3170586
        }
    },
    {
        "name": "Ibadat Gaah masjid",
        "main_category": "Mosque",
        "address": "Shop No 1, Ibadat Gaah masjid, near by Union Bank, Khanda, Neral, Maharashtra 410101",
        "detailed_address": {
            "ward": "Khanda",
            "street": "Shop No 1, near by Union Bank",
            "city": "Neral",
            "postal_code": "410101",
            "state": "Maharashtra",
            "country_code": "IN"
        },
        "images": [
            {
                "about": "All",
                "link": "https://streetviewpixels-pa.googleapis.com/v1/thumbnail?panoid=H0bQ4U7KpmEDryhVYBFFCw&cb_client=maps_sv.tactile.gps&w=224&h=298&yaw=276.23074&pitch=0&thumbfov=100"
            },
            {
                "about": "Street View & 360deg",
                "link": "https://streetviewpixels-pa.googleapis.com/v1/thumbnail?panoid=H0bQ4U7KpmEDryhVYBFFCw&cb_client=maps_sv.tactile.gps&w=224&h=298&yaw=276.23074&pitch=0&thumbfov=100"
            }
        ],
        "link": "https://www.google.com/maps/place/Ibadat+Gaah+masjid/data=!4m7!3m6!1s0x3be7f184fe332deb:0x6972156e958bab59!8m2!3d19.0304885!4d73.3163065!16s%2Fg%2F11t9h5lzwm!19sChIJ6y0z_oTx5zsRWauLlW4Vcmk?authuser=0&hl=en&rclk=1",
        "coordinates": {
            "latitude": 19.0304885,
            "longitude": 73.3163065
        }
    }
]