[
    {
        "name": "DH JAME MASJID msjd",
        "main_category": "Mosque",
        "address": "55RP+VF7 DH JAME MASJID msjd, Down Town, Diamond Harbour, West Bengal 743331",
        "detailed_address": {
            "ward": "Down Town",
            "street": "55RP+VF7",
            "city": "Diamond Harbour",
            "postal_code": "743331",
            "state": "West Bengal",
            "country_code": "IN"
        },
        "images": [
            {
                "about": "All",
                "link": "https://lh5.googleusercontent.com/p/AF1QipM6NysNTNwGvwvk7ucIV0rEKYxvm6DC8qsQBnpF=w224-h298-k-no"
            },
            {
                "about": "Street View & 360deg",
                "link": "https://streetviewpixels-pa.googleapis.com/v1/thumbnail?panoid=OSYtiW8hEN1tX7TIK4nX_g&cb_client=maps_sv.tactile.gps&w=224&h=298&yaw=58.877647&pitch=0&thumbfov=100"
            }
        ],
        "link": "https://www.google.com/maps/place/DH+JAME+MASJID+%D9%85%D8%B3%D8%AC%D8%AF%E2%80%AD/data=!4m7!3m6!1s0x3a025f9823ee1b0d:0x1b7e5f7bc522f0b5!8m2!3d22.1921503!4d88.1861737!16s%2Fg%2F11clysx6yz!19sChIJDRvuI5hfAjoRtfAixXtffhs?authuser=0&hl=en&rclk=1",
        "coordinates": {
            "latitude": 22.192150299999998,
            "longitude": 88.1861737
        }
    },
    {
        "name": "Ahmadiya Muslim jamat mosjid Fazal kabira",
        "main_category": "Mosque",
        "address": "665C+5P9 Ahmadiya Muslim jamat mosjid Fazal kabira, Hanskhali, Kabira, West Bengal 743368",
        "detailed_address": {
            "ward": "Hanskhali",
            "street": "665C+5P9",
            "city": "Kabira",
            "postal_code": "743368",
            "state": "West Bengal",
            "country_code": "IN"
        },
        "images": [
            {
                "about": "All",
                "link": "https://lh5.googleusercontent.com/p/AF1QipNSUnM4veKkn9SzkFmG4hVQO8SmxSzygt_Cv5_-=w224-h342-k-no"
            }
        ],
        "link": "https://www.google.com/maps/place/Ahmadiya+Muslim+jamat+mosjid+Fazal+kabira/data=!4m7!3m6!1s0x3a025fcb6cd2ce4d:0x2992aade8900ff5d!8m2!3d22.2079009!4d88.2218532!16s%2Fg%2F11j8h2ynf4!19sChIJTc7SbMtfAjoRXf8Aid6qkik?authuser=0&hl=en&rclk=1",
        "coordinates": {
            "latitude": 22.2079009,
            "longitude": 88.2218532
        }
    },
    {
        "name": "MADINA MASJID",
        "main_category": "Mosque",
        "address": "MADINA MASJID, NH 117 Diamond Harbour Raichak, Noorpur Rd, Kamarpol, West Bengal 743368",
        "detailed_address": {
            "ward": null,
            "street": "NH 117 Diamond Harbour Raichak, Noorpur Rd",
            "city": "Kamarpol",
            "postal_code": "743368",
            "state": "West Bengal",
            "country_code": "IN"
        },
        "images": [
            {
                "about": "All",
                "link": "https://lh5.googleusercontent.com/p/AF1QipOXblMg4_BBu3k4NhuZXXGnGA11Sv2_38C7xPNR=w224-h298-k-no"
            },
            {
                "about": "Dome",
                "link": "https://lh5.googleusercontent.com/p/AF1QipPNR_inLOJXuivimRjLnsqPEUrWGN7CnDqhqTzF=w529-h298-k-no"
            }
        ],
        "link": "https://www.google.com/maps/place/MADINA+MASJID/data=!4m7!3m6!1s0x3a0261e2d6e4c51b:0xf23f45d2f1f4b03c!8m2!3d22.2420476!4d88.1743535!16s%2Fg%2F11h7j9_sc1!19sChIJG8Xk1uJhAjoRPLD08dJFP_I?authuser=0&hl=en&rclk=1",
        "coordinates": {
            "latitude": 22.2420476,
            "longitude": 88.1743535
        }
    },
    {
        "name": "Ramchandrapur Masjid",
        "main_category": "Mosque",
        "address": "Ramchandrapur Masjid, Ramchandrapur, Diamond Harbour, West Bengal 743331",
        "detailed_address": {
            "ward": "Ramchandrapur",
            "street": null,
            "city": "Diamond Harbour",
            "postal_code": "743331",
            "state": "West Bengal",
            "country_code": "IN"
        },
        "images": [
            {
                "about": "All",
                "link": "https://lh5.googleusercontent.com/p/AF1QipNrkgtpyamCp23XtmJYaEfTjLGTbdEJgQsFGA15=w224-h398-k-no"
            },
            {
                "about": "Latest",
                "link": "https://lh5.googleusercontent.com/p/AF1QipOOk72CFT30nnmqgCcbDMlSq6qNPQbEEpoKXCYH=w224-h499-k-no"
            },
            {
                "about": "Videos",
                "link": "https://lh5.googleusercontent.com/p/AF1QipN4eVwyfEM58gdbnehRZ27i5cHaGNOJaLS5rKkz=w224-h398-k-no"
            },
            {
                "about": "By owner",
                "link": "https://lh5.googleusercontent.com/p/AF1QipN4eVwyfEM58gdbnehRZ27i5cHaGNOJaLS5rKkz=w224-h398-k-no"
            }
        ],
        "link": "https://www.google.com/maps/place/Ramchandrapur+Masjid/data=!4m7!3m6!1s0x3a025f693ace7bad:0xd1865a2b29fbe7c5!8m2!3d22.1971464!4d88.20245!16s%2Fg%2F11h1dsjd7q!19sChIJrXvOOmlfAjoRxef7KStahtE?authuser=0&hl=en&rclk=1",
        "coordinates": {
            "latitude": 22.197146399999998,
            "longitude": 88.20245
        }
    },
    {
        "name": "Patra Akhan Para Jame Masjid(paatrraa aakhn paarraa jaame msjid))",
        "main_category": "Mosque",
        "address": "6674+QRH Patra Akhan Para Jame Masjid(paatrraa aakhn paarraa jaame msjid)), Patra, Diamond Harbour, West Bengal 743368",
        "detailed_address": {
            "ward": "Patra",
            "street": "6674+QRH",
            "city": "Diamond Harbour",
            "postal_code": "743368",
            "state": "West Bengal",
            "country_code": "IN"
        },
        "images": [
            {
                "about": "All",
                "link": "https://lh5.googleusercontent.com/p/AF1QipON4OZwaiK2qdY3SssRCWLybPrBPM6pWT0gUbE_=w397-h298-k-no"
            }
        ],
        "link": "https://www.google.com/maps/place/Patra+Akhan+Para+Jame+Masjid%28%E0%A6%AA%E0%A6%BE%E0%A6%A4%E0%A7%9C%E0%A6%BE+%E0%A6%86%E0%A6%96%E0%A6%A8+%E0%A6%AA%E0%A6%BE%E0%A7%9C%E0%A6%BE+%E0%A6%9C%E0%A6%BE%E0%A6%AE%E0%A7%87+%E0%A6%AE%E0%A6%B8%E0%A6%9C%E0%A6%BF%E0%A6%A6%29%29/data=!4m7!3m6!1s0x3a025f2adb28f62f:0x2f31223938a8fa3c!8m2!3d22.2144432!4d88.2071233!16s%2Fg%2F11rqxl79_x!19sChIJL_Yo2ypfAjoRPPqoODkiMS8?authuser=0&hl=en&rclk=1",
        "coordinates": {
            "latitude": 22.214443199999998,
            "longitude": 88.20712329999999
        }
    },
    {
        "name": "Dar Patra Purkait Para O Mollapara Jame Masjid(daaNrr paatrraa purkaait paarraa o mollaa paarraa jaame msjid))",
        "main_category": "Mosque",
        "address": "6695+X83 Dar Patra Purkait Para O Mollapara Jame Masjid(daaNrr paatrraa purkaait paarraa o mollaa paarraa jaame msjid)), Diamond Harbour, West Bengal 743368",
        "detailed_address": {
            "ward": null,
            "street": "6695+X83",
            "city": "Diamond Harbour",
            "postal_code": null,
            "state": "West Bengal",
            "country_code": "IN"
        },
        "images": [],
        "link": "https://www.google.com/maps/place/Dar+Patra+Purkait+Para+O+Mollapara+Jame+Masjid%28%E0%A6%A6%E0%A6%BE%E0%A6%81%E0%A7%9C+%E0%A6%AA%E0%A6%BE%E0%A6%A4%E0%A7%9C%E0%A6%BE+%E0%A6%AA%E0%A7%81%E0%A6%B0%E0%A6%95%E0%A6%BE%E0%A6%87%E0%A6%A4+%E0%A6%AA%E0%A6%BE%E0%A7%9C%E0%A6%BE+%E0%A6%93+%E0%A6%AE%E0%A7%8B%E0%A6%B2%E0%A7%8D%E0%A6%B2%E0%A6%BE+%E0%A6%AA%E0%A6%BE%E0%A7%9C%E0%A6%BE+%E0%A6%9C%E0%A6%BE%E0%A6%AE%E0%A7%87+%E0%A6%AE%E0%A6%B8%E0%A6%9C%E0%A6%BF%E0%A6%A6%29%29/data=!4m7!3m6!1s0x3a025fb34cadbf55:0xee9d1e8c7dc75d58!8m2!3d22.2198888!4d88.2082963!16s%2Fg%2F11rqxlbxfj!19sChIJVb-tTLNfAjoRWF3HfYwene4?authuser=0&hl=en&rclk=1",
        "coordinates": {
            "latitude": 22.2198888,
            "longitude": 88.2082963
        }
    },
    {
        "name": "Masjid criminal court",
        "main_category": "Mosque",
        "address": "55PR+48V Masjid criminal court, Rabindra Nagar, Diamond Harbour, West Bengal 743331",
        "detailed_address": {
            "ward": "Rabindra Nagar",
            "street": "55PR+48V",
            "city": "Diamond Harbour",
            "postal_code": "743331",
            "state": "West Bengal",
            "country_code": "IN"
        },
        "images": [
            {
                "about": "All",
                "link": "https://streetviewpixels-pa.googleapis.com/v1/thumbnail?panoid=x0spxi1gcKfalQwB38EYXw&cb_client=maps_sv.tactile.gps&w=224&h=298&yaw=324.5517&pitch=0&thumbfov=100"
            },
            {
                "about": "Street View & 360deg",
                "link": "https://streetviewpixels-pa.googleapis.com/v1/thumbnail?panoid=x0spxi1gcKfalQwB38EYXw&cb_client=maps_sv.tactile.gps&w=224&h=298&yaw=324.5517&pitch=0&thumbfov=100"
            }
        ],
        "link": "https://www.google.com/maps/place/Masjid+criminal+court/data=!4m7!3m6!1s0x3a025f355effd30f:0xda98bb3e5938118e!8m2!3d22.1853733!4d88.1907978!16s%2Fg%2F11gjtzgfg1!19sChIJD9P_XjVfAjoRjhE4WT67mNo?authuser=0&hl=en&rclk=1",
        "coordinates": {
            "latitude": 22.1853733,
            "longitude": 88.1907978
        }
    },
    {
        "name": "Madina Jame Masjid",
        "main_category": "Mosque",
        "address": "55XQ+4CG Madina Jame Masjid, Naiya Para, Diamond Harbour, West Bengal 743331",
        "detailed_address": {
            "ward": "Naiya Para",
            "street": "55XQ+4CG",
            "city": "Diamond Harbour",
            "postal_code": "743331",
            "state": "West Bengal",
            "country_code": "IN"
        },
        "images": [],
        "link": "https://www.google.com/maps/place/Madina+Jame+Masjid/data=!4m7!3m6!1s0x3a025fc8da456e7b:0x904593d3fc63ea70!8m2!3d22.1978056!4d88.1885789!16s%2Fg%2F11t6ls2mrk!19sChIJe25F2shfAjoRcOpj_NOTRZA?authuser=0&hl=en&rclk=1",
        "coordinates": {
            "latitude": 22.1978056,
            "longitude": 88.1885789
        }
    },
    {
        "name": "Nutan Hat Khadija(RA:) Jame Masjid,nuutn haatt khaadijaa(raaH)jaame msjid)",
        "main_category": "Mosque",
        "address": "6664+VM5 Nutan Hat Khadija(RA:) Jame Masjid,nuutn haatt khaadijaa(raaH)jaame msjid), Patra, Diamond Harbour, West Bengal 743368",
        "detailed_address": {
            "ward": "Patra",
            "street": "6664+VM5",
            "city": "Diamond Harbour",
            "postal_code": "743368",
            "state": "West Bengal",
            "country_code": "IN"
        },
        "images": [
            {
                "about": "All",
                "link": "https://lh5.googleusercontent.com/p/AF1QipPCIxP7dQgmbTpLB5kUJ-NHGhBMhm4KTuibohYM=w395-h298-k-no"
            }
        ],
        "link": "https://www.google.com/maps/place/Nutan+Hat+Khadija%28RA:%29+Jame+Masjid,%E0%A6%A8%E0%A7%82%E0%A6%A4%E0%A6%A8+%E0%A6%B9%E0%A6%BE%E0%A6%9F+%E0%A6%96%E0%A6%BE%E0%A6%A6%E0%A6%BF%E0%A6%9C%E0%A6%BE%28%E0%A6%B0%E0%A6%BE%E0%A6%83%29%E0%A6%9C%E0%A6%BE%E0%A6%AE%E0%A7%87+%E0%A6%AE%E0%A6%B8%E0%A6%9C%E0%A6%BF%E0%A6%A6%29/data=!4m7!3m6!1s0x3a025feb2af30c7d:0x97006ee2c444dae0!8m2!3d22.2121302!4d88.2067366!16s%2Fg%2F11rqxkz4m_!19sChIJfQzzKutfAjoR4NpExOJuAJc?authuser=0&hl=en&rclk=1",
        "coordinates": {
            "latitude": 22.2121302,
            "longitude": 88.2067366
        }
    },
    {
        "name": "Muslim para mosjid",
        "main_category": "Mosque",
        "address": "657G+Q6J Muslim para mosjid, Diamond Harbour Rd, Ramram Pur, Kapat Hat, Diamond Harbour, West Bengal 743368",
        "detailed_address": {
            "ward": "Ramram Pur, Kapat Hat",
            "street": "657G+Q6J, Diamond Harbour Rd",
            "city": "Diamond Harbour",
            "postal_code": "743368",
            "state": "West Bengal",
            "country_code": "IN"
        },
        "images": [],
        "link": "https://www.google.com/maps/place/Muslim+para+mosjid/data=!4m7!3m6!1s0x3a025fd00f6f94c7:0x919ade22c466b792!8m2!3d22.2144615!4d88.1755105!16s%2Fg%2F11p0gb_s0m!19sChIJx5RvD9BfAjoRkrdmxCLempE?authuser=0&hl=en&rclk=1",
        "coordinates": {
            "latitude": 22.2144615,
            "longitude": 88.1755105
        }
    },
    {
        "name": "Uttor Hajipur Jame Masjid",
        "main_category": "Mosque",
        "address": "652P+9HM Uttor Hajipur Jame Masjid, Utter Hazipur, Naiya Para, Diamond Harbour, West Bengal 743331",
        "detailed_address": {
            "ward": "Naiya Para",
            "street": "652P+9HM, Utter Hazipur",
            "city": "Diamond Harbour",
            "postal_code": "743331",
            "state": "West Bengal",
            "country_code": "IN"
        },
        "images": [],
        "link": "https://www.google.com/maps/place/Uttor+Hajipur+Jame+Masjid/data=!4m7!3m6!1s0x3a025fbb5cbdb6db:0xd8a2e6c5ee999aa9!8m2!3d22.2009712!4d88.1864204!16s%2Fg%2F11smmfjtjg!19sChIJ27a9XLtfAjoRqZqZ7sXmotg?authuser=0&hl=en&rclk=1",
        "coordinates": {
            "latitude": 22.200971199999998,
            "longitude": 88.1864204
        }
    },
    {
        "name": "Home 2",
        "main_category": "Mosque",
        "address": "665C+5P9 Home 2, Hanskhali, Kabira, Diamond Harbour, West Bengal 743368",
        "detailed_address": {
            "ward": "Hanskhali",
            "street": "665C+5P9",
            "city": "Kabira, Diamond Harbour",
            "postal_code": "743368",
            "state": "West Bengal",
            "country_code": "IN"
        },
        "images": [],
        "link": "https://www.google.com/maps/place/Home+2/data=!4m7!3m6!1s0x3a025f639c27c095:0x6568fcf199e4997f!8m2!3d22.2078973!4d88.2221303!16s%2Fg%2F11vj3329ck!19sChIJlcAnnGNfAjoRf5nkmfH8aGU?authuser=0&hl=en&rclk=1",
        "coordinates": {
            "latitude": 22.2078973,
            "longitude": 88.22213029999999
        }
    },
    {
        "name": "Masjid Amjad Aliya",
        "main_category": "Religious destination",
        "address": "Masjid Amjad Aliya, Agneshwar, Diamond Harbour, West Bengal 743155",
        "detailed_address": {
            "ward": null,
            "street": "Agneshwar",
            "city": "Diamond Harbour, Agneshwar",
            "postal_code": "743155",
            "state": "West Bengal",
            "country_code": "IN"
        },
        "images": [
            {
                "about": "All",
                "link": "https://lh5.googleusercontent.com/p/AF1QipPphJbunXSzFNk5gBsabYrBiEQ5RebKtkw86xrZ=w397-h298-k-no"
            },
            {
                "about": "By owner",
                "link": "https://lh5.googleusercontent.com/p/AF1QipMYH3a0NO8XzF0cRpx6FIuWZghgzqCYbfiviCFN=w529-h298-k-no"
            }
        ],
        "link": "https://www.google.com/maps/place/Masjid+Amjad+Aliya/data=!4m7!3m6!1s0x3a025f6ab7e6a8a7:0x7515c816fb3a6543!8m2!3d22.2257292!4d88.2193381!16s%2Fg%2F11kqvs4jj5!19sChIJp6jmt2pfAjoRQ2U6-xbIFXU?authuser=0&hl=en&rclk=1",
        "coordinates": {
            "latitude": 22.2257292,
            "longitude": 88.2193381
        }
    },
    {
        "name": "Divine Jame Masjid",
        "main_category": "Mosque",
        "address": "656M+86J Divine Jame Masjid, Tikader Para, Kapat Hat, Diamond Harbour, West Bengal 743368",
        "detailed_address": {
            "ward": "Tikader Para, Kapat Hat",
            "street": "656M+86J",
            "city": "Diamond Harbour",
            "postal_code": "743368",
            "state": "West Bengal",
            "country_code": "IN"
        },
        "images": [
            {
                "about": "All",
                "link": "https://lh5.googleusercontent.com/p/AF1QipM83osC7sYJPb3Q8-yhi7DZdMSvfcsrL5P5sJCE=w224-h298-k-no"
            },
            {
                "about": "Street View & 360deg",
                "link": "https://streetviewpixels-pa.googleapis.com/v1/thumbnail?panoid=zXT-DIyEhWEAbrIHlgTgtQ&cb_client=maps_sv.tactile.gps&w=224&h=298&yaw=173.39839&pitch=0&thumbfov=100"
            }
        ],
        "link": "https://www.google.com/maps/place/Divine+Jame+Masjid/data=!4m7!3m6!1s0x3a025f7b249c4af1:0xeaf3b87e95e9f6cd!8m2!3d22.2107408!4d88.1830045!16s%2Fg%2F11tjby9mcs!19sChIJ8UqcJHtfAjoRzfbplX648-o?authuser=0&hl=en&rclk=1",
        "coordinates": {
            "latitude": 22.2107408,
            "longitude": 88.1830045
        }
    },
    {
        "name": "Masjid",
        "main_category": "Mosque",
        "address": "652P+GGP Masjid, Utter Hazipur, Naiya Para, Diamond Harbour, West Bengal 743331",
        "detailed_address": {
            "ward": "Naiya Para",
            "street": "652P+GGP, Utter Hazipur",
            "city": "Diamond Harbour",
            "postal_code": "743331",
            "state": "West Bengal",
            "country_code": "IN"
        },
        "images": [],
        "link": "https://www.google.com/maps/place/Masjid/data=!4m7!3m6!1s0x3a025f513bb43fcd:0x33ff9288cf612b91!8m2!3d22.2013429!4d88.1863171!16s%2Fg%2F11pttkc88v!19sChIJzT-0O1FfAjoRkSthz4iS_zM?authuser=0&hl=en&rclk=1",
        "coordinates": {
            "latitude": 22.2013429,
            "longitude": 88.1863171
        }
    },
    {
        "name": "K",
        "main_category": "Mosque",
        "address": "664C+H63 K, Hanskhali, Diamond Harbour, Maruibaria, West Bengal 743368",
        "detailed_address": {
            "ward": "Hanskhali",
            "street": "664C+H63",
            "city": "Diamond Harbour, Maruibaria",
            "postal_code": "743368",
            "state": "West Bengal",
            "country_code": "IN"
        },
        "images": [],
        "link": "https://www.google.com/maps/place/K/data=!4m7!3m6!1s0x3a025ff021007e79:0xd1f0cd4f5dba3ee1!8m2!3d22.2063753!4d88.2205557!16s%2Fg%2F11krlz_k5f!19sChIJeX4AIfBfAjoR4T66XU_N8NE?authuser=0&hl=en&rclk=1",
        "coordinates": {
            "latitude": 22.206375299999998,
            "longitude": 88.22055569999999
        }
    },
    {
        "name": "Potit Bagda Al Belal Jame Masjid",
        "main_category": "Mosque",
        "address": "6675+P97 Potit Bagda Al Belal Jame Masjid, Patra, Bagda, Diamond Harbour, West Bengal 743368",
        "detailed_address": {
            "ward": "Patra",
            "street": "6675+P97",
            "city": "Bagda, Diamond Harbour",
            "postal_code": "743368",
            "state": "West Bengal",
            "country_code": "IN"
        },
        "images": [
            {
                "about": "All",
                "link": "https://lh5.googleusercontent.com/p/AF1QipMKF9yMsWHwudkdwQmJg38zdfXxj0CWlv3PicDy=w224-h398-k-no"
            }
        ],
        "link": "https://www.google.com/maps/place/Potit+Bagda+Al+Belal+Jame+Masjid/data=!4m7!3m6!1s0x3a025fd706d6f383:0xc2d32f565b35a6a6!8m2!3d22.2142768!4d88.2084064!16s%2Fg%2F11s8hqm7yw!19sChIJg_PWBtdfAjoRpqY1W1Yv08I?authuser=0&hl=en&rclk=1",
        "coordinates": {
            "latitude": 22.2142768,
            "longitude": 88.2084064
        }
    },
    {
        "name": "puurb paatdd'aa jaame msjid",
        "main_category": "Mosque",
        "address": "puurb paatdd'aa jaame msjid, Purba, Patra, Diamond Harbour, West Bengal 743368",
        "detailed_address": {
            "ward": "Patra",
            "street": "Purba",
            "city": "Diamond Harbour",
            "postal_code": "743368",
            "state": "West Bengal",
            "country_code": "IN"
        },
        "images": [
            {
                "about": "All",
                "link": "https://lh5.googleusercontent.com/p/AF1QipPq-KOSqLOjeLngliZl_iCtz_TeKwolTUoAoxRh=w298-h298-k-no"
            }
        ],
        "link": "https://www.google.com/maps/place/%E0%A6%AA%E0%A7%82%E0%A6%B0%E0%A7%8D%E0%A6%AC+%E0%A6%AA%E0%A6%BE%E0%A6%A4%E0%A6%A1%E0%A6%BC%E0%A6%BE+%E0%A6%9C%E0%A6%BE%E0%A6%AE%E0%A7%87+%E0%A6%AE%E0%A6%B8%E0%A6%9C%E0%A6%BF%E0%A6%A6/data=!4m7!3m6!1s0x3a025fc6a8dcc8d1:0xc3d63c50f5a29682!8m2!3d22.2138152!4d88.2162255!16s%2Fg%2F11vcm0vk8q!19sChIJ0cjcqMZfAjoRgpai9VA81sM?authuser=0&hl=en&rclk=1",
        "coordinates": {
            "latitude": 22.2138152,
            "longitude": 88.2162255
        }
    },
    {
        "name": "chhoto kanai gachhi",
        "main_category": "Mosque",
        "address": "chhoto kanai gachhi, Dist, Chhoto Kanai Gachhi po.Nowsha, ps, Diamond Harbour, West Bengal 743368",
        "detailed_address": {
            "ward": "Ramchandrapur",
            "street": "Dist, Chhoto Kanai Gachhi po.Nowsha, ps",
            "city": "Diamond Harbour",
            "postal_code": "743368",
            "state": "West Bengal",
            "country_code": "IN"
        },
        "images": [
            {
                "about": "All",
                "link": "https://streetviewpixels-pa.googleapis.com/v1/thumbnail?panoid=vjP6DCx2vn3PejnhQ5sDeA&cb_client=maps_sv.tactile.gps&w=224&h=298&yaw=55.666336&pitch=0&thumbfov=100"
            },
            {
                "about": "Street View & 360deg",
                "link": "https://streetviewpixels-pa.googleapis.com/v1/thumbnail?panoid=vjP6DCx2vn3PejnhQ5sDeA&cb_client=maps_sv.tactile.gps&w=224&h=298&yaw=55.666336&pitch=0&thumbfov=100"
            }
        ],
        "link": "https://www.google.com/maps/place/chhoto+kanai+gachhi/data=!4m7!3m6!1s0x3a025fe030a82867:0x97d77f6a88b220c1!8m2!3d22.1945533!4d88.1948856!16s%2Fg%2F11k4nr2898!19sChIJZyioMOBfAjoRwSCyiGp_15c?authuser=0&hl=en&rclk=1",
        "coordinates": {
            "latitude": 22.1945533,
            "longitude": 88.19488559999999
        }
    },
    {
        "name": "Navi chandi jumma mosque",
        "main_category": "Mosque",
        "address": "6635+883 Navi chandi jumma mosque, Gobindapur, Purba Gobindapur, West Bengal 743368",
        "detailed_address": {
            "ward": "Gobindapur",
            "street": "6635+883",
            "city": "Purba Gobindapur",
            "postal_code": null,
            "state": "West Bengal",
            "country_code": "IN"
        },
        "images": [
            {
                "about": "All",
                "link": "https://streetviewpixels-pa.googleapis.com/v1/thumbnail?panoid=RayXvSKGrmmsNrfVaqXyyg&cb_client=maps_sv.tactile.gps&w=224&h=298&yaw=71.63955&pitch=0&thumbfov=100"
            },
            {
                "about": "Street View & 360deg",
                "link": "https://streetviewpixels-pa.googleapis.com/v1/thumbnail?panoid=RayXvSKGrmmsNrfVaqXyyg&cb_client=maps_sv.tactile.gps&w=224&h=298&yaw=71.63955&pitch=0&thumbfov=100"
            }
        ],
        "link": "https://www.google.com/maps/place/Navi+chandi+jumma+mosque/data=!4m7!3m6!1s0x3a025fc2280488ff:0x9527989001d3f81f!8m2!3d22.2032615!4d88.2083065!16s%2Fg%2F11jt58svy4!19sChIJ_4gEKMJfAjoRH_jTAZCYJ5U?authuser=0&hl=en&rclk=1",
        "coordinates": {
            "latitude": 22.2032615,
            "longitude": 88.20830649999999
        }
    },
    {
        "name": "Mete Mosque",
        "main_category": "Bank",
        "address": "55RR+9Q9 Mete Mosque, Roynagar, Hatuganj, Diamond Harbour, West Bengal 743331",
        "detailed_address": {
            "ward": "Roynagar, Hatuganj",
            "street": "55RR+9Q9",
            "city": "Diamond Harbour",
            "postal_code": "743331",
            "state": "West Bengal",
            "country_code": "IN"
        },
        "images": [],
        "link": "https://www.google.com/maps/place/Mete+Mosque/data=!4m7!3m6!1s0x3a025fa36630725f:0x3f437719a1ad9dbd!8m2!3d22.1909219!4d88.1919747!16s%2Fg%2F11b6_jzngq!19sChIJX3IwZqNfAjoRvZ2toRl3Qz8?authuser=0&hl=en&rclk=1",
        "coordinates": {
            "latitude": 22.1909219,
            "longitude": 88.1919747
        }
    }
]