[
    {
        "name": "Jama Masjid Barbil - Sunni Hanafi",
        "main_category": "Mosque",
        "address": "495P+85R Jama Masjid Barbil - Sunni Hanafi, Barbil, Odisha 758035",
        "detailed_address": {
            "ward": null,
            "street": "495P+85R",
            "city": "Barbil",
            "postal_code": "758035",
            "state": "Odisha",
            "country_code": "IN"
        },
        "images": [
            {
                "about": "All",
                "link": "https://lh5.googleusercontent.com/p/AF1QipP04vXHjYEem2ppxVYxq9YPYQVDfNLxtEQ3K5i-=w287-h298-k-no"
            }
        ],
        "link": "https://www.google.com/maps/place/Jama+Masjid+Barbil+-+Sunni+Hanafi/data=!4m7!3m6!1s0x3a1fb911f9ee9785:0xcb66ec3f37e8cc0a!8m2!3d22.108371!4d85.3853831!16s%2Fg%2F11bxkhmhnk!19sChIJhZfu-RG5HzoRCszoNz_sZss?authuser=0&hl=en&rclk=1",
        "coordinates": {
            "latitude": 22.108370999999998,
            "longitude": 85.3853831
        }
    },
    {
        "name": "Masjid E Abu Bakr - Tablighi Jamaat (Sunni Hanafi)",
        "main_category": "Mosque",
        "address": "Masjid E Abu Bakr - Tablighi Jamaat (Sunni Hanafi), Daily Market, Jame Masjid Market Complex, Barbil, Odisha 758035",
        "detailed_address": {
            "ward": null,
            "street": "Daily Market, Jame Masjid Market Complex",
            "city": "Barbil",
            "postal_code": "758035",
            "state": "Odisha",
            "country_code": "IN"
        },
        "images": [
            {
                "about": "All",
                "link": "https://lh5.googleusercontent.com/p/AF1QipPRwTjcHe7dH_z3950qiCUQNBZCQC-Sr2sDnO9K=w397-h298-k-no"
            },
            {
                "about": "Street View & 360deg",
                "link": "https://streetviewpixels-pa.googleapis.com/v1/thumbnail?panoid=27nOfP-WcKbrP8s8GTsNHw&cb_client=maps_sv.tactile.gps&w=224&h=298&yaw=318.95267&pitch=0&thumbfov=100"
            },
            {
                "about": "Videos",
                "link": "https://lh5.googleusercontent.com/p/AF1QipO9EXPn3e41QdUfaTHJB-ScylZg5KA5vwG9pLDG=w529-h298-k-no"
            }
        ],
        "link": "https://www.google.com/maps/place/Masjid+E+Abu+Bakr+-+Tablighi+Jamaat+%28Sunni+Hanafi%29/data=!4m7!3m6!1s0x3a1fb90e5a811457:0xf315bd68eaf18112!8m2!3d22.1102193!4d85.3880388!16s%2Fg%2F11bzs1h7kc!19sChIJVxSBWg65HzoREoHx6mi9FfM?authuser=0&hl=en&rclk=1",
        "coordinates": {
            "latitude": 22.1102193,
            "longitude": 85.38803879999999
        }
    },
    {
        "name": "Masjid E Taqwa Of Jamia Umar Farooq - Tablighi Jamaat (Sunni Hanafi)",
        "main_category": "Mosque",
        "address": "Masjid E Taqwa Of Jamia Umar Farooq - Tablighi Jamaat (Sunni Hanafi), Madrasa Jamia Umar Farooq, Millat Nagar, Barbil, Odisha 758035",
        "detailed_address": {
            "ward": "Millat Nagar",
            "street": "Madrasa Jamia Umar Farooq",
            "city": "Barbil",
            "postal_code": "758035",
            "state": "Odisha",
            "country_code": "IN"
        },
        "images": [
            {
                "about": "All",
                "link": "https://lh5.googleusercontent.com/p/AF1QipOo07Jfaf7ZRkFzRhw1LTmWgBpcipoSNwm00exa=w397-h298-k-no"
            }
        ],
        "link": "https://www.google.com/maps/place/Masjid+E+Taqwa+Of+Jamia+Umar+Farooq+-+Tablighi+Jamaat+%28Sunni+Hanafi%29/data=!4m7!3m6!1s0x3a1fb9a77bdb7e7d:0x92af006fcecdaac7!8m2!3d22.1101748!4d85.4027602!16s%2Fg%2F11h7cbs5fz!19sChIJfX7be6e5HzoRx6rNzm8Ar5I?authuser=0&hl=en&rclk=1",
        "coordinates": {
            "latitude": 22.1101748,
            "longitude": 85.4027602
        }
    },
    {
        "name": "Ahlehadees masjid barbil",
        "main_category": "Mosque",
        "address": "497Q+QQM Ahlehadees masjid barbil, K Ali Mohalla, Barbil, Odisha 758035",
        "detailed_address": {
            "ward": "K Ali Mohalla",
            "street": "497Q+QQM",
            "city": "Barbil",
            "postal_code": "758035",
            "state": "Odisha",
            "country_code": "IN"
        },
        "images": [
            {
                "about": "All",
                "link": "https://lh5.googleusercontent.com/p/AF1QipNyVq1WDQ42uO5Zf0Pu-2cgvZDEKj_72wjuSYEI=w529-h298-k-no"
            },
            {
                "about": "Street View & 360deg",
                "link": "https://streetviewpixels-pa.googleapis.com/v1/thumbnail?panoid=GczEj3tnQ4cYjB-yDwfBnA&cb_client=maps_sv.tactile.gps&w=224&h=298&yaw=128.60155&pitch=0&thumbfov=100"
            }
        ],
        "link": "https://www.google.com/maps/place/Ahlehadees+masjid+barbil/data=!4m7!3m6!1s0x3a1fb9dbf3ff30db:0xaaa8fdce1f9cbdbe!8m2!3d22.1145154!4d85.3893975!16s%2Fg%2F11ss4gvtxj!19sChIJ2zD_89u5HzoRvr2cH879qKo?authuser=0&hl=en&rclk=1",
        "coordinates": {
            "latitude": 22.1145154,
            "longitude": 85.3893975
        }
    },
    {
        "name": "JD house'barbil",
        "main_category": "Mosque",
        "address": "497Q+MPX JD house'barbil, Barbil, Odisha 758035",
        "detailed_address": {
            "ward": null,
            "street": "497Q+MPX",
            "city": "Barbil",
            "postal_code": "758035",
            "state": "Odisha",
            "country_code": "IN"
        },
        "images": [
            {
                "about": "All",
                "link": "https://streetviewpixels-pa.googleapis.com/v1/thumbnail?panoid=s7CcCXOyX1fSNRLTPD8VJg&cb_client=maps_sv.tactile.gps&w=224&h=298&yaw=330.5719&pitch=0&thumbfov=100"
            },
            {
                "about": "Street View & 360deg",
                "link": "https://streetviewpixels-pa.googleapis.com/v1/thumbnail?panoid=s7CcCXOyX1fSNRLTPD8VJg&cb_client=maps_sv.tactile.gps&w=224&h=298&yaw=330.5719&pitch=0&thumbfov=100"
            }
        ],
        "link": "https://www.google.com/maps/place/JD+house%27barbil/data=!4m7!3m6!1s0x3a1fb94c2a33a2cf:0x2f3c2fafd667577b!8m2!3d22.1142458!4d85.3893588!16s%2Fg%2F11pzhcw_ym!19sChIJz6IzKky5HzoRe1dn1q8vPC8?authuser=0&hl=en&rclk=1",
        "coordinates": {
            "latitude": 22.1142458,
            "longitude": 85.3893588
        }
    }
]