[
    {
        "name": "Raza Sunni Jama masjid",
        "main_category": "Religious destination",
        "address": "MGWF+H83 Raza Sunni Jama masjid, Richha, Uttar Pradesh 243201",
        "detailed_address": {
            "ward": null,
            "street": "MGWF+H83",
            "city": "Richha",
            "postal_code": "243201",
            "state": "Uttar Pradesh",
            "country_code": "IN"
        },
        "images": [
            {
                "about": "All",
                "link": "https://lh5.googleusercontent.com/p/AF1QipNcOGp4kQgW_mnLPI5anOLaDZgL_sIh_kKrNhoH=w529-h298-k-no"
            },
            {
                "about": "Street View & 360deg",
                "link": "https://streetviewpixels-pa.googleapis.com/v1/thumbnail?panoid=JmWWuPEzv9HSDXclp9yygg&cb_client=maps_sv.tactile.gps&w=224&h=298&yaw=214.27231&pitch=0&thumbfov=100"
            }
        ],
        "link": "https://www.google.com/maps/place/Raza+Sunni+Jama+masjid/data=!4m7!3m6!1s0x39a07251d6e675fb:0x22b843a167c20945!8m2!3d28.6963895!4d79.5232931!16s%2Fg%2F11c4tnbd2m!19sChIJ-3Xm1lFyoDkRRQnCZ6FDuCI?authuser=0&hl=en&rclk=1",
        "coordinates": {
            "latitude": 28.6963895,
            "longitude": 79.52329309999999
        }
    },
    {
        "name": "Sunehri Masjid",
        "main_category": "Mosque",
        "address": "MGRC+99M Sunehri Masjid, Richha, Uttar Pradesh 243203",
        "detailed_address": {
            "ward": null,
            "street": "MGRC+99M",
            "city": "Richha",
            "postal_code": "243203",
            "state": "Uttar Pradesh",
            "country_code": "IN"
        },
        "images": [],
        "link": "https://www.google.com/maps/place/Sunehri+Masjid/data=!4m7!3m6!1s0x39a07253fe704e15:0xb0f3ec1ee8e1c3a!8m2!3d28.6909662!4d79.5209193!16s%2Fg%2F11f1211fw4!19sChIJFU5w_lNyoDkROhyO7sE-Dws?authuser=0&hl=en&rclk=1",
        "coordinates": {
            "latitude": 28.6909662,
            "longitude": 79.5209193
        }
    },
    {
        "name": "msjd hli Hdyth khlN",
        "main_category": "Mosque",
        "address": "MGVC+MP7 msjd hli Hdyth khlN, Richha, Uttar Pradesh 243201",
        "detailed_address": {
            "ward": null,
            "street": "MGVC+MP7",
            "city": "Richha",
            "postal_code": "243201",
            "state": "Uttar Pradesh",
            "country_code": "IN"
        },
        "images": [
            {
                "about": "All",
                "link": "https://lh5.googleusercontent.com/p/AF1QipOJ3qjCuOWrsDVzHmf0AVhBMPCJo2qk08s_9utC=w529-h298-k-no"
            }
        ],
        "link": "https://www.google.com/maps/place/%D9%85%D8%B3%D8%AC%D8%AF+%D8%A7%DB%81%D9%84%D9%90+%D8%AD%D8%AF%DB%8C%D8%AB+%DA%A9%D9%84%D8%A7%DA%BA%E2%80%AD/data=!4m7!3m6!1s0x39a0737a4e8993c1:0xd5c5c8db76ae4ca0!8m2!3d28.6941725!4d79.5218089!16s%2Fg%2F11q4k4rc3d!19sChIJwZOJTnpzoDkRoEyudtvIxdU?authuser=0&hl=en&rclk=1",
        "coordinates": {
            "latitude": 28.694172499999997,
            "longitude": 79.5218089
        }
    },
    {
        "name": "Fatima Masjid",
        "main_category": "Museum",
        "address": "MGVC+JX5 Fatima Masjid, Richha, Uttar Pradesh 243201",
        "detailed_address": {
            "ward": null,
            "street": "MGVC+JX5",
            "city": "Richha",
            "postal_code": "243201",
            "state": "Uttar Pradesh",
            "country_code": "IN"
        },
        "images": [],
        "link": "https://www.google.com/maps/place/Fatima+Masjid/data=!4m7!3m6!1s0x39a0732f3331187d:0x200736c2f55865f3!8m2!3d28.6940249!4d79.5224869!16s%2Fg%2F11gtdt4nvq!19sChIJfRgxMy9zoDkR82VY9cI2ByA?authuser=0&hl=en&rclk=1",
        "coordinates": {
            "latitude": 28.6940249,
            "longitude": 79.52248689999999
        }
    },
    {
        "name": "Qadri Masjid",
        "main_category": "School",
        "address": "MGVC+CJP Qadri Masjid, Richha, Uttar Pradesh 243203",
        "detailed_address": {
            "ward": null,
            "street": "MGVC+CJP",
            "city": "Richha",
            "postal_code": null,
            "state": "Uttar Pradesh",
            "country_code": "IN"
        },
        "images": [],
        "link": "https://www.google.com/maps/place/Qadri+Masjid/data=!4m7!3m6!1s0x39a07251785c69ad:0xfe7c513bca2213e6!8m2!3d28.6935772!4d79.521563!16s%2Fg%2F11hcj11w5g!19sChIJrWlceFFyoDkR5hMiyjtRfP4?authuser=0&hl=en&rclk=1",
        "coordinates": {
            "latitude": 28.6935772,
            "longitude": 79.521563
        }
    },
    {
        "name": "Bilal Masjid",
        "main_category": "Mosque",
        "address": "MGR9+QWC Bilal Masjid, Richha, Uttar Pradesh 243203",
        "detailed_address": {
            "ward": null,
            "street": "MGR9+QWC",
            "city": "Richha",
            "postal_code": "243203",
            "state": "Uttar Pradesh",
            "country_code": "IN"
        },
        "images": [],
        "link": "https://www.google.com/maps/place/Bilal+Masjid/data=!4m7!3m6!1s0x39a073eded7ba3f3:0xd3bbbaa17b06b3a9!8m2!3d28.6919391!4d79.5197598!16s%2Fg%2F11l2cr93gn!19sChIJ86N77e1zoDkRqbMGe6G6u9M?authuser=0&hl=en&rclk=1",
        "coordinates": {
            "latitude": 28.6919391,
            "longitude": 79.5197598
        }
    },
    {
        "name": "Sunni Eidgah",
        "main_category": "Mosque",
        "address": "MGX8+56Q Sunni Eidgah, Richha, Uttar Pradesh 243203",
        "detailed_address": {
            "ward": null,
            "street": "MGX8+56Q",
            "city": "Richha",
            "postal_code": null,
            "state": "Uttar Pradesh",
            "country_code": "IN"
        },
        "images": [
            {
                "about": "All",
                "link": "https://lh5.googleusercontent.com/p/AF1QipODf7ZKWLSxLnuW-x7XIkB9sEdS_FXWN6-z8anl=w447-h298-k-no"
            },
            {
                "about": "Dome",
                "link": "https://lh5.googleusercontent.com/p/AF1QipODf7ZKWLSxLnuW-x7XIkB9sEdS_FXWN6-z8anl=w447-h298-k-no"
            },
            {
                "about": "Street View & 360deg",
                "link": "https://streetviewpixels-pa.googleapis.com/v1/thumbnail?panoid=3SAV1VVuqpj-pF6fX8dV7w&cb_client=maps_sv.tactile.gps&w=224&h=298&yaw=199.68668&pitch=0&thumbfov=100"
            }
        ],
        "link": "https://www.google.com/maps/place/Sunni+Eidgah/data=!4m7!3m6!1s0x39a0733636133eed:0x60650b0bc553da8e!8m2!3d28.6979599!4d79.5156071!16s%2Fg%2F11h1kd8784!19sChIJ7T4TNjZzoDkRjtpTxQsLZWA?authuser=0&hl=en&rclk=1",
        "coordinates": {
            "latitude": 28.697959899999997,
            "longitude": 79.5156071
        }
    },
    {
        "name": "Masjid Mohammadi",
        "main_category": null,
        "address": "MGVG+HX8 Masjid Mohammadi, National Rice Mill ke samne, Richha, Uttar Pradesh 243201",
        "detailed_address": {
            "ward": null,
            "street": "MGVG+HX8 National Rice Mill ke samne",
            "city": "Richha",
            "postal_code": "243201",
            "state": "Uttar Pradesh",
            "country_code": "IN"
        },
        "images": [
            {
                "about": "All",
                "link": "https://streetviewpixels-pa.googleapis.com/v1/thumbnail?panoid=Xkzm_12JuQkhKaxShrqIGw&cb_client=maps_sv.tactile.gps&w=224&h=298&yaw=182.35138&pitch=0&thumbfov=100"
            },
            {
                "about": "Street View & 360deg",
                "link": "https://streetviewpixels-pa.googleapis.com/v1/thumbnail?panoid=Xkzm_12JuQkhKaxShrqIGw&cb_client=maps_sv.tactile.gps&w=224&h=298&yaw=182.35138&pitch=0&thumbfov=100"
            }
        ],
        "link": "https://www.google.com/maps/place/Masjid+Mohammadi/data=!4m7!3m6!1s0x39a073fe676b11cf:0x953764aa57eafefc!8m2!3d28.6939281!4d79.5274322!16s%2Fg%2F11t6z7g5bf!19sChIJzxFrZ_5zoDkR_P7qV6pkN5U?authuser=0&hl=en&rclk=1",
        "coordinates": {
            "latitude": 28.693928099999997,
            "longitude": 79.52743219999999
        }
    }
]