[
    {
        "name": "Noorani Masjid",
        "main_category": "Mosque",
        "address": "Noorani Masjid, B.D. Colony, Bapu Dham Colony, Sector 26 East, Chandigarh, 160019",
        "detailed_address": {
            "ward": "B.D. Colony, Bapu Dham Colony, Sector 26 East",
            "street": null,
            "city": "Chandigarh",
            "postal_code": "160019",
            "state": "Chandigarh",
            "country_code": "IN"
        },
        "images": [
            {
                "about": "All",
                "link": "https://lh5.googleusercontent.com/p/AF1QipPw9C6ul36WydkM9E_N2etX5KBRHSdAtoVMCoW_=w395-h298-k-no"
            },
            {
                "about": "Street View & 360deg",
                "link": "https://streetviewpixels-pa.googleapis.com/v1/thumbnail?panoid=EnM8l9Ytn2Abm-BFlUClzw&cb_client=maps_sv.tactile.gps&w=224&h=298&yaw=303.89728&pitch=0&thumbfov=100"
            },
            {
                "about": "Videos",
                "link": "https://lh5.googleusercontent.com/p/AF1QipMbfCu1TVfjxF14MQNW3Wg4zArXG7KO3z45S9Cv=w224-h395-k-no"
            }
        ],
        "link": "https://www.google.com/maps/place/Noorani+Masjid/data=!4m7!3m6!1s0x390fecd71687f4e9:0x6d1e70f9ab0fc5ef!8m2!3d30.7170713!4d76.816817!16s%2Fg%2F1pzsg9955!19sChIJ6fSHFtfsDzkR78UPq_lwHm0?authuser=0&hl=en&rclk=1",
        "coordinates": {
            "latitude": 30.717071299999997,
            "longitude": 76.816817
        }
    },
    {
        "name": "Maniyar Masjid",
        "main_category": "Mosque",
        "address": "X5J8+R3F Maniyar Masjid, Ranjitpur, Uttar Pradesh 277207",
        "detailed_address": {
            "ward": null,
            "street": "X5J8+R3F",
            "city": "Ranjitpur",
            "postal_code": "277207",
            "state": "Uttar Pradesh",
            "country_code": "IN"
        },
        "images": [
            {
                "about": "All",
                "link": "https://lh5.googleusercontent.com/p/AF1QipMlJnIuHW_7oXM62a6Polu7r3BLgWvbuneu3mpl=w224-h298-k-no"
            },
            {
                "about": "Dome",
                "link": "https://lh5.googleusercontent.com/p/AF1QipNin1NOZpO8uYwrx1DH3HXHdT1rbaG86-9xZl3P=w397-h298-k-no"
            },
            {
                "about": "Videos",
                "link": "https://lh5.googleusercontent.com/p/AF1QipMgMrnJHFZgLY0E71ojJoabuL7GweToIObzbXt8=w224-h398-k-no"
            }
        ],
        "link": "https://www.google.com/maps/place/Maniyar+Masjid/data=!4m7!3m6!1s0x39925c37e5c19c8b:0xf8ecb039a9b10f4d!8m2!3d25.9820625!4d84.1651839!16s%2Fg%2F11g6b11hpl!19sChIJi5zB5TdckjkRTQ-xqTmw7Pg?authuser=0&hl=en&rclk=1",
        "coordinates": {
            "latitude": 25.982062499999998,
            "longitude": 84.1651839
        }
    },
    {
        "name": "Masjid-E-Rukaiya",
        "main_category": "Mosque",
        "address": "Masjid-E-Rukaiya, Ward no-4, Islampura, Laxmangarh, Rajasthan 332311",
        "detailed_address": {
            "ward": null,
            "street": "Ward no-4, Islampura",
            "city": "Laxmangarh",
            "postal_code": "332311",
            "state": "Rajasthan",
            "country_code": "IN"
        },
        "images": [
            {
                "about": "All",
                "link": "https://lh5.googleusercontent.com/p/AF1QipOifEFTJYgULy5_7J3roHW2JZahcRmR0nrXSfF8=w397-h298-k-no"
            },
            {
                "about": "Street View & 360deg",
                "link": "https://lh5.googleusercontent.com/p/AF1QipPfxyVW9XJnqZkSaN36JMJrQa79eFUvNVKHq-xl=w224-h298-k-no-pi0-ya357.00003-ro-0-fo100"
            }
        ],
        "link": "https://www.google.com/maps/place/Masjid-E-Rukaiya/data=!4m7!3m6!1s0x396cab053be91045:0xc8511083a763bb1f!8m2!3d27.8121932!4d75.0241231!16s%2Fg%2F11cr_yj0tc!19sChIJRRDpOwWrbDkRH7tjp4MQUcg?authuser=0&hl=en&rclk=1",
        "coordinates": {
            "latitude": 27.8121932,
            "longitude": 75.0241231
        }
    },
    {
        "name": "Madina Masjid Menasar",
        "main_category": "Mosque",
        "address": "WMGM+VMM Madina Masjid Menasar, Menasar, Rajasthan 331505",
        "detailed_address": {
            "ward": null,
            "street": "WMGM+VMM",
            "city": "Menasar",
            "postal_code": "331505",
            "state": "Rajasthan",
            "country_code": "IN"
        },
        "images": [
            {
                "about": "All",
                "link": "https://lh5.googleusercontent.com/p/AF1QipPjtJO9bwNyKmVLMSwcZmCStH5xTa4fPudxzGMZ=w224-h298-k-no"
            }
        ],
        "link": "https://www.google.com/maps/place/Madina+Masjid+Menasar/data=!4m7!3m6!1s0x3914b6cb09451611:0x7c9427df49f55a2b!8m2!3d27.9275428!4d74.6840826!16s%2Fg%2F11gcm09yq8!19sChIJERZFCcu2FDkRK1r1Sd8nlHw?authuser=0&hl=en&rclk=1",
        "coordinates": {
            "latitude": 27.927542799999998,
            "longitude": 74.6840826
        }
    },
    {
        "name": "Noorani Masjid",
        "main_category": "Mosque",
        "address": "R28F+C57 Noorani Masjid, Laxmangarh, Rajasthan 332311",
        "detailed_address": {
            "ward": null,
            "street": "R28F+C57",
            "city": "Laxmangarh",
            "postal_code": "332311",
            "state": "Rajasthan",
            "country_code": "IN"
        },
        "images": [
            {
                "about": "All",
                "link": "https://lh5.googleusercontent.com/p/AF1QipMmT6MMeuaZqhwOhSAFhGM44AGG-NdwywSUHKUW=w224-h298-k-no"
            },
            {
                "about": "Dome",
                "link": "https://lh5.googleusercontent.com/p/AF1QipMmT6MMeuaZqhwOhSAFhGM44AGG-NdwywSUHKUW=w224-h298-k-no"
            },
            {
                "about": "Videos",
                "link": "https://lh5.googleusercontent.com/p/AF1QipMyuX-JbNr5TWPOvXdXn13Lb96lK2ukY_OJc2dj=w224-h398-k-no"
            },
            {
                "about": "Street View & 360deg",
                "link": "https://streetviewpixels-pa.googleapis.com/v1/thumbnail?panoid=GKeD3Mr7yS3edYBB7zxK2g&cb_client=maps_sv.tactile.gps&w=224&h=298&yaw=282.89404&pitch=0&thumbfov=100"
            }
        ],
        "link": "https://www.google.com/maps/place/Noorani+Masjid/data=!4m7!3m6!1s0x396cab1baa4edef7:0x14e4fabbc79b4981!8m2!3d27.8160402!4d75.0229292!16s%2Fg%2F11gg73kt90!19sChIJ995OqhurbDkRgUmbx7v65BQ?authuser=0&hl=en&rclk=1",
        "coordinates": {
            "latitude": 27.8160402,
            "longitude": 75.0229292
        }
    },
    {
        "name": "Minara Masjid",
        "main_category": "Mosque",
        "address": "52XW+VXQ Minara Masjid, Mahansar, Rajasthan 331030",
        "detailed_address": {
            "ward": null,
            "street": "52XW+VXQ",
            "city": "Mahansar",
            "postal_code": "331030",
            "state": "Rajasthan",
            "country_code": "IN"
        },
        "images": [
            {
                "about": "All",
                "link": "https://lh5.googleusercontent.com/p/AF1QipPpn6R3wsR5fzH1iRTFIlZWBJJKrdAINZkFwnk=w397-h298-k-no"
            }
        ],
        "link": "https://www.google.com/maps/place/Minara+Masjid/data=!4m7!3m6!1s0x39135e1191a4ec25:0xf3df4c304b447272!8m2!3d28.1997003!4d75.0474864!16s%2Fg%2F11g8fmj321!19sChIJJeykkRFeEzkRcnJESzBM3_M?authuser=0&hl=en&rclk=1",
        "coordinates": {
            "latitude": 28.1997003,
            "longitude": 75.0474864
        }
    },
    {
        "name": "Jama Masjid",
        "main_category": "Mosque",
        "address": "3XFQ+M7R Jama Masjid, Hetamsar, Goriya Chhota, Rajasthan 332303",
        "detailed_address": {
            "ward": null,
            "street": "3XFQ+M7R",
            "city": "Hetamsar, Goriya Chhota",
            "postal_code": "332303",
            "state": "Rajasthan",
            "country_code": "IN"
        },
        "images": [
            {
                "about": "All",
                "link": "https://lh5.googleusercontent.com/p/AF1QipP29hLCEgoP-m-Rw0WBRpzPAN5-uDwnCLA5KL57=w397-h298-k-no"
            }
        ],
        "link": "https://www.google.com/maps/place/Jama+Masjid/data=!4m7!3m6!1s0x3913588af7cdd519:0xc0f2646ac81439ca!8m2!3d28.0742466!4d74.9881462!16s%2Fg%2F11fx9db408!19sChIJGdXN94pYEzkRyjkUyGpk8sA?authuser=0&hl=en&rclk=1",
        "coordinates": {
            "latitude": 28.0742466,
            "longitude": 74.9881462
        }
    },
    {
        "name": "Masjid maannkii",
        "main_category": "Mosque",
        "address": "JV57+JM8 Masjid maannkii, Manki, Rajasthan 301026",
        "detailed_address": {
            "ward": null,
            "street": "JV57+JM8",
            "city": "Manki",
            "postal_code": "301026",
            "state": "Rajasthan",
            "country_code": "IN"
        },
        "images": [
            {
                "about": "All",
                "link": "https://lh5.googleusercontent.com/p/AF1QipPwJPvfcOzmtLlS4KLJDt8TEKQaqp-lPw7C0fGJ=w224-h398-k-no"
            },
            {
                "about": "Street View & 360deg",
                "link": "https://streetviewpixels-pa.googleapis.com/v1/thumbnail?panoid=nrKsG-iQFjdGWTr4I4Ztdg&cb_client=maps_sv.tactile.gps&w=224&h=298&yaw=291.13675&pitch=0&thumbfov=100"
            },
            {
                "about": "Videos",
                "link": "https://lh5.googleusercontent.com/p/AF1QipMIzVZRM2b1HB9YLfKJ_X4lGCs52FGxK75m7xOT=w224-h398-k-no"
            }
        ],
        "link": "https://www.google.com/maps/place/Masjid+%E0%A4%AE%E0%A4%BE%E0%A4%A3%E0%A4%95%E0%A5%80/data=!4m7!3m6!1s0x3972ebe9626563b5:0x951c077794ce2887!8m2!3d27.609029!4d76.8642149!16s%2Fg%2F11h6lqqgqn!19sChIJtWNlYunrcjkRhyjOlHcHHJU?authuser=0&hl=en&rclk=1",
        "coordinates": {
            "latitude": 27.609029,
            "longitude": 76.8642149
        }
    },
    {
        "name": "Jama Masjid",
        "main_category": "Mosque",
        "address": "VHV3+47X Jama Masjid, Jalia II-Kaniya Rd, Kaniya, Rajasthan 305625",
        "detailed_address": {
            "ward": null,
            "street": "VHV3+47X, Jalia II-Kaniya Rd",
            "city": "Kaniya",
            "postal_code": "305625",
            "state": "Rajasthan",
            "country_code": "IN"
        },
        "images": [
            {
                "about": "All",
                "link": "https://lh5.googleusercontent.com/p/AF1QipMXWdrm4Xs1JB4ceEFKgqgdwOrrEMQzN87R-h7o=w224-h298-k-no"
            },
            {
                "about": "Videos",
                "link": "https://lh5.googleusercontent.com/p/AF1QipPtgrXxsmFZAuPHMXQlzHz6rwMHVGhQWmdTz1l6=w224-h398-k-no"
            }
        ],
        "link": "https://www.google.com/maps/place/Jama+Masjid/data=!4m7!3m6!1s0x396915b69664c247:0xdbc418311ac4e396!8m2!3d25.8928609!4d74.5532344!16s%2Fg%2F11cn6kdqd4!19sChIJR8JklrYVaTkRluPEGjEYxNs?authuser=0&hl=en&rclk=1",
        "coordinates": {
            "latitude": 25.8928609,
            "longitude": 74.5532344
        }
    },
    {
        "name": "Madina Masjid Rinu",
        "main_category": "Mosque",
        "address": "V2WM+3JF Madina Masjid Rinu, Rinu, Rajasthan 332311",
        "detailed_address": {
            "ward": null,
            "street": "V2WM+3JF",
            "city": "Rinu",
            "postal_code": null,
            "state": "Rajasthan",
            "country_code": "IN"
        },
        "images": [
            {
                "about": "All",
                "link": "https://lh5.googleusercontent.com/p/AF1QipP2SBXB0p9C_669kFldmSGPvphI5-hizo7vKIgK=w224-h298-k-no"
            },
            {
                "about": "Street View & 360deg",
                "link": "https://streetviewpixels-pa.googleapis.com/v1/thumbnail?panoid=qYZUTI1MbnvD5zmIMDZQEQ&cb_client=maps_sv.tactile.gps&w=224&h=298&yaw=231.73106&pitch=0&thumbfov=100"
            }
        ],
        "link": "https://www.google.com/maps/place/Madina+Masjid+Rinu/data=!4m7!3m6!1s0x391355654d8609bf:0xb183e4f99b25fb78!8m2!3d27.8951926!4d75.0340589!16s%2Fg%2F11f9zc55kh!19sChIJvwmGTWVVEzkRePslm_nkg7E?authuser=0&hl=en&rclk=1",
        "coordinates": {
            "latitude": 27.895192599999998,
            "longitude": 75.03405889999999
        }
    },
    {
        "name": "jama masjid",
        "main_category": "Mosque",
        "address": "P34W+2HR jama masjid, Basni Sumer, Rajasthan 341510",
        "detailed_address": {
            "ward": null,
            "street": "P34W+2HR",
            "city": "Basni Sumer",
            "postal_code": "341510",
            "state": "Rajasthan",
            "country_code": "IN"
        },
        "images": [
            {
                "about": "All",
                "link": "https://lh5.googleusercontent.com/p/AF1QipMHIManjT7sJ54TNHvq4f5g8TfCsAp-xpDJR_9w=w299-h298-k-no"
            },
            {
                "about": "Street View & 360deg",
                "link": "https://streetviewpixels-pa.googleapis.com/v1/thumbnail?panoid=bEb5LGh9t-4rnrvQTqMeTw&cb_client=maps_sv.tactile.gps&w=224&h=298&yaw=350.21075&pitch=0&thumbfov=100"
            }
        ],
        "link": "https://www.google.com/maps/place/jama+masjid/data=!4m7!3m6!1s0x396a4970f30e5b4f:0xfee36523b37206a4!8m2!3d26.7051021!4d74.0963847!16s%2Fg%2F11j3s8g2xy!19sChIJT1sO83BJajkRpAZysyNl4_4?authuser=0&hl=en&rclk=1",
        "coordinates": {
            "latitude": 26.705102099999998,
            "longitude": 74.0963847
        }
    },
    {
        "name": "Jama Masjid Mindasari",
        "main_category": "Mosque",
        "address": "FGV8+GWV Jama Masjid Mindasari, Mindasari, Rajasthan 341303",
        "detailed_address": {
            "ward": null,
            "street": "FGV8+GWV",
            "city": "Mindasari",
            "postal_code": "341303",
            "state": "Rajasthan",
            "country_code": "IN"
        },
        "images": [
            {
                "about": "All",
                "link": "https://lh5.googleusercontent.com/p/AF1QipOv-mJTrHt2RbbkkqFCBaWrhcGG_z91Cd8cw0pz=w397-h298-k-no"
            }
        ],
        "link": "https://www.google.com/maps/place/Jama+Masjid+Mindasari/data=!4m7!3m6!1s0x396b3ebe062170db:0xb603cc8056e6b8c7!8m2!3d27.4938605!4d74.5172909!16s%2Fg%2F11gfgdjcp9!19sChIJ23AhBr4-azkRx7jmVoDMA7Y?authuser=0&hl=en&rclk=1",
        "coordinates": {
            "latitude": 27.4938605,
            "longitude": 74.51729089999999
        }
    },
    {
        "name": "USMANIYA MASJID",
        "main_category": "Mosque",
        "address": "3JH5+VJF USMANIYA MASJID, Ratangarh, Rajasthan 331022",
        "detailed_address": {
            "ward": null,
            "street": "3JH5+VJF",
            "city": "Ratangarh",
            "postal_code": "331022",
            "state": "Rajasthan",
            "country_code": "IN"
        },
        "images": [],
        "link": "https://www.google.com/maps/place/USMANIYA+MASJID/data=!4m7!3m6!1s0x3914bf4c3ee6180f:0x18151464e9790714!8m2!3d28.0796777!4d74.6090414!16s%2Fg%2F11c6r2_yhf!19sChIJDxjmPky_FDkRFAd56WQUFRg?authuser=0&hl=en&rclk=1",
        "coordinates": {
            "latitude": 28.079677699999998,
            "longitude": 74.6090414
        }
    },
    {
        "name": "Madina Masjid",
        "main_category": "Mosque",
        "address": "Madina Masjid, Tanee, Rajasthan 331030",
        "detailed_address": {
            "ward": null,
            "street": null,
            "city": "Tanee",
            "postal_code": "331030",
            "state": "Rajasthan",
            "country_code": "IN"
        },
        "images": [
            {
                "about": "All",
                "link": "https://lh5.googleusercontent.com/p/AF1QipMg1ST5BZfB0huWtQVhF27QYUALnRguq6fU1JIn=w397-h298-k-no"
            }
        ],
        "link": "https://www.google.com/maps/place/Madina+Masjid/data=!4m7!3m6!1s0x39135d603acd595b:0xdbab884b3bb0bb00!8m2!3d28.1802054!4d75.1229684!16s%2Fg%2F11ll_gcyl0!19sChIJW1nNOmBdEzkRALuwO0uIq9s?authuser=0&hl=en&rclk=1",
        "coordinates": {
            "latitude": 28.1802054,
            "longitude": 75.12296839999999
        }
    },
    {
        "name": "Jama Masjid",
        "main_category": "Mosque",
        "address": "Jama Masjid, Sherda, Rajasthan 335503",
        "detailed_address": {
            "ward": null,
            "street": null,
            "city": "Sherda",
            "postal_code": "335503",
            "state": "Rajasthan",
            "country_code": "IN"
        },
        "images": [
            {
                "about": "All",
                "link": "https://lh5.googleusercontent.com/p/AF1QipNxGpceRV7IJx6njQOPl5mdqsg46AGm5Q8BAbgB=w224-h298-k-no"
            }
        ],
        "link": "https://www.google.com/maps/place/Jama+Masjid/data=!4m7!3m6!1s0x3913b865d0050a8d:0x6eb387fe07d8a2f!8m2!3d28.9783081!4d75.4903235!16s%2Fg%2F11f2ckv0ky!19sChIJjQoF0GW4EzkRL4p94H846wY?authuser=0&hl=en&rclk=1",
        "coordinates": {
            "latitude": 28.9783081,
            "longitude": 75.4903235
        }
    },
    {
        "name": "Umer Masjid",
        "main_category": "Mosque",
        "address": "R29F+H2V Umer Masjid, Unnamed Road, Laxmangarh, Rajasthan 332311",
        "detailed_address": {
            "ward": null,
            "street": "R29F+H2V, Unnamed Road",
            "city": "Laxmangarh",
            "postal_code": "332311",
            "state": "Rajasthan",
            "country_code": "IN"
        },
        "images": [
            {
                "about": "All",
                "link": "https://lh5.googleusercontent.com/p/AF1QipO2Q1UvfbRMKgAbJg6RkmzT70c6omjxeB7nG-Kb=w397-h298-k-no"
            },
            {
                "about": "Street View & 360deg",
                "link": "https://streetviewpixels-pa.googleapis.com/v1/thumbnail?panoid=o9tkQvcbqzFyMJ4Aebzx6A&cb_client=maps_sv.tactile.gps&w=224&h=298&yaw=292.17642&pitch=0&thumbfov=100"
            }
        ],
        "link": "https://www.google.com/maps/place/Umer+Masjid/data=!4m7!3m6!1s0x396cabd4990a67b5:0x10f2fb480794afca!8m2!3d27.8189791!4d75.0225526!16s%2Fg%2F11f5q057wp!19sChIJtWcKmdSrbDkRyq-UB0j78hA?authuser=0&hl=en&rclk=1",
        "coordinates": {
            "latitude": 27.8189791,
            "longitude": 75.0225526
        }
    },
    {
        "name": "Mundiya Khera Masjid",
        "main_category": "Mosque",
        "address": "JPW2+P92 Mundiya Khera Masjid, Shaudan home road, Mundiya Khera, Rajasthan 301028",
        "detailed_address": {
            "ward": null,
            "street": "JPW2+P92, Shaudan home road",
            "city": "Mundiya Khera",
            "postal_code": "301028",
            "state": "Rajasthan",
            "country_code": "IN"
        },
        "images": [
            {
                "about": "All",
                "link": "https://streetviewpixels-pa.googleapis.com/v1/thumbnail?panoid=wmgbnIjjw3M5khBxn1ID8A&cb_client=maps_sv.tactile.gps&w=224&h=298&yaw=255.60168&pitch=0&thumbfov=100"
            },
            {
                "about": "Street View & 360deg",
                "link": "https://streetviewpixels-pa.googleapis.com/v1/thumbnail?panoid=wmgbnIjjw3M5khBxn1ID8A&cb_client=maps_sv.tactile.gps&w=224&h=298&yaw=255.60168&pitch=0&thumbfov=100"
            }
        ],
        "link": "https://www.google.com/maps/place/Mundiya+Khera+Masjid/data=!4m7!3m6!1s0x397297d7ed7ce409:0x7d549dfcefc8e9ee!8m2!3d27.6467734!4d76.7008985!16s%2Fg%2F11j64qxhr8!19sChIJCeR87deXcjkR7unI7_ydVH0?authuser=0&hl=en&rclk=1",
        "coordinates": {
            "latitude": 27.646773399999997,
            "longitude": 76.7008985
        }
    },
    {
        "name": "Modawasi Masjid moddvaasii msjid",
        "main_category": "Mosque",
        "address": "P838+J4C Modawasi Masjid moddvaasii msjid, Rajgarh Rd, Modawasi, Rajasthan 331023",
        "detailed_address": {
            "ward": null,
            "street": "P838+J4C, Rajgarh Rd",
            "city": "Modawasi",
            "postal_code": "331023",
            "state": "Rajasthan",
            "country_code": "IN"
        },
        "images": [],
        "link": "https://www.google.com/maps/place/Modawasi+Masjid+%E0%A4%AE%E0%A5%8B%E0%A4%A1%E0%A4%B5%E0%A4%BE%E0%A4%B8%E0%A5%80+%E0%A4%AE%E0%A4%B8%E0%A5%8D%E0%A4%9C%E0%A4%BF%E0%A4%A6/data=!4m7!3m6!1s0x3913991e03c91b4d:0xf95b665c95966cc6!8m2!3d28.7040702!4d75.3152534!16s%2Fg%2F11h5646542!19sChIJTRvJAx6ZEzkRxmyWlVxmW_k?authuser=0&hl=en&rclk=1",
        "coordinates": {
            "latitude": 28.7040702,
            "longitude": 75.3152534
        }
    },
    {
        "name": "masjid mainasar",
        "main_category": "Mosque",
        "address": "WMHM+FX3 masjid mainasar, Menasar, Rajasthan 331022",
        "detailed_address": {
            "ward": null,
            "street": "WMHM+FX3",
            "city": "Menasar",
            "postal_code": "331022",
            "state": "Rajasthan",
            "country_code": "IN"
        },
        "images": [
            {
                "about": "All",
                "link": "https://lh5.googleusercontent.com/p/AF1QipOV6TW08tKgPj9utfbRBSO3GHus8PkwzZ4KEieo=w224-h406-k-no"
            },
            {
                "about": "Street View & 360deg",
                "link": "https://streetviewpixels-pa.googleapis.com/v1/thumbnail?panoid=Xx58RQQAyyNVnHnUhcJoCQ&cb_client=maps_sv.tactile.gps&w=224&h=298&yaw=137.1131&pitch=0&thumbfov=100"
            },
            {
                "about": "Videos",
                "link": "https://lh5.googleusercontent.com/p/AF1QipOFNIwdFCO249FsfDPdUCBEooCMvmz8p_yvLuAX=w224-h398-k-no"
            }
        ],
        "link": "https://www.google.com/maps/place/masjid+mainasar/data=!4m7!3m6!1s0x3914b6cb6ee34abb:0xa7918680ec8c694f!8m2!3d27.9286386!4d74.6849305!16s%2Fg%2F11c2y5tctf!19sChIJu0rjbsu2FDkRT2mM7ICGkac?authuser=0&hl=en&rclk=1",
        "coordinates": {
            "latitude": 27.9286386,
            "longitude": 74.6849305
        }
    },
    {
        "name": "Masjid Kanwari",
        "main_category": "Mosque",
        "address": "WM7J+3F8 Masjid Kanwari, Kanwari, Rajasthan 331505",
        "detailed_address": {
            "ward": null,
            "street": "WM7J+3F8",
            "city": "Kanwari",
            "postal_code": "331505",
            "state": "Rajasthan",
            "country_code": "IN"
        },
        "images": [
            {
                "about": "All",
                "link": "https://lh5.googleusercontent.com/p/AF1QipMeFmdaGLVgUKK7RDHEG8iYMMfi5vdkInKnCWB7=w224-h407-k-no"
            },
            {
                "about": "Videos",
                "link": "https://lh5.googleusercontent.com/p/AF1QipMeFmdaGLVgUKK7RDHEG8iYMMfi5vdkInKnCWB7=w224-h407-k-no"
            }
        ],
        "link": "https://www.google.com/maps/place/Masjid+Kanwari/data=!4m7!3m6!1s0x3914b6b202f49d01:0xa36f143d75fcd88a!8m2!3d27.9126542!4d74.6811942!16s%2Fg%2F11fy4t2pv6!19sChIJAZ30ArK2FDkRitj8dT0Ub6M?authuser=0&hl=en&rclk=1",
        "coordinates": {
            "latitude": 27.9126542,
            "longitude": 74.6811942
        }
    },
    {
        "name": "maszid madansar",
        "main_category": "Mosque",
        "address": "472H+278 maszid madansar, Madansar, Rajasthan 333001",
        "detailed_address": {
            "ward": null,
            "street": "472H+278",
            "city": "Madansar",
            "postal_code": "333001",
            "state": "Rajasthan",
            "country_code": "IN"
        },
        "images": [
            {
                "about": "All",
                "link": "https://lh5.googleusercontent.com/p/AF1QipNIgqoes0m9ZvWjU-Nlp-hZeWMYZSV96CQJ0aY=w397-h298-k-no"
            },
            {
                "about": "Dome",
                "link": "https://lh5.googleusercontent.com/p/AF1QipNIgqoes0m9ZvWjU-Nlp-hZeWMYZSV96CQJ0aY=w397-h298-k-no"
            }
        ],
        "link": "https://www.google.com/maps/place/maszid+madansar/data=!4m7!3m6!1s0x39134753c5e58a67:0x156a99430ee81520!8m2!3d28.1000349!4d75.2782093!16s%2Fg%2F11h6gwkc1z!19sChIJZ4rlxVNHEzkRIBXoDkOZahU?authuser=0&hl=en&rclk=1",
        "coordinates": {
            "latitude": 28.100034899999997,
            "longitude": 75.2782093
        }
    },
    {
        "name": "Maridan Masjid",
        "main_category": "Mosque",
        "address": "49JX+MJV Maridan Masjid, Seth Manna Lal Marg, Chobari Mandi Colony, Jhunjhunu, Rajasthan 333001",
        "detailed_address": {
            "ward": "Chobari Mandi Colony",
            "street": "49JX+MJV, Seth Manna Lal Marg",
            "city": "Jhunjhunu",
            "postal_code": "333001",
            "state": "Rajasthan",
            "country_code": "IN"
        },
        "images": [
            {
                "about": "All",
                "link": "https://streetviewpixels-pa.googleapis.com/v1/thumbnail?panoid=5Q5Rswt4rL4B1zpYkzuLFw&cb_client=maps_sv.tactile.gps&w=224&h=298&yaw=313.50455&pitch=0&thumbfov=100"
            },
            {
                "about": "Street View & 360deg",
                "link": "https://streetviewpixels-pa.googleapis.com/v1/thumbnail?panoid=5Q5Rswt4rL4B1zpYkzuLFw&cb_client=maps_sv.tactile.gps&w=224&h=298&yaw=313.50455&pitch=0&thumbfov=100"
            }
        ],
        "link": "https://www.google.com/maps/place/Maridan+Masjid/data=!4m7!3m6!1s0x391339060db61fc3:0xcf2a2bcf0ce2466!8m2!3d28.1317445!4d75.3990609!16s%2Fg%2F11g195gr6v!19sChIJwx-2DQY5EzkRZiTO8Lyi8gw?authuser=0&hl=en&rclk=1",
        "coordinates": {
            "latitude": 28.1317445,
            "longitude": 75.3990609
        }
    },
    {
        "name": "Masjid Maniyabass",
        "main_category": "Mosque",
        "address": "Q36H+6CR Masjid Maniyabass, Jamalgarh Bewan, Raod, Manyabass, Haryana",
        "detailed_address": {
            "ward": null,
            "street": "Q36H+6CR, Jamalgarh Bewan, Raod",
            "city": "Manyabass, Kanwari",
            "postal_code": null,
            "state": "Haryana",
            "country_code": "IN"
        },
        "images": [
            {
                "about": "All",
                "link": "https://lh5.googleusercontent.com/p/AF1QipNSe7Yy7W0Gx5t5yuf_HbZHjQO_AOFhWf7_GnIW=w224-h298-k-no"
            },
            {
                "about": "Videos",
                "link": "https://lh5.googleusercontent.com/p/AF1QipNSoQ6NlFay6VRv0IEdlGDslpTp5wBT1IJzvY1f=w298-h298-k-no"
            }
        ],
        "link": "https://www.google.com/maps/place/Masjid+Maniyabass/data=!4m7!3m6!1s0x3972dd290b716901:0xa91a41321f402552!8m2!3d27.7606145!4d77.078508!16s%2Fg%2F11fthk3dgm!19sChIJAWlxCyndcjkRUiVAHzJBGqk?authuser=0&hl=en&rclk=1",
        "coordinates": {
            "latitude": 27.7606145,
            "longitude": 77.078508
        }
    },
    {
        "name": "Nurani Masjid",
        "main_category": "Mosque",
        "address": "5573+GQ Nurani Masjid, Khejarli Kalan, Rajasthan 342802",
        "detailed_address": {
            "ward": null,
            "street": "5573+GQ",
            "city": "Khejarli Kalan",
            "postal_code": null,
            "state": "Rajasthan",
            "country_code": "IN"
        },
        "images": [
            {
                "about": "All",
                "link": "https://lh5.googleusercontent.com/p/AF1QipNm-AC8CYVNwHpBccZoFsnk8tHFd2HfUShIopCd=w529-h298-k-no"
            }
        ],
        "link": "https://www.google.com/maps/place/Nurani+Masjid/data=!4m7!3m6!1s0x39421fdfb7a84311:0x1786b015a78b3342!8m2!3d26.1638313!4d73.1544409!16s%2Fg%2F11sqh3l3x_!19sChIJEUOot98fQjkRQjOLpxWwhhc?authuser=0&hl=en&rclk=1",
        "coordinates": {
            "latitude": 26.1638313,
            "longitude": 73.1544409
        }
    },
    {
        "name": "new masjid maniar",
        "main_category": "Mosque",
        "address": "X5MF+Q28 new masjid maniar, Maniyar, Uttar Pradesh 277207",
        "detailed_address": {
            "ward": null,
            "street": "X5MF+Q28",
            "city": "Maniyar",
            "postal_code": "277207",
            "state": "Uttar Pradesh",
            "country_code": "IN"
        },
        "images": [],
        "link": "https://www.google.com/maps/place/new+masjid+maniar/data=!4m7!3m6!1s0x39925d6a8e65f33f:0x73a49de0e5e7da7f!8m2!3d25.9844188!4d84.1725707!16s%2Fg%2F11g_xz7lj6!19sChIJP_NljmpdkjkRf9rn5eCdpHM?authuser=0&hl=en&rclk=1",
        "coordinates": {
            "latitude": 25.9844188,
            "longitude": 84.1725707
        }
    },
    {
        "name": "Madina Mosque",
        "main_category": "Mosque",
        "address": "QRH8+493 Madina Mosque, Dhanani, Rajasthan 332318",
        "detailed_address": {
            "ward": null,
            "street": "QRH8+493",
            "city": "Dhanani",
            "postal_code": "332318",
            "state": "Rajasthan",
            "country_code": "IN"
        },
        "images": [],
        "link": "https://www.google.com/maps/place/Madina+Mosque/data=!4m7!3m6!1s0x396b5257f7364b11:0x57a4d61fff459ea3!8m2!3d27.7777719!4d74.8159263!16s%2Fg%2F11hcv0m_yq!19sChIJEUs291dSazkRo55F_x_WpFc?authuser=0&hl=en&rclk=1",
        "coordinates": {
            "latitude": 27.777771899999998,
            "longitude": 74.8159263
        }
    },
    {
        "name": "haaj'raaN msjid",
        "main_category": "Mosque",
        "address": "CW4M+835 haaj'raaN msjid, Jhariya, Rajasthan 331001",
        "detailed_address": {
            "ward": null,
            "street": "CW4M+835",
            "city": "Jhariya",
            "postal_code": "331001",
            "state": "Rajasthan",
            "country_code": "IN"
        },
        "images": [
            {
                "about": "All",
                "link": "https://lh5.googleusercontent.com/p/AF1QipP7CcgLkju3BXHlXys8a-CHDQQFMl-dxKRDdqHR=w224-h298-k-no"
            }
        ],
        "link": "https://www.google.com/maps/place/%E0%A4%B9%E0%A4%BE%E0%A4%9C%E0%A4%BC%E0%A4%B0%E0%A4%BE%E0%A4%82+%E0%A4%AE%E0%A4%B8%E0%A5%8D%E0%A4%9C%E0%A4%BF%E0%A4%A6/data=!4m7!3m6!1s0x391482c2d57a2b81:0x47e7ef6e5ba3e50c!8m2!3d28.4057723!4d74.9327267!16s%2Fg%2F11hbc0cm4x!19sChIJgSt61cKCFDkRDOWjW27v50c?authuser=0&hl=en&rclk=1",
        "coordinates": {
            "latitude": 28.4057723,
            "longitude": 74.9327267
        }
    },
    {
        "name": "nai masjid maniar",
        "main_category": "Mosque",
        "address": "X5MF+M26 nai masjid maniar, Unnamed Road, Maniyar, Uttar Pradesh 277207",
        "detailed_address": {
            "ward": null,
            "street": "X5MF+M26, Unnamed Road",
            "city": "Maniyar",
            "postal_code": "277207",
            "state": "Uttar Pradesh",
            "country_code": "IN"
        },
        "images": [],
        "link": "https://www.google.com/maps/place/nai+masjid+maniar/data=!4m7!3m6!1s0x39925d518386cb59:0x1bbf033e35a16fd6!8m2!3d25.984164!4d84.1725083!16s%2Fg%2F11g_yfgkc9!19sChIJWcuGg1FdkjkR1m-hNT4Dvxs?authuser=0&hl=en&rclk=1",
        "coordinates": {
            "latitude": 25.984164,
            "longitude": 84.17250829999999
        }
    },
    {
        "name": "JAMA MASJID Mahanandpur Dyodha",
        "main_category": "Mosque",
        "address": "HRP3+7Q6 JAMA MASJID Mahanandpur Dyodha, Main Road, Mahanandpur Dyodha, Rajasthan 322205",
        "detailed_address": {
            "ward": null,
            "street": "HRP3+7Q6, Main Road",
            "city": "Mahanandpur Dyodha",
            "postal_code": "322205",
            "state": "Rajasthan",
            "country_code": "IN"
        },
        "images": [
            {
                "about": "All",
                "link": "https://lh5.googleusercontent.com/p/AF1QipOlkkxymVXNA6qx0m2h_DrfewSk2tH7gczljaa3=w522-h298-k-no"
            },
            {
                "about": "Videos",
                "link": "https://lh5.googleusercontent.com/p/AF1QipP00k4vW4tHIbeGRBHUEL04L1juU7tls6C4fyas=w224-h398-k-no"
            }
        ],
        "link": "https://www.google.com/maps/place/JAMA+MASJID+Mahanandpur+Dyodha/data=!4m7!3m6!1s0x39721f7d929f248f:0xab24f2376e8f8f2e!8m2!3d26.5856578!4d76.804393!16s%2Fg%2F11f7r07tjp!19sChIJjySfkn0fcjkRLo-PbjfyJKs?authuser=0&hl=en&rclk=1",
        "coordinates": {
            "latitude": 26.5856578,
            "longitude": 76.80439299999999
        }
    },
    {
        "name": "Masjid Anas",
        "main_category": "Mosque",
        "address": "WWVG+W48 Masjid Anas, Mandela Chhota, Rajasthan 332301",
        "detailed_address": {
            "ward": null,
            "street": "WWVG+W48",
            "city": "Mandela Chhota",
            "postal_code": "332301",
            "state": "Rajasthan",
            "country_code": "IN"
        },
        "images": [
            {
                "about": "All",
                "link": "https://lh5.googleusercontent.com/p/AF1QipN-seFtEqKFVTDHYsN0Mv4KjL3vy--TKTochELN=w224-h298-k-no"
            },
            {
                "about": "Dome",
                "link": "https://lh5.googleusercontent.com/p/AF1QipM6henFiQaqU0DZz1xJkg2zaP7Ug4uwD9CgIGPV=w224-h407-k-no"
            },
            {
                "about": "Videos",
                "link": "https://lh5.googleusercontent.com/p/AF1QipM6henFiQaqU0DZz1xJkg2zaP7Ug4uwD9CgIGPV=w224-h407-k-no"
            },
            {
                "about": "Street View & 360deg",
                "link": "https://streetviewpixels-pa.googleapis.com/v1/thumbnail?panoid=40ZD1FwLwuzLFd3jDNfU9g&cb_client=maps_sv.tactile.gps&w=224&h=298&yaw=139.01036&pitch=0&thumbfov=100"
            }
        ],
        "link": "https://www.google.com/maps/place/Masjid+Anas/data=!4m7!3m6!1s0x3914a9c62d00ddbd:0xd3c75b97a9c7bf6d!8m2!3d27.9449571!4d74.9253383!16s%2Fg%2F11q41yxv_w!19sChIJvd0ALcapFDkRbb_HqZdbx9M?authuser=0&hl=en&rclk=1",
        "coordinates": {
            "latitude": 27.9449571,
            "longitude": 74.92533829999999
        }
    },
    {
        "name": "Masjid A Muhammadi",
        "main_category": "Mosque",
        "address": "78PF+346 Masjid A Muhammadi, 9 Mrn, Rajasthan 335511",
        "detailed_address": {
            "ward": null,
            "street": "78PF+346",
            "city": "9 Mrn",
            "postal_code": null,
            "state": "Rajasthan",
            "country_code": "IN"
        },
        "images": [],
        "link": "https://www.google.com/maps/place/Masjid+A+Muhammadi/data=!4m7!3m6!1s0x3913e18d988e1b2f:0xe38ed0a9da238e94!8m2!3d29.2851675!4d75.3227518!16s%2Fg%2F11l8lckb8d!19sChIJLxuOmI3hEzkRlI4j2qnQjuM?authuser=0&hl=en&rclk=1",
        "coordinates": {
            "latitude": 29.2851675,
            "longitude": 75.32275179999999
        }
    },
    {
        "name": "Maszid",
        "main_category": "Mosque",
        "address": "58MR+29R Maszid, Dhannasar, 7 Kdd, Rajasthan 335524",
        "detailed_address": {
            "ward": null,
            "street": "58MR+29R",
            "city": "Dhannasar, 7 Kdd",
            "postal_code": "335524",
            "state": "Rajasthan",
            "country_code": "IN"
        },
        "images": [
            {
                "about": "All",
                "link": "https://lh5.googleusercontent.com/p/AF1QipPiBfLG5iB2GWqfF-JT_6-Yyj9Vty8X8dti03rY=w461-h298-k-no"
            },
            {
                "about": "Videos",
                "link": "https://lh5.googleusercontent.com/p/AF1QipO1ZldpunqkrQZ2b1lVBbW45rLxh-iLLfh7aoeN=w224-h398-k-no"
            }
        ],
        "link": "https://www.google.com/maps/place/Maszid/data=!4m7!3m6!1s0x39142958ff3e285b:0x3b3ffee978d15b79!8m2!3d29.1826133!4d74.3409057!16s%2Fg%2F11g0spyfpb!19sChIJWyg-_1gpFDkReVvReOn-Pzs?authuser=0&hl=en&rclk=1",
        "coordinates": {
            "latitude": 29.1826133,
            "longitude": 74.3409057
        }
    },
    {
        "name": "Masjid",
        "main_category": "Mosque",
        "address": "CR3G+QR Masjid, Sahadka, Rajasthan 301021",
        "detailed_address": {
            "ward": null,
            "street": "CR3G+QR",
            "city": "Sahadka",
            "postal_code": null,
            "state": "Rajasthan",
            "country_code": "IN"
        },
        "images": [
            {
                "about": "All",
                "link": "https://lh5.googleusercontent.com/p/AF1QipMO8oNRPZgGU1j2rJT58DtCPMforSphvnWfksUv=w224-h459-k-no"
            },
            {
                "about": "Videos",
                "link": "https://lh5.googleusercontent.com/p/AF1QipM31IEuveFcyikvIrKuIL0UrFaN9mdOffmQHGm4=w224-h459-k-no"
            }
        ],
        "link": "https://www.google.com/maps/place/Masjid/data=!4m7!3m6!1s0x3972f3f0efb4d57d:0x13e17523876f6e13!8m2!3d27.404402!4d76.8270701!16s%2Fg%2F11smhzqxgr!19sChIJfdW07_DzcjkRE25vhyN14RM?authuser=0&hl=en&rclk=1",
        "coordinates": {
            "latitude": 27.404401999999997,
            "longitude": 76.8270701
        }
    },
    {
        "name": "ek miinaar msjid",
        "main_category": "Mosque",
        "address": "GC23+724 ek miinaar msjid, saalkii, dduuNgrii, Salki Doongri, Rajasthan 326035",
        "detailed_address": {
            "ward": null,
            "street": "GC23+724, saalkii",
            "city": "dduuNgrii, Salki Doongri",
            "postal_code": null,
            "state": "Rajasthan",
            "country_code": "IN"
        },
        "images": [],
        "link": "https://www.google.com/maps/place/%E0%A4%8F%E0%A4%95+%E0%A4%AE%E0%A5%80%E0%A4%A8%E0%A4%BE%E0%A4%B0+%E0%A4%AE%E0%A4%B8%E0%A5%8D%E0%A4%9C%E0%A4%BF%E0%A4%A6/data=!4m7!3m6!1s0x396533be9b613797:0xbf5ae0257f9f751f!8m2!3d24.5006433!4d76.4025826!16s%2Fg%2F11kj4207r0!19sChIJlzdhm74zZTkRH3WffyXgWr8?authuser=0&hl=en&rclk=1",
        "coordinates": {
            "latitude": 24.5006433,
            "longitude": 76.4025826
        }
    },
    {
        "name": "ROD WALI MASJID BIDGAMA",
        "main_category": "Mosque",
        "address": "93MQ+MGX ROD WALI MASJID BIDGAMA, Birgawan, Rajasthan 321205",
        "detailed_address": {
            "ward": null,
            "street": "93MQ+MGX",
            "city": "Birgawan",
            "postal_code": null,
            "state": "Rajasthan",
            "country_code": "IN"
        },
        "images": [
            {
                "about": "All",
                "link": "https://streetviewpixels-pa.googleapis.com/v1/thumbnail?panoid=ioK4zyPf93VekSx979QK2A&cb_client=maps_sv.tactile.gps&w=224&h=298&yaw=102.59008&pitch=0&thumbfov=100"
            },
            {
                "about": "Street View & 360deg",
                "link": "https://streetviewpixels-pa.googleapis.com/v1/thumbnail?panoid=ioK4zyPf93VekSx979QK2A&cb_client=maps_sv.tactile.gps&w=224&h=298&yaw=102.59008&pitch=0&thumbfov=100"
            }
        ],
        "link": "https://www.google.com/maps/place/ROD+WALI+MASJID+BIDGAMA/data=!4m7!3m6!1s0x3972f9e826edc655:0x4f83026799f3519f!8m2!3d27.3842303!4d77.0888459!16s%2Fg%2F11rtm6mmnz!19sChIJVcbtJuj5cjkRn1HzmWcCg08?authuser=0&hl=en&rclk=1",
        "coordinates": {
            "latitude": 27.3842303,
            "longitude": 77.0888459
        }
    },
    {
        "name": "nuuraanii msjid",
        "main_category": "Mosque",
        "address": "M93H+8H nuuraanii msjid, Vishwanathpura, Rajasthan 341306",
        "detailed_address": {
            "ward": null,
            "street": "M93H+8H",
            "city": "Vishwanathpura",
            "postal_code": null,
            "state": "Rajasthan",
            "country_code": "IN"
        },
        "images": [
            {
                "about": "All",
                "link": "https://lh5.googleusercontent.com/p/AF1QipOBssTuIAghIlKlUY7C3frfLTV547m8EGvXLruY=w251-h298-k-no"
            }
        ],
        "link": "https://www.google.com/maps/place/%E0%A4%A8%E0%A5%82%E0%A4%B0%E0%A4%BE%E0%A4%A8%E0%A5%80+%E0%A4%AE%E0%A4%B8%E0%A5%8D%E0%A4%9C%E0%A4%BF%E0%A4%A6/data=!4m7!3m6!1s0x396b2f2460e6c8c5:0x53a2dfc03935e51e!8m2!3d27.6532972!4d74.3789978!16s%2Fg%2F11ss9nfwzp!19sChIJxcjmYCQvazkRHuU1OcDfolM?authuser=0&hl=en&rclk=1",
        "coordinates": {
            "latitude": 27.653297199999997,
            "longitude": 74.3789978
        }
    },
    {
        "name": "Madina masjid",
        "main_category": "Mosque",
        "address": "WR8W+CV6 Madina masjid, Karnga Bara, Rajasthan 332301",
        "detailed_address": {
            "ward": null,
            "street": "WR8W+CV6",
            "city": "Karnga Bara",
            "postal_code": "332301",
            "state": "Rajasthan",
            "country_code": "IN"
        },
        "images": [],
        "link": "https://www.google.com/maps/place/Madina+masjid/data=!4m7!3m6!1s0x3914add62ad96a03:0x475cc8936d8858b3!8m2!3d27.9160349!4d74.8471405!16s%2Fg%2F11h3qkts9d!19sChIJA2rZKtatFDkRs1iIbZPIXEc?authuser=0&hl=en&rclk=1",
        "coordinates": {
            "latitude": 27.9160349,
            "longitude": 74.8471405
        }
    },
    {
        "name": "Kariman Masjid",
        "main_category": "Mosque",
        "address": "R258+WHM Kariman Masjid, Laxmangarh, Rajasthan 332311",
        "detailed_address": {
            "ward": null,
            "street": "R258+WHM",
            "city": "Laxmangarh",
            "postal_code": "332311",
            "state": "Rajasthan",
            "country_code": "IN"
        },
        "images": [
            {
                "about": "All",
                "link": "https://streetviewpixels-pa.googleapis.com/v1/thumbnail?panoid=ySG-eOXknR_OIiysIufyoQ&cb_client=maps_sv.tactile.gps&w=224&h=298&yaw=163.58951&pitch=0&thumbfov=100"
            },
            {
                "about": "Street View & 360deg",
                "link": "https://lh5.googleusercontent.com/p/AF1QipMUumfZpMmk6l4GpES7X0oc9IvYIBQZBYc1A8OK=w224-h298-k-no-pi0-ya281-ro-0-fo100"
            }
        ],
        "link": "https://www.google.com/maps/place/Kariman+Masjid/data=!4m7!3m6!1s0x396cab99ea2543ff:0x9dbc4662317d9835!8m2!3d27.8098418!4d75.01642!16s%2Fg%2F11tgbd4ywp!19sChIJ_0Ml6pmrbDkRNZh9MWJGvJ0?authuser=0&hl=en&rclk=1",
        "coordinates": {
            "latitude": 27.809841799999997,
            "longitude": 75.01642
        }
    },
    {
        "name": "mrkjii msjid",
        "main_category": "Mosque",
        "address": "84J6+QXR mrkjii msjid, Ghanghu, Rajasthan 331021",
        "detailed_address": {
            "ward": null,
            "street": "84J6+QXR",
            "city": "Ghanghu",
            "postal_code": "331021",
            "state": "Rajasthan",
            "country_code": "IN"
        },
        "images": [
            {
                "about": "All",
                "link": "https://streetviewpixels-pa.googleapis.com/v1/thumbnail?panoid=EhVbRWtSq3lYZ6ykgbErEg&cb_client=maps_sv.tactile.gps&w=224&h=298&yaw=123.40581&pitch=0&thumbfov=100"
            },
            {
                "about": "Street View & 360deg",
                "link": "https://streetviewpixels-pa.googleapis.com/v1/thumbnail?panoid=EhVbRWtSq3lYZ6ykgbErEg&cb_client=maps_sv.tactile.gps&w=224&h=298&yaw=123.40581&pitch=0&thumbfov=100"
            }
        ],
        "link": "https://www.google.com/maps/place/%E0%A4%AE%E0%A4%B0%E0%A4%95%E0%A4%9C%E0%A5%80+%E0%A4%AE%E0%A4%B8%E0%A5%8D%E0%A4%9C%E0%A4%BF%E0%A4%A6/data=!4m7!3m6!1s0x3913655b54063e15:0xea64da06aff76315!8m2!3d28.3319854!4d75.1123831!16s%2Fg%2F11rrs35jrx!19sChIJFT4GVFtlEzkRFWP3rwbaZOo?authuser=0&hl=en&rclk=1",
        "coordinates": {
            "latitude": 28.331985399999997,
            "longitude": 75.1123831
        }
    },
    {
        "name": "Chhoti masjid Mannaka",
        "main_category": "Mosque",
        "address": "Chhoti masjid Mannaka, Choti masjid, Mannaka, Alwar, Rajasthan 301001",
        "detailed_address": {
            "ward": null,
            "street": "Choti masjid",
            "city": "Mannaka, Alwar",
            "postal_code": null,
            "state": "Rajasthan",
            "country_code": "IN"
        },
        "images": [
            {
                "about": "All",
                "link": "https://streetviewpixels-pa.googleapis.com/v1/thumbnail?panoid=369_Hu_LY84PcWXJVNxqPg&cb_client=maps_sv.tactile.gps&w=224&h=298&yaw=110.57923&pitch=0&thumbfov=100"
            },
            {
                "about": "Street View & 360deg",
                "link": "https://streetviewpixels-pa.googleapis.com/v1/thumbnail?panoid=369_Hu_LY84PcWXJVNxqPg&cb_client=maps_sv.tactile.gps&w=224&h=298&yaw=110.57923&pitch=0&thumbfov=100"
            }
        ],
        "link": "https://www.google.com/maps/place/Chhoti+masjid+Mannaka/data=!4m7!3m6!1s0x397297baa11d75bb:0x76ad9283397ec75d!8m2!3d27.5682076!4d76.6567132!16s%2Fg%2F11t6tv00fr!19sChIJu3UdobqXcjkRXcd-OYOSrXY?authuser=0&hl=en&rclk=1",
        "coordinates": {
            "latitude": 27.568207599999997,
            "longitude": 76.6567132
        }
    },
    {
        "name": "Jama masjid",
        "main_category": "Mosque",
        "address": "QXF3+MW7 Jama masjid, Unnamed Road, Jaroda Khurd, Rajasthan 341514",
        "detailed_address": {
            "ward": null,
            "street": "QXF3+MW7, Unnamed Road",
            "city": "Jaroda Khurd",
            "postal_code": "341514",
            "state": "Rajasthan",
            "country_code": "IN"
        },
        "images": [
            {
                "about": "All",
                "link": "https://lh5.googleusercontent.com/p/AF1QipNl96XD4xeRvRbjFFCzXy8Z-YxKbQ_YF7UQn9M6=w224-h443-k-no"
            }
        ],
        "link": "https://www.google.com/maps/place/Jama+masjid/data=!4m7!3m6!1s0x396a4500294bc955:0x1ba7686bd709ccf8!8m2!3d26.7741723!4d73.9547944!16s%2Fg%2F11nsb8xsw5!19sChIJVclLKQBFajkR-MwJ12topxs?authuser=0&hl=en&rclk=1",
        "coordinates": {
            "latitude": 26.7741723,
            "longitude": 73.9547944
        }
    },
    {
        "name": "Masjid",
        "main_category": "Mosque",
        "address": "FH6P+C2 Masjid, Nangal Ratawat, Rajasthan 301001",
        "detailed_address": {
            "ward": null,
            "street": "FH6P+C2",
            "city": "Nangal Ratawat",
            "postal_code": null,
            "state": "Rajasthan",
            "country_code": "IN"
        },
        "images": [
            {
                "about": "All",
                "link": "https://streetviewpixels-pa.googleapis.com/v1/thumbnail?panoid=kYJRBTTof6Bvujk81HShKw&cb_client=maps_sv.tactile.gps&w=224&h=298&yaw=64.83612&pitch=0&thumbfov=100"
            },
            {
                "about": "Street View & 360deg",
                "link": "https://streetviewpixels-pa.googleapis.com/v1/thumbnail?panoid=kYJRBTTof6Bvujk81HShKw&cb_client=maps_sv.tactile.gps&w=224&h=298&yaw=64.83612&pitch=0&thumbfov=100"
            }
        ],
        "link": "https://www.google.com/maps/place/Masjid/data=!4m7!3m6!1s0x39729b89c90e227b:0x9a65eddbb6fdf6e9!8m2!3d27.4611247!4d76.5850037!16s%2Fg%2F11ptwkyh2n!19sChIJeyIOyYmbcjkR6fb9ttvtZZo?authuser=0&hl=en&rclk=1",
        "coordinates": {
            "latitude": 27.4611247,
            "longitude": 76.5850037
        }
    },
    {
        "name": "Noorani jamma masjid",
        "main_category": "Mosque",
        "address": "FX6W+J4 Noorani jamma masjid, Bhainsrawat, Pathroda, Rajasthan 321205",
        "detailed_address": {
            "ward": null,
            "street": "FX6W+J4",
            "city": "Bhainsrawat, Pathroda",
            "postal_code": null,
            "state": "Rajasthan",
            "country_code": "IN"
        },
        "images": [
            {
                "about": "All",
                "link": "https://lh5.googleusercontent.com/p/AF1QipM4Gu9Mjr3JPJe-_dkRI1B567M_yLzGPHloRZcG=w224-h449-k-no"
            }
        ],
        "link": "https://www.google.com/maps/place/Noorani+jamma+masjid/data=!4m7!3m6!1s0x3972f1a6e0499beb:0xb50158804e6e1f55!8m2!3d27.4615632!4d76.9952974!16s%2Fg%2F11s22_dw9f!19sChIJ65tJ4KbxcjkRVR9uToBYAbU?authuser=0&hl=en&rclk=1",
        "coordinates": {
            "latitude": 27.4615632,
            "longitude": 76.9952974
        }
    },
    {
        "name": "mNdrsaa",
        "main_category": "Mosque",
        "address": "C2VH+XJX mNdrsaa, Jheetredi, Rajasthan 321205",
        "detailed_address": {
            "ward": null,
            "street": "C2VH+XJX",
            "city": "Jheetredi",
            "postal_code": null,
            "state": "Rajasthan",
            "country_code": "IN"
        },
        "images": [],
        "link": "https://www.google.com/maps/place/%E0%A4%AE%E0%A4%82%E0%A4%A6%E0%A4%B0%E0%A4%B8%E0%A4%BE/data=!4m7!3m6!1s0x3972fbd0c41be3c5:0xea0613644eec5a92!8m2!3d27.4449875!4d77.0290995!16s%2Fg%2F11syb0y06p!19sChIJxeMbxND7cjkRklrsTmQTBuo?authuser=0&hl=en&rclk=1",
        "coordinates": {
            "latitude": 27.4449875,
            "longitude": 77.0290995
        }
    },
    {
        "name": "Haji mahmud khan ka madarsaGanni deelr ki dukan",
        "main_category": "Mosque",
        "address": "4VW8+WWC Haji mahmud khan ka madarsaGanni deelr ki dukan, Aau, Rajasthan 342311",
        "detailed_address": {
            "ward": null,
            "street": "4VW8+WWC",
            "city": "Aau",
            "postal_code": null,
            "state": "Rajasthan",
            "country_code": "IN"
        },
        "images": [],
        "link": "https://www.google.com/maps/place/Haji+mahmud+khan+ka+madarsaGanni+deelr+ki+dukan/data=!4m7!3m6!1s0x39405d9f60788c6b:0x5bdb2935f914b91a!8m2!3d27.1473012!4d72.8672652!16s%2Fg%2F11s0pz4ncr!19sChIJa4x4YJ9dQDkRGrkU-TUp21s?authuser=0&hl=en&rclk=1",
        "coordinates": {
            "latitude": 27.147301199999998,
            "longitude": 72.86726519999999
        }
    },
    {
        "name": "Nurani masjid",
        "main_category": "Mosque",
        "address": "Nurani masjid, Mansuri mohllah, Onkarpura, Semalkhedi, Madhya Pradesh 456222",
        "detailed_address": {
            "ward": null,
            "street": "Mansuri mohllah",
            "city": "Onkarpura, Semalkhedi",
            "postal_code": null,
            "state": "Madhya Pradesh",
            "country_code": "IN"
        },
        "images": [
            {
                "about": "All",
                "link": "https://lh5.googleusercontent.com/p/AF1QipO4Ov0wv3MoPcUq2F8djIM5xEuYkVVa_CK-oqxO=w592-h298-k-no"
            },
            {
                "about": "Dome",
                "link": "https://lh5.googleusercontent.com/p/AF1QipPBUM8X2Ff1X8YDtsNSJTtP9vuvQFp1vlwKR71N=w224-h398-k-no"
            },
            {
                "about": "Videos",
                "link": "https://lh5.googleusercontent.com/p/AF1QipPkKX3wJElV1DIRyHIzjwf41jwyhvWllGhECfXh=w224-h398-k-no"
            }
        ],
        "link": "https://www.google.com/maps/place/Nurani+masjid/data=!4m7!3m6!1s0x3963914aa400c229:0x98c13f075021c221!8m2!3d23.1896794!4d75.4878377!16s%2Fg%2F11tmvvrmh2!19sChIJKcIApEqRYzkRIcIhUAc_wZg?authuser=0&hl=en&rclk=1",
        "coordinates": {
            "latitude": 23.1896794,
            "longitude": 75.4878377
        }
    },
    {
        "name": "msjid",
        "main_category": "Mosque",
        "address": "M35J+89X msjid, Nawda, Rajasthan 321204",
        "detailed_address": {
            "ward": null,
            "street": "M35J+89X",
            "city": "Nawda",
            "postal_code": null,
            "state": "Rajasthan",
            "country_code": "IN"
        },
        "images": [
            {
                "about": "All",
                "link": "https://lh5.googleusercontent.com/p/AF1QipPYq-h0GzLLO82Ms-qYb9J3gw4Z1V8FIqWR1TFu=w224-h398-k-no"
            }
        ],
        "link": "https://www.google.com/maps/place/%E0%A4%AE%E0%A4%B8%E0%A5%8D%E0%A4%9C%E0%A4%BF%E0%A4%A6/data=!4m7!3m6!1s0x3972e7771731194b:0x59cc1d6836954b4b!8m2!3d27.6583739!4d77.0809804!16s%2Fg%2F11scrd264w!19sChIJSxkxF3fncjkRS0uVNmgdzFk?authuser=0&hl=en&rclk=1",
        "coordinates": {
            "latitude": 27.658373899999997,
            "longitude": 77.0809804
        }
    },
    {
        "name": "Jama Masjid",
        "main_category": "Mosque",
        "address": "RVF9+Q8J Jama Masjid, Rajas, Rajasthan 332317",
        "detailed_address": {
            "ward": null,
            "street": "RVF9+Q8J",
            "city": "Rajas",
            "postal_code": null,
            "state": "Rajasthan",
            "country_code": "IN"
        },
        "images": [],
        "link": "https://www.google.com/maps/place/Jama+Masjid/data=!4m7!3m6!1s0x396b5353fffffffd:0x5535ac75ebff55ca!8m2!3d27.8244731!4d74.8682568!16s%2Fg%2F11h9vlh56l!19sChIJ_f___1NTazkRylX_63WsNVU?authuser=0&hl=en&rclk=1",
        "coordinates": {
            "latitude": 27.8244731,
            "longitude": 74.8682568
        }
    },
    {
        "name": "Noorani masjid",
        "main_category": "Mosque",
        "address": "7XV2+VHR Noorani masjid, Manoharpur, Rajasthan 303104",
        "detailed_address": {
            "ward": null,
            "street": "7XV2+VHR",
            "city": "Manoharpur",
            "postal_code": null,
            "state": "Rajasthan",
            "country_code": "IN"
        },
        "images": [
            {
                "about": "All",
                "link": "https://streetviewpixels-pa.googleapis.com/v1/thumbnail?panoid=Pq9Qa0wyzpKY3HUhxdY-QA&cb_client=maps_sv.tactile.gps&w=224&h=298&yaw=87.18273&pitch=0&thumbfov=100"
            },
            {
                "about": "Street View & 360deg",
                "link": "https://streetviewpixels-pa.googleapis.com/v1/thumbnail?panoid=Pq9Qa0wyzpKY3HUhxdY-QA&cb_client=maps_sv.tactile.gps&w=224&h=298&yaw=87.18273&pitch=0&thumbfov=100"
            }
        ],
        "link": "https://www.google.com/maps/place/Noorani+masjid/data=!4m7!3m6!1s0x396d0901e94495c3:0xb569cbcfd0f03ded!8m2!3d27.2947354!4d75.951404!16s%2Fg%2F11s90nl8zm!19sChIJw5VE6QEJbTkR7T3w0M_LabU?authuser=0&hl=en&rclk=1",
        "coordinates": {
            "latitude": 27.2947354,
            "longitude": 75.951404
        }
    },
    {
        "name": "Nurani.masjid.muindya.khara",
        "main_category": "Mosque",
        "address": "JPW2+M9R Nurani.masjid.muindya.khara, Mundiya Khera, Rajasthan 301028",
        "detailed_address": {
            "ward": null,
            "street": "JPW2+M9R",
            "city": "Mundiya Khera",
            "postal_code": "301028",
            "state": "Rajasthan",
            "country_code": "IN"
        },
        "images": [
            {
                "about": "All",
                "link": "https://streetviewpixels-pa.googleapis.com/v1/thumbnail?panoid=bUv5FbVDYW-hpj_nZsR37A&cb_client=maps_sv.tactile.gps&w=224&h=298&yaw=273.62073&pitch=0&thumbfov=100"
            },
            {
                "about": "Street View & 360deg",
                "link": "https://streetviewpixels-pa.googleapis.com/v1/thumbnail?panoid=bUv5FbVDYW-hpj_nZsR37A&cb_client=maps_sv.tactile.gps&w=224&h=298&yaw=273.62073&pitch=0&thumbfov=100"
            }
        ],
        "link": "https://www.google.com/maps/place/Nurani.masjid.muindya.khara/data=!4m7!3m6!1s0x397297e5ee3b095f:0xfcbe3a5ad988341b!8m2!3d27.6467317!4d76.7008973!16s%2Fg%2F11ry964v5w!19sChIJXwk77uWXcjkRGzSI2Vo6vvw?authuser=0&hl=en&rclk=1",
        "coordinates": {
            "latitude": 27.6467317,
            "longitude": 76.7008973
        }
    },
    {
        "name": "Masjid Maniharaan msjd mnyhrn",
        "main_category": "Mosque",
        "address": "P2MH+JVV Masjid Maniharaan msjd mnyhrn, Maniharon ka rasta, Coori Baazar, Keshav Pura, Hindaun, Rajasthan 322230",
        "detailed_address": {
            "ward": "Coori Baazar, Keshav Pura",
            "street": "P2MH+JVV, Maniharon ka rasta",
            "city": "Hindaun",
            "postal_code": "322230",
            "state": "Rajasthan",
            "country_code": "IN"
        },
        "images": [
            {
                "about": "All",
                "link": "https://streetviewpixels-pa.googleapis.com/v1/thumbnail?panoid=9QXB2bVQ_GOnzm2rnWMdHw&cb_client=maps_sv.tactile.gps&w=224&h=298&yaw=270.4472&pitch=0&thumbfov=100"
            },
            {
                "about": "Street View & 360deg",
                "link": "https://streetviewpixels-pa.googleapis.com/v1/thumbnail?panoid=9QXB2bVQ_GOnzm2rnWMdHw&cb_client=maps_sv.tactile.gps&w=224&h=298&yaw=270.4472&pitch=0&thumbfov=100"
            }
        ],
        "link": "https://www.google.com/maps/place/Masjid+Maniharaan+%D9%85%D8%B3%D8%AC%D8%AF+%D9%85%D9%86%D9%8A%D9%87%D8%A7%D8%B1%D8%A7%D9%86%E2%80%AD/data=!4m7!3m6!1s0x39722fdaa0289931:0xf990ab00ef5243cd!8m2!3d26.7341201!4d77.0296837!16s%2Fg%2F11tndfy3n6!19sChIJMZkooNovcjkRzUNS7wCrkPk?authuser=0&hl=en&rclk=1",
        "coordinates": {
            "latitude": 26.7341201,
            "longitude": 77.02968369999999
        }
    },
    {
        "name": "Nurani Mewat masjid",
        "main_category": "Mosque",
        "address": "6VM5+6FC Nurani Mewat masjid, Unnamed Road, Gothra, Rajasthan 301413",
        "detailed_address": {
            "ward": null,
            "street": "6VM5+6FC, Unnamed Road",
            "city": "Gothra",
            "postal_code": "301413",
            "state": "Rajasthan",
            "country_code": "IN"
        },
        "images": [],
        "link": "https://www.google.com/maps/place/Nurani+Mewat+masjid/data=!4m7!3m6!1s0x39725f977c9eb435:0xdc054549382611e!8m2!3d27.2330533!4d76.8586374!16s%2Fg%2F11rx0f5r69!19sChIJNbSefJdfcjkRHmGCk1RUwA0?authuser=0&hl=en&rclk=1",
        "coordinates": {
            "latitude": 27.233053299999998,
            "longitude": 76.85863739999999
        }
    },
    {
        "name": "Masjid",
        "main_category": "Mosque",
        "address": "PF6W+24Q Masjid, Sinjguru, Rajasthan 334801",
        "detailed_address": {
            "ward": null,
            "street": "PF6W+24Q",
            "city": "Sinjguru",
            "postal_code": null,
            "state": "Rajasthan",
            "country_code": "IN"
        },
        "images": [
            {
                "about": "All",
                "link": "https://lh5.googleusercontent.com/p/AF1QipNGPY5_kcjghQUEyUlZKTbe-HjaNA0pURLIADDR=w397-h298-k-no"
            },
            {
                "about": "Street View & 360deg",
                "link": "https://streetviewpixels-pa.googleapis.com/v1/thumbnail?panoid=nuf6iSKjTVElGvXNLdXflQ&cb_client=maps_sv.tactile.gps&w=224&h=298&yaw=333.39944&pitch=0&thumbfov=100"
            }
        ],
        "link": "https://www.google.com/maps/place/Masjid/data=!4m7!3m6!1s0x391555067f2f1c09:0xbb28e1c694ed7822!8m2!3d27.7100795!4d73.4953494!16s%2Fg%2F11tsr1j60g!19sChIJCRwvfwZVFTkRInjtlMbhKLs?authuser=0&hl=en&rclk=1",
        "coordinates": {
            "latitude": 27.7100795,
            "longitude": 73.4953494
        }
    },
    {
        "name": "Nurani masjid",
        "main_category": "Mosque",
        "address": "C6PW+GP7 Nurani masjid, Kurki, Rajasthan 306101",
        "detailed_address": {
            "ward": null,
            "street": "C6PW+GP7",
            "city": "Kurki",
            "postal_code": null,
            "state": "Rajasthan",
            "country_code": "IN"
        },
        "images": [
            {
                "about": "All",
                "link": "https://streetviewpixels-pa.googleapis.com/v1/thumbnail?panoid=4MOSxXmnE80_t_9EV3ueVw&cb_client=maps_sv.tactile.gps&w=224&h=298&yaw=177.65698&pitch=0&thumbfov=100"
            },
            {
                "about": "Street View & 360deg",
                "link": "https://streetviewpixels-pa.googleapis.com/v1/thumbnail?panoid=4MOSxXmnE80_t_9EV3ueVw&cb_client=maps_sv.tactile.gps&w=224&h=298&yaw=177.65698&pitch=0&thumbfov=100"
            }
        ],
        "link": "https://www.google.com/maps/place/Nurani+masjid/data=!4m7!3m6!1s0x396bd3ec9f2ff297:0xac31540944505440!8m2!3d26.4362762!4d74.2467814!16s%2Fg%2F11s5gg9zkm!19sChIJl_Ivn-zTazkRQFRQRAlUMaw?authuser=0&hl=en&rclk=1",
        "coordinates": {
            "latitude": 26.4362762,
            "longitude": 74.2467814
        }
    },
    {
        "name": "Masjid Khariya Anawas",
        "main_category": "Mosque",
        "address": "9J8P+C94 Masjid Khariya Anawas, Khariya Anawas, Rajasthan 342601",
        "detailed_address": {
            "ward": null,
            "street": "9J8P+C94",
            "city": "Khariya Anawas",
            "postal_code": null,
            "state": "Rajasthan",
            "country_code": "IN"
        },
        "images": [],
        "link": "https://www.google.com/maps/place/Masjid+Khariya+Anawas/data=!4m7!3m6!1s0x396a05eaa1991285:0x77833a7980f84ace!8m2!3d26.3660199!4d73.6359602!16s%2Fg%2F11jz_ktpx0!19sChIJhRKZoeoFajkRzkr4gHk6g3c?authuser=0&hl=en&rclk=1",
        "coordinates": {
            "latitude": 26.366019899999998,
            "longitude": 73.6359602
        }
    },
    {
        "name": "mgliyaa msjid",
        "main_category": "Mosque",
        "address": "PM73+HQ9 mgliyaa msjid, Meeno Ki Dhani, Ekalkhori, Rajasthan 342303",
        "detailed_address": {
            "ward": null,
            "street": "PM73+HQ9",
            "city": "Meeno Ki Dhani, Ekalkhori",
            "postal_code": null,
            "state": "Rajasthan",
            "country_code": "IN"
        },
        "images": [
            {
                "about": "All",
                "link": "https://streetviewpixels-pa.googleapis.com/v1/thumbnail?panoid=yEEXaOEZNzX06rGZ7OcKUQ&cb_client=maps_sv.tactile.gps&w=224&h=298&yaw=313.15814&pitch=0&thumbfov=100"
            },
            {
                "about": "Street View & 360deg",
                "link": "https://streetviewpixels-pa.googleapis.com/v1/thumbnail?panoid=yEEXaOEZNzX06rGZ7OcKUQ&cb_client=maps_sv.tactile.gps&w=224&h=298&yaw=313.15814&pitch=0&thumbfov=100"
            }
        ],
        "link": "https://www.google.com/maps/place/%E0%A4%AE%E0%A4%97%E0%A4%B2%E0%A4%BF%E0%A4%AF%E0%A4%BE+%E0%A4%AE%E0%A4%B8%E0%A5%8D%E0%A4%9C%E0%A4%BF%E0%A4%A6/data=!4m7!3m6!1s0x39410797a710ecb1:0xdd119c01c95c59aa!8m2!3d26.7139028!4d72.6544879!16s%2Fg%2F11tg276td9!19sChIJsewQp5cHQTkRqllcyQGcEd0?authuser=0&hl=en&rclk=1",
        "coordinates": {
            "latitude": 26.7139028,
            "longitude": 72.65448789999999
        }
    },
    {
        "name": "jaamaa msjid",
        "main_category": "Mosque",
        "address": "2J8P+GRC jaamaa msjid, Mandarpura, Khuiyan, Rajasthan 335523",
        "detailed_address": {
            "ward": "Mandarpura",
            "street": "2J8P+GRC",
            "city": "Khuiyan",
            "postal_code": "335523",
            "state": "Rajasthan",
            "country_code": "IN"
        },
        "images": [],
        "link": "https://www.google.com/maps/place/%E0%A4%9C%E0%A4%BE%E0%A4%AE%E0%A4%BE+%E0%A4%AE%E0%A4%B8%E0%A5%8D%E0%A4%9C%E0%A4%BF%E0%A4%A6/data=!4m7!3m6!1s0x3914173ccd840ca7:0xa494b0b659d69616!8m2!3d29.0162583!4d74.6370422!16s%2Fg%2F11t46s247j!19sChIJpwyEzTwXFDkRFpbWWbawlKQ?authuser=0&hl=en&rclk=1",
        "coordinates": {
            "latitude": 29.016258299999997,
            "longitude": 74.6370422
        }
    },
    {
        "name": "JamA masjid",
        "main_category": "Mosque",
        "address": "F245+92C JamA masjid, Bhainsrawat, Rajasthan 321205",
        "detailed_address": {
            "ward": null,
            "street": "F245+92C",
            "city": "Bhainsrawat",
            "postal_code": null,
            "state": "Rajasthan",
            "country_code": "IN"
        },
        "images": [],
        "link": "https://www.google.com/maps/place/JamA+masjid/data=!4m7!3m6!1s0x3972f1a47b11d7bb:0xe31080b72028f969!8m2!3d27.4559305!4d77.0075055!16s%2Fg%2F11n5bhsy4t!19sChIJu9cRe6TxcjkRafkoILeAEOM?authuser=0&hl=en&rclk=1",
        "coordinates": {
            "latitude": 27.455930499999997,
            "longitude": 77.0075055
        }
    },
    {
        "name": "Masjid e Amina",
        "main_category": "Mosque",
        "address": "GW7Q+692 Masjid e Amina, Hajaripura, Rajasthan 322241",
        "detailed_address": {
            "ward": null,
            "street": "GW7Q+692",
            "city": "Hajaripura",
            "postal_code": null,
            "state": "Rajasthan",
            "country_code": "IN"
        },
        "images": [],
        "link": "https://www.google.com/maps/place/Masjid+e+Amina/data=!4m7!3m6!1s0x3971897bb72b2279:0xc160bd0b866b0dbb!8m2!3d26.5130032!4d76.938379!16s%2Fg%2F11s57fd19s!19sChIJeSIrt3uJcTkRuw1rhgu9YME?authuser=0&hl=en&rclk=1",
        "coordinates": {
            "latitude": 26.5130032,
            "longitude": 76.938379
        }
    },
    {
        "name": "mohrngr jaamaa msjid",
        "main_category": "Mosque",
        "address": "6R86+999 mohrngr jaamaa msjid, Bhojasar, Rajasthan 342311",
        "detailed_address": {
            "ward": null,
            "street": "6R86+999",
            "city": "Bhojasar",
            "postal_code": null,
            "state": "Rajasthan",
            "country_code": "IN"
        },
        "images": [],
        "link": "https://www.google.com/maps/place/%E0%A4%AE%E0%A5%8B%E0%A4%B9%E0%A4%B0%E0%A4%A8%E0%A4%97%E0%A4%B0+%E0%A4%9C%E0%A4%BE%E0%A4%AE%E0%A4%BE+%E0%A4%AE%E0%A4%B8%E0%A5%8D%E0%A4%9C%E0%A4%BF%E0%A4%A6/data=!4m7!3m6!1s0x39405d3e512c57f3:0xd658c2db8f21bfa0!8m2!3d27.2159!4d72.8109723!16s%2Fg%2F11tp0xf_20!19sChIJ81csUT5dQDkRoL8hj9vCWNY?authuser=0&hl=en&rclk=1",
        "coordinates": {
            "latitude": 27.215899999999998,
            "longitude": 72.8109723
        }
    },
    {
        "name": "MASJID FAIJANE IMMAM HUSAIN",
        "main_category": "Mosque",
        "address": "F6H6+6RP MASJID FAIJANE IMMAM HUSAIN, Rohisi, Rajasthan 341513",
        "detailed_address": {
            "ward": null,
            "street": "F6H6+6RP",
            "city": "Rohisi",
            "postal_code": null,
            "state": "Rajasthan",
            "country_code": "IN"
        },
        "images": [],
        "link": "https://www.google.com/maps/place/MASJID+FAIJANE+IMMAM+HUSAIN/data=!4m7!3m6!1s0x396a33eaecc16e81:0xab9e5e1c94a88150!8m2!3d26.4780949!4d74.2120629!16s%2Fg%2F11ll8njwk6!19sChIJgW7B7OozajkRUIGolBxenqs?authuser=0&hl=en&rclk=1",
        "coordinates": {
            "latitude": 26.4780949,
            "longitude": 74.21206289999999
        }
    },
    {
        "name": "Madeena Masjid Patan khurd",
        "main_category": "Mosque",
        "address": "3V3F+FX5 Madeena Masjid Patan khurd, Patan Khurd, Rajasthan 301411",
        "detailed_address": {
            "ward": null,
            "street": "3V3F+FX5",
            "city": "Patan Khurd",
            "postal_code": "301411",
            "state": "Rajasthan",
            "country_code": "IN"
        },
        "images": [],
        "link": "https://www.google.com/maps/place/Madeena+Masjid+Patan+khurd/data=!4m7!3m6!1s0x390d3530ccee4047:0x5d3153a02e083dca!8m2!3d28.0536412!4d76.8749787!16s%2Fg%2F11kqtm4dlj!19sChIJR0DuzDA1DTkRyj0ILqBTMV0?authuser=0&hl=en&rclk=1",
        "coordinates": {
            "latitude": 28.053641199999998,
            "longitude": 76.8749787
        }
    },
    {
        "name": "Jama masjid",
        "main_category": "Mosque",
        "address": "ward no 7, Jama masjid, Rawatsar, Rajasthan 335524",
        "detailed_address": {
            "ward": null,
            "street": "ward no 7",
            "city": "Rawatsar",
            "postal_code": null,
            "state": "Rajasthan",
            "country_code": "IN"
        },
        "images": [
            {
                "about": "All",
                "link": "https://streetviewpixels-pa.googleapis.com/v1/thumbnail?panoid=w_0mBSJxMcz2-bx7_yr8aA&cb_client=maps_sv.tactile.gps&w=224&h=298&yaw=28.939999&pitch=0&thumbfov=100"
            },
            {
                "about": "Street View & 360deg",
                "link": "https://streetviewpixels-pa.googleapis.com/v1/thumbnail?panoid=w_0mBSJxMcz2-bx7_yr8aA&cb_client=maps_sv.tactile.gps&w=224&h=298&yaw=28.939999&pitch=0&thumbfov=100"
            }
        ],
        "link": "https://www.google.com/maps/place/Jama+masjid/data=!4m7!3m6!1s0x391683dc2fd6f773:0xb95d307d5b730e2f!8m2!3d29.2565632!4d74.4048831!16s%2Fg%2F11ryhdq6x_!19sChIJc_fWL9yDFjkRLw5zW30wXbk?authuser=0&hl=en&rclk=1",
        "coordinates": {
            "latitude": 29.2565632,
            "longitude": 74.40488309999999
        }
    },
    {
        "name": "pahadi wali masjid",
        "main_category": "Mosque",
        "address": "9GCW+CG pahadi wali masjid, Prithvipura, Rajasthan 301406",
        "detailed_address": {
            "ward": null,
            "street": "9GCW+CG",
            "city": "Prithvipura",
            "postal_code": null,
            "state": "Rajasthan",
            "country_code": "IN"
        },
        "images": [],
        "link": "https://www.google.com/maps/place/pahadi+wali+masjid/data=!4m7!3m6!1s0x397283f09a85d505:0x227da7ad6482745e!8m2!3d27.3710926!4d76.5462907!16s%2Fg%2F11txrn1x15!19sChIJBdWFmvCDcjkRXnSCZK2nfSI?authuser=0&hl=en&rclk=1",
        "coordinates": {
            "latitude": 27.371092599999997,
            "longitude": 76.5462907
        }
    },
    {
        "name": "Jama masjid manaklao",
        "main_category": "Mosque",
        "address": "C264+C29 Jama masjid manaklao, Manaklao, Rajasthan 342024",
        "detailed_address": {
            "ward": null,
            "street": "C264+C29",
            "city": "Manaklao",
            "postal_code": null,
            "state": "Rajasthan",
            "country_code": "IN"
        },
        "images": [],
        "link": "https://www.google.com/maps/place/Jama+masjid+manaklao/data=!4m7!3m6!1s0x3941932c8a0214a3:0xf154ee13c24f7ea7!8m2!3d26.4110461!4d73.0051055!16s%2Fg%2F11kjlqqqzr!19sChIJoxQCiiyTQTkRp35PwhPuVPE?authuser=0&hl=en&rclk=1",
        "coordinates": {
            "latitude": 26.4110461,
            "longitude": 73.0051055
        }
    },
    {
        "name": "Masjid Qamruzzaman Mirpura",
        "main_category": "Mosque",
        "address": "67P4+J98 Masjid Qamruzzaman Mirpura, Meerpura, Hemsagar, Rajasthan 342022",
        "detailed_address": {
            "ward": null,
            "street": "67P4+J98",
            "city": "Meerpura, Hemsagar",
            "postal_code": null,
            "state": "Rajasthan",
            "country_code": "IN"
        },
        "images": [
            {
                "about": "All",
                "link": "https://lh5.googleusercontent.com/p/AF1QipN5OnFjHZBPKGvunlCn0DortZQQDpzV0EihtgwX=w397-h298-k-no"
            }
        ],
        "link": "https://www.google.com/maps/place/Masjid+Qamruzzaman+Mirpura/data=!4m7!3m6!1s0x39415d39a1281205:0x35c6ad467ce75cb0!8m2!3d26.236532!4d72.2559599!16s%2Fg%2F11shqhwy7y!19sChIJBRIooTldQTkRsFznfEatxjU?authuser=0&hl=en&rclk=1",
        "coordinates": {
            "latitude": 26.236532,
            "longitude": 72.2559599
        }
    },
    {
        "name": "Masjid",
        "main_category": "Mosque",
        "address": "GF8W+XM7 Masjid, Kansingh Ki Seer, Rajasthan 342307",
        "detailed_address": {
            "ward": null,
            "street": "GF8W+XM7",
            "city": "Kansingh Ki Seer",
            "postal_code": null,
            "state": "Rajasthan",
            "country_code": "IN"
        },
        "images": [
            {
                "about": "All",
                "link": "https://streetviewpixels-pa.googleapis.com/v1/thumbnail?panoid=MGPRTdd6rwlJkGXUCvAW2Q&cb_client=maps_sv.tactile.gps&w=224&h=298&yaw=327.25308&pitch=0&thumbfov=100"
            },
            {
                "about": "Street View & 360deg",
                "link": "https://streetviewpixels-pa.googleapis.com/v1/thumbnail?panoid=MGPRTdd6rwlJkGXUCvAW2Q&cb_client=maps_sv.tactile.gps&w=224&h=298&yaw=327.25308&pitch=0&thumbfov=100"
            }
        ],
        "link": "https://www.google.com/maps/place/Masjid/data=!4m7!3m6!1s0x39409daf155e1505:0x4f38968b25ddc89c!8m2!3d27.51742!4d72.4966664!16s%2Fg%2F11t88x7966!19sChIJBRVeFa-dQDkRnMjdJYuWOE8?authuser=0&hl=en&rclk=1",
        "coordinates": {
            "latitude": 27.517419999999998,
            "longitude": 72.4966664
        }
    },
    {
        "name": "jama masjid",
        "main_category": "Mosque",
        "address": "8HR8+MJQ jama masjid, 11 Rwd, Rajasthan 335525",
        "detailed_address": {
            "ward": null,
            "street": "8HR8+MJQ",
            "city": "11 Rwd",
            "postal_code": null,
            "state": "Rajasthan",
            "country_code": "IN"
        },
        "images": [],
        "link": "https://www.google.com/maps/place/jama+masjid/data=!4m7!3m6!1s0x39169fe6ca24813b:0xe65f22402d08602d!8m2!3d29.3417008!4d74.5666132!16s%2Fg%2F11rfbjjqkg!19sChIJO4EkyuafFjkRLWAILUAiX-Y?authuser=0&hl=en&rclk=1",
        "coordinates": {
            "latitude": 29.341700799999998,
            "longitude": 74.56661319999999
        }
    },
    {
        "name": "jaamaa msjid bmbulii nainvaaN",
        "main_category": "Mosque",
        "address": "RW6C+CJV jaamaa msjid bmbulii nainvaaN, Aranya, Rajasthan 323616",
        "detailed_address": {
            "ward": null,
            "street": "RW6C+CJV",
            "city": "Aranya",
            "postal_code": null,
            "state": "Rajasthan",
            "country_code": "IN"
        },
        "images": [],
        "link": "https://www.google.com/maps/place/%E0%A4%9C%E0%A4%BE%E0%A4%AE%E0%A4%BE+%E0%A4%AE%E0%A4%B8%E0%A5%8D%E0%A4%9C%E0%A4%BF%E0%A4%A6+%E0%A4%AC%E0%A4%AE%E0%A5%8D%E0%A4%AC%E0%A5%81%E0%A4%B2%E0%A5%80+%E0%A4%A8%E0%A5%88%E0%A4%A8%E0%A4%B5%E0%A4%BE%E0%A4%82/data=!4m7!3m6!1s0x396e4d01691bff87:0x88c5f4296f43543!8m2!3d25.8111248!4d75.9215543!16s%2Fg%2F11rmxbrcj8!19sChIJh_8baQFNbjkRQzX0lkJfjAg?authuser=0&hl=en&rclk=1",
        "coordinates": {
            "latitude": 25.811124799999998,
            "longitude": 75.9215543
        }
    },
    {
        "name": "Masjid Bamniya",
        "main_category": "Mosque",
        "address": "X3J8+MW Masjid Bamniya, Chak Ukhlana, Rajasthan 304023",
        "detailed_address": {
            "ward": null,
            "street": "X3J8+MW",
            "city": "Chak Ukhlana",
            "postal_code": null,
            "state": "Rajasthan",
            "country_code": "IN"
        },
        "images": [],
        "link": "https://www.google.com/maps/place/Masjid+Bamniya/data=!4m7!3m6!1s0x396e470fd4e6aba9:0x89123b94c2077c7b!8m2!3d25.9817238!4d76.0672812!16s%2Fg%2F11tjqs4yfj!19sChIJqavm1A9HbjkRe3wHwpQ7Eok?authuser=0&hl=en&rclk=1",
        "coordinates": {
            "latitude": 25.981723799999997,
            "longitude": 76.0672812
        }
    },
    {
        "name": "Usmaniya madarsah",
        "main_category": "Mosque",
        "address": "7CMR+3W Usmaniya madarsah, Siwandi, Rajasthan 342301",
        "detailed_address": {
            "ward": null,
            "street": "7CMR+3W",
            "city": "Siwandi",
            "postal_code": null,
            "state": "Rajasthan",
            "country_code": "IN"
        },
        "images": [
            {
                "about": "All",
                "link": "https://lh5.googleusercontent.com/p/AF1QipN6E6FHO6NCQAdtAhqLXPPRs8k2WPMn9ScstPFb=w298-h298-k-no"
            }
        ],
        "link": "https://www.google.com/maps/place/Usmaniya+madarsah/data=!4m7!3m6!1s0x3940914b0534d04d:0x1c340487e749dbbb!8m2!3d27.2826848!4d72.4423359!16s%2Fg%2F11ttb6jrgq!19sChIJTdA0BUuRQDkRu9tJ54cENBw?authuser=0&hl=en&rclk=1",
        "coordinates": {
            "latitude": 27.2826848,
            "longitude": 72.4423359
        }
    },
    {
        "name": "Mosque",
        "main_category": "Mosque",
        "address": "P96X+C5W Mosque, Suriyas, Rajasthan 341515",
        "detailed_address": {
            "ward": null,
            "street": "P96X+C5W",
            "city": "Suriyas",
            "postal_code": "341515",
            "state": "Rajasthan",
            "country_code": "IN"
        },
        "images": [
            {
                "about": "All",
                "link": "https://streetviewpixels-pa.googleapis.com/v1/thumbnail?panoid=_aUl-NHFB-wn1ct5yYdcBA&cb_client=maps_sv.tactile.gps&w=224&h=298&yaw=255.84583&pitch=0&thumbfov=100"
            },
            {
                "about": "Street View & 360deg",
                "link": "https://streetviewpixels-pa.googleapis.com/v1/thumbnail?panoid=_aUl-NHFB-wn1ct5yYdcBA&cb_client=maps_sv.tactile.gps&w=224&h=298&yaw=255.84583&pitch=0&thumbfov=100"
            }
        ],
        "link": "https://www.google.com/maps/place/Mosque/data=!4m7!3m6!1s0x396bb775d4a58f31:0xf11408fea0fe701e!8m2!3d26.7114439!4d74.3983543!16s%2Fg%2F11tn495jhb!19sChIJMY-l1HW3azkRHnD-oP4IFPE?authuser=0&hl=en&rclk=1",
        "coordinates": {
            "latitude": 26.7114439,
            "longitude": 74.3983543
        }
    },
    {
        "name": "Maniar badi masjid",
        "main_category": "Housing society",
        "address": "X4QV+VW4 Maniar badi masjid, Maniar, chandupakad, Pilue, Uttar Pradesh 277207",
        "detailed_address": {
            "ward": "Maniar",
            "street": "X4QV+VW4",
            "city": "chandupakad, Pilue",
            "postal_code": "277207",
            "state": "Uttar Pradesh",
            "country_code": "IN"
        },
        "images": [
            {
                "about": "All",
                "link": "https://streetviewpixels-pa.googleapis.com/v1/thumbnail?panoid=hJrSnxFa41ACGB4-FkDHdw&cb_client=maps_sv.tactile.gps&w=224&h=298&yaw=205.53255&pitch=0&thumbfov=100"
            },
            {
                "about": "Street View & 360deg",
                "link": "https://streetviewpixels-pa.googleapis.com/v1/thumbnail?panoid=hJrSnxFa41ACGB4-FkDHdw&cb_client=maps_sv.tactile.gps&w=224&h=298&yaw=205.53255&pitch=0&thumbfov=100"
            }
        ],
        "link": "https://www.google.com/maps/place/Maniar+badi+masjid/data=!4m7!3m6!1s0x39925d17bbf53e9d:0xb61c2b83c16e3867!8m2!3d25.9896368!4d84.1448328!16s%2Fg%2F11v18xkzf5!19sChIJnT71uxddkjkRZzhuwYMrHLY?authuser=0&hl=en&rclk=1",
        "coordinates": {
            "latitude": 25.9896368,
            "longitude": 84.1448328
        }
    },
    {
        "name": "New masjid",
        "main_category": "Place of worship",
        "address": "X5M9+RR3 New masjid, Maniyar Town Marg, Maniyar, Uttar Pradesh 277207",
        "detailed_address": {
            "ward": null,
            "street": "X5M9+RR3, Maniyar Town Marg",
            "city": "Maniyar",
            "postal_code": "277207",
            "state": "Uttar Pradesh",
            "country_code": "IN"
        },
        "images": [],
        "link": "https://www.google.com/maps/place/New+masjid/data=!4m7!3m6!1s0x39925dbb84c2e7c3:0xf73651dbd1990f1!8m2!3d25.9845039!4d84.169533!16s%2Fg%2F11rxv2t8hx!19sChIJw-fChLtdkjkR8ZAZvR1lcw8?authuser=0&hl=en&rclk=1",
        "coordinates": {
            "latitude": 25.9845039,
            "longitude": 84.169533
        }
    }
]