[
    {
        "name": "Madina Masjid Nimaj",
        "main_category": "Mosque",
        "address": "5222+3VJ Madina Masjid Nimaj, Nimaaj, Rajasthan 306303",
        "detailed_address": {
            "ward": null,
            "street": "5222+3VJ",
            "city": "Nimaaj",
            "postal_code": null,
            "state": "Rajasthan",
            "country_code": "IN"
        },
        "images": [],
        "link": "https://www.google.com/maps/place/Madina+Masjid+Nimaj/data=!4m7!3m6!1s0x39698f3e221b4c8b:0x1c297380c2eac04d!8m2!3d26.1502174!4d74.0021484!16s%2Fg%2F11hd9nh7f0!19sChIJi0wbIj6PaTkRTcDqwoBzKRw?authuser=0&hl=en&rclk=1",
        "coordinates": {
            "latitude": 26.1502174,
            "longitude": 74.0021484
        }
    },
    {
        "name": "New Masjid Ichhaka",
        "main_category": "Mosque",
        "address": "QPV2+8C3 New Masjid Ichhaka, Jhirandiya, Rajasthan 301405",
        "detailed_address": {
            "ward": null,
            "street": "QPV2+8C3",
            "city": "Jhirandiya",
            "postal_code": "301405",
            "state": "Rajasthan",
            "country_code": "IN"
        },
        "images": [
            {
                "about": "All",
                "link": "https://lh5.googleusercontent.com/p/AF1QipNdNhwe92auWyM8ed6qUUqlcY81XQIvxvbHS92s=w224-h472-k-no"
            },
            {
                "about": "Street View & 360deg",
                "link": "https://streetviewpixels-pa.googleapis.com/v1/thumbnail?panoid=LkVqMRdlta9qMpNheI2dfQ&cb_client=maps_sv.tactile.gps&w=224&h=298&yaw=199.04138&pitch=0&thumbfov=100"
            },
            {
                "about": "Videos",
                "link": "https://lh5.googleusercontent.com/p/AF1QipPLviWtGWNfuAcmWeqlcvGBsHIWtA-PVK2kpqdm=w224-h407-k-no"
            }
        ],
        "link": "https://www.google.com/maps/place/New+Masjid+Ichhaka/data=!4m7!3m6!1s0x3972bb846e914d51:0x3a10cfd76149cdbe!8m2!3d27.7932636!4d76.7010428!16s%2Fg%2F11qn92h13y!19sChIJUU2RboS7cjkRvs1JYdfPEDo?authuser=0&hl=en&rclk=1",
        "coordinates": {
            "latitude": 27.7932636,
            "longitude": 76.7010428
        }
    },
    {
        "name": "Naiyyan ki Masjid",
        "main_category": "Mosque",
        "address": "R53F+X4C Naiyyan ki Masjid, Ghoseenga, Rajasthan 321023",
        "detailed_address": {
            "ward": null,
            "street": "R53F+X4C",
            "city": "Ghoseenga",
            "postal_code": null,
            "state": "Rajasthan",
            "country_code": "IN"
        },
        "images": [
            {
                "about": "All",
                "link": "https://lh5.googleusercontent.com/p/AF1QipOj93R8h1Hr0FxABnqkiM58T2meDuLU1hxGVfHZ=w327-h298-k-no"
            }
        ],
        "link": "https://www.google.com/maps/place/Naiyyan+ki+Masjid/data=!4m7!3m6!1s0x3972d9fb20a6099d:0xd96f7226e2f805f1!8m2!3d27.8049396!4d77.172758!16s%2Fg%2F11grsq6y_r!19sChIJnQmmIPvZcjkR8QX44iZyb9k?authuser=0&hl=en&rclk=1",
        "coordinates": {
            "latitude": 27.804939599999997,
            "longitude": 77.172758
        }
    },
    {
        "name": "Makka Masjid Haji Rujddar Ki dhani",
        "main_category": "Mosque",
        "address": "Makka Masjid Haji Rujddar Ki dhani, Nimbahedi Tijara, Alwar, Nibaheri, Rajasthan 301411",
        "detailed_address": {
            "ward": null,
            "street": "Nimbahedi Tijara",
            "city": "Alwar, Nibaheri",
            "postal_code": null,
            "state": "Rajasthan",
            "country_code": "IN"
        },
        "images": [],
        "link": "https://www.google.com/maps/place/Makka+Masjid+Haji+Rujddar+Ki+dhani/data=!4m7!3m6!1s0x390d3586d5105753:0x61176b22278ed911!8m2!3d28.0916028!4d76.8755304!16s%2Fg%2F11sjdx7p1h!19sChIJU1cQ1YY1DTkREdmOJyJrF2E?authuser=0&hl=en&rclk=1",
        "coordinates": {
            "latitude": 28.0916028,
            "longitude": 76.8755304
        }
    },
    {
        "name": "Jama masjid",
        "main_category": "Mosque",
        "address": "Jama masjid, Bus stand, Nimaaj, Rajasthan 306303",
        "detailed_address": {
            "ward": null,
            "street": "Bus stand",
            "city": "Nimaaj",
            "postal_code": null,
            "state": "Rajasthan",
            "country_code": "IN"
        },
        "images": [],
        "link": "https://www.google.com/maps/place/Jama+masjid/data=!4m7!3m6!1s0x39698f43dc63e757:0x60d12558c95d3ec!8m2!3d26.148401!4d74.0020388!16s%2Fg%2F11t7dw7ww6!19sChIJV-dj3EOPaTkR7NOVjFUSDQY?authuser=0&hl=en&rclk=1",
        "coordinates": {
            "latitude": 26.148401,
            "longitude": 74.0020388
        }
    }
]