[
    {
        "name": "Nagina Masjid",
        "main_category": "Mosque",
        "address": "R9MQ+VMH Nagina Masjid, Mission Chowk Rd, Gater Ghat, Katni, Madhya Pradesh 483501",
        "detailed_address": {
            "ward": "Gater Ghat",
            "street": "R9MQ+VMH, Mission Chowk Rd",
            "city": "Katni",
            "postal_code": "483501",
            "state": "Madhya Pradesh",
            "country_code": "IN"
        },
        "images": [
            {
                "about": "All",
                "link": "https://lh5.googleusercontent.com/p/AF1QipMgo9C3Oec4AE8-L5U8IVHtVAA2u3K716WLHcJs=w224-h398-k-no"
            },
            {
                "about": "Street View & 360deg",
                "link": "https://streetviewpixels-pa.googleapis.com/v1/thumbnail?panoid=H8WFbWkbYLj5JtiOz6waBw&cb_client=maps_sv.tactile.gps&w=224&h=298&yaw=215.19937&pitch=0&thumbfov=100"
            }
        ],
        "link": "https://www.google.com/maps/place/Nagina+Masjid/data=!4m7!3m6!1s0x398161dd99405365:0x502a3393bce56690!8m2!3d23.8346955!4d80.3892336!16s%2Fg%2F1ptz3lvnv!19sChIJZVNAmd1hgTkRkGblvJMzKlA?authuser=0&hl=en&rclk=1",
        "coordinates": {
            "latitude": 23.8346955,
            "longitude": 80.3892336
        }
    },
    {
        "name": "Ahad Mosque msjd",
        "main_category": "Mosque",
        "address": "R9MW+92M Ahad Mosque msjd, Civil Lines, Katni, Madhya Pradesh 483501",
        "detailed_address": {
            "ward": "Civil Lines",
            "street": "R9MW+92M",
            "city": "Katni",
            "postal_code": "483501",
            "state": "Madhya Pradesh",
            "country_code": "IN"
        },
        "images": [
            {
                "about": "All",
                "link": "https://lh5.googleusercontent.com/p/AF1QipNWBoOMhIXR298H2STBTKVfb9Rou0XUgSvmvKXx=w397-h298-k-no"
            },
            {
                "about": "Videos",
                "link": "https://lh5.googleusercontent.com/p/AF1QipN9UyonSmUfMG0u-MhVooKF_kKXqi7tAG-W3fdy=w224-h398-k-no"
            }
        ],
        "link": "https://www.google.com/maps/place/Ahad+Mosque+%D9%85%D8%B3%D8%AC%D8%AF%E2%80%AD/data=!4m7!3m6!1s0x398161db6b50f9a5:0xbb9d65f2e0600f9f!8m2!3d23.8334708!4d80.3950561!16s%2Fg%2F11b8v9hrvg!19sChIJpflQa9thgTkRnw9g4PJlnbs?authuser=0&hl=en&rclk=1",
        "coordinates": {
            "latitude": 23.8334708,
            "longitude": 80.39505609999999
        }
    },
    {
        "name": "Madeena Masjid msjd",
        "main_category": "Mosque",
        "address": "Madeena Masjid msjd, Badi masjid Rd, Rosan Nagar, Prem Nagar, Katni, Madhya Pradesh 483501",
        "detailed_address": {
            "ward": "Rosan Nagar, Prem Nagar",
            "street": "Badi masjid Rd",
            "city": "Katni",
            "postal_code": "483501",
            "state": "Madhya Pradesh",
            "country_code": "IN"
        },
        "images": [
            {
                "about": "All",
                "link": "https://lh5.googleusercontent.com/p/AF1QipOrW4ZBnTwPrRS_yMX7LKQ0nXbjXLyWyFGSeh3V=w224-h473-k-no"
            },
            {
                "about": "Dome",
                "link": "https://lh5.googleusercontent.com/p/AF1QipNG5Upu0HoPxS2eVVhAQy7VovyNibvTOTHkM1DL=w529-h298-k-no"
            }
        ],
        "link": "https://www.google.com/maps/place/Madeena+Masjid+%D9%85%D8%B3%D8%AC%D8%AF%E2%80%AD/data=!4m7!3m6!1s0x398160371ea16375:0xd1b60a837aadd742!8m2!3d23.8254284!4d80.4190058!16s%2Fg%2F11dxb9tx67!19sChIJdWOhHjdggTkRQteteoMKttE?authuser=0&hl=en&rclk=1",
        "coordinates": {
            "latitude": 23.8254284,
            "longitude": 80.4190058
        }
    },
    {
        "name": "Masjid-e-Aisha(Markaz)",
        "main_category": "Mosque",
        "address": "RCF9+RW3 Masjid-e-Aisha(Markaz), ali road, Rosan Nagar, Prem Nagar, Katni, Madhya Pradesh 483501",
        "detailed_address": {
            "ward": "Rosan Nagar, Prem Nagar",
            "street": "RCF9+RW3, ali road",
            "city": "Katni",
            "postal_code": "483501",
            "state": "Madhya Pradesh",
            "country_code": "IN"
        },
        "images": [
            {
                "about": "All",
                "link": "https://lh5.googleusercontent.com/p/AF1QipPB1WebDcowf6I6UwQfxt4evi-HqwmaOJamX0TZ=w529-h298-k-no"
            },
            {
                "about": "Street View & 360deg",
                "link": "https://streetviewpixels-pa.googleapis.com/v1/thumbnail?panoid=40jaAFDq7jrma28PFQlhsQ&cb_client=maps_sv.tactile.gps&w=224&h=298&yaw=272.37433&pitch=0&thumbfov=100"
            }
        ],
        "link": "https://www.google.com/maps/place/Masjid-e-Aisha%28Markaz%29/data=!4m7!3m6!1s0x398160370987f435:0x825abdbe55912e39!8m2!3d23.8245013!4d80.4197847!16s%2Fg%2F11f2w6rjkp!19sChIJNfSHCTdggTkROS6RVb69WoI?authuser=0&hl=en&rclk=1",
        "coordinates": {
            "latitude": 23.824501299999998,
            "longitude": 80.4197847
        }
    },
    {
        "name": "Jama Masjid",
        "main_category": "Mosque",
        "address": "R9PQ+CX7 Jama Masjid, Purani Basti, Gandhi Ganj, Katni, Madhya Pradesh 483501",
        "detailed_address": {
            "ward": "Purani Basti, Gandhi Ganj",
            "street": "R9PQ+CX7",
            "city": "Katni",
            "postal_code": "483501",
            "state": "Madhya Pradesh",
            "country_code": "IN"
        },
        "images": [
            {
                "about": "All",
                "link": "https://lh5.googleusercontent.com/p/AF1QipPun-ytBiybNLnS2FK_04QggD11iJtxP_kaFYq0=w393-h298-k-no"
            },
            {
                "about": "Dome",
                "link": "https://lh5.googleusercontent.com/p/AF1QipOMHchZGZF4RpLdITusoVBb0KEvoMXnaYz5y4W7=w397-h298-k-no"
            },
            {
                "about": "Street View & 360deg",
                "link": "https://streetviewpixels-pa.googleapis.com/v1/thumbnail?panoid=v36BJKLpiJpxxDTTkYP1tA&cb_client=maps_sv.tactile.gps&w=224&h=298&yaw=214.28853&pitch=0&thumbfov=100"
            }
        ],
        "link": "https://www.google.com/maps/place/Jama+Masjid/data=!4m7!3m6!1s0x398161ddc6b8f51f:0x9cefd347e1459566!8m2!3d23.8360423!4d80.3899277!16s%2Fg%2F11cmt1zrsx!19sChIJH_W4xt1hgTkRZpVF4UfT75w?authuser=0&hl=en&rclk=1",
        "coordinates": {
            "latitude": 23.8360423,
            "longitude": 80.3899277
        }
    },
    {
        "name": "Masjid Mangal nagar",
        "main_category": "Mosque",
        "address": "RC93+QFM Masjid Mangal nagar, Mangal Nagar, Katni, Madhya Pradesh 483504",
        "detailed_address": {
            "ward": "Mangal Nagar",
            "street": "RC93+QFM",
            "city": "Katni",
            "postal_code": "483504",
            "state": "Madhya Pradesh",
            "country_code": "IN"
        },
        "images": [
            {
                "about": "All",
                "link": "https://lh5.googleusercontent.com/p/AF1QipPohyk1pkW-aj46VZaQBvMAEKYzMWjpxJoQb-85=w224-h298-k-no"
            },
            {
                "about": "Videos",
                "link": "https://lh5.googleusercontent.com/p/AF1QipO9bQj-jHwlnPc8Sg6ngzYlFgnW7uajYLSK5YSh=w224-h407-k-no"
            }
        ],
        "link": "https://www.google.com/maps/place/Masjid+Mangal+nagar/data=!4m7!3m6!1s0x398161b615bc5ed7:0x77ffce3a47a5c45e!8m2!3d23.8194586!4d80.4036629!16s%2Fg%2F11c6q85ncc!19sChIJ1168FbZhgTkRXsSlRzrO_3c?authuser=0&hl=en&rclk=1",
        "coordinates": {
            "latitude": 23.819458599999997,
            "longitude": 80.4036629
        }
    },
    {
        "name": "Abuzar Gaffari Masjid",
        "main_category": "Mosque",
        "address": "R9GW+Q3F Abuzar Gaffari Masjid, NH 7, Ramniwas Singh Ward, Jharra Tikuriya, Katni, Madhya Pradesh 483504",
        "detailed_address": {
            "ward": "Ramniwas Singh Ward, Jharra Tikuriya",
            "street": "R9GW+Q3F, NH 7",
            "city": "Katni",
            "postal_code": "483504",
            "state": "Madhya Pradesh",
            "country_code": "IN"
        },
        "images": [
            {
                "about": "All",
                "link": "https://lh5.googleusercontent.com/p/AF1QipO3OzUkWsnrWB26WCM_ElnvV_dL7QuFrF_o_f3b=w224-h298-k-no"
            },
            {
                "about": "Street View & 360deg",
                "link": "https://streetviewpixels-pa.googleapis.com/v1/thumbnail?panoid=J6DCQLALVwiApMhSMKD0eg&cb_client=maps_sv.tactile.gps&w=224&h=298&yaw=166.1753&pitch=0&thumbfov=100"
            },
            {
                "about": "Videos",
                "link": "https://lh5.googleusercontent.com/p/AF1QipNGxGCo67PSALIWw7I48_K3t8z52sacV4aXIFkQ=w541-h298-k-no"
            }
        ],
        "link": "https://www.google.com/maps/place/Abuzar+Gaffari+Masjid/data=!4m7!3m6!1s0x398161c43b17cc8b:0xa4c1398c7166bcee!8m2!3d23.8268831!4d80.3951641!16s%2Fg%2F11h03dfw3!19sChIJi8wXO8RhgTkR7rxmcYw5waQ?authuser=0&hl=en&rclk=1",
        "coordinates": {
            "latitude": 23.8268831,
            "longitude": 80.3951641
        }
    },
    {
        "name": "magic bricks building",
        "main_category": "Mosque",
        "address": "magic bricks building, Ahmad Nagar masjid, near Masjid, Kandika Nagar, Kuthla, Katni, Madhya Pradesh 483501",
        "detailed_address": {
            "ward": "Kandika Nagar, Kuthla",
            "street": "Ahmad Nagar masjid, near Masjid",
            "city": "Katni",
            "postal_code": "483501",
            "state": "Madhya Pradesh",
            "country_code": "IN"
        },
        "images": [
            {
                "about": "All",
                "link": "https://lh5.googleusercontent.com/p/AF1QipOVjmb3wRyTLDWopPxstDOAYRR12fcWIC_1mRym=w662-h298-k-no"
            }
        ],
        "link": "https://www.google.com/maps/place/magic+bricks+building/data=!4m7!3m6!1s0x3983df04874d4591:0x71ef0dc36b1de095!8m2!3d23.8511406!4d80.3843565!16s%2Fg%2F11h3btbrr8!19sChIJkUVNhwTfgzkRleAda8MN73E?authuser=0&hl=en&rclk=1",
        "coordinates": {
            "latitude": 23.851140599999997,
            "longitude": 80.3843565
        }
    },
    {
        "name": "Alfert Ganj Masjid",
        "main_category": "Mosque",
        "address": "R9MW+Q93 Alfert Ganj Masjid, Subhash ward, Katni, Madhya Pradesh 483501",
        "detailed_address": {
            "ward": "Subhash ward",
            "street": "R9MW+Q93",
            "city": "Katni",
            "postal_code": "483501",
            "state": "Madhya Pradesh",
            "country_code": "IN"
        },
        "images": [
            {
                "about": "All",
                "link": "https://lh5.googleusercontent.com/p/AF1QipNPNwZcRUn4pAxN1jxSRR2Lm7TQi8q6HYOfGXbk=w397-h298-k-no"
            }
        ],
        "link": "https://www.google.com/maps/place/Alfert+Ganj+Masjid/data=!4m7!3m6!1s0x398161db065c3353:0x552d60e84d3e64b3!8m2!3d23.8343991!4d80.3959349!16s%2Fg%2F11hcjyrz98!19sChIJUzNcBtthgTkRs2Q-TehgLVU?authuser=0&hl=en&rclk=1",
        "coordinates": {
            "latitude": 23.8343991,
            "longitude": 80.3959349
        }
    },
    {
        "name": "Hazrat Abubakar Masjid ",
        "main_category": "Mosque",
        "address": "Q9RW+MWX Hazrat Abubakar Masjid , Madhav Nagar, Katni, Madhya Pradesh 483504",
        "detailed_address": {
            "ward": "Madhav Nagar",
            "street": "Q9RW+MWX",
            "city": "Katni",
            "postal_code": "483504",
            "state": "Madhya Pradesh",
            "country_code": "IN"
        },
        "images": [
            {
                "about": "All",
                "link": "https://lh5.googleusercontent.com/p/AF1QipPF1l97cfhlHDa3Cn8R9edSkSxIYnVOXRIoroFt=w224-h298-k-no"
            },
            {
                "about": "Videos",
                "link": "https://lh5.googleusercontent.com/p/AF1QipPaD2s-hvqnSfqMyq6HoImpJkCj9BSBN5T6TF6D=w224-h398-k-no"
            }
        ],
        "link": "https://www.google.com/maps/place/Hazrat+Abubakar+Masjid+%F0%9F%95%8C/data=!4m7!3m6!1s0x39816108c3764793:0x59d66ef3c8ed5556!8m2!3d23.7917439!4d80.3973464!16s%2Fg%2F11g86pkqcj!19sChIJk0d2wwhhgTkRVlXtyPNu1lk?authuser=0&hl=en&rclk=1",
        "coordinates": {
            "latitude": 23.7917439,
            "longitude": 80.39734639999999
        }
    },
    {
        "name": "Masjid, Ordnance factory",
        "main_category": "Mosque",
        "address": "RC42+4CF Masjid, Ordnance factory, Katni, Madhya Pradesh 483501",
        "detailed_address": {
            "ward": null,
            "street": "RC42+4CF",
            "city": "Katni",
            "postal_code": null,
            "state": "Madhya Pradesh",
            "country_code": "IN"
        },
        "images": [
            {
                "about": "All",
                "link": "https://lh5.googleusercontent.com/p/AF1QipPH2G0gQnMY4Rp-NwO94qMs4coPmLUrbRhATuyJ=w224-h398-k-no"
            },
            {
                "about": "Videos",
                "link": "https://lh5.googleusercontent.com/p/AF1QipPH2G0gQnMY4Rp-NwO94qMs4coPmLUrbRhATuyJ=w224-h398-k-no"
            }
        ],
        "link": "https://www.google.com/maps/place/Masjid,+Ordnance+factory/data=!4m7!3m6!1s0x398161af096e2e47:0x8c3680f0ed7cda61!8m2!3d23.805303!4d80.4010606!16s%2Fg%2F11h9zv084_!19sChIJRy5uCa9hgTkRYdp87fCANow?authuser=0&hl=en&rclk=1",
        "coordinates": {
            "latitude": 23.805303,
            "longitude": 80.4010606
        }
    },
    {
        "name": "Jama Masjid raza nagar New Katni Junction",
        "main_category": "Mosque",
        "address": "RC4P+Q43 Jama Masjid raza nagar New Katni Junction, Jama masjid Road, New Katni, Katni, Madhya Pradesh 483501",
        "detailed_address": {
            "ward": "New Katni",
            "street": "RC4P+Q43, Jama masjid Road",
            "city": "Katni",
            "postal_code": "483501",
            "state": "Madhya Pradesh",
            "country_code": "IN"
        },
        "images": [
            {
                "about": "All",
                "link": "https://lh5.googleusercontent.com/p/AF1QipNpjEd6uZOk2AbqjlcIMlEqnYn8sPRjEUUVdRUx=w297-h298-k-no"
            },
            {
                "about": "Street View & 360deg",
                "link": "https://streetviewpixels-pa.googleapis.com/v1/thumbnail?panoid=dQ9QB_lT6VipniFQSzIi2w&cb_client=maps_sv.tactile.gps&w=224&h=298&yaw=107.21979&pitch=0&thumbfov=100"
            }
        ],
        "link": "https://www.google.com/maps/place/Jama+Masjid+raza+nagar+New+Katni+Junction/data=!4m7!3m6!1s0x3981606704d8eb5b:0x3259b21501f13106!8m2!3d23.8068858!4d80.4352906!16s%2Fg%2F11hbqqlqcy!19sChIJW-vYBGdggTkRBjHxARWyWTI?authuser=0&hl=en&rclk=1",
        "coordinates": {
            "latitude": 23.8068858,
            "longitude": 80.4352906
        }
    },
    {
        "name": "Masjid gousiya ahlesunnat bargawa katni",
        "main_category": "Mosque",
        "address": "Masjid gousiya ahlesunnat bargawa katni, Vansh swaroop, Pathak Ward Rd, Jharra Tikuriya, Bargawan, Katni, Madhya Pradesh 483504",
        "detailed_address": {
            "ward": "Jharra Tikuriya",
            "street": "Vansh swaroop, Pathak Ward Rd",
            "city": "Bargawan, Katni",
            "postal_code": "483504",
            "state": "Madhya Pradesh",
            "country_code": "IN"
        },
        "images": [
            {
                "about": "All",
                "link": "https://lh5.googleusercontent.com/p/AF1QipM-M84Cw1O4lndPqX-ATzmlzzStBrjKbTC89WgW=w397-h298-k-no"
            }
        ],
        "link": "https://www.google.com/maps/place/Masjid+gousiya+ahlesunnat+bargawa+katni/data=!4m7!3m6!1s0x39816146b4ce7683:0x28944c88fba1380d!8m2!3d23.8236166!4d80.385327!16s%2Fg%2F11r70ppc2x!19sChIJg3bOtEZhgTkRDTih-4hMlCg?authuser=0&hl=en&rclk=1",
        "coordinates": {
            "latitude": 23.823616599999998,
            "longitude": 80.38532699999999
        }
    },
    {
        "name": "Masjid Ek Minara Azimiya",
        "main_category": "Mosque",
        "address": "R9FM+2VF Masjid Ek Minara Azimiya, Jharra Tikuriya, Katni, Madhya Pradesh 483504",
        "detailed_address": {
            "ward": "Jharra Tikuriya",
            "street": "R9FM+2VF",
            "city": "Katni",
            "postal_code": "483504",
            "state": "Madhya Pradesh",
            "country_code": "IN"
        },
        "images": [],
        "link": "https://www.google.com/maps/place/Masjid+Ek+Minara+Azimiya/data=!4m7!3m6!1s0x398161e2d78fbc23:0xcbce42761e8861c5!8m2!3d23.8225707!4d80.3846771!16s%2Fg%2F11fk8hlmjr!19sChIJI7yP1-JhgTkRxWGIHnZCzss?authuser=0&hl=en&rclk=1",
        "coordinates": {
            "latitude": 23.8225707,
            "longitude": 80.38467709999999
        }
    },
    {
        "name": "New MASJID NKJ",
        "main_category": "Mosque",
        "address": "RC7G+R8P New MASJID NKJ, New Katni, Katni, Madhya Pradesh 483501",
        "detailed_address": {
            "ward": "New Katni",
            "street": "RC7G+R8P",
            "city": "Katni",
            "postal_code": "483501",
            "state": "Madhya Pradesh",
            "country_code": "IN"
        },
        "images": [
            {
                "about": "All",
                "link": "https://lh5.googleusercontent.com/p/AF1QipNfQxDOJ8EAvcWvyOvGnwU9P4A5kcjhy4L7IGux=w224-h298-k-no"
            }
        ],
        "link": "https://www.google.com/maps/place/New+MASJID+NKJ/data=!4m7!3m6!1s0x398161c8bcfab273:0x17baacc1dc4835a7!8m2!3d23.8145907!4d80.4258143!16s%2Fg%2F11gr4bcy9q!19sChIJc7L6vMhhgTkRpzVI3MGsuhc?authuser=0&hl=en&rclk=1",
        "coordinates": {
            "latitude": 23.8145907,
            "longitude": 80.4258143
        }
    },
    {
        "name": "Masjid-e-Ishakiya",
        "main_category": "Mosque",
        "address": "RCJ4+8VQ Masjid-e-Ishakiya, Gayatri Nagar, Ahmad Nagar, Katni, Madhya Pradesh 483501",
        "detailed_address": {
            "ward": "Gayatri Nagar",
            "street": "RCJ4+8VQ",
            "city": "Ahmad Nagar, Katni",
            "postal_code": null,
            "state": "Madhya Pradesh",
            "country_code": "IN"
        },
        "images": [],
        "link": "https://www.google.com/maps/place/Masjid-e-Ishakiya/data=!4m7!3m6!1s0x398161df1dfee4db:0xfffba6025743314d!8m2!3d23.8308438!4d80.4072444!16s%2Fg%2F11h1vdnv6g!19sChIJ2-T-Hd9hgTkRTTFDVwKm-_8?authuser=0&hl=en&rclk=1",
        "coordinates": {
            "latitude": 23.8308438,
            "longitude": 80.4072444
        }
    },
    {
        "name": "Noori Masjid",
        "main_category": "Mosque",
        "address": "R9PQ+C95 Noori Masjid, Purani Basti, Gandhi Ganj, Katni, Madhya Pradesh 483501",
        "detailed_address": {
            "ward": "Purani Basti, Gandhi Ganj",
            "street": "R9PQ+C95",
            "city": "Katni",
            "postal_code": "483501",
            "state": "Madhya Pradesh",
            "country_code": "IN"
        },
        "images": [
            {
                "about": "All",
                "link": "https://lh5.googleusercontent.com/p/AF1QipPcUIFhfAxxylZ0vBFAB9iffaR1bdIc1cb-Fajb=w224-h341-k-no"
            },
            {
                "about": "Dome",
                "link": "https://lh5.googleusercontent.com/p/AF1QipNNi-ZV8aEo9umud59eY4_wp6gHz4np8ql4kp6s=w224-h300-k-no"
            },
            {
                "about": "Street View & 360deg",
                "link": "https://streetviewpixels-pa.googleapis.com/v1/thumbnail?panoid=-vYJ4sXXvVKA8PdjNkaiXA&cb_client=maps_sv.tactile.gps&w=224&h=298&yaw=28.83727&pitch=0&thumbfov=100"
            }
        ],
        "link": "https://www.google.com/maps/place/Noori+Masjid/data=!4m7!3m6!1s0x398161e6dbe41be3:0x9a7e7960faced47!8m2!3d23.8360069!4d80.3884767!16s%2Fg%2F11h5dkp2v_!19sChIJ4xvk2-ZhgTkRR-2sD5bnpwk?authuser=0&hl=en&rclk=1",
        "coordinates": {
            "latitude": 23.836006899999997,
            "longitude": 80.3884767
        }
    },
    {
        "name": "Eidgah, Katni",
        "main_category": "Mosque",
        "address": "R9RQ+27W Eidgah, Katni, Gandhi Ganj, Katni, Madhya Pradesh 483501",
        "detailed_address": {
            "ward": "Gandhi Ganj",
            "street": "R9RQ+27W",
            "city": "Katni",
            "postal_code": "483501",
            "state": "Madhya Pradesh",
            "country_code": "IN"
        },
        "images": [
            {
                "about": "All",
                "link": "https://lh5.googleusercontent.com/p/AF1QipMBW_uAt1KRcPs53SOmN0b67oAUa437VR3f_WwP=w397-h298-k-no"
            },
            {
                "about": "Dome",
                "link": "https://lh5.googleusercontent.com/p/AF1QipMBW_uAt1KRcPs53SOmN0b67oAUa437VR3f_WwP=w397-h298-k-no"
            }
        ],
        "link": "https://www.google.com/maps/place/Eidgah,+Katni/data=!4m7!3m6!1s0x398161898ad37efd:0x4f338ef3f2c1ac5a!8m2!3d23.8401008!4d80.3882178!16s%2Fg%2F11h7ddy2vn!19sChIJ_X7TiolhgTkRWqzB8vOOM08?authuser=0&hl=en&rclk=1",
        "coordinates": {
            "latitude": 23.8401008,
            "longitude": 80.38821779999999
        }
    },
    {
        "name": "Ahmed Nagar kuthla Katni Madhya Pradesh",
        "main_category": "Mosque",
        "address": "V92J+MP5 Ahmed Nagar kuthla Katni Madhya Pradesh, Kuthla, Katni, Madhya Pradesh 483501",
        "detailed_address": {
            "ward": "Kuthla",
            "street": "V92J+MP5",
            "city": "Katni",
            "postal_code": "483501",
            "state": "Madhya Pradesh",
            "country_code": "IN"
        },
        "images": [
            {
                "about": "All",
                "link": "https://lh5.googleusercontent.com/p/AF1QipPH11Z3vCoCcim02rvo7VJUq0wkASdgYCpnjvAY=w224-h298-k-no"
            },
            {
                "about": "Street View & 360deg",
                "link": "https://streetviewpixels-pa.googleapis.com/v1/thumbnail?panoid=z76mP2Dya1axRhviXQpnkg&cb_client=maps_sv.tactile.gps&w=224&h=298&yaw=245.82347&pitch=0&thumbfov=100"
            }
        ],
        "link": "https://www.google.com/maps/place/Ahmed+Nagar+kuthla+Katni+Madhya+Pradesh/data=!4m7!3m6!1s0x3983dfceaf554a2d:0x692ddab3002b9e8f!8m2!3d23.8516523!4d80.3818763!16s%2Fg%2F11sk4hx31m!19sChIJLUpVr87fgzkRj54rALPaLWk?authuser=0&hl=en&rclk=1",
        "coordinates": {
            "latitude": 23.851652299999998,
            "longitude": 80.3818763
        }
    },
    {
        "name": "DARGAH.Hazrat baba jahangir(R.A)",
        "main_category": "Mosque",
        "address": "R9PQ+4P9 DARGAH.Hazrat baba jahangir(R.A), Sher chook, jama masjid, Purani Basti, Gandhi Ganj, Katni, Madhya Pradesh 483501",
        "detailed_address": {
            "ward": "Purani Basti, Gandhi Ganj",
            "street": "R9PQ+4P9 Sher chook, jama masjid",
            "city": "Katni",
            "postal_code": "483501",
            "state": "Madhya Pradesh",
            "country_code": "IN"
        },
        "images": [
            {
                "about": "All",
                "link": "https://lh5.googleusercontent.com/p/AF1QipO6PBmh-oIxLU729ECAR1XjDtxOZttugu_Fq6cV=w397-h298-k-no"
            }
        ],
        "link": "https://www.google.com/maps/place/DARGAH.Hazrat+baba+jahangir%28R.A%29/data=!4m7!3m6!1s0x39816138d2a0d5e7:0x4f4d8dd77179d1d1!8m2!3d23.8356568!4d80.3900944!16s%2Fg%2F11vkh0jn2p!19sChIJ59Wg0jhhgTkR0dF5cdeNTU8?authuser=0&hl=en&rclk=1",
        "coordinates": {
            "latitude": 23.8356568,
            "longitude": 80.3900944
        }
    }
]