[
    {
        "name": "EidGah Govindpur Goriyon",
        "main_category": "Mosque",
        "address": "J97H+344 EidGah Govindpur Goriyon, Govindpur Goriyon, Uttar Pradesh 212217",
        "detailed_address": {
            "ward": null,
            "street": "J97H+344",
            "city": "Govindpur Goriyon",
            "postal_code": "212217",
            "state": "Uttar Pradesh",
            "country_code": "IN"
        },
        "images": [
            {
                "about": "All",
                "link": "https://lh5.googleusercontent.com/p/AF1QipMDwxUnXDNVfpbU-98_Z7O8vAQFntdJ4GYOfX46=w224-h477-k-no"
            },
            {
                "about": "Videos",
                "link": "https://lh5.googleusercontent.com/p/AF1QipOwmqN9bacXY-oghdamJsGik0GU3muslI1VzAOZ=w224-h395-k-no"
            }
        ],
        "link": "https://www.google.com/maps/place/EidGah+Govindpur+Goriyon/data=!4m7!3m6!1s0x399b25712f388a51:0xd53876fde1d991e8!8m2!3d25.6126403!4d81.3778383!16s%2Fg%2F11dyqytdck!19sChIJUYo4L3ElmzkR6JHZ4f12ONU?authuser=0&hl=en&rclk=1",
        "coordinates": {
            "latitude": 25.6126403,
            "longitude": 81.3778383
        }
    },
    {
        "name": "Kajota mosque",
        "main_category": "Mosque",
        "address": "8PHW+GGG Kajota mosque, Kajota, Rajasthan 301413",
        "detailed_address": {
            "ward": null,
            "street": "8PHW+GGG",
            "city": "Kajota",
            "postal_code": null,
            "state": "Rajasthan",
            "country_code": "IN"
        },
        "images": [],
        "link": "https://www.google.com/maps/place/Kajota+mosque/data=!4m7!3m6!1s0x39728b8264c7df9d:0x26f423431fa0fb59!8m2!3d27.3288214!4d76.7463248!16s%2Fg%2F11sz94pq1_!19sChIJnd_HZIKLcjkRWfugH0Mj9CY?authuser=0&hl=en&rclk=1",
        "coordinates": {
            "latitude": 27.3288214,
            "longitude": 76.7463248
        }
    },
    {
        "name": "Madina Masjid Jawaharpura",
        "main_category": "Mosque",
        "address": "C69V+29H Madina Masjid Jawaharpura, Jawaharpura, Rajasthan 331026",
        "detailed_address": {
            "ward": null,
            "street": "C69V+29H",
            "city": "Jawaharpura",
            "postal_code": "331026",
            "state": "Rajasthan",
            "country_code": "IN"
        },
        "images": [
            {
                "about": "All",
                "link": "https://lh5.googleusercontent.com/p/AF1QipOFFwtiNcHPGejbN-do_TsWAUeKIB20sY6j-DQ=w397-h298-k-no"
            }
        ],
        "link": "https://www.google.com/maps/place/Madina+Masjid+Jawaharpura/data=!4m7!3m6!1s0x39136e019fe2543f:0xcc23938aa2f9755f!8m2!3d28.4175568!4d75.2434727!16s%2Fg%2F11c6lv_x7w!19sChIJP1TinwFuEzkRX3X5ooqTI8w?authuser=0&hl=en&rclk=1",
        "coordinates": {
            "latitude": 28.4175568,
            "longitude": 75.2434727
        }
    },
    {
        "name": "Mosque",
        "main_category": "Mosque",
        "address": "Mosque, Takiya Wali Mosque, Ghosinga, 321023, Kaman",
        "detailed_address": {
            "ward": null,
            "street": "Takiya Wali Mosque, Ghosinga, 321023",
            "city": "Kaman, Ghusinga",
            "postal_code": null,
            "state": "Rajasthan",
            "country_code": "IN"
        },
        "images": [
            {
                "about": "All",
                "link": "https://lh5.googleusercontent.com/p/AF1QipNGrQj6rB3LuEziTM79pexBWAcYlcs6VrifrLh4=w224-h298-k-no"
            },
            {
                "about": "Videos",
                "link": "https://lh5.googleusercontent.com/p/AF1QipOBPc14_ClfL6nv_4Cg06Mq2dfLJZLhXi0n4aN8=w224-h398-k-no"
            }
        ],
        "link": "https://www.google.com/maps/place/Mosque/data=!4m7!3m6!1s0x3972d8b60381447d:0xb8ba2baada7c5854!8m2!3d27.7976307!4d77.171879!16s%2Fg%2F1jmclsm_c!19sChIJfUSBA7bYcjkRVFh82qorurg?authuser=0&hl=en&rclk=1",
        "coordinates": {
            "latitude": 27.7976307,
            "longitude": 77.17187899999999
        }
    },
    {
        "name": "Kabadiyon ki masajid",
        "main_category": "Mosque",
        "address": "Kabadiyon ki masajid, 39, Rampura, Kota, Rajasthan 324006",
        "detailed_address": {
            "ward": "Rampura",
            "street": "39",
            "city": "Kota",
            "postal_code": "324006",
            "state": "Rajasthan",
            "country_code": "IN"
        },
        "images": [
            {
                "about": "All",
                "link": "https://lh5.googleusercontent.com/p/AF1QipNBdGzBPjMlBPV_7QloiObzb1K1MK2nWXg7_KwK=w224-h298-k-no"
            }
        ],
        "link": "https://www.google.com/maps/place/Kabadiyon+ki+masajid/data=!4m7!3m6!1s0x396f9b3acee14d53:0x56f50aa26addee!8m2!3d25.1787558!4d75.841253!16s%2Fg%2F11cs9_fxn8!19sChIJU03hzjqbbzkR7t1qogr1VgA?authuser=0&hl=en&rclk=1",
        "coordinates": {
            "latitude": 25.178755799999998,
            "longitude": 75.841253
        }
    },
    {
        "name": "Umar Masjid",
        "main_category": "Mosque",
        "address": "CM86+VP7 Umar Masjid, Govind Pura, Shivpuri, Madhya Pradesh 473551",
        "detailed_address": {
            "ward": "Govind Pura",
            "street": "CM86+VP7",
            "city": "Shivpuri",
            "postal_code": "473551",
            "state": "Madhya Pradesh",
            "country_code": "IN"
        },
        "images": [
            {
                "about": "All",
                "link": "https://streetviewpixels-pa.googleapis.com/v1/thumbnail?panoid=TMYsEMZGNxSsOBfGPd_87w&cb_client=maps_sv.tactile.gps&w=224&h=298&yaw=29.077911&pitch=0&thumbfov=100"
            },
            {
                "about": "Street View & 360deg",
                "link": "https://streetviewpixels-pa.googleapis.com/v1/thumbnail?panoid=TMYsEMZGNxSsOBfGPd_87w&cb_client=maps_sv.tactile.gps&w=224&h=298&yaw=29.077911&pitch=0&thumbfov=100"
            }
        ],
        "link": "https://www.google.com/maps/place/Umar+Masjid/data=!4m7!3m6!1s0x3970bbfb9b3eff71:0xa7d79af2d0eb9465!8m2!3d25.4171749!4d77.6617958!16s%2Fg%2F11c6vgp0dw!19sChIJcf8-m_u7cDkRZZTr0PKa16c?authuser=0&hl=en&rclk=1",
        "coordinates": {
            "latitude": 25.4171749,
            "longitude": 77.6617958
        }
    },
    {
        "name": "Mosque",
        "main_category": "Mosque",
        "address": "JXXW+C38 Mosque, Jotri Peepal, Rajasthan 321204",
        "detailed_address": {
            "ward": null,
            "street": "JXXW+C38",
            "city": "Jotri Peepal",
            "postal_code": "321204",
            "state": "Rajasthan",
            "country_code": "IN"
        },
        "images": [],
        "link": "https://www.google.com/maps/place/Mosque/data=!4m7!3m6!1s0x3972e9c48300d1f5:0x29ec5252158071ac!8m2!3d27.6485392!4d76.995203!16s%2Fg%2F11n019br3n!19sChIJ9dEAg8TpcjkRrHGAFVJS7Ck?authuser=0&hl=en&rclk=1",
        "coordinates": {
            "latitude": 27.6485392,
            "longitude": 76.995203
        }
    },
    {
        "name": "Masjid Noor, Ghaghwari",
        "main_category": "Mosque",
        "address": "J45P+VPW Masjid Noor, Ghaghwari, Ghaghwari, Kaithwara, Rajasthan 321024",
        "detailed_address": {
            "ward": null,
            "street": "J45P+VPW",
            "city": "Ghaghwari, Kaithwara",
            "postal_code": null,
            "state": "Rajasthan",
            "country_code": "IN"
        },
        "images": [
            {
                "about": "All",
                "link": "https://lh5.googleusercontent.com/p/AF1QipO7lGatVLW-v-RNIcqpxe049MTuqdAs4IIc-yc2=w397-h298-k-no"
            },
            {
                "about": "Street View & 360deg",
                "link": "https://streetviewpixels-pa.googleapis.com/v1/thumbnail?panoid=0CHqS39NoF8l-8JRYOXD1A&cb_client=maps_sv.tactile.gps&w=224&h=298&yaw=342.45697&pitch=0&thumbfov=100"
            },
            {
                "about": "Videos",
                "link": "https://lh5.googleusercontent.com/p/AF1QipOafvKNyiGapeTNOOt1DVmrGHuGHsGRkAJRcyUU=w224-h398-k-no"
            }
        ],
        "link": "https://www.google.com/maps/place/Masjid+Noor,+Ghaghwari/data=!4m7!3m6!1s0x3972e10565a8e7dd:0x8a04cdc5343ef44a!8m2!3d27.6097428!4d77.1368183!16s%2Fg%2F11ghfq7csy!19sChIJ3eeoZQXhcjkRSvQ-NMXNBIo?authuser=0&hl=en&rclk=1",
        "coordinates": {
            "latitude": 27.6097428,
            "longitude": 77.1368183
        }
    },
    {
        "name": "Masjid Bhojyakheri",
        "main_category": "Mosque",
        "address": "672C+Q28 Masjid Bhojyakheri, Baran Road, MDR54, Bhojya Kheri, Rajasthan",
        "detailed_address": {
            "ward": null,
            "street": "672C+Q28, Baran Road, MDR54",
            "city": "Bhojya Kheri, Ladwara",
            "postal_code": null,
            "state": "Rajasthan",
            "country_code": "IN"
        },
        "images": [
            {
                "about": "All",
                "link": "https://lh5.googleusercontent.com/p/AF1QipP0gOyVyvP0oI3Ay39F4k5XHvqQm1wM-ERBY-Ef=w646-h298-k-no"
            },
            {
                "about": "Dome",
                "link": "https://lh5.googleusercontent.com/p/AF1QipPWxKHG9Whsc2SVp4lTQfMJJOZyUR2-S7r16lRO=w476-h298-k-no"
            }
        ],
        "link": "https://www.google.com/maps/place/Masjid+Bhojyakheri/data=!4m7!3m6!1s0x396ff0079c22ea65:0xc95c89d08399cf4!8m2!3d25.2019039!4d76.2700922!16s%2Fg%2F11fxz8cvzs!19sChIJZeoinAfwbzkR9Jw5CJ3IlQw?authuser=0&hl=en&rclk=1",
        "coordinates": {
            "latitude": 25.201903899999998,
            "longitude": 76.2700922
        }
    },
    {
        "name": "Chhoti Masjid",
        "main_category": "Mosque",
        "address": "Q769+M2M Chhoti Masjid, Rasoolpur, Rajasthan 321023",
        "detailed_address": {
            "ward": null,
            "street": "Q769+M2M",
            "city": "Rasoolpur",
            "postal_code": "321023",
            "state": "Rajasthan",
            "country_code": "IN"
        },
        "images": [
            {
                "about": "All",
                "link": "https://lh5.googleusercontent.com/p/AF1QipNzKFkhiujwpim1HKHHA9WyJ__Nz9Fk8Bz5KSg-=w224-h298-k-no"
            },
            {
                "about": "Videos",
                "link": "https://lh5.googleusercontent.com/p/AF1QipPvWUh4F4YGv1a7at0vOzH1KDiWrj-kJoNYOtRc=w224-h398-k-no"
            }
        ],
        "link": "https://www.google.com/maps/place/Chhoti+Masjid/data=!4m7!3m6!1s0x39732146a44df397:0x3d15c6c9261a9298!8m2!3d27.7617036!4d77.2675337!16s%2Fg%2F11gsbdfv51!19sChIJl_NNpEYhczkRmJIaJsnGFT0?authuser=0&hl=en&rclk=1",
        "coordinates": {
            "latitude": 27.761703599999997,
            "longitude": 77.2675337
        }
    },
    {
        "name": "MASJID HAJIPURA COLONY",
        "main_category": "Mosque",
        "address": "2FRQ+HJC MASJID HAJIPURA COLONY, Tonk, Rajasthan 304505",
        "detailed_address": {
            "ward": null,
            "street": "2FRQ+HJC",
            "city": "Tonk",
            "postal_code": null,
            "state": "Rajasthan",
            "country_code": "IN"
        },
        "images": [
            {
                "about": "All",
                "link": "https://lh5.googleusercontent.com/p/AF1QipOijAKuhgyHIEloXIhGKNBVyUi2UTrQimkq7Ozj=w224-h399-k-no"
            },
            {
                "about": "Dome",
                "link": "https://lh5.googleusercontent.com/p/AF1QipO6U-V09T0Ly-RTegiD8w1eNFz8JND3aRtDcDIr=w397-h298-k-no"
            },
            {
                "about": "Videos",
                "link": "https://lh5.googleusercontent.com/p/AF1QipOPJM7omGvZQ7XvozuzOXEjOKgsS4aO1y-K9A3z=w224-h368-k-no"
            },
            {
                "about": "Street View & 360deg",
                "link": "https://streetviewpixels-pa.googleapis.com/v1/thumbnail?panoid=PstKzXECCFj7dPjPI20FGw&cb_client=maps_sv.tactile.gps&w=224&h=298&yaw=236.06754&pitch=0&thumbfov=100"
            }
        ],
        "link": "https://www.google.com/maps/place/MASJID+HAJIPURA+COLONY/data=!4m7!3m6!1s0x396eedece3a112b3:0x82788e89940f4f6!8m2!3d26.0414378!4d75.4890267!16s%2Fg%2F11h3bfjv0s!19sChIJsxKh4-ztbjkR9vRAmeiIJwg?authuser=0&hl=en&rclk=1",
        "coordinates": {
            "latitude": 26.041437799999997,
            "longitude": 75.4890267
        }
    },
    {
        "name": "Juma Masjid",
        "main_category": "Mosque",
        "address": "PR2C+H9H Juma Masjid, near mubarikpur, Kishangarh Road, neekach, Rajasthan",
        "detailed_address": {
            "ward": null,
            "street": "PR2C+H9H, near mubarikpur, Kishangarh Road",
            "city": "neekach",
            "postal_code": null,
            "state": "Rajasthan",
            "country_code": "IN"
        },
        "images": [],
        "link": "https://www.google.com/maps/place/Juma+Masjid/data=!4m7!3m6!1s0x3972bf586a3311d3:0x6c8a35d1814cdbe4!8m2!3d27.7014476!4d76.8209948!16s%2Fg%2F11g4fq730z!19sChIJ0xEzali_cjkR5NtMgdE1imw?authuser=0&hl=en&rclk=1",
        "coordinates": {
            "latitude": 27.701447599999998,
            "longitude": 76.8209948
        }
    },
    {
        "name": "Masjid Amruka Road, Ghaghwari",
        "main_category": "Mosque",
        "address": "J47M+FRV Masjid Amruka Road, Ghaghwari, Ghaghwari, Kaithwara, Rajasthan 321024",
        "detailed_address": {
            "ward": null,
            "street": "J47M+FRV",
            "city": "Ghaghwari, Kaithwara",
            "postal_code": null,
            "state": "Rajasthan",
            "country_code": "IN"
        },
        "images": [
            {
                "about": "All",
                "link": "https://streetviewpixels-pa.googleapis.com/v1/thumbnail?panoid=97xyOzzDlu0BnrjmtuX_gw&cb_client=maps_sv.tactile.gps&w=224&h=298&yaw=7.190971&pitch=0&thumbfov=100"
            },
            {
                "about": "Street View & 360deg",
                "link": "https://streetviewpixels-pa.googleapis.com/v1/thumbnail?panoid=97xyOzzDlu0BnrjmtuX_gw&cb_client=maps_sv.tactile.gps&w=224&h=298&yaw=7.190971&pitch=0&thumbfov=100"
            }
        ],
        "link": "https://www.google.com/maps/place/Masjid+Amruka+Road,+Ghaghwari/data=!4m7!3m6!1s0x3972e165fd760b53:0xc3089fec7d4d95bd!8m2!3d27.6137325!4d77.1345514!16s%2Fg%2F11h5tv4dp2!19sChIJUwt2_WXhcjkRvZVNfeyfCMM?authuser=0&hl=en&rclk=1",
        "coordinates": {
            "latitude": 27.613732499999998,
            "longitude": 77.13455139999999
        }
    },
    {
        "name": "Rogniyan Mosque",
        "main_category": "Mosque",
        "address": "4XG9+J8V Rogniyan Mosque, Shahpura Bazar, Kethun, Rajasthan 325001",
        "detailed_address": {
            "ward": "Shahpura Bazar",
            "street": "4XG9+J8V",
            "city": "Kethun",
            "postal_code": "325001",
            "state": "Rajasthan",
            "country_code": "IN"
        },
        "images": [
            {
                "about": "All",
                "link": "https://lh5.googleusercontent.com/p/AF1QipO1RDjazMrasGYbOt2V5oTXap50uYyxXQ9hmBOA=w529-h298-k-no"
            },
            {
                "about": "Dome",
                "link": "https://lh5.googleusercontent.com/p/AF1QipOStfqYUaWReVSDRRB7mt1e3qwDNVV1rzoAGsth=w403-h298-k-no"
            },
            {
                "about": "Street View & 360deg",
                "link": "https://lh5.googleusercontent.com/p/AF1QipMUE6V6myX94FTKM7yimo8tWyuoAM94ZleLr96f=w224-h298-k-no-pi-0-ya158.00002-ro-0-fo100"
            }
        ],
        "link": "https://www.google.com/maps/place/Rogniyan+Mosque/data=!4m7!3m6!1s0x396f8ef4bf0c11d9:0xcbf9bbc48d4773f0!8m2!3d25.1266171!4d75.9683022!16s%2Fg%2F11gfn86kkz!19sChIJ2REMv_SObzkR8HNHjcS7-cs?authuser=0&hl=en&rclk=1",
        "coordinates": {
            "latitude": 25.126617099999997,
            "longitude": 75.9683022
        }
    },
    {
        "name": "Guvade Ki Masjid",
        "main_category": "Mosque",
        "address": "4G38+GF5 Guvade Ki Masjid, mangrol darwaja, Baran, Rajasthan 325205",
        "detailed_address": {
            "ward": "mangrol darwaja",
            "street": "4G38+GF5",
            "city": "Baran",
            "postal_code": "325205",
            "state": "Rajasthan",
            "country_code": "IN"
        },
        "images": [
            {
                "about": "All",
                "link": "https://lh5.googleusercontent.com/p/AF1QipNW6m-72dn2gQT_zIb9Iw0XJ5fd2gFCRVHr3BBY=w397-h298-k-no"
            }
        ],
        "link": "https://www.google.com/maps/place/Guvade+Ki+Masjid/data=!4m7!3m6!1s0x39700111caf7a855:0xe21b3a0c4d35f622!8m2!3d25.1037576!4d76.5162216!16s%2Fg%2F11f30vy59j!19sChIJVaj3yhEBcDkRIvY1TQw6G-I?authuser=0&hl=en&rclk=1",
        "coordinates": {
            "latitude": 25.103757599999998,
            "longitude": 76.5162216
        }
    },
    {
        "name": "Masjid-e-Taqwa Jama Masjid Nokdi",
        "main_category": "Mosque",
        "address": "556P+CG3 Masjid-e-Taqwa Jama Masjid Nokdi, Unnamed Road, Nanana, Sodpura, Rajasthan 306102",
        "detailed_address": {
            "ward": null,
            "street": "556P+CG3, Unnamed Road",
            "city": "Nanana, Sodpura",
            "postal_code": "306102",
            "state": "Rajasthan",
            "country_code": "IN"
        },
        "images": [
            {
                "about": "All",
                "link": "https://lh5.googleusercontent.com/p/AF1QipMYbpKoH8NdZu_DXZVKxWP4WnXJZ5ujWu0hDFRU=w529-h298-k-no"
            },
            {
                "about": "Street View & 360deg",
                "link": "https://streetviewpixels-pa.googleapis.com/v1/thumbnail?panoid=p2YwtkfGemNb63vcudvy7A&cb_client=maps_sv.tactile.gps&w=224&h=298&yaw=65.55778&pitch=0&thumbfov=100"
            }
        ],
        "link": "https://www.google.com/maps/place/Masjid-e-Taqwa+Jama+Masjid+Nokdi/data=!4m7!3m6!1s0x396983cf59032709:0xe6fb909690b4f39b!8m2!3d26.1610054!4d74.1862817!16s%2Fg%2F11fj_8g3sy!19sChIJCScDWc-DaTkRm_O0kJaQ--Y?authuser=0&hl=en&rclk=1",
        "coordinates": {
            "latitude": 26.1610054,
            "longitude": 74.1862817
        }
    },
    {
        "name": "Juma Masjid Mubarikpur",
        "main_category": "Mosque",
        "address": "MVV3+J2H Juma Masjid Mubarikpur, Mubarikpur, Rajasthan 301025",
        "detailed_address": {
            "ward": null,
            "street": "MVV3+J2H",
            "city": "Mubarikpur",
            "postal_code": null,
            "state": "Rajasthan",
            "country_code": "IN"
        },
        "images": [
            {
                "about": "All",
                "link": "https://lh5.googleusercontent.com/p/AF1QipP_p2d2H0EDhfTJfJMRFdNu7j6IuzeQ5i9i9WBT=w224-h398-k-no"
            }
        ],
        "link": "https://www.google.com/maps/place/Juma+Masjid+Mubarikpur/data=!4m7!3m6!1s0x3972c13731c8de53:0x89d4d51b8eccb330!8m2!3d27.6940601!4d76.8525956!16s%2Fg%2F11g0gml919!19sChIJU97IMTfBcjkRMLPMjhvV1Ik?authuser=0&hl=en&rclk=1",
        "coordinates": {
            "latitude": 27.694060099999998,
            "longitude": 76.8525956
        }
    },
    {
        "name": "Gobindapur jama Masjid",
        "main_category": "Mosque",
        "address": "6HHF+PXR Gobindapur jama Masjid, Mustafabad, Bihar 841439",
        "detailed_address": {
            "ward": null,
            "street": "6HHF+PXR",
            "city": "Mustafabad",
            "postal_code": "841439",
            "state": "Bihar",
            "country_code": "IN"
        },
        "images": [
            {
                "about": "All",
                "link": "https://lh5.googleusercontent.com/p/AF1QipPy8vbsa5iu08u90sYKljtk6igt4B06J2ZfdXG_=w662-h298-k-no"
            }
        ],
        "link": "https://www.google.com/maps/place/Gobindapur+jama+Masjid/data=!4m7!3m6!1s0x3992e150d33958d3:0xebb0b799ee68e354!8m2!3d26.2293731!4d84.5748809!16s%2Fg%2F11nt4jgl2g!19sChIJ01g501DhkjkRVONo7pm3sOs?authuser=0&hl=en&rclk=1",
        "coordinates": {
            "latitude": 26.2293731,
            "longitude": 84.5748809
        }
    },
    {
        "name": "Madaar Mosque",
        "main_category": "Mosque",
        "address": "GG2J+CRV Madaar Mosque, Khati Khera, Rajasthan 323024",
        "detailed_address": {
            "ward": null,
            "street": "GG2J+CRV",
            "city": "Khati Khera",
            "postal_code": "323024",
            "state": "Rajasthan",
            "country_code": "IN"
        },
        "images": [
            {
                "about": "All",
                "link": "https://streetviewpixels-pa.googleapis.com/v1/thumbnail?panoid=ju3ZYxstkMzbrtJX_KBuyQ&cb_client=maps_sv.tactile.gps&w=224&h=298&yaw=41.256203&pitch=0&thumbfov=100"
            },
            {
                "about": "Street View & 360deg",
                "link": "https://streetviewpixels-pa.googleapis.com/v1/thumbnail?panoid=ju3ZYxstkMzbrtJX_KBuyQ&cb_client=maps_sv.tactile.gps&w=224&h=298&yaw=41.256203&pitch=0&thumbfov=100"
            }
        ],
        "link": "https://www.google.com/maps/place/Madaar+Mosque/data=!4m7!3m6!1s0x396f0ffe9592737d:0x5862200e66d9f6e8!8m2!3d25.5011068!4d75.5320376!16s%2Fg%2F11dym49bxz!19sChIJfXOSlf4PbzkR6PbZZg4gYlg?authuser=0&hl=en&rclk=1",
        "coordinates": {
            "latitude": 25.5011068,
            "longitude": 75.5320376
        }
    },
    {
        "name": "JAMA MASJID Mahanandpur Dyodha",
        "main_category": "Mosque",
        "address": "HRP3+7Q6 JAMA MASJID Mahanandpur Dyodha, Main Road, Mahanandpur Dyodha, Rajasthan 322205",
        "detailed_address": {
            "ward": null,
            "street": "HRP3+7Q6, Main Road",
            "city": "Mahanandpur Dyodha",
            "postal_code": "322205",
            "state": "Rajasthan",
            "country_code": "IN"
        },
        "images": [
            {
                "about": "All",
                "link": "https://lh5.googleusercontent.com/p/AF1QipOlkkxymVXNA6qx0m2h_DrfewSk2tH7gczljaa3=w522-h298-k-no"
            },
            {
                "about": "Videos",
                "link": "https://lh5.googleusercontent.com/p/AF1QipP00k4vW4tHIbeGRBHUEL04L1juU7tls6C4fyas=w224-h398-k-no"
            }
        ],
        "link": "https://www.google.com/maps/place/JAMA+MASJID+Mahanandpur+Dyodha/data=!4m7!3m6!1s0x39721f7d929f248f:0xab24f2376e8f8f2e!8m2!3d26.5856578!4d76.804393!16s%2Fg%2F11f7r07tjp!19sChIJjySfkn0fcjkRLo-PbjfyJKs?authuser=0&hl=en&rclk=1",
        "coordinates": {
            "latitude": 26.5856578,
            "longitude": 76.80439299999999
        }
    },
    {
        "name": "Masjid",
        "main_category": "Mosque",
        "address": "P2WQ+734 Masjid, Gadshora, Rajasthan 321204",
        "detailed_address": {
            "ward": null,
            "street": "P2WQ+734",
            "city": "Gadshora",
            "postal_code": null,
            "state": "Rajasthan",
            "country_code": "IN"
        },
        "images": [
            {
                "about": "All",
                "link": "https://lh5.googleusercontent.com/p/AF1QipNIMhfU5zyLNmVOX4dnOyibqBKmThSzD_a3z7i8=w224-h298-k-no"
            }
        ],
        "link": "https://www.google.com/maps/place/Masjid/data=!4m7!3m6!1s0x3972dd33266ecec1:0x963873ce13877c5b!8m2!3d27.7456487!4d77.0376925!16s%2Fg%2F11qs77hjwr!19sChIJwc5uJjPdcjkRW3yHE85zOJY?authuser=0&hl=en&rclk=1",
        "coordinates": {
            "latitude": 27.7456487,
            "longitude": 77.03769249999999
        }
    },
    {
        "name": "Masjid-e-Faatima Tu Zaahraa Madhpuriya Jama Masjid",
        "main_category": "Mosque",
        "address": "GPQ7+8M3 Masjid-e-Faatima Tu Zaahraa Madhpuriya Jama Masjid, Unnamed Road, Mad Puriya, Rajasthan 342604",
        "detailed_address": {
            "ward": null,
            "street": "GPQ7+8M3, Unnamed Road",
            "city": "Mad Puriya",
            "postal_code": "342604",
            "state": "Rajasthan",
            "country_code": "IN"
        },
        "images": [
            {
                "about": "All",
                "link": "https://lh5.googleusercontent.com/p/AF1QipPSNYNTIYbXg0zwZnOs6XwO3YiEhuelt2l1cNVe=w397-h298-k-no"
            },
            {
                "about": "Latest",
                "link": "https://streetviewpixels-pa.googleapis.com/v1/thumbnail?panoid=uzja8Lmnn9r6M6pML187qg&cb_client=maps_sv.tactile.gps&w=224&h=298&yaw=249.22447&pitch=0&thumbfov=100"
            },
            {
                "about": "Videos",
                "link": "https://lh5.googleusercontent.com/p/AF1QipPgs8S6yD8poMGbaU_QScjIUZ5_0au3VgYs_Qg-=w224-h398-k-no"
            },
            {
                "about": "Street View & 360deg",
                "link": "https://streetviewpixels-pa.googleapis.com/v1/thumbnail?panoid=uzja8Lmnn9r6M6pML187qg&cb_client=maps_sv.tactile.gps&w=224&h=298&yaw=249.22447&pitch=0&thumbfov=100"
            }
        ],
        "link": "https://www.google.com/maps/place/Masjid-e-Faatima+Tu+Zaahraa+Madhpuriya+Jama+Masjid/data=!4m7!3m6!1s0x396a13fbd908a093:0x1e76d278596d027d!8m2!3d26.5382717!4d73.7141677!16s%2Fg%2F11fjzxq4tl!19sChIJk6AI2fsTajkRfQJtWXjSdh4?authuser=0&hl=en&rclk=1",
        "coordinates": {
            "latitude": 26.5382717,
            "longitude": 73.71416769999999
        }
    },
    {
        "name": "Masjid durga colony",
        "main_category": "Mosque",
        "address": "Masjid durga colony, 199C, Ghoda Basti, Kota Airport Area, Gumanpura, Kota, Rajasthan 324007",
        "detailed_address": {
            "ward": "Ghoda Basti, Kota Airport Area, Gumanpura",
            "street": "199C",
            "city": "Kota",
            "postal_code": "324007",
            "state": "Rajasthan",
            "country_code": "IN"
        },
        "images": [],
        "link": "https://www.google.com/maps/place/Masjid+durga+colony/data=!4m7!3m6!1s0x396f9b76fe095a17:0xaccfcbc2b8be74c3!8m2!3d25.1664105!4d75.8467186!16s%2Fg%2F11jyzwwsbm!19sChIJF1oJ_nabbzkRw3S-uMLLz6w?authuser=0&hl=en&rclk=1",
        "coordinates": {
            "latitude": 25.166410499999998,
            "longitude": 75.8467186
        }
    },
    {
        "name": "Madhina masjid",
        "main_category": "Mosque",
        "address": "J6VV+88Q Madhina masjid, Bindi, Rajasthan 311201",
        "detailed_address": {
            "ward": null,
            "street": "J6VV+88Q",
            "city": "Bindi",
            "postal_code": "311201",
            "state": "Rajasthan",
            "country_code": "IN"
        },
        "images": [],
        "link": "https://www.google.com/maps/place/Madhina+masjid/data=!4m7!3m6!1s0x396f27febf4bf205:0xe19178cc1536c521!8m2!3d25.643344!4d75.2433485!16s%2Fg%2F11nmjgq7x4!19sChIJBfJLv_4nbzkRIcU2Fcx4keE?authuser=0&hl=en&rclk=1",
        "coordinates": {
            "latitude": 25.643344,
            "longitude": 75.2433485
        }
    },
    {
        "name": "Masjid E Aqsa",
        "main_category": "Mosque",
        "address": "7HX4+HPG Masjid E Aqsa, Pur, Rajasthan 311001",
        "detailed_address": {
            "ward": null,
            "street": "7HX4+HPG",
            "city": "Pur",
            "postal_code": null,
            "state": "Rajasthan",
            "country_code": "IN"
        },
        "images": [
            {
                "about": "All",
                "link": "https://lh5.googleusercontent.com/p/AF1QipOIOdJKJvqGRzk6Mz05JkyN-WRVLlVQAjsOvaCq=w662-h298-k-no"
            }
        ],
        "link": "https://www.google.com/maps/place/Masjid+E+Aqsa/data=!4m7!3m6!1s0x3968eb6a6c013b51:0x8a569be6b1ad92f1!8m2!3d25.2989396!4d74.5568379!16s%2Fg%2F11khq_mcwj!19sChIJUTsBbGrraDkR8ZKtseabVoo?authuser=0&hl=en&rclk=1",
        "coordinates": {
            "latitude": 25.298939599999997,
            "longitude": 74.55683789999999
        }
    },
    {
        "name": "Masjid-e-Hamid Jama Masjid Gonda",
        "main_category": "Mosque",
        "address": "644M+QWQ Masjid-e-Hamid Jama Masjid Gonda, Chanwadiya Kalan Rd, Boontiwas, Rajasthan 306102",
        "detailed_address": {
            "ward": null,
            "street": "644M+QWQ, Chanwadiya Kalan Rd",
            "city": "Boontiwas",
            "postal_code": "306102",
            "state": "Rajasthan",
            "country_code": "IN"
        },
        "images": [
            {
                "about": "All",
                "link": "https://lh5.googleusercontent.com/p/AF1QipMWaRreFB99D5JmRSUl-2F32FWmQLPEZW7wRKh5=w397-h298-k-no"
            }
        ],
        "link": "https://www.google.com/maps/place/Masjid-e-Hamid+Jama+Masjid+Gonda/data=!4m7!3m6!1s0x3969818e235a5b7f:0xa478de3652a31d3d!8m2!3d26.2069606!4d74.1348616!16s%2Fg%2F11h05rx83g!19sChIJf1taI46BaTkRPR2jUjbeeKQ?authuser=0&hl=en&rclk=1",
        "coordinates": {
            "latitude": 26.2069606,
            "longitude": 74.1348616
        }
    },
    {
        "name": "Maszid",
        "main_category": "Mosque",
        "address": "46WM+FX2 Maszid, Palaita, Rajasthan 325202",
        "detailed_address": {
            "ward": null,
            "street": "46WM+FX2",
            "city": "Palaita",
            "postal_code": "325202",
            "state": "Rajasthan",
            "country_code": "IN"
        },
        "images": [
            {
                "about": "All",
                "link": "https://lh5.googleusercontent.com/p/AF1QipMs81DOsM9KXbUnJloeVfgLJ07z8YdrueKYTH2s=w224-h398-k-no"
            }
        ],
        "link": "https://www.google.com/maps/place/Maszid/data=!4m7!3m6!1s0x396ff0fabf98ef29:0xa529f82bc3cb5b98!8m2!3d25.1461414!4d76.2349027!16s%2Fg%2F11gfjbmls1!19sChIJKe-Yv_rwbzkRmFvLwyv4KaU?authuser=0&hl=en&rclk=1",
        "coordinates": {
            "latitude": 25.146141399999998,
            "longitude": 76.23490269999999
        }
    },
    {
        "name": "Masjid",
        "main_category": "Mosque",
        "address": "CR3G+QR Masjid, Sahadka, Rajasthan 301021",
        "detailed_address": {
            "ward": null,
            "street": "CR3G+QR",
            "city": "Sahadka",
            "postal_code": null,
            "state": "Rajasthan",
            "country_code": "IN"
        },
        "images": [
            {
                "about": "All",
                "link": "https://lh5.googleusercontent.com/p/AF1QipMO8oNRPZgGU1j2rJT58DtCPMforSphvnWfksUv=w224-h459-k-no"
            },
            {
                "about": "Videos",
                "link": "https://lh5.googleusercontent.com/p/AF1QipM31IEuveFcyikvIrKuIL0UrFaN9mdOffmQHGm4=w224-h459-k-no"
            }
        ],
        "link": "https://www.google.com/maps/place/Masjid/data=!4m7!3m6!1s0x3972f3f0efb4d57d:0x13e17523876f6e13!8m2!3d27.404402!4d76.8270701!16s%2Fg%2F11smhzqxgr!19sChIJfdW07_DzcjkRE25vhyN14RM?authuser=0&hl=en&rclk=1",
        "coordinates": {
            "latitude": 27.404401999999997,
            "longitude": 76.8270701
        }
    },
    {
        "name": "NEU Masjid Domraki",
        "main_category": "Mosque",
        "address": "G26F+24W NEU Masjid Domraki, Baroli, Rajasthan 301604",
        "detailed_address": {
            "ward": null,
            "street": "G26F+24W",
            "city": "Baroli",
            "postal_code": null,
            "state": "Rajasthan",
            "country_code": "IN"
        },
        "images": [],
        "link": "https://www.google.com/maps/place/NEU+Masjid+Domraki/data=!4m7!3m6!1s0x3972e58be661640d:0x174b03c45af7870e!8m2!3d27.5101249!4d77.022828!16s%2Fg%2F11p74srj67!19sChIJDWRh5ovlcjkRDof3WsQDSxc?authuser=0&hl=en&rclk=1",
        "coordinates": {
            "latitude": 27.510124899999997,
            "longitude": 77.02282799999999
        }
    },
    {
        "name": "Masjid",
        "main_category": "Mosque",
        "address": "66GP+Q26 Masjid, Lalpur, Satarhuli, Uttar Pradesh 209308",
        "detailed_address": {
            "ward": null,
            "street": "66GP+Q26",
            "city": "Lalpur, Satarhuli",
            "postal_code": "209308",
            "state": "Uttar Pradesh",
            "country_code": "IN"
        },
        "images": [
            {
                "about": "All",
                "link": "https://lh5.googleusercontent.com/p/AF1QipNuEJplmrvaj4LeX7ODxEy1dlvtPcosJHoUPnrX=w224-h395-k-no"
            },
            {
                "about": "Videos",
                "link": "https://lh5.googleusercontent.com/p/AF1QipNF9_wfliIDrD0KASQBySJHHLg6VSGLUb2r4url=w224-h398-k-no"
            }
        ],
        "link": "https://www.google.com/maps/place/Masjid/data=!4m7!3m6!1s0x399c51ee80035d6b:0x8c39a9b22912c366!8m2!3d26.2269033!4d80.2350124!16s%2Fg%2F11snt20xlj!19sChIJa10DgO5RnDkRZsMSKbKpOYw?authuser=0&hl=en&rclk=1",
        "coordinates": {
            "latitude": 26.2269033,
            "longitude": 80.2350124
        }
    },
    {
        "name": "Madina Masjid",
        "main_category": "Mosque",
        "address": "7FHF+HM6 Madina Masjid, Jakhara, Rajasthan 333025",
        "detailed_address": {
            "ward": null,
            "street": "7FHF+HM6",
            "city": "Jakhara",
            "postal_code": null,
            "state": "Rajasthan",
            "country_code": "IN"
        },
        "images": [],
        "link": "https://www.google.com/maps/place/Madina+Masjid/data=!4m7!3m6!1s0x39131766c276a6f7:0x2c86aaf507308b92!8m2!3d28.278908!4d75.474147!16s%2Fg%2F11f67wywm_!19sChIJ96Z2wmYXEzkRkoswB_Wqhiw?authuser=0&hl=en&rclk=1",
        "coordinates": {
            "latitude": 28.278907999999998,
            "longitude": 75.474147
        }
    },
    {
        "name": "Macca masjid",
        "main_category": "Mosque",
        "address": "W8JH+QXV Macca masjid, Unnamed Road, Gauri Awara, Uttar Pradesh 212631",
        "detailed_address": {
            "ward": null,
            "street": "W8JH+QXV, Unnamed Road",
            "city": "Gauri Awara",
            "postal_code": "212631",
            "state": "Uttar Pradesh",
            "country_code": "IN"
        },
        "images": [
            {
                "about": "All",
                "link": "https://lh5.googleusercontent.com/p/AF1QipPmXxiNtmlkdPIA6SkTlfftx3JNRiGoH-syk8dM=w224-h398-k-no"
            },
            {
                "about": "Street View & 360deg",
                "link": "https://streetviewpixels-pa.googleapis.com/v1/thumbnail?panoid=Jr1b8mhGaUM7cZ9qBsGlXA&cb_client=maps_sv.tactile.gps&w=224&h=298&yaw=233.40002&pitch=0&thumbfov=100"
            },
            {
                "about": "Videos",
                "link": "https://lh5.googleusercontent.com/p/AF1QipN903d7fEVvqOHvSmpyWtWLJ4RfcH-OCddVVlk9=w529-h298-k-no"
            }
        ],
        "link": "https://www.google.com/maps/place/Macca+masjid/data=!4m7!3m6!1s0x399cf146344df4c5:0x9c292eb48c700eff!8m2!3d25.9319789!4d80.3299361!16s%2Fg%2F11llp8zjx2!19sChIJxfRNNEbxnDkR_w5wjLQuKZw?authuser=0&hl=en&rclk=1",
        "coordinates": {
            "latitude": 25.931978899999997,
            "longitude": 80.3299361
        }
    },
    {
        "name": "Masjid burrakh wali",
        "main_category": "Mosque",
        "address": "5RHR+7JC Masjid burrakh wali, Shripura Rd, Mokhapara, bhisti mohalla, Kota, Rajasthan 324006",
        "detailed_address": {
            "ward": "Mokhapara, bhisti mohalla",
            "street": "5RHR+7JC, Shripura Rd",
            "city": "Kota",
            "postal_code": "324006",
            "state": "Rajasthan",
            "country_code": "IN"
        },
        "images": [],
        "link": "https://www.google.com/maps/place/Masjid+burrakh+wali/data=!4m7!3m6!1s0x396f9bcf5e3cff95:0x2c4d9f9bcaac32d3!8m2!3d25.178193!4d75.8415099!16s%2Fg%2F11tfvs_gb_!19sChIJlf88Xs-bbzkR0zKsypufTSw?authuser=0&hl=en&rclk=1",
        "coordinates": {
            "latitude": 25.178193,
            "longitude": 75.84150989999999
        }
    },
    {
        "name": "Madina Masjid",
        "main_category": "Mosque",
        "address": "R42C+J77 Madina Masjid, rasulpura, Uniara, Rasoolpura, Rajasthan 304023",
        "detailed_address": {
            "ward": "rasulpura",
            "street": "R42C+J77",
            "city": "Uniara, Rasoolpura",
            "postal_code": null,
            "state": "Rajasthan",
            "country_code": "IN"
        },
        "images": [
            {
                "about": "All",
                "link": "https://streetviewpixels-pa.googleapis.com/v1/thumbnail?panoid=73_Xsbs78IQigI1xll6VXQ&cb_client=maps_sv.tactile.gps&w=224&h=298&yaw=250.58386&pitch=0&thumbfov=100"
            },
            {
                "about": "Street View & 360deg",
                "link": "https://streetviewpixels-pa.googleapis.com/v1/thumbnail?panoid=73_Xsbs78IQigI1xll6VXQ&cb_client=maps_sv.tactile.gps&w=224&h=298&yaw=250.58386&pitch=0&thumbfov=100"
            }
        ],
        "link": "https://www.google.com/maps/place/Madina+Masjid/data=!4m7!3m6!1s0x396e356933e8477b:0xbe4bcb866728b9c8!8m2!3d25.8015465!4d76.1206841!16s%2Fg%2F11hdk_j9n6!19sChIJe0foM2k1bjkRyLkoZ4bLS74?authuser=0&hl=en&rclk=1",
        "coordinates": {
            "latitude": 25.8015465,
            "longitude": 76.12068409999999
        }
    },
    {
        "name": "Masjid Madaripura",
        "main_category": "Mosque",
        "address": "7HGP+H4 Masjid Madaripura, Mawasipura, Rajasthan 304801",
        "detailed_address": {
            "ward": null,
            "street": "7HGP+H4",
            "city": "Mawasipura",
            "postal_code": null,
            "state": "Rajasthan",
            "country_code": "IN"
        },
        "images": [
            {
                "about": "All",
                "link": "https://lh5.googleusercontent.com/p/AF1QipPKWJfKX9S-4Hag0Zlbmrqmca0LmuvpInQcksCj=w397-h298-k-no"
            },
            {
                "about": "Street View & 360deg",
                "link": "https://streetviewpixels-pa.googleapis.com/v1/thumbnail?panoid=uPcMeIy5IP0wTQkKozW_Fg&cb_client=maps_sv.tactile.gps&w=224&h=298&yaw=152.04083&pitch=0&thumbfov=100"
            }
        ],
        "link": "https://www.google.com/maps/place/Masjid+Madaripura/data=!4m7!3m6!1s0x396e8502e8f369df:0x8381709cfae4a681!8m2!3d26.276493!4d75.585288!16s%2Fg%2F11rplm2tkh!19sChIJ32nz6AKFbjkRgabk-pxwgYM?authuser=0&hl=en&rclk=1",
        "coordinates": {
            "latitude": 26.276493,
            "longitude": 75.58528799999999
        }
    },
    {
        "name": "masjid hadotoyan",
        "main_category": "Mosque",
        "address": "4XG9+H5M masjid hadotoyan, kota mohalla, Kethun, Rajasthan",
        "detailed_address": {
            "ward": "Shahpura Bazar",
            "street": "4XG9+H5M, kota mohalla",
            "city": "Kethun",
            "postal_code": null,
            "state": "Rajasthan",
            "country_code": "IN"
        },
        "images": [],
        "link": "https://www.google.com/maps/place/masjid+hadotoyan/data=!4m7!3m6!1s0x396f8f79b80a31b1:0x14661b9c28c40fa1!8m2!3d25.126459!4d75.9679142!16s%2Fg%2F11gy6j9c85!19sChIJsTEKuHmPbzkRoQ_EKJwbZhQ?authuser=0&hl=en&rclk=1",
        "coordinates": {
            "latitude": 25.126459,
            "longitude": 75.9679142
        }
    },
    {
        "name": "Masjid",
        "main_category": "Mosque",
        "address": "75P7+37Q Masjid, Mahua, Rajasthan 311604",
        "detailed_address": {
            "ward": null,
            "street": "75P7+37Q",
            "city": "Mahua",
            "postal_code": "311604",
            "state": "Rajasthan",
            "country_code": "IN"
        },
        "images": [],
        "link": "https://www.google.com/maps/place/Masjid/data=!4m7!3m6!1s0x396f3922f59a577d:0x151d00986016f6a4!8m2!3d25.2852061!4d75.1632459!16s%2Fg%2F11ssq9h1dq!19sChIJfVea9SI5bzkRpPYWYJgAHRU?authuser=0&hl=en&rclk=1",
        "coordinates": {
            "latitude": 25.2852061,
            "longitude": 75.16324589999999
        }
    },
    {
        "name": "siNdhiipuraa msjid",
        "main_category": "Mosque",
        "address": "CC5P+2J siNdhiipuraa msjid, Kalyan Singh Ki, Rajasthan 342307",
        "detailed_address": {
            "ward": null,
            "street": "CC5P+2J",
            "city": "Kalyan Singh Ki",
            "postal_code": null,
            "state": "Rajasthan",
            "country_code": "IN"
        },
        "images": [],
        "link": "https://www.google.com/maps/place/%E0%A4%B8%E0%A4%BF%E0%A4%82%E0%A4%A7%E0%A5%80%E0%A4%AA%E0%A5%81%E0%A4%B0%E0%A4%BE+%E0%A4%AE%E0%A4%B8%E0%A5%8D%E0%A4%9C%E0%A4%BF%E0%A4%A6/data=!4m7!3m6!1s0x39409bf5c1f2b48f:0xe4a641741e3a59d1!8m2!3d27.407532!4d72.436599!16s%2Fg%2F11t586dtsp!19sChIJj7TywfWbQDkR0Vk6HnRBpuQ?authuser=0&hl=en&rclk=1",
        "coordinates": {
            "latitude": 27.407532,
            "longitude": 72.436599
        }
    },
    {
        "name": "Pathaano ki Masjid, Khoh Dariba",
        "main_category": "Mosque",
        "address": "59JH+RWP Pathaano ki Masjid, Khoh Dariba, Doondpuri, Rajasthan 301410",
        "detailed_address": {
            "ward": null,
            "street": "59JH+RWP",
            "city": "Doondpuri",
            "postal_code": "301410",
            "state": "Rajasthan",
            "country_code": "IN"
        },
        "images": [],
        "link": "https://www.google.com/maps/place/Pathaano+ki+Masjid,+Khoh+Dariba/data=!4m7!3m6!1s0x396d819b2eb3c6bb:0xde8e44fe0ddfb33!8m2!3d27.1820879!4d76.3798153!16s%2Fg%2F11rf4f61j7!19sChIJu8azLpuBbTkRM_vd4E_k6A0?authuser=0&hl=en&rclk=1",
        "coordinates": {
            "latitude": 27.1820879,
            "longitude": 76.37981529999999
        }
    },
    {
        "name": "Masjid",
        "main_category": "Mosque",
        "address": "9PJV+2H Masjid, Maharajpura, Rajasthan 321633",
        "detailed_address": {
            "ward": null,
            "street": "9PJV+2H",
            "city": "Maharajpura",
            "postal_code": null,
            "state": "Rajasthan",
            "country_code": "IN"
        },
        "images": [],
        "link": "https://www.google.com/maps/place/Masjid/data=!4m7!3m6!1s0x39728b27a048be11:0xf8249b647ab69e5b!8m2!3d27.3801061!4d76.7439611!16s%2Fg%2F11rq1vb_z9!19sChIJEb5IoCeLcjkRW562emSbJPg?authuser=0&hl=en&rclk=1",
        "coordinates": {
            "latitude": 27.3801061,
            "longitude": 76.74396109999999
        }
    },
    {
        "name": "jama masjid",
        "main_category": "Mosque",
        "address": "843R+52 jama masjid, Kishanpura, Rajasthan 326036",
        "detailed_address": {
            "ward": null,
            "street": "843R+52",
            "city": "Kishanpura",
            "postal_code": null,
            "state": "Rajasthan",
            "country_code": "IN"
        },
        "images": [
            {
                "about": "All",
                "link": "https://lh5.googleusercontent.com/p/AF1QipO794AeExL4J35uJya9wBtXT8bkCzdDX-qLeN1Z=w224-h497-k-no"
            }
        ],
        "link": "https://www.google.com/maps/place/jama+masjid/data=!4m7!3m6!1s0x396521aad270158d:0xc0adf557ebc83846!8m2!3d24.3029386!4d76.1400121!16s%2Fg%2F11s0m9hgqn!19sChIJjRVw0qohZTkRRjjI61f1rcA?authuser=0&hl=en&rclk=1",
        "coordinates": {
            "latitude": 24.302938599999997,
            "longitude": 76.14001209999999
        }
    },
    {
        "name": "Masjid",
        "main_category": "Mosque",
        "address": "FH4H+V5 Masjid, Alapur, Rajasthan 301001",
        "detailed_address": {
            "ward": null,
            "street": "FH4H+V5",
            "city": "Alapur",
            "postal_code": null,
            "state": "Rajasthan",
            "country_code": "IN"
        },
        "images": [
            {
                "about": "All",
                "link": "https://streetviewpixels-pa.googleapis.com/v1/thumbnail?panoid=OENUafYqwPs9YjcUelDtkg&cb_client=maps_sv.tactile.gps&w=224&h=298&yaw=358.8201&pitch=0&thumbfov=100"
            },
            {
                "about": "Street View & 360deg",
                "link": "https://streetviewpixels-pa.googleapis.com/v1/thumbnail?panoid=OENUafYqwPs9YjcUelDtkg&cb_client=maps_sv.tactile.gps&w=224&h=298&yaw=358.8201&pitch=0&thumbfov=100"
            }
        ],
        "link": "https://www.google.com/maps/place/Masjid/data=!4m7!3m6!1s0x397285c1e2c9ee83:0xd636c0d7d3de4251!8m2!3d27.4572491!4d76.5778797!16s%2Fg%2F11ptwk_0xs!19sChIJg-7J4sGFcjkRUULe09fANtY?authuser=0&hl=en&rclk=1",
        "coordinates": {
            "latitude": 27.4572491,
            "longitude": 76.5778797
        }
    },
    {
        "name": "Masjid-e-Taqwa Ramgarh Jama Masjid",
        "main_category": "Mosque",
        "address": "46QX+5F9 Masjid-e-Taqwa Ramgarh Jama Masjid, Chang, Rajasthan 306102",
        "detailed_address": {
            "ward": null,
            "street": "46QX+5F9",
            "city": "Chang",
            "postal_code": "306102",
            "state": "Rajasthan",
            "country_code": "IN"
        },
        "images": [
            {
                "about": "All",
                "link": "https://lh5.googleusercontent.com/p/AF1QipMSvFe03I7Tp56jiW2hXWKzg-dPZNYVXKpGfhH8=w397-h298-k-no"
            },
            {
                "about": "Street View & 360deg",
                "link": "https://streetviewpixels-pa.googleapis.com/v1/thumbnail?panoid=qhjSWUG9WZLrkVx2drzd3Q&cb_client=maps_sv.tactile.gps&w=224&h=298&yaw=334.94864&pitch=0&thumbfov=100"
            },
            {
                "about": "Videos",
                "link": "https://lh5.googleusercontent.com/p/AF1QipO7XVZHZf51BM84fGi8C0Xak2SzNnFFESGI19NG=w224-h398-k-no"
            }
        ],
        "link": "https://www.google.com/maps/place/Masjid-e-Taqwa+Ramgarh+Jama+Masjid/data=!4m7!3m6!1s0x396979ccefedc399:0xc71813918274b340!8m2!3d26.1379024!4d74.2487488!16s%2Fg%2F11h05l0nfp!19sChIJmcPt78x5aTkRQLN0gpETGMc?authuser=0&hl=en&rclk=1",
        "coordinates": {
            "latitude": 26.137902399999998,
            "longitude": 74.2487488
        }
    },
    {
        "name": "Mosque",
        "main_category": "Mosque",
        "address": "25FC+GR Mosque, Phootolao, Rajasthan 303001",
        "detailed_address": {
            "ward": null,
            "street": "25FC+GR",
            "city": "Phootolao",
            "postal_code": null,
            "state": "Rajasthan",
            "country_code": "IN"
        },
        "images": [
            {
                "about": "All",
                "link": "https://streetviewpixels-pa.googleapis.com/v1/thumbnail?panoid=Trc32Gc1-NZW7ArORapPmw&cb_client=maps_sv.tactile.gps&w=224&h=298&yaw=265.8&pitch=0&thumbfov=100"
            },
            {
                "about": "Street View & 360deg",
                "link": "https://streetviewpixels-pa.googleapis.com/v1/thumbnail?panoid=Trc32Gc1-NZW7ArORapPmw&cb_client=maps_sv.tactile.gps&w=224&h=298&yaw=265.8&pitch=0&thumbfov=100"
            }
        ],
        "link": "https://www.google.com/maps/place/Mosque/data=!4m7!3m6!1s0x396d97c7b9798205:0xa63f253a407181a!8m2!3d27.0238332!4d76.1720488!16s%2Fg%2F11pf8819yf!19sChIJBYJ5uceXbTkRGhgHpFPyYwo?authuser=0&hl=en&rclk=1",
        "coordinates": {
            "latitude": 27.0238332,
            "longitude": 76.1720488
        }
    },
    {
        "name": "Masjid",
        "main_category": "Mosque",
        "address": "9CW8+32W Masjid, Jhiri, Rajasthan 328026",
        "detailed_address": {
            "ward": null,
            "street": "9CW8+32W",
            "city": "Jhiri",
            "postal_code": null,
            "state": "Rajasthan",
            "country_code": "IN"
        },
        "images": [
            {
                "about": "All",
                "link": "https://lh5.googleusercontent.com/p/AF1QipMMjl8hN6X_eNZNwG2q6iwYTUXOrmGYCWmesza6=w529-h298-k-no"
            },
            {
                "about": "Videos",
                "link": "https://lh5.googleusercontent.com/p/AF1QipMrFwB6gi3YPzFykWgzE-wXEJv7olqgRIj0NPA=w224-h407-k-no"
            }
        ],
        "link": "https://www.google.com/maps/place/Masjid/data=!4m7!3m6!1s0x39716f799c3b3193:0xa58d9db74f61582!8m2!3d26.395248!4d77.4150706!16s%2Fg%2F11s4rzj2j1!19sChIJkzE7nHlvcTkRghX2dNvZWAo?authuser=0&hl=en&rclk=1",
        "coordinates": {
            "latitude": 26.395248,
            "longitude": 77.41507059999999
        }
    },
    {
        "name": "Masjid",
        "main_category": "Mosque",
        "address": "Masjid, VIP mohalla, Chhoti masjid, Kaimasa, sector ..11",
        "detailed_address": {
            "ward": null,
            "street": "VIP mohalla, Chhoti masjid",
            "city": "Kaimasa",
            "postal_code": "sector ..11",
            "state": "Rajasthan",
            "country_code": "IN"
        },
        "images": [
            {
                "about": "All",
                "link": "https://lh5.googleusercontent.com/p/AF1QipP1C5zNIgbEoIJy5DVVVyoQwlQHMyIdBTQpJLDB=w224-h397-k-no"
            },
            {
                "about": "Videos",
                "link": "https://lh5.googleusercontent.com/p/AF1QipP1C5zNIgbEoIJy5DVVVyoQwlQHMyIdBTQpJLDB=w224-h397-k-no"
            }
        ],
        "link": "https://www.google.com/maps/place/Masjid/data=!4m7!3m6!1s0x3972e511b42a73c7:0x1ecf8a4b07eef0a9!8m2!3d27.5365549!4d77.0526529!16s%2Fg%2F11sqc89rv8!19sChIJx3MqtBHlcjkRqfDuB0uKzx4?authuser=0&hl=en&rclk=1",
        "coordinates": {
            "latitude": 27.5365549,
            "longitude": 77.0526529
        }
    },
    {
        "name": "Jumma masjid bagawas balotra",
        "main_category": "Mosque",
        "address": "4FX5+GX Jumma masjid bagawas balotra, Meghawas, Rajasthan 344026",
        "detailed_address": {
            "ward": null,
            "street": "4FX5+GX",
            "city": "Meghawas",
            "postal_code": null,
            "state": "Rajasthan",
            "country_code": "IN"
        },
        "images": [
            {
                "about": "All",
                "link": "https://lh5.googleusercontent.com/p/AF1QipNRTFjb7-LTF7ztulNE3671fvFjTaIBlKMjXNY6=w529-h298-k-no"
            }
        ],
        "link": "https://www.google.com/maps/place/Jumma+masjid+bagawas+balotra/data=!4m7!3m6!1s0x394163d4820b4cf1:0xa31a029a22f2b449!8m2!3d26.1487804!4d72.4599302!16s%2Fg%2F11sstpg673!19sChIJ8UwLgtRjQTkRSbTyIpoCGqM?authuser=0&hl=en&rclk=1",
        "coordinates": {
            "latitude": 26.1487804,
            "longitude": 72.4599302
        }
    },
    {
        "name": "Kayampura mosque",
        "main_category": "Mosque",
        "address": "VR6P+43G Kayampura mosque, Kayampura, Bagthala, Rajasthan 311023",
        "detailed_address": {
            "ward": null,
            "street": "VR6P+43G",
            "city": "Kayampura, Bagthala",
            "postal_code": "311023",
            "state": "Rajasthan",
            "country_code": "IN"
        },
        "images": [
            {
                "about": "All",
                "link": "https://lh5.googleusercontent.com/p/AF1QipMr281akKgP6RO4EQJDbMOJP32tkPtxJgLxq7S4=w397-h298-k-no"
            },
            {
                "about": "Dome",
                "link": "https://lh5.googleusercontent.com/p/AF1QipOJ5T5RavS_seAzT6kG0LfqzDPFOZBnzDyRTgRm=w397-h298-k-no"
            }
        ],
        "link": "https://www.google.com/maps/place/Kayampura+mosque/data=!4m7!3m6!1s0x396931805ee02967:0x5937f299f6699150!8m2!3d25.8603118!4d74.8352011!16s%2Fg%2F11m9_7nmmr!19sChIJZyngXoAxaTkRUJFp9pnyN1k?authuser=0&hl=en&rclk=1",
        "coordinates": {
            "latitude": 25.860311799999998,
            "longitude": 74.83520109999999
        }
    },
    {
        "name": "Chhoti Bakhal maszid",
        "main_category": "Mosque",
        "address": "Q65X+GH9 Chhoti Bakhal maszid, Kherli Gumani, Pai, Rajasthan 321023",
        "detailed_address": {
            "ward": null,
            "street": "Q65X+GH9",
            "city": "Kherli Gumani, Pai",
            "postal_code": null,
            "state": "Rajasthan",
            "country_code": "IN"
        },
        "images": [],
        "link": "https://www.google.com/maps/place/Chhoti+Bakhal+maszid/data=!4m7!3m6!1s0x3973216791a32c57:0xc9ee844e63c6d61a!8m2!3d27.7587836!4d77.2489784!16s%2Fg%2F11sbl4dbbc!19sChIJVyyjkWchczkRGtbGY06E7sk?authuser=0&hl=en&rclk=1",
        "coordinates": {
            "latitude": 27.758783599999997,
            "longitude": 77.2489784
        }
    },
    {
        "name": "Chhoti Masjid Gajarpur",
        "main_category": "Mosque",
        "address": "53F3+PC8 Chhoti Masjid Gajarpur, Gajarpur, Haryana 122103",
        "detailed_address": {
            "ward": null,
            "street": "53F3+PC8",
            "city": "Gajarpur",
            "postal_code": "122103",
            "state": "Haryana",
            "country_code": "IN"
        },
        "images": [],
        "link": "https://www.google.com/maps/place/Chhoti+Masjid+Gajarpur/data=!4m7!3m6!1s0x390d2f97c3e11301:0x94f108ddb6bfc32c!8m2!3d28.1742816!4d77.053568!16s%2Fg%2F11h0ylfqj5!19sChIJARPhw5cvDTkRLMO_tt0I8ZQ?authuser=0&hl=en&rclk=1",
        "coordinates": {
            "latitude": 28.1742816,
            "longitude": 77.053568
        }
    },
    {
        "name": "Goshiya Masjid",
        "main_category": "Mosque",
        "address": "J6VQ+JMQ Goshiya Masjid, Jahazpur, Bindi, Rajasthan 311201",
        "detailed_address": {
            "ward": null,
            "street": "J6VQ+JMQ",
            "city": "Jahazpur, Bindi",
            "postal_code": "311201",
            "state": "Rajasthan",
            "country_code": "IN"
        },
        "images": [],
        "link": "https://www.google.com/maps/place/Goshiya+Masjid/data=!4m7!3m6!1s0x396f27bed7ad2325:0xde942ccc2a76facb!8m2!3d25.6440804!4d75.2392448!16s%2Fg%2F11tghb9_2s!19sChIJJSOt174nbzkRy_p2KswslN4?authuser=0&hl=en&rclk=1",
        "coordinates": {
            "latitude": 25.6440804,
            "longitude": 75.2392448
        }
    },
    {
        "name": "Masjid",
        "main_category": "Mosque",
        "address": "6V77+GWC Masjid, Ladpura, Tilak Nagar, Nayapura, Kota, Rajasthan 324002",
        "detailed_address": {
            "ward": "Ladpura, Tilak Nagar, Nayapura",
            "street": "6V77+GWC",
            "city": "Kota",
            "postal_code": null,
            "state": "Rajasthan",
            "country_code": "IN"
        },
        "images": [],
        "link": "https://www.google.com/maps/place/Masjid/data=!4m7!3m6!1s0x396f9bb0f3f602a3:0x307e92d51e31d825!8m2!3d25.2138156!4d75.8647527!16s%2Fg%2F11s4y6ck_z!19sChIJowL287CbbzkRJdgxHtWSfjA?authuser=0&hl=en&rclk=1",
        "coordinates": {
            "latitude": 25.2138156,
            "longitude": 75.8647527
        }
    },
    {
        "name": "Masjid",
        "main_category": "Mosque",
        "address": "R2M3+XPF Masjid, Dara, Kishor Sagar, Rajasthan 325003",
        "detailed_address": {
            "ward": null,
            "street": "R2M3+XPF",
            "city": "Dara, Kishor Sagar",
            "postal_code": "325003",
            "state": "Rajasthan",
            "country_code": "IN"
        },
        "images": [
            {
                "about": "All",
                "link": "https://streetviewpixels-pa.googleapis.com/v1/thumbnail?panoid=qD2vLhLrdLirJ0QbUPE0ww&cb_client=maps_sv.tactile.gps&w=224&h=298&yaw=26.621181&pitch=0&thumbfov=100"
            },
            {
                "about": "Street View & 360deg",
                "link": "https://streetviewpixels-pa.googleapis.com/v1/thumbnail?panoid=qD2vLhLrdLirJ0QbUPE0ww&cb_client=maps_sv.tactile.gps&w=224&h=298&yaw=26.621181&pitch=0&thumbfov=100"
            }
        ],
        "link": "https://www.google.com/maps/place/Masjid/data=!4m7!3m6!1s0x3965675c38924bb7:0xd475aedbc9e9129f!8m2!3d24.8349325!4d76.0042868!16s%2Fg%2F11v0bc_drk!19sChIJt0uSOFxnZTkRnxLpyduuddQ?authuser=0&hl=en&rclk=1",
        "coordinates": {
            "latitude": 24.834932499999997,
            "longitude": 76.0042868
        }
    },
    {
        "name": "CHHOTI MASJID MAVASA",
        "main_category": "Mosque",
        "address": "3XF8+3W8 CHHOTI MASJID MAVASA, Mawasa, Rajasthan 325001",
        "detailed_address": {
            "ward": null,
            "street": "3XF8+3W8",
            "city": "Mawasa",
            "postal_code": "325001",
            "state": "Rajasthan",
            "country_code": "IN"
        },
        "images": [
            {
                "about": "All",
                "link": "https://streetviewpixels-pa.googleapis.com/v1/thumbnail?panoid=4UszcC29u6JLoKHzdR3_yQ&cb_client=maps_sv.tactile.gps&w=224&h=298&yaw=243.49057&pitch=0&thumbfov=100"
            },
            {
                "about": "Street View & 360deg",
                "link": "https://streetviewpixels-pa.googleapis.com/v1/thumbnail?panoid=4UszcC29u6JLoKHzdR3_yQ&cb_client=maps_sv.tactile.gps&w=224&h=298&yaw=243.49057&pitch=0&thumbfov=100"
            }
        ],
        "link": "https://www.google.com/maps/place/CHHOTI+MASJID+MAVASA/data=!4m7!3m6!1s0x396f89b067049afd:0x287b96e20439d490!8m2!3d25.0726687!4d75.9673342!16s%2Fg%2F11mvngmln9!19sChIJ_ZoEZ7CJbzkRkNQ5BOKWeyg?authuser=0&hl=en&rclk=1",
        "coordinates": {
            "latitude": 25.072668699999998,
            "longitude": 75.9673342
        }
    },
    {
        "name": "Jama masjid, Hirapur",
        "main_category": "Mosque",
        "address": "3MXQ+3WR Jama masjid, Hirapur, Hirapur, Kishanganj, Rajasthan 325216",
        "detailed_address": {
            "ward": null,
            "street": "3MXQ+3WR",
            "city": "Hirapur, Kishanganj",
            "postal_code": "325216",
            "state": "Rajasthan",
            "country_code": "IN"
        },
        "images": [],
        "link": "https://www.google.com/maps/place/Jama+masjid,+Hirapur/data=!4m7!3m6!1s0x397009620a4b26a5:0xee28d26b6ae2f0b9!8m2!3d25.0977465!4d76.6897577!16s%2Fg%2F11v0b54bb2!19sChIJpSZLCmIJcDkRufDiamvSKO4?authuser=0&hl=en&rclk=1",
        "coordinates": {
            "latitude": 25.0977465,
            "longitude": 76.6897577
        }
    },
    {
        "name": "Masjid",
        "main_category": "Mosque",
        "address": "W6P3+7QP Masjid, Nahariya, Rajasthan 325601",
        "detailed_address": {
            "ward": null,
            "street": "W6P3+7QP",
            "city": "Nahariya",
            "postal_code": null,
            "state": "Rajasthan",
            "country_code": "IN"
        },
        "images": [],
        "link": "https://www.google.com/maps/place/Masjid/data=!4m7!3m6!1s0x39655903bc2df32d:0xd06bfc924b5630f0!8m2!3d24.9357126!4d76.2044549!16s%2Fg%2F11svz8j_wb!19sChIJLfMtvANZZTkR8DBWS5L8a9A?authuser=0&hl=en&rclk=1",
        "coordinates": {
            "latitude": 24.9357126,
            "longitude": 76.2044549
        }
    },
    {
        "name": "Taj Mewat Masjid Hada Ka Bass Govindpur",
        "main_category": "Mosque",
        "address": "F4WC+3CR Taj Mewat Masjid Hada Ka Bass Govindpur, Govindpur, Rajasthan 321024",
        "detailed_address": {
            "ward": null,
            "street": "F4WC+3CR",
            "city": "Govindpur",
            "postal_code": "321024",
            "state": "Rajasthan",
            "country_code": "IN"
        },
        "images": [],
        "link": "https://www.google.com/maps/place/Taj+Mewat+Masjid+Hada+Ka+Bass+Govindpur/data=!4m7!3m6!1s0x3972fd64244dbc2f:0x61d1f898b0f24fb0!8m2!3d27.4952426!4d77.1210178!16s%2Fg%2F11qbkmvwkw!19sChIJL7xNJGT9cjkRsE_ysJj40WE?authuser=0&hl=en&rclk=1",
        "coordinates": {
            "latitude": 27.495242599999997,
            "longitude": 77.12101779999999
        }
    },
    {
        "name": "chottii msjid",
        "main_category": "Mosque",
        "address": "22QR+F3Q chottii msjid, Arandkhera, Rajasthan 325001",
        "detailed_address": {
            "ward": null,
            "street": "22QR+F3Q",
            "city": "Arandkhera",
            "postal_code": null,
            "state": "Rajasthan",
            "country_code": "IN"
        },
        "images": [],
        "link": "https://www.google.com/maps/place/%E0%A4%9B%E0%A5%8B%E0%A4%9F%E0%A5%80+%E0%A4%AE%E0%A4%B8%E0%A5%8D%E0%A4%9C%E0%A4%BF%E0%A4%A6/data=!4m7!3m6!1s0x396f8b34af52e587:0x65fb2d48d5888212!8m2!3d25.0387075!4d76.0402444!16s%2Fg%2F11pws4bpct!19sChIJh-VSrzSLbzkREoKI1Ugt-2U?authuser=0&hl=en&rclk=1",
        "coordinates": {
            "latitude": 25.038707499999997,
            "longitude": 76.04024439999999
        }
    },
    {
        "name": "Masjid",
        "main_category": "Mosque",
        "address": "2922+C6W Masjid, Borwa, Rajasthan 305925",
        "detailed_address": {
            "ward": null,
            "street": "2922+C6W",
            "city": "Borwa",
            "postal_code": "305925",
            "state": "Rajasthan",
            "country_code": "IN"
        },
        "images": [],
        "link": "https://www.google.com/maps/place/Masjid/data=!4m7!3m6!1s0x396973d8c9cd80a9:0xf3e340c76f76f473!8m2!3d26.0009295!4d74.350508!16s%2Fg%2F11srhc77cm!19sChIJqYDNydhzaTkRc_R2b8dA4_M?authuser=0&hl=en&rclk=1",
        "coordinates": {
            "latitude": 26.000929499999998,
            "longitude": 74.35050799999999
        }
    },
    {
        "name": "Masjid,-a-imam chok",
        "main_category": "Mosque",
        "address": "574W+44X Masjid,-a-imam chok, Mominan chok, Anta, Rajasthan 325202",
        "detailed_address": {
            "ward": null,
            "street": "574W+44X, Mominan chok",
            "city": "Anta",
            "postal_code": null,
            "state": "Rajasthan",
            "country_code": "IN"
        },
        "images": [],
        "link": "https://www.google.com/maps/place/Masjid,-a-imam+chok/data=!4m7!3m6!1s0x396ffb71ae2ea40b:0x69965bb8a3c62a6!8m2!3d25.1553596!4d76.295355!16s%2Fg%2F11kj40h4xb!19sChIJC6QurnH7bzkRpmI8irtlmQY?authuser=0&hl=en&rclk=1",
        "coordinates": {
            "latitude": 25.1553596,
            "longitude": 76.295355
        }
    },
    {
        "name": "Jumma Masjid",
        "main_category": "Mosque",
        "address": "H22C+55V Jumma Masjid, RJ SH 45, Saidampur, Rajasthan 301604",
        "detailed_address": {
            "ward": null,
            "street": "H22C+55V, RJ SH 45",
            "city": "Saidampur",
            "postal_code": null,
            "state": "Rajasthan",
            "country_code": "IN"
        },
        "images": [],
        "link": "https://www.google.com/maps/place/Jumma+Masjid/data=!4m7!3m6!1s0x3972e51a881e4d03:0x8114e9888f3c544f!8m2!3d27.5504817!4d77.0204238!16s%2Fg%2F11q8gy_ww0!19sChIJA00eiBrlcjkRT1Q8j4jpFIE?authuser=0&hl=en&rclk=1",
        "coordinates": {
            "latitude": 27.5504817,
            "longitude": 77.0204238
        }
    },
    {
        "name": "Masjid",
        "main_category": "Mosque",
        "address": "28XH+55 Masjid, Malpura, Rajasthan 305901",
        "detailed_address": {
            "ward": null,
            "street": "28XH+55",
            "city": "Malpura",
            "postal_code": null,
            "state": "Rajasthan",
            "country_code": "IN"
        },
        "images": [],
        "link": "https://www.google.com/maps/place/Masjid/data=!4m7!3m6!1s0x396971a96d4da405:0xafc9a3b55c2f01fc!8m2!3d26.0479097!4d74.3279131!16s%2Fg%2F11q3_6p8zk!19sChIJBaRNbalxaTkR_AEvXLWjya8?authuser=0&hl=en&rclk=1",
        "coordinates": {
            "latitude": 26.047909699999998,
            "longitude": 74.3279131
        }
    },
    {
        "name": "Masjid",
        "main_category": "Mosque",
        "address": "HMP4+825 Masjid, Lambia Khurd, Rajasthan 311024",
        "detailed_address": {
            "ward": null,
            "street": "HMP4+825",
            "city": "Lambia Khurd",
            "postal_code": "311024",
            "state": "Rajasthan",
            "country_code": "IN"
        },
        "images": [],
        "link": "https://www.google.com/maps/place/Masjid/data=!4m7!3m6!1s0x3968dffe6507ad1f:0xd706befa49dc3d82!8m2!3d25.5857507!4d74.6551181!16s%2Fg%2F11rrrgb6vj!19sChIJH60HZf7faDkRgj3cSfq-Btc?authuser=0&hl=en&rclk=1",
        "coordinates": {
            "latitude": 25.5857507,
            "longitude": 74.6551181
        }
    },
    {
        "name": "Bilal masjid",
        "main_category": "Mosque",
        "address": "Bilal masjid, Masalpur gate ke pass no 2 school, Rajasthan",
        "detailed_address": {
            "ward": null,
            "street": "Masalpur gate ke pass no 2 school",
            "city": "Rampura",
            "postal_code": null,
            "state": "Rajasthan",
            "country_code": "IN"
        },
        "images": [],
        "link": "https://www.google.com/maps/place/Bilal+masjid/data=!4m7!3m6!1s0x39722beb42a57091:0xed07aa2401ae0f99!8m2!3d26.5932414!4d77.1588955!16s%2Fg%2F11s592dm_7!19sChIJkXClQusrcjkRmQ-uASSqB-0?authuser=0&hl=en&rclk=1",
        "coordinates": {
            "latitude": 26.5932414,
            "longitude": 77.1588955
        }
    },
    {
        "name": "Masjid choraha",
        "main_category": "Mosque",
        "address": "MX3W+3CR Masjid choraha, Satalkheri, Rajasthan 326530",
        "detailed_address": {
            "ward": null,
            "street": "MX3W+3CR",
            "city": "Satalkheri",
            "postal_code": null,
            "state": "Rajasthan",
            "country_code": "IN"
        },
        "images": [
            {
                "about": "All",
                "link": "https://streetviewpixels-pa.googleapis.com/v1/thumbnail?panoid=cXDbGbTcDSCq6Be3hMTjPQ&cb_client=maps_sv.tactile.gps&w=224&h=298&yaw=159.75723&pitch=0&thumbfov=100"
            },
            {
                "about": "Street View & 360deg",
                "link": "https://streetviewpixels-pa.googleapis.com/v1/thumbnail?panoid=cXDbGbTcDSCq6Be3hMTjPQ&cb_client=maps_sv.tactile.gps&w=224&h=298&yaw=159.75723&pitch=0&thumbfov=100"
            }
        ],
        "link": "https://www.google.com/maps/place/Masjid+choraha/data=!4m7!3m6!1s0x39656be28a483f43:0x85e0aa1ab344f29d!8m2!3d24.6527335!4d75.9960296!16s%2Fg%2F11tnb06x5t!19sChIJQz9IiuJrZTkRnfJEsxqq4IU?authuser=0&hl=en&rclk=1",
        "coordinates": {
            "latitude": 24.6527335,
            "longitude": 75.9960296
        }
    },
    {
        "name": "Jumma masjid",
        "main_category": "Mosque",
        "address": "F5XP+RVV Jumma masjid, Toda, Rajasthan 321203",
        "detailed_address": {
            "ward": null,
            "street": "F5XP+RVV",
            "city": "Toda",
            "postal_code": null,
            "state": "Rajasthan",
            "country_code": "IN"
        },
        "images": [
            {
                "about": "All",
                "link": "https://streetviewpixels-pa.googleapis.com/v1/thumbnail?panoid=-gZz-GQEQ2CThZoYLdeArA&cb_client=maps_sv.tactile.gps&w=224&h=298&yaw=156.70164&pitch=0&thumbfov=100"
            },
            {
                "about": "Street View & 360deg",
                "link": "https://streetviewpixels-pa.googleapis.com/v1/thumbnail?panoid=-gZz-GQEQ2CThZoYLdeArA&cb_client=maps_sv.tactile.gps&w=224&h=298&yaw=156.70164&pitch=0&thumbfov=100"
            }
        ],
        "link": "https://www.google.com/maps/place/Jumma+masjid/data=!4m7!3m6!1s0x3972fd0600de89b3:0xf3f33d0f3c865c4f!8m2!3d27.4996167!4d77.1871687!16s%2Fg%2F11ts5j7tz6!19sChIJs4neAAb9cjkRT1yGPA898_M?authuser=0&hl=en&rclk=1",
        "coordinates": {
            "latitude": 27.499616699999997,
            "longitude": 77.1871687
        }
    },
    {
        "name": "msjide mujjmil",
        "main_category": "Mosque",
        "address": "XF3W+92 msjide mujjmil, Pindaran, Rajasthan 344027",
        "detailed_address": {
            "ward": null,
            "street": "XF3W+92",
            "city": "Pindaran",
            "postal_code": null,
            "state": "Rajasthan",
            "country_code": "IN"
        },
        "images": [],
        "link": "https://www.google.com/maps/place/%E0%A4%AE%E0%A4%B8%E0%A5%8D%E0%A4%9C%E0%A4%BF%E0%A4%A6%E0%A5%87+%E0%A4%AE%E0%A5%81%E0%A4%9C%E0%A5%8D%E0%A4%9C%E0%A4%AE%E0%A4%BF%E0%A4%B2/data=!4m7!3m6!1s0x3943db06360beb3b:0x1894736d99776cb3!8m2!3d25.9534253!4d72.4951157!16s%2Fg%2F11ty6ptjvp!19sChIJO-sLNgbbQzkRs2x3mW1zlBg?authuser=0&hl=en&rclk=1",
        "coordinates": {
            "latitude": 25.9534253,
            "longitude": 72.4951157
        }
    },
    {
        "name": "Maszid",
        "main_category": "Mosque",
        "address": "9GG7+257 Maszid, Gurha Akheraj, Rajasthan 306703",
        "detailed_address": {
            "ward": null,
            "street": "9GG7+257",
            "city": "Gurha Akheraj",
            "postal_code": null,
            "state": "Rajasthan",
            "country_code": "IN"
        },
        "images": [],
        "link": "https://www.google.com/maps/place/Maszid/data=!4m7!3m6!1s0x3968298bab0d3f01:0x9afaaf0d1e409cd3!8m2!3d25.3750363!4d73.5129255!16s%2Fg%2F11fmc6nf6d!19sChIJAT8Nq4spaDkR05xAHg2v-po?authuser=0&hl=en&rclk=1",
        "coordinates": {
            "latitude": 25.375036299999998,
            "longitude": 73.5129255
        }
    },
    {
        "name": "Jamalpur masjid",
        "main_category": "Mosque",
        "address": "4824+34V Jamalpur masjid, Gali No. 2, near kabila restaurant, Jamalpura, Beawar, Rajasthan 305901",
        "detailed_address": {
            "ward": "Jamalpura",
            "street": "4824+34V, Gali No. 2, near kabila restaurant",
            "city": "Beawar",
            "postal_code": "305901",
            "state": "Rajasthan",
            "country_code": "IN"
        },
        "images": [
            {
                "about": "All",
                "link": "https://streetviewpixels-pa.googleapis.com/v1/thumbnail?panoid=f1DOrRzm8-uTh4s16MDdyQ&cb_client=maps_sv.tactile.gps&w=224&h=298&yaw=357.7063&pitch=0&thumbfov=100"
            },
            {
                "about": "Street View & 360deg",
                "link": "https://streetviewpixels-pa.googleapis.com/v1/thumbnail?panoid=f1DOrRzm8-uTh4s16MDdyQ&cb_client=maps_sv.tactile.gps&w=224&h=298&yaw=357.7063&pitch=0&thumbfov=100"
            }
        ],
        "link": "https://www.google.com/maps/place/Jamalpur+masjid/data=!4m7!3m6!1s0x3969772decff2a39:0x33fe12529de4f971!8m2!3d26.1002426!4d74.3052994!16s%2Fg%2F11vc9yhl5g!19sChIJOSr_7C13aTkRcfnknVIS_jM?authuser=0&hl=en&rclk=1",
        "coordinates": {
            "latitude": 26.100242599999998,
            "longitude": 74.3052994
        }
    },
    {
        "name": "Masjid",
        "main_category": "Mosque",
        "address": "8W36+X88 Masjid, Suwasra Rd, Sakariya, Kotra Jetmal, Rajasthan 326516",
        "detailed_address": {
            "ward": null,
            "street": "8W36+X88, Suwasra Rd",
            "city": "Sakariya, Kotra Jetmal",
            "postal_code": "326516",
            "state": "Rajasthan",
            "country_code": "IN"
        },
        "images": [],
        "link": "https://www.google.com/maps/place/Masjid/data=!4m7!3m6!1s0x39651d7e8b73bb1b:0x40966f17d203b7f4!8m2!3d24.3049189!4d75.910823!16s%2Fg%2F11j59r4tym!19sChIJG7tzi34dZTkR9LcD0hdvlkA?authuser=0&hl=en&rclk=1",
        "coordinates": {
            "latitude": 24.3049189,
            "longitude": 75.910823
        }
    },
    {
        "name": "Govindpur",
        "main_category": null,
        "address": "Govindpur, Madhya Pradesh 473335",
        "detailed_address": {
            "ward": null,
            "street": null,
            "city": "Govindpur",
            "postal_code": null,
            "state": "Madhya Pradesh",
            "country_code": "IN"
        },
        "images": [],
        "link": "https://www.google.com/maps/place/Govindpur/data=!4m7!3m6!1s0x397a23789a5e8c47:0x2fa452e0d7130a77!8m2!3d24.6963163!4d77.7881176!16s%2Fg%2F12hkn_bxp!19sChIJR4xemngjejkRdwoT1-BSpC8?authuser=0&hl=en&rclk=1",
        "coordinates": {
            "latitude": 24.6963163,
            "longitude": 77.78811759999999
        }
    },
    {
        "name": "Govindpur",
        "main_category": null,
        "address": "Govindpur, Rajasthan 321024",
        "detailed_address": {
            "ward": null,
            "street": null,
            "city": "Govindpur",
            "postal_code": null,
            "state": "Rajasthan",
            "country_code": "IN"
        },
        "images": [],
        "link": "https://www.google.com/maps/place/Govindpur/data=!4m7!3m6!1s0x3972fcb984d555dd:0xc8d5a2fc210d474b!8m2!3d27.4959811!4d77.1190329!16s%2Fg%2F12hmr584d!19sChIJ3VXVhLn8cjkRS0cNIfyi1cg?authuser=0&hl=en&rclk=1",
        "coordinates": {
            "latitude": 27.495981099999998,
            "longitude": 77.1190329
        }
    },
    {
        "name": "Jama masjid",
        "main_category": "Mosque",
        "address": "RVWR+QJ4 Jama masjid, Govindpur Khurd, Uttar Pradesh 244104",
        "detailed_address": {
            "ward": null,
            "street": "RVWR+QJ4",
            "city": "Govindpur Khurd",
            "postal_code": "244104",
            "state": "Uttar Pradesh",
            "country_code": "IN"
        },
        "images": [
            {
                "about": "All",
                "link": "https://lh5.googleusercontent.com/p/AF1QipMPf1vREQyMMVl1PebdLs8WW5jDXuuePlnQinLQ=w224-h398-k-no"
            },
            {
                "about": "Videos",
                "link": "https://lh5.googleusercontent.com/p/AF1QipMPf1vREQyMMVl1PebdLs8WW5jDXuuePlnQinLQ=w224-h398-k-no"
            }
        ],
        "link": "https://www.google.com/maps/place/Jama+masjid/data=!4m7!3m6!1s0x390af1b9043aa601:0x5f66d2c95757fe53!8m2!3d28.8468719!4d78.8916113!16s%2Fg%2F11ty7b6zmv!19sChIJAaY6BLnxCjkRU_5XV8nSZl8?authuser=0&hl=en&rclk=1",
        "coordinates": {
            "latitude": 28.8468719,
            "longitude": 78.8916113
        }
    },
    {
        "name": "Masjid",
        "main_category": "Mosque",
        "address": "4RR7+XQR Masjid, Panmodi, Rajasthan 312623",
        "detailed_address": {
            "ward": null,
            "street": "4RR7+XQR",
            "city": "Panmodi",
            "postal_code": null,
            "state": "Rajasthan",
            "country_code": "IN"
        },
        "images": [],
        "link": "https://www.google.com/maps/place/Masjid/data=!4m7!3m6!1s0x39667ddbda80fd49:0x4a2c7226761b7d98!8m2!3d24.1424847!4d74.8144004!16s%2Fg%2F11smr9pf5s!19sChIJSf2A2tt9ZjkRmH0bdiZyLEo?authuser=0&hl=en&rclk=1",
        "coordinates": {
            "latitude": 24.142484699999997,
            "longitude": 74.8144004
        }
    },
    {
        "name": "Jumma majid",
        "main_category": "Mosque",
        "address": "VH3H+64 Jumma majid, Naya Sanawara, Rajasthan 345021",
        "detailed_address": {
            "ward": null,
            "street": "VH3H+64",
            "city": "Naya Sanawara",
            "postal_code": null,
            "state": "Rajasthan",
            "country_code": "IN"
        },
        "images": [
            {
                "about": "All",
                "link": "https://lh5.googleusercontent.com/p/AF1QipOR2qQj7NXwEHmK-Fx2ZC_BEvhktuZgWSkVocTv=w397-h298-k-no"
            },
            {
                "about": "Street View & 360deg",
                "link": "https://streetviewpixels-pa.googleapis.com/v1/thumbnail?panoid=9dQhOrrFCokuK_15NEyGbA&cb_client=maps_sv.tactile.gps&w=224&h=298&yaw=318.13654&pitch=0&thumbfov=100"
            }
        ],
        "link": "https://www.google.com/maps/place/Jumma+majid/data=!4m7!3m6!1s0x3947231d9590ccf9:0x676d47e42d6b0802!8m2!3d26.8530499!4d71.5777703!16s%2Fg%2F11rf91nyvc!19sChIJ-cyQlR0jRzkRAghrLeRHbWc?authuser=0&hl=en&rclk=1",
        "coordinates": {
            "latitude": 26.8530499,
            "longitude": 71.5777703
        }
    }
]