[
    {
        "name": "Jama Masjid Biaora",
        "main_category": "Mosque",
        "address": "WW95+4H3 Jama Masjid Biaora, Biaora, Madhya Pradesh 465674",
        "detailed_address": {
            "ward": null,
            "street": "WW95+4H3",
            "city": "Biaora",
            "postal_code": "465674",
            "state": "Madhya Pradesh",
            "country_code": "IN"
        },
        "images": [
            {
                "about": "All",
                "link": "https://lh5.googleusercontent.com/p/AF1QipP1mLwZg4xAdGUS_PRD3w2vGEvpZfnOAjW6wx-O=w224-h484-k-no"
            },
            {
                "about": "Dome",
                "link": "https://lh5.googleusercontent.com/p/AF1QipOOpH3C47WQx2c2lgaDpbywmvRXdLgyHxLN45VG=w397-h298-k-no"
            },
            {
                "about": "Videos",
                "link": "https://lh5.googleusercontent.com/p/AF1QipMQGZGV6PVND_Xhyo4ttc0az-jc6GOu5K5Tqhc1=w529-h298-k-no"
            },
            {
                "about": "Street View & 360deg",
                "link": "https://streetviewpixels-pa.googleapis.com/v1/thumbnail?panoid=11RZ9bKhtsyf49UVG9Tplw&cb_client=maps_sv.tactile.gps&w=224&h=298&yaw=250.45653&pitch=0&thumbfov=100"
            }
        ],
        "link": "https://www.google.com/maps/place/Jama+Masjid+Biaora/data=!4m7!3m6!1s0x397b6b7990afb50b:0xb70e25e69b1105ab!8m2!3d23.9177688!4d76.90892!16s%2Fg%2F11f_4s32rj!19sChIJC7WvkHlrezkRqwURm-YlDrc?authuser=0&hl=en&rclk=1",
        "coordinates": {
            "latitude": 23.917768799999997,
            "longitude": 76.90892
        }
    },
    {
        "name": "Moti Masjid Biaora",
        "main_category": "Mosque",
        "address": "WW77+P92 Moti Masjid Biaora, Sidighanta, Madhya Pradesh 465674",
        "detailed_address": {
            "ward": null,
            "street": "WW77+P92",
            "city": "Sidighanta",
            "postal_code": "465674",
            "state": "Madhya Pradesh",
            "country_code": "IN"
        },
        "images": [
            {
                "about": "All",
                "link": "https://lh5.googleusercontent.com/p/AF1QipPDxG1VKEeNZhoz56UrytDFrcPkDNwjHPM7xldh=w224-h398-k-no"
            }
        ],
        "link": "https://www.google.com/maps/place/Moti+Masjid+Biaora/data=!4m7!3m6!1s0x397b6b7f4685822f:0x96f109bb15cab95c!8m2!3d23.9142651!4d76.9133802!16s%2Fg%2F11f1zlmfsn!19sChIJL4KFRn9rezkRXLnKFbsJ8ZY?authuser=0&hl=en&rclk=1",
        "coordinates": {
            "latitude": 23.914265099999998,
            "longitude": 76.91338019999999
        }
    },
    {
        "name": "Markaz Masjid Moman Pura",
        "main_category": "Mosque",
        "address": "WW86+CM8 Markaz Masjid Moman Pura, Biaora, Madhya Pradesh 465674",
        "detailed_address": {
            "ward": null,
            "street": "WW86+CM8",
            "city": "Biaora",
            "postal_code": "465674",
            "state": "Madhya Pradesh",
            "country_code": "IN"
        },
        "images": [],
        "link": "https://www.google.com/maps/place/Markaz+Masjid+Moman+Pura/data=!4m7!3m6!1s0x397b6b374573a485:0xbc63d86ea83e8977!8m2!3d23.9160489!4d76.9117062!16s%2Fg%2F11g0hst33m!19sChIJhaRzRTdrezkRd4k-qG7YY7w?authuser=0&hl=en&rclk=1",
        "coordinates": {
            "latitude": 23.9160489,
            "longitude": 76.9117062
        }
    },
    {
        "name": "Jama Masjid Biaora",
        "main_category": "Mosque",
        "address": "5WQJ+VP5 Jama Masjid Biaora, Biaora, Madhya Pradesh 456661",
        "detailed_address": {
            "ward": null,
            "street": "5WQJ+VP5",
            "city": "Biaora",
            "postal_code": "456661",
            "state": "Madhya Pradesh",
            "country_code": "IN"
        },
        "images": [
            {
                "about": "All",
                "link": "https://lh5.googleusercontent.com/p/AF1QipMNH0Trp2ZwoD2ygFLlPXglqWT9YsHZKkXs9Vok=w662-h298-k-no"
            },
            {
                "about": "Videos",
                "link": "https://lh5.googleusercontent.com/p/AF1QipOWBHCQuMlwOPjNAKbT2FrkOhUt2ZaBG1znxh76=w224-h398-k-no"
            }
        ],
        "link": "https://www.google.com/maps/place/Jama+Masjid+Biaora/data=!4m7!3m6!1s0x39636df015a874ef:0xb3e6271bec146c79!8m2!3d23.189634!4d75.9318623!16s%2Fg%2F11h2k1q1xh!19sChIJ73SoFfBtYzkReWwU7Bsn5rM?authuser=0&hl=en&rclk=1",
        "coordinates": {
            "latitude": 23.189633999999998,
            "longitude": 75.93186229999999
        }
    },
    {
        "name": "Madina Masjid",
        "main_category": "Mosque",
        "address": "WW87+G42 Madina Masjid, Sidighanta, Madhya Pradesh 465674",
        "detailed_address": {
            "ward": null,
            "street": "WW87+G42",
            "city": "Sidighanta",
            "postal_code": "465674",
            "state": "Madhya Pradesh",
            "country_code": "IN"
        },
        "images": [
            {
                "about": "All",
                "link": "https://lh5.googleusercontent.com/p/AF1QipO8ujJz43p4U4CtN3Pwt8NuGQ66RJcbrMCLoAGD=w596-h298-k-no"
            },
            {
                "about": "Videos",
                "link": "https://lh5.googleusercontent.com/p/AF1QipOlfvRiSMMvAhz1sQS3--OzX1PPcSowXbk6PSrB=w224-h398-k-no"
            }
        ],
        "link": "https://www.google.com/maps/place/Madina+Masjid/data=!4m7!3m6!1s0x397b6b3496517d73:0x381db60f40e4ad75!8m2!3d23.9162716!4d76.9127586!16s%2Fg%2F11h07vgb4y!19sChIJc31RljRrezkRda3kQA-2HTg?authuser=0&hl=en&rclk=1",
        "coordinates": {
            "latitude": 23.916271599999998,
            "longitude": 76.91275859999999
        }
    },
    {
        "name": "Masjid Biaora Dhan Balda",
        "main_category": "Mosque",
        "address": "5WJJ+WCP Masjid Biaora Dhan Balda, Biaora, Madhya Pradesh 456661",
        "detailed_address": {
            "ward": null,
            "street": "5WJJ+WCP",
            "city": "Biaora",
            "postal_code": "456661",
            "state": "Madhya Pradesh",
            "country_code": "IN"
        },
        "images": [
            {
                "about": "All",
                "link": "https://lh5.googleusercontent.com/p/AF1QipMqUsxSiDoGmYNbdgu7M0BdctkNTwhwwb0Su5Iv=w397-h298-k-no"
            }
        ],
        "link": "https://www.google.com/maps/place/Masjid+Biaora+Dhan+Balda/data=!4m7!3m6!1s0x39636d7ec50716cb:0xfec06b5b9f506141!8m2!3d23.1823381!4d75.9310905!16s%2Fg%2F11gy4zvwk2!19sChIJyxYHxX5tYzkRQWFQn1trwP4?authuser=0&hl=en&rclk=1",
        "coordinates": {
            "latitude": 23.1823381,
            "longitude": 75.9310905
        }
    },
    {
        "name": "Eidgah Biaora",
        "main_category": "Mosque",
        "address": "5WRJ+JW4 Eidgah Biaora, Biaora, Madhya Pradesh 456661",
        "detailed_address": {
            "ward": null,
            "street": "5WRJ+JW4",
            "city": "Biaora",
            "postal_code": "456661",
            "state": "Madhya Pradesh",
            "country_code": "IN"
        },
        "images": [
            {
                "about": "All",
                "link": "https://lh5.googleusercontent.com/p/AF1QipPxQZebMJPMqg6KwoYCZLnB9z55ihO67u3tEBE_=w250-h298-k-no"
            }
        ],
        "link": "https://www.google.com/maps/place/Eidgah+Biaora/data=!4m7!3m6!1s0x39636d162e1b41e9:0xc02c3e57f2b8bf58!8m2!3d23.1915142!4d75.932323!16s%2Fg%2F11h2p0j15c!19sChIJ6UEbLhZtYzkRWL-48lc-LMA?authuser=0&hl=en&rclk=1",
        "coordinates": {
            "latitude": 23.1915142,
            "longitude": 75.932323
        }
    },
    {
        "name": "Hussain Masjid",
        "main_category": "Mosque",
        "address": "WW97+258 Hussain Masjid, Unnamed Road, Biaora, Madhya Pradesh 465674",
        "detailed_address": {
            "ward": null,
            "street": "WW97+258, Unnamed Road",
            "city": "Biaora",
            "postal_code": "465674",
            "state": "Madhya Pradesh",
            "country_code": "IN"
        },
        "images": [],
        "link": "https://www.google.com/maps/place/Hussain+Masjid/data=!4m7!3m6!1s0x397b6b441d6d97f3:0x6f62306321c92ff6!8m2!3d23.9175378!4d76.9129499!16s%2Fg%2F11h1kkjpt0!19sChIJ85dtHURrezkR9i_JIWMwYm8?authuser=0&hl=en&rclk=1",
        "coordinates": {
            "latitude": 23.917537799999998,
            "longitude": 76.9129499
        }
    },
    {
        "name": "Zaini masjid",
        "main_category": "Mosque",
        "address": "WW96+33F Zaini masjid, Biaora, Madhya Pradesh 465674",
        "detailed_address": {
            "ward": null,
            "street": "WW96+33F",
            "city": "Biaora",
            "postal_code": "465674",
            "state": "Madhya Pradesh",
            "country_code": "IN"
        },
        "images": [],
        "link": "https://www.google.com/maps/place/Zaini+masjid/data=!4m7!3m6!1s0x397b6b8603e1c7ed:0xdb5aaa467fd3d69b!8m2!3d23.9176881!4d76.9101727!16s%2Fg%2F11hdng7kfp!19sChIJ7cfhA4ZrezkRm9bTf0aqWts?authuser=0&hl=en&rclk=1",
        "coordinates": {
            "latitude": 23.9176881,
            "longitude": 76.91017269999999
        }
    },
    {
        "name": "AL_Habib Masjid",
        "main_category": "Mosque",
        "address": "AL_Habib Masjid, NH2, Old AB Rd, Biaora, Madhya Pradesh 465674",
        "detailed_address": {
            "ward": null,
            "street": "NH2, Old AB Rd",
            "city": "Biaora",
            "postal_code": "465674",
            "state": "Madhya Pradesh",
            "country_code": "IN"
        },
        "images": [],
        "link": "https://www.google.com/maps/place/AL_Habib+Masjid/data=!4m7!3m6!1s0x397b6b51e4a3e485:0x83cd33e4bc3d5776!8m2!3d23.9284396!4d76.9157044!16s%2Fg%2F11krtxl4b7!19sChIJheSj5FFrezkRdlc9vOQzzYM?authuser=0&hl=en&rclk=1",
        "coordinates": {
            "latitude": 23.928439599999997,
            "longitude": 76.9157044
        }
    },
    {
        "name": "Dargah hazrat baba Fakhruddin chisti alehi rehma Biaora rajgarh",
        "main_category": "Mosque",
        "address": "WW89+MH Dargah hazrat baba Fakhruddin chisti alehi rehma Biaora rajgarh, Biaora, Madhya Pradesh 465674",
        "detailed_address": {
            "ward": null,
            "street": "WW89+MH",
            "city": "Biaora",
            "postal_code": null,
            "state": "Madhya Pradesh",
            "country_code": "IN"
        },
        "images": [
            {
                "about": "All",
                "link": "https://lh5.googleusercontent.com/p/AF1QipOrycokuvymJEqLMBVn1vGkyN9DOU4o5KCjAnba=w529-h298-k-no"
            },
            {
                "about": "Dome",
                "link": "https://lh5.googleusercontent.com/p/AF1QipOrycokuvymJEqLMBVn1vGkyN9DOU4o5KCjAnba=w529-h298-k-no"
            }
        ],
        "link": "https://www.google.com/maps/place/Dargah+hazrat+baba+Fakhruddin+chisti+alehi+rehma+Biaora+rajgarh/data=!4m7!3m6!1s0x397b6d5c9b8c4f71:0x4f6f3d1f2d50f950!8m2!3d23.9167149!4d76.9190813!16s%2Fg%2F11pv5qtg2y!19sChIJcU-Mm1xtezkRUPlQLR89b08?authuser=0&hl=en&rclk=1",
        "coordinates": {
            "latitude": 23.9167149,
            "longitude": 76.9190813
        }
    },
    {
        "name": "Badri bohra masjid",
        "main_category": "Mosque",
        "address": "WW86+Q3X Badri bohra masjid, Biaora, Madhya Pradesh 465674",
        "detailed_address": {
            "ward": null,
            "street": "WW86+Q3X",
            "city": "Biaora",
            "postal_code": "465674",
            "state": "Madhya Pradesh",
            "country_code": "IN"
        },
        "images": [],
        "link": "https://www.google.com/maps/place/Badri+bohra+masjid/data=!4m7!3m6!1s0x397b6b937c6be2bf:0xe8bdd558a31aa6!8m2!3d23.9169842!4d76.9102212!16s%2Fg%2F11fhr74hky!19sChIJv-JrfJNrezkRphqjWNW96AA?authuser=0&hl=en&rclk=1",
        "coordinates": {
            "latitude": 23.916984199999998,
            "longitude": 76.9102212
        }
    },
    {
        "name": "Mosque",
        "main_category": "Mosque",
        "address": "WWG3+3GG Mosque, Ummedpura, Biaora, Madhya Pradesh 465674",
        "detailed_address": {
            "ward": null,
            "street": "WWG3+3GG",
            "city": "Ummedpura, Biaora",
            "postal_code": "465674",
            "state": "Madhya Pradesh",
            "country_code": "IN"
        },
        "images": [
            {
                "about": "All",
                "link": "https://streetviewpixels-pa.googleapis.com/v1/thumbnail?panoid=8cgAWupeeLuUULLPj8md4g&cb_client=maps_sv.tactile.gps&w=224&h=298&yaw=256.33734&pitch=0&thumbfov=100"
            },
            {
                "about": "Street View & 360deg",
                "link": "https://streetviewpixels-pa.googleapis.com/v1/thumbnail?panoid=8cgAWupeeLuUULLPj8md4g&cb_client=maps_sv.tactile.gps&w=224&h=298&yaw=256.33734&pitch=0&thumbfov=100"
            }
        ],
        "link": "https://www.google.com/maps/place/Mosque/data=!4m7!3m6!1s0x397b6b7d6f55f0ef:0x1614047e91833800!8m2!3d23.9251781!4d76.9038133!16s%2Fg%2F11rbkttv6b!19sChIJ7_BVb31rezkRADiDkX4EFBY?authuser=0&hl=en&rclk=1",
        "coordinates": {
            "latitude": 23.9251781,
            "longitude": 76.9038133
        }
    }
]