[
    {
        "name": "Jama Masjid",
        "main_category": "Mosque",
        "address": "Jama Masjid, jama masjid, Chhibramau, Uttar Pradesh 209721",
        "detailed_address": {
            "ward": null,
            "street": "jama masjid",
            "city": "Chhibramau",
            "postal_code": null,
            "state": "Uttar Pradesh",
            "country_code": "IN"
        },
        "images": [
            {
                "about": "All",
                "link": "https://lh5.googleusercontent.com/p/AF1QipMWdWxKOh4gW0U3BhQzCwdwyd_psky87mLBsn0J=w224-h299-k-no"
            },
            {
                "about": "Street View & 360deg",
                "link": "https://streetviewpixels-pa.googleapis.com/v1/thumbnail?panoid=WeF6Z6hW5wEKzVrubEkC5w&cb_client=maps_sv.tactile.gps&w=224&h=298&yaw=241.89949&pitch=0&thumbfov=100"
            },
            {
                "about": "Videos",
                "link": "https://lh5.googleusercontent.com/p/AF1QipOSZMTKnzhkw6xpPb2uNzJNjRMIqNcakLg256Ws=w224-h398-k-no"
            }
        ],
        "link": "https://www.google.com/maps/place/Jama+Masjid/data=!4m7!3m6!1s0x399e189bdf850a7d:0x9eebc3fc60b4cf09!8m2!3d27.1472226!4d79.4985834!16s%2Fg%2F11c5s4k4vt!19sChIJfQqF35sYnjkRCc-0YPzD654?authuser=0&hl=en&rclk=1",
        "coordinates": {
            "latitude": 27.1472226,
            "longitude": 79.4985834
        }
    },
    {
        "name": "Purani Jama Masjid",
        "main_category": "Mosque",
        "address": "4GX3+7GP Purani Jama Masjid, Mohalla Birtiya, Chhibramau, Uttar Pradesh",
        "detailed_address": {
            "ward": null,
            "street": "4GX3+7GP, Mohalla Birtiya",
            "city": "Chhibramau",
            "postal_code": null,
            "state": "Uttar Pradesh",
            "country_code": "IN"
        },
        "images": [
            {
                "about": "All",
                "link": "https://lh5.googleusercontent.com/p/AF1QipPx4wjQ0F96OxsU0HeAblUQazgcHJRElIalP1HL=w224-h497-k-no"
            },
            {
                "about": "Videos",
                "link": "https://lh5.googleusercontent.com/p/AF1QipOeXzjTHbOxC1Vd6U63DpFVToyEdG7BJDk34zZC=w224-h398-k-no"
            }
        ],
        "link": "https://www.google.com/maps/place/Purani+Jama+Masjid/data=!4m7!3m6!1s0x399e189b4c3d7f5b:0xfde0727768d34503!8m2!3d27.1482215!4d79.5038355!16s%2Fg%2F11dzddpwsj!19sChIJW389TJsYnjkRA0XTaHdy4P0?authuser=0&hl=en&rclk=1",
        "coordinates": {
            "latitude": 27.1482215,
            "longitude": 79.5038355
        }
    },
    {
        "name": "Noori Masjid CBR",
        "main_category": "Mosque",
        "address": "4GX4+3WW Noori Masjid CBR, Chhibramau, Uttar Pradesh 209721",
        "detailed_address": {
            "ward": null,
            "street": "4GX4+3WW",
            "city": "Chhibramau",
            "postal_code": "209721",
            "state": "Uttar Pradesh",
            "country_code": "IN"
        },
        "images": [],
        "link": "https://www.google.com/maps/place/Noori+Masjid+CBR/data=!4m7!3m6!1s0x399e18845c203aeb:0x8bab798043f75b5e!8m2!3d27.1477396!4d79.5073287!16s%2Fg%2F11dfgsccxj!19sChIJ6zogXIQYnjkRXlv3Q4B5q4s?authuser=0&hl=en&rclk=1",
        "coordinates": {
            "latitude": 27.147739599999998,
            "longitude": 79.5073287
        }
    },
    {
        "name": "Ek Meenara Masjid",
        "main_category": "Mosque",
        "address": "4GX4+Q84 Ek Meenara Masjid, Chhibramau, Uttar Pradesh 209721",
        "detailed_address": {
            "ward": null,
            "street": "4GX4+Q84",
            "city": "Chhibramau",
            "postal_code": "209721",
            "state": "Uttar Pradesh",
            "country_code": "IN"
        },
        "images": [
            {
                "about": "All",
                "link": "https://streetviewpixels-pa.googleapis.com/v1/thumbnail?panoid=lqmDFuwq1-0GKJqsmWIYPw&cb_client=maps_sv.tactile.gps&w=224&h=298&yaw=160.57457&pitch=0&thumbfov=100"
            },
            {
                "about": "Street View & 360deg",
                "link": "https://streetviewpixels-pa.googleapis.com/v1/thumbnail?panoid=lqmDFuwq1-0GKJqsmWIYPw&cb_client=maps_sv.tactile.gps&w=224&h=298&yaw=160.57457&pitch=0&thumbfov=100"
            }
        ],
        "link": "https://www.google.com/maps/place/Ek+Meenara+Masjid/data=!4m7!3m6!1s0x399e188361e1ebe9:0x35e57d03cfac15cb!8m2!3d27.1493924!4d79.5058223!16s%2Fg%2F11dzw7nqzy!19sChIJ6evhYYMYnjkRyxWszwN95TU?authuser=0&hl=en&rclk=1",
        "coordinates": {
            "latitude": 27.1493924,
            "longitude": 79.50582229999999
        }
    },
    {
        "name": "Masjid Kassawan",
        "main_category": "Mosque",
        "address": "4FXW+8WG Masjid Kassawan, Chhibramau, Uttar Pradesh 209721",
        "detailed_address": {
            "ward": null,
            "street": "4FXW+8WG",
            "city": "Chhibramau",
            "postal_code": "209721",
            "state": "Uttar Pradesh",
            "country_code": "IN"
        },
        "images": [
            {
                "about": "All",
                "link": "https://streetviewpixels-pa.googleapis.com/v1/thumbnail?panoid=ua_z8gZTjlosBHqfW4YpxA&cb_client=maps_sv.tactile.gps&w=224&h=298&yaw=234.40318&pitch=0&thumbfov=100"
            },
            {
                "about": "Street View & 360deg",
                "link": "https://streetviewpixels-pa.googleapis.com/v1/thumbnail?panoid=ua_z8gZTjlosBHqfW4YpxA&cb_client=maps_sv.tactile.gps&w=224&h=298&yaw=234.40318&pitch=0&thumbfov=100"
            }
        ],
        "link": "https://www.google.com/maps/place/Masjid+Kassawan/data=!4m7!3m6!1s0x399e19018c87482d:0xd071c32cf5f74175!8m2!3d27.1483244!4d79.4973306!16s%2Fg%2F11fjz_zpw3!19sChIJLUiHjAEZnjkRdUH39SzDcdA?authuser=0&hl=en&rclk=1",
        "coordinates": {
            "latitude": 27.1483244,
            "longitude": 79.4973306
        }
    },
    {
        "name": "Fatima Masjid",
        "main_category": "Mosque",
        "address": "5G25+RXP Fatima Masjid, Uttar Pradesh 209721",
        "detailed_address": {
            "ward": null,
            "street": "5G25+RXP",
            "city": null,
            "postal_code": null,
            "state": "Uttar Pradesh",
            "country_code": "IN"
        },
        "images": [
            {
                "about": "All",
                "link": "https://lh5.googleusercontent.com/p/AF1QipOg9k74P71zVrVVMzeeqAeh5beCtpAvP0RfkqHS=w224-h298-k-no"
            }
        ],
        "link": "https://www.google.com/maps/place/Fatima+Masjid/data=!4m7!3m6!1s0x399e18817db517eb:0x8549b1b79c5e4a7b!8m2!3d27.1520988!4d79.5099513!16s%2Fg%2F11gg64fclv!19sChIJ6xe1fYEYnjkRe0penLexSYU?authuser=0&hl=en&rclk=1",
        "coordinates": {
            "latitude": 27.152098799999997,
            "longitude": 79.5099513
        }
    },
    {
        "name": "Phootee Masjid",
        "main_category": "Mosque",
        "address": "4GV9+QRJ Phootee Masjid, Deepakpur Mo, Uttar Pradesh 209721",
        "detailed_address": {
            "ward": null,
            "street": "4GV9+QRJ",
            "city": "Deepakpur Mo",
            "postal_code": "209721",
            "state": "Uttar Pradesh",
            "country_code": "IN"
        },
        "images": [
            {
                "about": "All",
                "link": "https://lh5.googleusercontent.com/p/AF1QipN3OsJ4-JKBOnzP1H6FTVBYDPhGBT87xUfjajXB=w224-h298-k-no"
            },
            {
                "about": "Street View & 360deg",
                "link": "https://streetviewpixels-pa.googleapis.com/v1/thumbnail?panoid=vw4awCbRs2HS6AZTkUXxpA&cb_client=maps_sv.tactile.gps&w=224&h=298&yaw=17.921303&pitch=0&thumbfov=100"
            }
        ],
        "link": "https://www.google.com/maps/place/Phootee+Masjid/data=!4m7!3m6!1s0x399e193c482cde79:0x54b43504e1d1d19a!8m2!3d27.1444618!4d79.5195311!16s%2Fg%2F11h19573dg!19sChIJed4sSDwZnjkRmtHR4QQ1tFQ?authuser=0&hl=en&rclk=1",
        "coordinates": {
            "latitude": 27.1444618,
            "longitude": 79.5195311
        }
    },
    {
        "name": "Khwaja Masjid (Naiyon Wali Masjid)",
        "main_category": "Religious destination",
        "address": "4GX3+XR5 Khwaja Masjid (Naiyon Wali Masjid), Saiyed Qayum Ali shaher Qazi, Saiyed Wara, GT Rd, Chhibramau, Uttar Pradesh 209721",
        "detailed_address": {
            "ward": null,
            "street": "4GX3+XR5, Saiyed Qayum Ali shaher Qazi, Saiyed Wara, GT Rd",
            "city": "Chhibramau",
            "postal_code": "209721",
            "state": "Uttar Pradesh",
            "country_code": "IN"
        },
        "images": [
            {
                "about": "All",
                "link": "https://lh5.googleusercontent.com/p/AF1QipPCCeq39aHXaDOvArX9mlQClj1xyI_XMzIrVuvz=w397-h298-k-no"
            }
        ],
        "link": "https://www.google.com/maps/place/Khwaja+Masjid+%28Naiyon+Wali+Masjid%29/data=!4m7!3m6!1s0x399e197e2943a84b:0xb8c1537ba297fc30!8m2!3d27.1498926!4d79.5045968!16s%2Fg%2F11qn5ywjnn!19sChIJS6hDKX4ZnjkRMPyXontTwbg?authuser=0&hl=en&rclk=1",
        "coordinates": {
            "latitude": 27.149892599999998,
            "longitude": 79.5045968
        }
    },
    {
        "name": "Qutub ul Islam Masjid Katsywan",
        "main_category": "Mosque",
        "address": "4FXW+CWW Qutub ul Islam Masjid Katsywan, Chhibramau - Saurikh - Bidhuna Rd, Chhibramau, Uttar Pradesh 209721",
        "detailed_address": {
            "ward": null,
            "street": "4FXW+CWW, Chhibramau - Saurikh - Bidhuna Rd",
            "city": "Chhibramau",
            "postal_code": "209721",
            "state": "Uttar Pradesh",
            "country_code": "IN"
        },
        "images": [
            {
                "about": "All",
                "link": "https://streetviewpixels-pa.googleapis.com/v1/thumbnail?panoid=GiZDwCfWqOWnbGZ69a2mJA&cb_client=maps_sv.tactile.gps&w=224&h=298&yaw=347.3135&pitch=0&thumbfov=100"
            },
            {
                "about": "Street View & 360deg",
                "link": "https://streetviewpixels-pa.googleapis.com/v1/thumbnail?panoid=GiZDwCfWqOWnbGZ69a2mJA&cb_client=maps_sv.tactile.gps&w=224&h=298&yaw=347.3135&pitch=0&thumbfov=100"
            }
        ],
        "link": "https://www.google.com/maps/place/Qutub+ul+Islam+Masjid+Katsywan/data=!4m7!3m6!1s0x399e197265eb4c5b:0x7505b9292d7da97d!8m2!3d27.1486046!4d79.4973245!16s%2Fg%2F11h3n1ckb2!19sChIJW0zrZXIZnjkRfal9LSm5BXU?authuser=0&hl=en&rclk=1",
        "coordinates": {
            "latitude": 27.1486046,
            "longitude": 79.49732449999999
        }
    },
    {
        "name": "Raza masjid",
        "main_category": "Mosque",
        "address": "4GW3+FG7 Raza masjid, Moh-Zerkila chhibramau, Uttar Pradesh 209721",
        "detailed_address": {
            "ward": "Akbarpur",
            "street": "4GW3+FG7, Moh-Zerkila chhibramau",
            "city": "Chhibramau",
            "postal_code": "209721",
            "state": "Uttar Pradesh",
            "country_code": "IN"
        },
        "images": [
            {
                "about": "All",
                "link": "https://lh5.googleusercontent.com/p/AF1QipPCAAmi-H4xiu2arayFGqwx2YhdRi92-qWX19Px=w224-h398-k-no"
            },
            {
                "about": "Videos",
                "link": "https://lh5.googleusercontent.com/p/AF1QipOsFqLc4JEOV_X3QMsGbnWGc4gAVOPiW7G3KTY6=w238-h298-k-no"
            }
        ],
        "link": "https://www.google.com/maps/place/Raza+masjid/data=!4m7!3m6!1s0x399e0ce2a8ab63e5:0x7dee9c062d4e2c12!8m2!3d27.1461639!4d79.5037946!16s%2Fg%2F11g6bls4kv!19sChIJ5WOrqOIMnjkREixOLQac7n0?authuser=0&hl=en&rclk=1",
        "coordinates": {
            "latitude": 27.146163899999998,
            "longitude": 79.50379459999999
        }
    },
    {
        "name": "Gosiya Masjid",
        "main_category": "Mosque",
        "address": "4GX3+R2C Gosiya Masjid, Chhibramau, Uttar Pradesh 209721",
        "detailed_address": {
            "ward": null,
            "street": "4GX3+R2C",
            "city": "Chhibramau",
            "postal_code": "209721",
            "state": "Uttar Pradesh",
            "country_code": "IN"
        },
        "images": [
            {
                "about": "All",
                "link": "https://streetviewpixels-pa.googleapis.com/v1/thumbnail?panoid=o0v98z0_Pw37H1nX70JIXw&cb_client=maps_sv.tactile.gps&w=224&h=298&yaw=188.35695&pitch=0&thumbfov=100"
            },
            {
                "about": "Street View & 360deg",
                "link": "https://streetviewpixels-pa.googleapis.com/v1/thumbnail?panoid=o0v98z0_Pw37H1nX70JIXw&cb_client=maps_sv.tactile.gps&w=224&h=298&yaw=188.35695&pitch=0&thumbfov=100"
            }
        ],
        "link": "https://www.google.com/maps/place/Gosiya+Masjid/data=!4m7!3m6!1s0x399e189c993ea1b7:0xaf9a04312d1f9d63!8m2!3d27.1495506!4d79.5025076!16s%2Fg%2F11hcjzjbf6!19sChIJt6E-mZwYnjkRY50fLTEEmq8?authuser=0&hl=en&rclk=1",
        "coordinates": {
            "latitude": 27.149550599999998,
            "longitude": 79.5025076
        }
    },
    {
        "name": "Masjid e Usmaniya",
        "main_category": "Mosque",
        "address": "5G26+8G Masjid e Usmaniya, Chhibramau, Uttar Pradesh 209721",
        "detailed_address": {
            "ward": null,
            "street": "5G26+8G",
            "city": "Chhibramau",
            "postal_code": "209721",
            "state": "Uttar Pradesh",
            "country_code": "IN"
        },
        "images": [
            {
                "about": "All",
                "link": "https://lh5.googleusercontent.com/p/AF1QipNSMVhF7rL2PzxwGBWrO5Bi9N7AiKPzE_ZI-sG9=w224-h298-k-no"
            }
        ],
        "link": "https://www.google.com/maps/place/Masjid+e+Usmaniya/data=!4m7!3m6!1s0x399e19d201d259ed:0xa73cd773a76e6fba!8m2!3d27.1507786!4d79.5113645!16s%2Fg%2F11rvk8kkkn!19sChIJ7VnSAdIZnjkRum9up3PXPKc?authuser=0&hl=en&rclk=1",
        "coordinates": {
            "latitude": 27.1507786,
            "longitude": 79.5113645
        }
    },
    {
        "name": "Dongri Of Chhibramau",
        "main_category": "Place of worship",
        "address": "5G23+QV3 Dongri Of Chhibramau, Chhibramau, Uttar Pradesh 209721",
        "detailed_address": {
            "ward": null,
            "street": "5G23+QV3",
            "city": "Chhibramau",
            "postal_code": "209721",
            "state": "Uttar Pradesh",
            "country_code": "IN"
        },
        "images": [
            {
                "about": "All",
                "link": "https://streetviewpixels-pa.googleapis.com/v1/thumbnail?panoid=dGQKCsTwTdaKTzx3RvAtlQ&cb_client=maps_sv.tactile.gps&w=224&h=298&yaw=225.71696&pitch=0&thumbfov=100"
            },
            {
                "about": "Street View & 360deg",
                "link": "https://streetviewpixels-pa.googleapis.com/v1/thumbnail?panoid=dGQKCsTwTdaKTzx3RvAtlQ&cb_client=maps_sv.tactile.gps&w=224&h=298&yaw=225.71696&pitch=0&thumbfov=100"
            }
        ],
        "link": "https://www.google.com/maps/place/Dongri+Of+Chhibramau/data=!4m7!3m6!1s0x399e1991dae7345d:0xf60ba5b67384f6ba!8m2!3d27.1518979!4d79.5046822!16s%2Fg%2F11s1pnwmk3!19sChIJXTTn2pEZnjkRuvaEc7alC_Y?authuser=0&hl=en&rclk=1",
        "coordinates": {
            "latitude": 27.151897899999998,
            "longitude": 79.50468219999999
        }
    },
    {
        "name": "Mohamddin masjid bikupur",
        "main_category": "Mosque",
        "address": "4G4G+F8W Mohamddin masjid bikupur, Unnamed Road, Chhibramau, Biku Pur, Uttar Pradesh 209721",
        "detailed_address": {
            "ward": null,
            "street": "4G4G+F8W, Unnamed Road",
            "city": "Chhibramau, Biku Pur",
            "postal_code": "209721",
            "state": "Uttar Pradesh",
            "country_code": "IN"
        },
        "images": [],
        "link": "https://www.google.com/maps/place/Mohamddin+masjid+bikupur/data=!4m7!3m6!1s0x399e1985fb1c8f29:0x22f49ad7a6881710!8m2!3d27.1062362!4d79.5258423!16s%2Fg%2F11rxnf2041!19sChIJKY8c-4UZnjkREBeIptea9CI?authuser=0&hl=en&rclk=1",
        "coordinates": {
            "latitude": 27.106236199999998,
            "longitude": 79.5258423
        }
    },
    {
        "name": "Takia wali masjid ,sayyedwara chhibramau",
        "main_category": "Mosque",
        "address": "5G23+38Q Takia wali masjid ,sayyedwara chhibramau, Nagar Palika Rd, Chhibramau, Uttar Pradesh 209721",
        "detailed_address": {
            "ward": null,
            "street": "5G23+38Q, Nagar Palika Rd",
            "city": "Chhibramau",
            "postal_code": "209721",
            "state": "Uttar Pradesh",
            "country_code": "IN"
        },
        "images": [
            {
                "about": "All",
                "link": "https://streetviewpixels-pa.googleapis.com/v1/thumbnail?panoid=1P2jnWIADHsvNbHNT-JJPw&cb_client=maps_sv.tactile.gps&w=224&h=298&yaw=214.75566&pitch=0&thumbfov=100"
            },
            {
                "about": "Street View & 360deg",
                "link": "https://streetviewpixels-pa.googleapis.com/v1/thumbnail?panoid=1P2jnWIADHsvNbHNT-JJPw&cb_client=maps_sv.tactile.gps&w=224&h=298&yaw=214.75566&pitch=0&thumbfov=100"
            }
        ],
        "link": "https://www.google.com/maps/place/Takia+wali+masjid+,sayyedwara+chhibramau/data=!4m7!3m6!1s0x399e1945b5c2e503:0xddfd6dc365b5daff!8m2!3d27.1502293!4d79.5033719!16s%2Fg%2F11l33qdr9k!19sChIJA-XCtUUZnjkR_9q1ZcNt_d0?authuser=0&hl=en&rclk=1",
        "coordinates": {
            "latitude": 27.1502293,
            "longitude": 79.50337189999999
        }
    },
    {
        "name": "Mahfooj Raza",
        "main_category": "Mosque",
        "address": "4GX4+4MM Mahfooj Raza, Chhibramau, Uttar Pradesh 209721",
        "detailed_address": {
            "ward": null,
            "street": "4GX4+4MM",
            "city": "Chhibramau",
            "postal_code": "209721",
            "state": "Uttar Pradesh",
            "country_code": "IN"
        },
        "images": [
            {
                "about": "All",
                "link": "https://streetviewpixels-pa.googleapis.com/v1/thumbnail?panoid=OB-zOJWIepfVx_P7T-6dmg&cb_client=maps_sv.tactile.gps&w=224&h=298&yaw=31.115084&pitch=0&thumbfov=100"
            },
            {
                "about": "Street View & 360deg",
                "link": "https://streetviewpixels-pa.googleapis.com/v1/thumbnail?panoid=OB-zOJWIepfVx_P7T-6dmg&cb_client=maps_sv.tactile.gps&w=224&h=298&yaw=31.115084&pitch=0&thumbfov=100"
            }
        ],
        "link": "https://www.google.com/maps/place/Mahfooj+Raza/data=!4m7!3m6!1s0x399e19ed886a7823:0xd6e5a6455987acdd!8m2!3d27.1478379!4d79.5066835!16s%2Fg%2F11qp1npr42!19sChIJI3hqiO0ZnjkR3ayHWUWm5dY?authuser=0&hl=en&rclk=1",
        "coordinates": {
            "latitude": 27.1478379,
            "longitude": 79.5066835
        }
    },
    {
        "name": "Kashi Ram ki puliya masjid k pass",
        "main_category": "Housing development",
        "address": "4FXX+XXR Kashi Ram ki puliya masjid k pass, Chhibramau, Uttar Pradesh 209721",
        "detailed_address": {
            "ward": null,
            "street": "4FXX+XXR",
            "city": "Chhibramau",
            "postal_code": "209721",
            "state": "Uttar Pradesh",
            "country_code": "IN"
        },
        "images": [
            {
                "about": "All",
                "link": "https://streetviewpixels-pa.googleapis.com/v1/thumbnail?panoid=gdtANK11O72hgPk-tTsgiw&cb_client=maps_sv.tactile.gps&w=224&h=298&yaw=169.20175&pitch=0&thumbfov=100"
            },
            {
                "about": "Street View & 360deg",
                "link": "https://streetviewpixels-pa.googleapis.com/v1/thumbnail?panoid=gdtANK11O72hgPk-tTsgiw&cb_client=maps_sv.tactile.gps&w=224&h=298&yaw=169.20175&pitch=0&thumbfov=100"
            }
        ],
        "link": "https://www.google.com/maps/place/Kashi+Ram+ki+puliya+masjid+k+pass/data=!4m7!3m6!1s0x399e1926be225e41:0x50dfdf64fc0d366!8m2!3d27.1499944!4d79.4998985!16s%2Fg%2F11rqgf7q_1!19sChIJQV4iviYZnjkRZtPAT_b9DQU?authuser=0&hl=en&rclk=1",
        "coordinates": {
            "latitude": 27.149994399999997,
            "longitude": 79.4998985
        }
    }
]