[
    {
        "name": "Masjid Kudsi (markaz)",
        "main_category": "Mosque",
        "address": "228Q+PMX Masjid Kudsi (markaz), Jafrabad Vesh, Deulgaon Raja, Maharashtra 443204",
        "detailed_address": {
            "ward": "Shaniwar Peth, Ambedkar Nagar",
            "street": "228Q+PMX, Jafrabad Vesh",
            "city": "Deulgaon Raja",
            "postal_code": "443204",
            "state": "Maharashtra",
            "country_code": "IN"
        },
        "images": [
            {
                "about": "All",
                "link": "https://lh5.googleusercontent.com/p/AF1QipP_-Pdk7NKkrucxBLaX9opB-mFhGiy3uNQTks5u=w397-h298-k-no"
            }
        ],
        "link": "https://www.google.com/maps/place/Masjid+Kudsi+%28markaz%29/data=!4m7!3m6!1s0x3bda43acad7dffdf:0xcc53295156b27b77!8m2!3d20.0168679!4d76.0392295!16s%2Fg%2F1ptylq34g!19sChIJ3_99raxD2jsRd3uyVlEpU8w?authuser=0&hl=en&rclk=1",
        "coordinates": {
            "latitude": 20.016867899999998,
            "longitude": 76.03922949999999
        }
    },
    {
        "name": "dargha masjid",
        "main_category": "Mosque",
        "address": "227Q+X9J dargha masjid, Singne Nagar, Ambedkar Nagar, Deulgaon Raja, Maharashtra 443204",
        "detailed_address": {
            "ward": "Singne Nagar, Ambedkar Nagar",
            "street": "227Q+X9J",
            "city": "Deulgaon Raja",
            "postal_code": "443204",
            "state": "Maharashtra",
            "country_code": "IN"
        },
        "images": [
            {
                "about": "All",
                "link": "https://lh5.googleusercontent.com/p/AF1QipPo31vOGmMfLJzNgNH3X0uFEbijXbtX7wdAqN5f=w224-h392-k-no"
            },
            {
                "about": "Videos",
                "link": "https://lh5.googleusercontent.com/p/AF1QipM9ulTazUsaCNajYCu8upa-PMj6pzrFeTfxPqkI=w224-h398-k-no"
            }
        ],
        "link": "https://www.google.com/maps/place/dargha+masjid/data=!4m7!3m6!1s0x3bda43547208a1e5:0x4598ac81fbe83dc0!8m2!3d20.0149615!4d76.0383936!16s%2Fg%2F11ghq46ndt!19sChIJ5aEIclRD2jsRwD3o-4GsmEU?authuser=0&hl=en&rclk=1",
        "coordinates": {
            "latitude": 20.0149615,
            "longitude": 76.03839359999999
        }
    },
    {
        "name": "Dargha Hazrat Bhole Shah Baba",
        "main_category": "Mosque",
        "address": "Dargha Hazrat Bhole Shah Baba, MH SH 178, Ambedkar Nagar, Deulgaon Raja, Maharashtra 443204",
        "detailed_address": {
            "ward": "Ambedkar Nagar",
            "street": "MH SH 178",
            "city": "Deulgaon Raja",
            "postal_code": "443204",
            "state": "Maharashtra",
            "country_code": "IN"
        },
        "images": [
            {
                "about": "All",
                "link": "https://lh5.googleusercontent.com/p/AF1QipMTT1AhWQfmhnT6zacAwI0h7BfUqT86ufcCR5jj=w224-h298-k-no"
            },
            {
                "about": "Street View & 360deg",
                "link": "https://streetviewpixels-pa.googleapis.com/v1/thumbnail?panoid=T524swSqMGLwP69cK_ealA&cb_client=maps_sv.tactile.gps&w=224&h=298&yaw=101.060234&pitch=0&thumbfov=100"
            },
            {
                "about": "Videos",
                "link": "https://lh5.googleusercontent.com/p/AF1QipN7PGUdSN6Fz1QpMKxaA2mGcNRsxglwHKIA_TfN=w224-h398-k-no"
            }
        ],
        "link": "https://www.google.com/maps/place/Dargha+Hazrat+Bhole+Shah+Baba/data=!4m7!3m6!1s0x3bda43ada69e45cd:0xb15a4d70c4377685!8m2!3d20.0199432!4d76.0359317!16s%2Fg%2F1ptwgtknn!19sChIJzUWepq1D2jsRhXY3xHBNWrE?authuser=0&hl=en&rclk=1",
        "coordinates": {
            "latitude": 20.0199432,
            "longitude": 76.03593169999999
        }
    },
    {
        "name": "Ahemadiya Masjid",
        "main_category": "Mosque",
        "address": "22GM+3MF Ahemadiya Masjid, Sanjay Nagar, Deulgaon Raja, Maharashtra 443204",
        "detailed_address": {
            "ward": "Sanjay Nagar",
            "street": "22GM+3MF",
            "city": "Deulgaon Raja",
            "postal_code": "443204",
            "state": "Maharashtra",
            "country_code": "IN"
        },
        "images": [
            {
                "about": "All",
                "link": "https://lh5.googleusercontent.com/p/AF1QipNK5m_w9LVg_xpVDMMaNQf9jNWk1yn3q4462sjr=w627-h298-k-no"
            },
            {
                "about": "Videos",
                "link": "https://lh5.googleusercontent.com/p/AF1QipMW9MX-xlxuMatZ_q96xKFxnpY4EKijAr_De9rE=w224-h398-k-no"
            }
        ],
        "link": "https://www.google.com/maps/place/Ahemadiya+Masjid/data=!4m7!3m6!1s0x3bda43a2858af401:0x3d01c97781c891f4!8m2!3d20.0251974!4d76.0341631!16s%2Fg%2F11g_zkmhfl!19sChIJAfSKhaJD2jsR9JHIgXfJAT0?authuser=0&hl=en&rclk=1",
        "coordinates": {
            "latitude": 20.0251974,
            "longitude": 76.0341631
        }
    },
    {
        "name": "Masjid",
        "main_category": "Mosque",
        "address": "22CR+QFV Masjid, Bhagwan Baba Nagar, Ambedkar Nagar, Deulgaon Raja, Maharashtra 443204",
        "detailed_address": {
            "ward": "Bhagwan Baba Nagar, Ambedkar Nagar",
            "street": "22CR+QFV",
            "city": "Deulgaon Raja",
            "postal_code": "443204",
            "state": "Maharashtra",
            "country_code": "IN"
        },
        "images": [],
        "link": "https://www.google.com/maps/place/Masjid/data=!4m7!3m6!1s0x3bda42529c638a19:0x8b8b9dee8813626d!8m2!3d20.0219845!4d76.041163!16s%2Fg%2F11f0w_xld6!19sChIJGYpjnFJC2jsRbWITiO6di4s?authuser=0&hl=en&rclk=1",
        "coordinates": {
            "latitude": 20.0219845,
            "longitude": 76.041163
        }
    },
    {
        "name": "Bilal Masjid",
        "main_category": "Mosque",
        "address": "22GP+MJQ Bilal Masjid, Hakim Colony, Deulgaon Raja, Maharashtra 443204",
        "detailed_address": {
            "ward": "Hakim Colony",
            "street": "22GP+MJQ",
            "city": "Deulgaon Raja",
            "postal_code": "443204",
            "state": "Maharashtra",
            "country_code": "IN"
        },
        "images": [
            {
                "about": "All",
                "link": "https://lh5.googleusercontent.com/p/AF1QipOzVpZNkQmUsbQral0bKZFk1Y5AlM4vvg2rp7NS=w529-h298-k-no"
            }
        ],
        "link": "https://www.google.com/maps/place/Bilal+Masjid/data=!4m7!3m6!1s0x3bda433cdf63ecdd:0xa100964b2b4b1d1d!8m2!3d20.0267102!4d76.0366063!16s%2Fg%2F11h8bklcnb!19sChIJ3exj3zxD2jsRHR1LK0uWAKE?authuser=0&hl=en&rclk=1",
        "coordinates": {
            "latitude": 20.0267102,
            "longitude": 76.0366063
        }
    },
    {
        "name": "Masjid Madarsa-E- Hazrat AbuBakar",
        "main_category": "Mosque",
        "address": "22CQ+4FR Masjid Madarsa-E- Hazrat AbuBakar, Ambedkar Nagar, Deulgaon Raja, Maharashtra 443204",
        "detailed_address": {
            "ward": "Ambedkar Nagar",
            "street": "22CQ+4FR",
            "city": "Deulgaon Raja",
            "postal_code": "443204",
            "state": "Maharashtra",
            "country_code": "IN"
        },
        "images": [
            {
                "about": "All",
                "link": "https://lh5.googleusercontent.com/p/AF1QipOzh8EOmXq8HBwXojj7Owm6f8JlSQ08ZInlqfjd=w662-h298-k-no"
            }
        ],
        "link": "https://www.google.com/maps/place/Masjid+Madarsa-E-+Hazrat+AbuBakar/data=!4m7!3m6!1s0x3bda43ad36dfe711:0x8417c28dd087b891!8m2!3d20.0203552!4d76.0386521!16s%2Fg%2F11cp09s97l!19sChIJEeffNq1D2jsRkbiH0I3CF4Q?authuser=0&hl=en&rclk=1",
        "coordinates": {
            "latitude": 20.020355199999997,
            "longitude": 76.0386521
        }
    },
    {
        "name": "JAMA MASJID",
        "main_category": "Mosque",
        "address": "229M+CHC JAMA MASJID, Deulgaon Raja, Maharashtra 443204",
        "detailed_address": {
            "ward": null,
            "street": "229M+CHC",
            "city": "Deulgaon Raja",
            "postal_code": null,
            "state": "Maharashtra",
            "country_code": "IN"
        },
        "images": [
            {
                "about": "All",
                "link": "https://lh5.googleusercontent.com/p/AF1QipMv3941HhNbpNbSS3lDiXPUSXnUddR_Yv9sfE4K=w678-h298-k-no"
            },
            {
                "about": "Dome",
                "link": "https://lh5.googleusercontent.com/p/AF1QipNUQ5disztT8L0XOCFUbfJqNKqma-gI28c3b_d-=w397-h298-k-no"
            }
        ],
        "link": "https://www.google.com/maps/place/JAMA+MASJID/data=!4m7!3m6!1s0x3bda431a6774cdbf:0x86a09c78d4c4f78!8m2!3d20.0185658!4d76.0339052!16s%2Fg%2F11swqs4d_4!19sChIJv810ZxpD2jsReE9MjccJagg?authuser=0&hl=en&rclk=1",
        "coordinates": {
            "latitude": 20.018565799999998,
            "longitude": 76.03390519999999
        }
    },
    {
        "name": "Rabiya Masjid",
        "main_category": "Mosque",
        "address": "Rabiya Masjid, Karim Nagar, Pimpalgaon - Chilamkha Rd, Deulgaon Raja, Maharashtra 443204",
        "detailed_address": {
            "ward": null,
            "street": "Karim Nagar, Pimpalgaon - Chilamkha Rd",
            "city": "Deulgaon Raja",
            "postal_code": "443204",
            "state": "Maharashtra",
            "country_code": "IN"
        },
        "images": [
            {
                "about": "All",
                "link": "https://lh5.googleusercontent.com/p/AF1QipPiUD1LtBiD7LeDlgKTh2zVQdxLUYBqXU9qU5P_=w397-h298-k-no"
            }
        ],
        "link": "https://www.google.com/maps/place/Rabiya+Masjid/data=!4m7!3m6!1s0x3bda430a347e1c5f:0x8f590f3441aef86e!8m2!3d20.0288091!4d76.035919!16s%2Fg%2F11fjty40qk!19sChIJXxx-NApD2jsRbviuQTQPWY8?authuser=0&hl=en&rclk=1",
        "coordinates": {
            "latitude": 20.0288091,
            "longitude": 76.03591899999999
        }
    },
    {
        "name": "Jama Masjib",
        "main_category": "Mosque",
        "address": "227R+V9W Jama Masjib, Ambedkar Nagar, Deulgaon Raja, Maharashtra 443204",
        "detailed_address": {
            "ward": "Ambedkar Nagar",
            "street": "227R+V9W",
            "city": "Deulgaon Raja",
            "postal_code": "443204",
            "state": "Maharashtra",
            "country_code": "IN"
        },
        "images": [
            {
                "about": "All",
                "link": "https://lh5.googleusercontent.com/p/AF1QipOCy8ObBKM729fX4o7W18y9qK4Kku3BMO0eYWPB=w529-h298-k-no"
            },
            {
                "about": "Videos",
                "link": "https://lh5.googleusercontent.com/p/AF1QipOCy8ObBKM729fX4o7W18y9qK4Kku3BMO0eYWPB=w529-h298-k-no"
            }
        ],
        "link": "https://www.google.com/maps/place/Jama+Masjib/data=!4m7!3m6!1s0x3bda4361c0b41501:0xb69f488af95687a3!8m2!3d20.0147279!4d76.0409376!16s%2Fg%2F11fkr12fzv!19sChIJARW0wGFD2jsRo4dW-YpIn7Y?authuser=0&hl=en&rclk=1",
        "coordinates": {
            "latitude": 20.0147279,
            "longitude": 76.04093759999999
        }
    },
    {
        "name": "Masjid E Huda",
        "main_category": "Mosque",
        "address": "229P+3VH Masjid E Huda, Singne Nagar, Ambedkar Nagar, Deulgaon Raja, Maharashtra 443204",
        "detailed_address": {
            "ward": "Singne Nagar, Ambedkar Nagar",
            "street": "229P+3VH",
            "city": "Deulgaon Raja",
            "postal_code": "443204",
            "state": "Maharashtra",
            "country_code": "IN"
        },
        "images": [
            {
                "about": "All",
                "link": "https://streetviewpixels-pa.googleapis.com/v1/thumbnail?panoid=7_NTUfa9LFKOW0LJJGEV4w&cb_client=maps_sv.tactile.gps&w=224&h=298&yaw=228.71541&pitch=0&thumbfov=100"
            },
            {
                "about": "Street View & 360deg",
                "link": "https://streetviewpixels-pa.googleapis.com/v1/thumbnail?panoid=7_NTUfa9LFKOW0LJJGEV4w&cb_client=maps_sv.tactile.gps&w=224&h=298&yaw=228.71541&pitch=0&thumbfov=100"
            }
        ],
        "link": "https://www.google.com/maps/place/Masjid+E+Huda/data=!4m7!3m6!1s0x3bda438f6845e37d:0xbb716fcc10db1932!8m2!3d20.0176869!4d76.0372219!16s%2Fg%2F11gxrnmy52!19sChIJfeNFaI9D2jsRMhnbEMxvcbs?authuser=0&hl=en&rclk=1",
        "coordinates": {
            "latitude": 20.017686899999998,
            "longitude": 76.03722189999999
        }
    }
]