[
    {
        "name": "Masjid E Mahboobia",
        "main_category": "Mosque",
        "address": "38RV+23Q Masjid E Mahboobia, Madina colony, Eidgoan, Nirmal, Telangana 504106",
        "detailed_address": {
            "ward": "Eidgoan",
            "street": "38RV+23Q, Madina colony",
            "city": "Nirmal",
            "postal_code": "504106",
            "state": "Telangana",
            "country_code": "IN"
        },
        "images": [
            {
                "about": "All",
                "link": "https://lh5.googleusercontent.com/p/AF1QipNE9nJW_EmRkCAHiwZbfWh0fPyznoUlOC6LiQaq=w397-h298-k-no"
            },
            {
                "about": "Street View & 360deg",
                "link": "https://streetviewpixels-pa.googleapis.com/v1/thumbnail?panoid=aVWrNl8hcEypuVuijU3Erg&cb_client=maps_sv.tactile.gps&w=224&h=298&yaw=275.89703&pitch=0&thumbfov=100"
            },
            {
                "about": "Videos",
                "link": "https://lh5.googleusercontent.com/p/AF1QipOrK2hwtvkF2AAcF76nPt9_JAGMZJffMe2WKDhb=w529-h298-k-no"
            }
        ],
        "link": "https://www.google.com/maps/place/Masjid+E+Mahboobia/data=!4m7!3m6!1s0x3bcd8c7cc72f32ad:0xc87a1e0f04aa3a5d!8m2!3d19.0900799!4d78.3427318!16s%2Fg%2F11b6njqqlh!19sChIJrTIvx3yMzTsRXTqqBA8eesg?authuser=0&hl=en&rclk=1",
        "coordinates": {
            "latitude": 19.0900799,
            "longitude": 78.3427318
        }
    },
    {
        "name": "Masjid-e-Yahya, Gajulpet",
        "main_category": "Mosque",
        "address": "485J+MRG Masjid-e-Yahya, Gajulpet, Gajulpet, Telangana 504106",
        "detailed_address": {
            "ward": null,
            "street": "485J+MRG",
            "city": "Gajulpet",
            "postal_code": "504106",
            "state": "Telangana",
            "country_code": "IN"
        },
        "images": [
            {
                "about": "All",
                "link": "https://lh5.googleusercontent.com/p/AF1QipMA7OGCuR2NJRGupjwnOqi-jGYPyo5tnlrFb9kF=w247-h298-k-no"
            },
            {
                "about": "Videos",
                "link": "https://lh5.googleusercontent.com/p/AF1QipMyWe6iRO_6QNTAp2sFgsUXuJoEXZeDxpvQLW9E=w529-h298-k-no"
            }
        ],
        "link": "https://www.google.com/maps/place/Masjid-e-Yahya,+Gajulpet/data=!4m7!3m6!1s0x3bcd8b7bcb59113d:0x9c871539096c8956!8m2!3d19.1091943!4d78.3320753!16s%2Fg%2F11c716w5jr!19sChIJPRFZy3uLzTsRVolsCTkVh5w?authuser=0&hl=en&rclk=1",
        "coordinates": {
            "latitude": 19.1091943,
            "longitude": 78.3320753
        }
    },
    {
        "name": "Mohammadia Masjid",
        "main_category": "Mosque",
        "address": "38JR+55J Mohammadia Masjid, Adharsha Nagar, Nirmal, Telangana 504106",
        "detailed_address": {
            "ward": "Adharsha Nagar",
            "street": "38JR+55J",
            "city": "Nirmal",
            "postal_code": "504106",
            "state": "Telangana",
            "country_code": "IN"
        },
        "images": [
            {
                "about": "All",
                "link": "https://lh5.googleusercontent.com/p/AF1QipPT-fyrZsgImfZxDJIWHk9tPorkG8VOCbPO4H8=w224-h474-k-no"
            },
            {
                "about": "Street View & 360deg",
                "link": "https://streetviewpixels-pa.googleapis.com/v1/thumbnail?panoid=HpdQmfvaaVnTupeCfoC-1Q&cb_client=maps_sv.tactile.gps&w=224&h=298&yaw=71.06642&pitch=0&thumbfov=100"
            }
        ],
        "link": "https://www.google.com/maps/place/Mohammadia+Masjid/data=!4m7!3m6!1s0x3bcd8c604b0a54d3:0x67084e8473077f46!8m2!3d19.0804551!4d78.340404!16s%2Fg%2F11bzq338xz!19sChIJ01QKS2CMzTsRRn8Hc4ROCGc?authuser=0&hl=en&rclk=1",
        "coordinates": {
            "latitude": 19.0804551,
            "longitude": 78.34040399999999
        }
    },
    {
        "name": "Masjid E Mastaniya",
        "main_category": "Mosque",
        "address": "38MP+W6H Masjid E Mastaniya, Asra Colony, Adharsha Nagar, Nirmal, Telangana 504106",
        "detailed_address": {
            "ward": "Asra Colony, Adharsha Nagar",
            "street": "38MP+W6H",
            "city": "Nirmal",
            "postal_code": "504106",
            "state": "Telangana",
            "country_code": "IN"
        },
        "images": [
            {
                "about": "All",
                "link": "https://lh5.googleusercontent.com/p/AF1QipMnBYJAkrWjksyW3nxivMPorXwTGVqH6LQQMSDA=w397-h298-k-no"
            },
            {
                "about": "Street View & 360deg",
                "link": "https://streetviewpixels-pa.googleapis.com/v1/thumbnail?panoid=4znjPzp0yF2eoTQkzGik5w&cb_client=maps_sv.tactile.gps&w=224&h=298&yaw=165.41771&pitch=0&thumbfov=100"
            },
            {
                "about": "Videos",
                "link": "https://lh5.googleusercontent.com/p/AF1QipPacviFSjCGPVByoluDvDRJPyFEn7T8IHQjamh0=w224-h398-k-no"
            }
        ],
        "link": "https://www.google.com/maps/place/Masjid+E+Mastaniya/data=!4m7!3m6!1s0x3bcd8c884b8cf3ad:0xc9b46d1316dfb1a6!8m2!3d19.0848125!4d78.3356094!16s%2Fg%2F11f126_006!19sChIJrfOMS4iMzTsRprHfFhNttMk?authuser=0&hl=en&rclk=1",
        "coordinates": {
            "latitude": 19.084812499999998,
            "longitude": 78.3356094
        }
    },
    {
        "name": "Masjid-e-Arfath",
        "main_category": "Mosque",
        "address": "485P+MVR Masjid-e-Arfath, Gajulpet, Telangana 504106",
        "detailed_address": {
            "ward": null,
            "street": "485P+MVR",
            "city": "Gajulpet",
            "postal_code": "504106",
            "state": "Telangana",
            "country_code": "IN"
        },
        "images": [
            {
                "about": "All",
                "link": "https://lh5.googleusercontent.com/p/AF1QipOYnfARfIH9b1E_hIhRv6dXsimaxDpAWSPsx0Rn=w529-h298-k-no"
            },
            {
                "about": "Street View & 360deg",
                "link": "https://streetviewpixels-pa.googleapis.com/v1/thumbnail?panoid=Yxoat8nPbhXPlnjJ2vyVvg&cb_client=maps_sv.tactile.gps&w=224&h=298&yaw=344.0244&pitch=0&thumbfov=100"
            }
        ],
        "link": "https://www.google.com/maps/place/Masjid-e-Arfath/data=!4m7!3m6!1s0x3bcd8b78f38929b7:0xf1f6598f1f63e972!8m2!3d19.1092323!4d78.3371349!16s%2Fg%2F11g6xq1bxz!19sChIJtymJ83iLzTsRculjH49Z9vE?authuser=0&hl=en&rclk=1",
        "coordinates": {
            "latitude": 19.1092323,
            "longitude": 78.3371349
        }
    },
    {
        "name": "MASJID - E - RIYAZUL HAQ",
        "main_category": "Mosque",
        "address": "38WX+Q76 MASJID - E - RIYAZUL HAQ, Bagulwada, Nirmal, Telangana 504106",
        "detailed_address": {
            "ward": "Bagulwada",
            "street": "38WX+Q76",
            "city": "Nirmal",
            "postal_code": "504106",
            "state": "Telangana",
            "country_code": "IN"
        },
        "images": [
            {
                "about": "All",
                "link": "https://lh5.googleusercontent.com/p/AF1QipPhnZsfUtHcXCx7pmIPZQ41_9cemv8z9lo6y8Sp=w224-h298-k-no"
            },
            {
                "about": "Street View & 360deg",
                "link": "https://streetviewpixels-pa.googleapis.com/v1/thumbnail?panoid=pRxXmq4rqhyxRsCexM8FtQ&cb_client=maps_sv.tactile.gps&w=224&h=298&yaw=208.2239&pitch=0&thumbfov=100"
            }
        ],
        "link": "https://www.google.com/maps/place/MASJID+-+E+-+RIYAZUL+HAQ/data=!4m7!3m6!1s0x3bcd8c79971e96a1:0x16fef0fe66a6bb49!8m2!3d19.0969176!4d78.3481556!16s%2Fg%2F11ddxp28l8!19sChIJoZYel3mMzTsRSbumZv7w_hY?authuser=0&hl=en&rclk=1",
        "coordinates": {
            "latitude": 19.096917599999998,
            "longitude": 78.3481556
        }
    },
    {
        "name": "Masjid E Saad",
        "main_category": "Mosque",
        "address": "Masjid E Saad, Bail Bazar Rd, Naidiwada, Nirmal, Gajulpet, Telangana 504106",
        "detailed_address": {
            "ward": "Naidiwada",
            "street": "Bail Bazar Rd",
            "city": "Nirmal, Gajulpet",
            "postal_code": "504106",
            "state": "Telangana",
            "country_code": "IN"
        },
        "images": [
            {
                "about": "All",
                "link": "https://streetviewpixels-pa.googleapis.com/v1/thumbnail?panoid=5tULU00YF416g3-DNMgZnA&cb_client=maps_sv.tactile.gps&w=224&h=298&yaw=291.334&pitch=0&thumbfov=100"
            },
            {
                "about": "By owner",
                "link": "https://lh5.googleusercontent.com/p/AF1QipNgAxU-pDmC7mWGO5IPqwAFzn14hy8nMnLJqrkB=w298-h298-k-no"
            },
            {
                "about": "Street View & 360deg",
                "link": "https://streetviewpixels-pa.googleapis.com/v1/thumbnail?panoid=5tULU00YF416g3-DNMgZnA&cb_client=maps_sv.tactile.gps&w=224&h=298&yaw=291.334&pitch=0&thumbfov=100"
            }
        ],
        "link": "https://www.google.com/maps/place/Masjid+E+Saad/data=!4m7!3m6!1s0x3bcd8b82f6becb3b:0x42b1513e084204aa!8m2!3d19.110158!4d78.3405581!16s%2Fg%2F11d_25gpf0!19sChIJO8u-9oKLzTsRqgRCCD5RsUI?authuser=0&hl=en&rclk=1",
        "coordinates": {
            "latitude": 19.110158,
            "longitude": 78.3405581
        }
    },
    {
        "name": "jama masjid",
        "main_category": "Mosque",
        "address": "4556+99V jama masjid, Narsapur, Telangana 504104",
        "detailed_address": {
            "ward": null,
            "street": "4556+99V",
            "city": "Narsapur",
            "postal_code": "504104",
            "state": "Telangana",
            "country_code": "IN"
        },
        "images": [
            {
                "about": "All",
                "link": "https://lh5.googleusercontent.com/p/AF1QipOPIP1qQg97_iSKy4lRKYYJ6tC5zEqYZf_iVK0D=w529-h298-k-no"
            }
        ],
        "link": "https://www.google.com/maps/place/jama+masjid/data=!4m7!3m6!1s0x3bcdf6debe130ce1:0x496ea4eb093e0f95!8m2!3d19.1084754!4d78.1609358!16s%2Fg%2F11dymkzz5r!19sChIJ4QwTvt72zTsRlQ8-Ceukbkk?authuser=0&hl=en&rclk=1",
        "coordinates": {
            "latitude": 19.1084754,
            "longitude": 78.16093579999999
        }
    },
    {
        "name": "New Masjid",
        "main_category": "Mosque",
        "address": "4536+837 New Masjid, Narsapur, Telangana 504104",
        "detailed_address": {
            "ward": null,
            "street": "4536+837",
            "city": "Narsapur",
            "postal_code": "504104",
            "state": "Telangana",
            "country_code": "IN"
        },
        "images": [
            {
                "about": "All",
                "link": "https://lh5.googleusercontent.com/p/AF1QipM54G4ao8KLpfnUMityNPwDLhIOdlgeLBJaLwfm=w239-h298-k-no"
            },
            {
                "about": "Dome",
                "link": "https://lh5.googleusercontent.com/p/AF1QipM54G4ao8KLpfnUMityNPwDLhIOdlgeLBJaLwfm=w239-h298-k-no"
            }
        ],
        "link": "https://www.google.com/maps/place/New+Masjid/data=!4m7!3m6!1s0x3bcdf6d9badf7107:0x959db33fe812bc3a!8m2!3d19.1032998!4d78.1601806!16s%2Fg%2F11dyqr83fc!19sChIJB3Hfutn2zTsROrwS6D-znZU?authuser=0&hl=en&rclk=1",
        "coordinates": {
            "latitude": 19.1032998,
            "longitude": 78.16018059999999
        }
    },
    {
        "name": "masjid E Osmania",
        "main_category": "Mosque",
        "address": "484V+CR6 masjid E Osmania, Kabutar Kaman, Pinjari Gutta, Nirmal, Telangana 504106",
        "detailed_address": {
            "ward": "Pinjari Gutta",
            "street": "484V+CR6, Kabutar Kaman",
            "city": "Nirmal",
            "postal_code": "504106",
            "state": "Telangana",
            "country_code": "IN"
        },
        "images": [
            {
                "about": "All",
                "link": "https://streetviewpixels-pa.googleapis.com/v1/thumbnail?panoid=A7PF-cm8l3hxt8sHn8DExw&cb_client=maps_sv.tactile.gps&w=224&h=298&yaw=212.18008&pitch=0&thumbfov=100"
            },
            {
                "about": "Street View & 360deg",
                "link": "https://streetviewpixels-pa.googleapis.com/v1/thumbnail?panoid=A7PF-cm8l3hxt8sHn8DExw&cb_client=maps_sv.tactile.gps&w=224&h=298&yaw=212.18008&pitch=0&thumbfov=100"
            }
        ],
        "link": "https://www.google.com/maps/place/masjid+E+Osmania/data=!4m7!3m6!1s0x3bcd8b2fce0274ed:0xfcbe244bbc5ab10a!8m2!3d19.1060285!4d78.3445019!16s%2Fg%2F11fl94rxxh!19sChIJ7XQCzi-LzTsRCrFavEskvvw?authuser=0&hl=en&rclk=1",
        "coordinates": {
            "latitude": 19.1060285,
            "longitude": 78.3445019
        }
    },
    {
        "name": "MASJID- E -SIDDIQ",
        "main_category": "Mosque",
        "address": "39W3+9GR MASJID- E -SIDDIQ, Moghalpura, Nirmal, Telangana 504106",
        "detailed_address": {
            "ward": "Moghalpura",
            "street": "39W3+9GR",
            "city": "Nirmal",
            "postal_code": "504106",
            "state": "Telangana",
            "country_code": "IN"
        },
        "images": [],
        "link": "https://www.google.com/maps/place/MASJID-+E+-SIDDIQ/data=!4m7!3m6!1s0x3bcd8d77ced13693:0x2b1f9d1fdf452958!8m2!3d19.0959983!4d78.3537797!16s%2Fg%2F11g1gmhbgh!19sChIJkzbRzneNzTsRWClF3x-dHys?authuser=0&hl=en&rclk=1",
        "coordinates": {
            "latitude": 19.095998299999998,
            "longitude": 78.35377969999999
        }
    },
    {
        "name": "EIDGAH, NARSAPUR (G)",
        "main_category": "Mosque",
        "address": "4575+M2P EIDGAH, NARSAPUR (G), Mallanna temple road, Narsapur G, Dist:Nirmal, Telangana 504104",
        "detailed_address": {
            "ward": null,
            "street": "4575+M2P, Mallanna temple road, Narsapur G, Dist:Nirmal",
            "city": "Shakapur",
            "postal_code": "504104",
            "state": "Telangana",
            "country_code": "IN"
        },
        "images": [],
        "link": "https://www.google.com/maps/place/EIDGAH,+NARSAPUR+%28G%29/data=!4m7!3m6!1s0x3bcdf72f7b2bd6cf:0xd8b0b0a1390199e5!8m2!3d19.1142006!4d78.1575704!16s%2Fg%2F11ffw748c1!19sChIJz9Yrey_3zTsR5ZkBOaGwsNg?authuser=0&hl=en&rclk=1",
        "coordinates": {
            "latitude": 19.1142006,
            "longitude": 78.1575704
        }
    },
    {
        "name": "Jama Masjid",
        "main_category": "Mosque",
        "address": "4733+GPV Jama Masjid, Near the Nirmal Bhainsa main Road.Mdl: Dilawarpur. Dist:, Nirmal, Telangana 504306",
        "detailed_address": {
            "ward": null,
            "street": "4733+GPV, Near the Nirmal Bhainsa main Road.Mdl: Dilawarpur. Dist:",
            "city": "Nirmal, Lolam",
            "postal_code": "504306",
            "state": "Telangana",
            "country_code": "IN"
        },
        "images": [
            {
                "about": "All",
                "link": "https://lh5.googleusercontent.com/p/AF1QipOanWra0dqCUmLoygSZdKN1kn3teocUhBnZZ40=w224-h398-k-no"
            },
            {
                "about": "Videos",
                "link": "https://lh5.googleusercontent.com/p/AF1QipOanWra0dqCUmLoygSZdKN1kn3teocUhBnZZ40=w224-h398-k-no"
            }
        ],
        "link": "https://www.google.com/maps/place/Jama+Masjid/data=!4m7!3m6!1s0x3bcdfff87705fb39:0xd33edc6cec828713!8m2!3d19.1038707!4d78.2542839!16s%2Fg%2F11gtdzt517!19sChIJOfsFd_j_zTsRE4eC7GzcPtM?authuser=0&hl=en&rclk=1",
        "coordinates": {
            "latitude": 19.103870699999998,
            "longitude": 78.25428389999999
        }
    },
    {
        "name": "Masjid Mohammad Osman, Nirmal",
        "main_category": "Mosque",
        "address": "486M+V9M Masjid Mohammad Osman, Nirmal, Gajulpet, Telangana 504106",
        "detailed_address": {
            "ward": null,
            "street": "486M+V9M",
            "city": "Gajulpet",
            "postal_code": "504106",
            "state": "Telangana",
            "country_code": "IN"
        },
        "images": [
            {
                "about": "All",
                "link": "https://lh5.googleusercontent.com/p/AF1QipM9WqTFYUeui92N6OgPgAoGNC9ZU_eocpJeLtlM=w224-h398-k-no"
            }
        ],
        "link": "https://www.google.com/maps/place/Masjid+Mohammad+Osman,+Nirmal/data=!4m7!3m6!1s0x3bcd8b85fd08424d:0x8490656f1497e456!8m2!3d19.1122219!4d78.3334251!16s%2Fg%2F11l8tvx7lb!19sChIJTUII_YWLzTsRVuSXFG9lkIQ?authuser=0&hl=en&rclk=1",
        "coordinates": {
            "latitude": 19.112221899999998,
            "longitude": 78.3334251
        }
    },
    {
        "name": "Masjid E Noor",
        "main_category": "Mosque",
        "address": "39C3+79P Masjid E Noor, Venkatapur Rural, Telangana 504105",
        "detailed_address": {
            "ward": null,
            "street": "39C3+79P",
            "city": "Venkatapur Rural",
            "postal_code": "504105",
            "state": "Telangana",
            "country_code": "IN"
        },
        "images": [
            {
                "about": "All",
                "link": "https://lh5.googleusercontent.com/p/AF1QipNb4vQAYOIbgs98fVwNgrUmVhO7UV-R-HXUAgmg=w397-h298-k-no"
            }
        ],
        "link": "https://www.google.com/maps/place/Masjid+E+Noor/data=!4m7!3m6!1s0x3bcd8ddcb5d9d5cf:0xd152c6f472fdfbfa!8m2!3d19.0707081!4d78.3534421!16s%2Fg%2F11hv9slfb2!19sChIJz9XZtdyNzTsR-vv9cvTGUtE?authuser=0&hl=en&rclk=1",
        "coordinates": {
            "latitude": 19.070708099999997,
            "longitude": 78.3534421
        }
    }
]