[
    {
        "name": "Malakpura Masjid",
        "main_category": "Mosque",
        "address": "QVRJ+HJ5 Malakpura Masjid, Malakpura, Manglaur, Uttarakhand 247656",
        "detailed_address": {
            "ward": "Malakpura",
            "street": "QVRJ+HJ5",
            "city": "Manglaur",
            "postal_code": "247656",
            "state": "Uttarakhand",
            "country_code": "IN"
        },
        "images": [
            {
                "about": "All",
                "link": "https://lh5.googleusercontent.com/p/AF1QipP15pYbFrMIFHvLTLRpqRiKvjQ5E_7lqRq0eIlW=w224-h460-k-no"
            }
        ],
        "link": "https://www.google.com/maps/place/Malakpura+Masjid/data=!4m7!3m6!1s0x390eb3abd80fd68b:0x16238f506d9c8baa!8m2!3d29.7913794!4d77.8816208!16s%2Fg%2F11gvz90qlt!19sChIJi9YP2KuzDjkRqoucbVCPIxY?authuser=0&hl=en&rclk=1",
        "coordinates": {
            "latitude": 29.7913794,
            "longitude": 77.8816208
        }
    },
    {
        "name": "Malakpura Masjid",
        "main_category": "Mosque",
        "address": "QVPH+H4P Malakpura Masjid, Malakpura, Manglaur, Nazarpura, Uttarakhand 247656",
        "detailed_address": {
            "ward": "Malakpura",
            "street": "QVPH+H4P",
            "city": "Manglaur, Nazarpura",
            "postal_code": "247656",
            "state": "Uttarakhand",
            "country_code": "IN"
        },
        "images": [
            {
                "about": "All",
                "link": "https://lh5.googleusercontent.com/p/AF1QipNJnHhcdEXn5ElBld2o5DQy6-q9mK7Ujzk9N23F=w224-h398-k-no"
            },
            {
                "about": "Latest",
                "link": "https://lh5.googleusercontent.com/p/AF1QipNJnHhcdEXn5ElBld2o5DQy6-q9mK7Ujzk9N23F=w224-h398-k-no"
            },
            {
                "about": "Videos",
                "link": "https://lh5.googleusercontent.com/p/AF1QipNJnHhcdEXn5ElBld2o5DQy6-q9mK7Ujzk9N23F=w224-h398-k-no"
            },
            {
                "about": "Street View & 360deg",
                "link": "https://streetviewpixels-pa.googleapis.com/v1/thumbnail?panoid=jetACjJMyebW-Cf7EX8bcQ&cb_client=maps_sv.tactile.gps&w=224&h=298&yaw=230.91359&pitch=0&thumbfov=100"
            }
        ],
        "link": "https://www.google.com/maps/place/Malakpura+Masjid/data=!4m7!3m6!1s0x390eb27ebfffffff:0x127d1e7d6b5a4b3c!8m2!3d29.7864641!4d77.8778414!16s%2Fg%2F11fx9h0yq9!19sChIJ____v36yDjkRPEtaa30efRI?authuser=0&hl=en&rclk=1",
        "coordinates": {
            "latitude": 29.7864641,
            "longitude": 77.8778414
        }
    },
    {
        "name": "Masjid Neelgaran",
        "main_category": "Mosque",
        "address": "QVVG+4PR Masjid Neelgaran, Nagar Palika Rd, Manglaur, Nazarpura, Uttarakhand 247656",
        "detailed_address": {
            "ward": null,
            "street": "QVVG+4PR, Nagar Palika Rd",
            "city": "Manglaur, Nazarpura",
            "postal_code": "247656",
            "state": "Uttarakhand",
            "country_code": "IN"
        },
        "images": [],
        "link": "https://www.google.com/maps/place/Masjid+Neelgaran/data=!4m7!3m6!1s0x390eb37fcb912453:0xb47516e16f3f09d8!8m2!3d29.7928619!4d77.8767651!16s%2Fg%2F11gns94t2g!19sChIJUySRy3-zDjkR2Ak_b-EWdbQ?authuser=0&hl=en&rclk=1",
        "coordinates": {
            "latitude": 29.7928619,
            "longitude": 77.8767651
        }
    },
    {
        "name": "Unche wali Masjid",
        "main_category": "Religious destination",
        "address": "QVQJ+GGW Unche wali Masjid, Karbala Rd, Mohalla Halka, Malakpura, Manglaur, Uttarakhand 247656",
        "detailed_address": {
            "ward": "Mohalla Halka, Malakpura",
            "street": "QVQJ+GGW, Karbala Rd",
            "city": "Manglaur",
            "postal_code": "247656",
            "state": "Uttarakhand",
            "country_code": "IN"
        },
        "images": [],
        "link": "https://www.google.com/maps/place/Unche+wali+Masjid/data=!4m7!3m6!1s0x390eb30e39c1c0ab:0x998732f196f902fa!8m2!3d29.7891204!4d77.8813663!16s%2Fg%2F11szchg1q5!19sChIJq8DBOQ6zDjkR-gL5lvEyh5k?authuser=0&hl=en&rclk=1",
        "coordinates": {
            "latitude": 29.789120399999998,
            "longitude": 77.8813663
        }
    },
    {
        "name": "msjid abuu bkr",
        "main_category": "Mosque",
        "address": "QVWM+PXW msjid abuu bkr, Umar colony mohalla, Pathanpura, Manglaur, Uttarakhand 247656",
        "detailed_address": {
            "ward": "Pathanpura",
            "street": "QVWM+PXW, Umar colony mohalla",
            "city": "Manglaur",
            "postal_code": "247656",
            "state": "Uttarakhand",
            "country_code": "IN"
        },
        "images": [
            {
                "about": "All",
                "link": "https://streetviewpixels-pa.googleapis.com/v1/thumbnail?panoid=nVmeP0-JVnlB08CP85aMfg&cb_client=maps_sv.tactile.gps&w=224&h=298&yaw=296.24686&pitch=0&thumbfov=100"
            },
            {
                "about": "Street View & 360deg",
                "link": "https://streetviewpixels-pa.googleapis.com/v1/thumbnail?panoid=nVmeP0-JVnlB08CP85aMfg&cb_client=maps_sv.tactile.gps&w=224&h=298&yaw=296.24686&pitch=0&thumbfov=100"
            }
        ],
        "link": "https://www.google.com/maps/place/%E0%A4%AE%E0%A4%B8%E0%A5%8D%E0%A4%9C%E0%A4%BF%E0%A4%A6+%E0%A4%85%E0%A4%AC%E0%A5%82+%E0%A4%AC%E0%A4%95%E0%A4%B0/data=!4m7!3m6!1s0x390eb35be4922bd1:0xdc3130bfadd45123!8m2!3d29.7968733!4d77.884951!16s%2Fg%2F11sjphgt8h!19sChIJ0SuS5FuzDjkRI1HUrb8wMdw?authuser=0&hl=en&rclk=1",
        "coordinates": {
            "latitude": 29.796873299999998,
            "longitude": 77.884951
        }
    },
    {
        "name": "Masjid Usmania",
        "main_category": "Mosque",
        "address": "QVWF+4W4 Masjid Usmania, Kurdi, Manglaur, Uttarakhand 247656",
        "detailed_address": {
            "ward": null,
            "street": "QVWF+4W4",
            "city": "Kurdi, Manglaur",
            "postal_code": "247656",
            "state": "Uttarakhand",
            "country_code": "IN"
        },
        "images": [],
        "link": "https://www.google.com/maps/place/Masjid+Usmania/data=!4m7!3m6!1s0x390eb34cfd3cb2d3:0xafde28af414d6103!8m2!3d29.7953156!4d77.8745357!16s%2Fg%2F11l5hdxs9y!19sChIJ07I8_UyzDjkRA2FNQa8o3q8?authuser=0&hl=en&rclk=1",
        "coordinates": {
            "latitude": 29.7953156,
            "longitude": 77.8745357
        }
    },
    {
        "name": "mNglaur ttaauun mohllaa mlaanpuraa jilaa hridvaar uttraakhNdd",
        "main_category": "Mosque",
        "address": "QVQH+9VV mNglaur ttaauun mohllaa mlaanpuraa jilaa hridvaar uttraakhNdd, Malakpura, Manglaur, ttaauun, Uttarakhand 247656",
        "detailed_address": {
            "ward": "Malakpura",
            "street": "QVQH+9VV",
            "city": "Manglaur, ttaauun",
            "postal_code": null,
            "state": "Uttarakhand",
            "country_code": "IN"
        },
        "images": [
            {
                "about": "All",
                "link": "https://streetviewpixels-pa.googleapis.com/v1/thumbnail?panoid=dS9WKZOMwLadnQq45PpGvA&cb_client=maps_sv.tactile.gps&w=224&h=298&yaw=295.31033&pitch=0&thumbfov=100"
            },
            {
                "about": "Street View & 360deg",
                "link": "https://streetviewpixels-pa.googleapis.com/v1/thumbnail?panoid=dS9WKZOMwLadnQq45PpGvA&cb_client=maps_sv.tactile.gps&w=224&h=298&yaw=295.31033&pitch=0&thumbfov=100"
            }
        ],
        "link": "https://www.google.com/maps/place/%E0%A4%AE%E0%A4%82%E0%A4%97%E0%A4%B2%E0%A5%8C%E0%A4%B0+%E0%A4%9F%E0%A4%BE%E0%A4%8A%E0%A4%A8+%E0%A4%AE%E0%A5%8B%E0%A4%B9%E0%A4%B2%E0%A5%8D%E0%A4%B2%E0%A4%BE+%E0%A4%AE%E0%A4%B2%E0%A4%BE%E0%A4%A8%E0%A4%AA%E0%A5%81%E0%A4%B0%E0%A4%BE+%E0%A4%9C%E0%A4%BF%E0%A4%B2%E0%A4%BE+%E0%A4%B9%E0%A4%B0%E0%A4%BF%E0%A4%A6%E0%A5%8D%E0%A4%B5%E0%A4%BE%E0%A4%B0+%E0%A4%89%E0%A4%A4%E0%A5%8D%E0%A4%A4%E0%A4%B0%E0%A4%BE%E0%A4%96%E0%A4%82%E0%A4%A1/data=!4m7!3m6!1s0x390eb3fe15dad787:0x419c06124b32120f!8m2!3d29.7884974!4d77.8796844!16s%2Fg%2F11vkd8gqp7!19sChIJh9faFf6zDjkRDxIySxIGnEE?authuser=0&hl=en&rclk=1",
        "coordinates": {
            "latitude": 29.788497399999997,
            "longitude": 77.8796844
        }
    }
]