[
    {
        "name": "Noorani Masjid",
        "main_category": "Mosque",
        "address": "X467+JWM Noorani Masjid, Old Municipality Rd, Ilkal, Karnataka 587125",
        "detailed_address": {
            "ward": null,
            "street": "X467+JWM, Old Municipality Rd",
            "city": "Ilkal",
            "postal_code": "587125",
            "state": "Karnataka",
            "country_code": "IN"
        },
        "images": [
            {
                "about": "All",
                "link": "https://lh5.googleusercontent.com/p/AF1QipM1luj6mn0IYnZS7ZPO1LZc90oKOGHIOy5n6s_P=w239-h298-k-no"
            },
            {
                "about": "Videos",
                "link": "https://lh5.googleusercontent.com/p/AF1QipNSnQVZiMVwzQkB8GdhtvY2Wcpi7ZT-FuCKJ_em=w224-h398-k-no"
            }
        ],
        "link": "https://www.google.com/maps/place/Noorani+Masjid/data=!4m7!3m6!1s0x3bb80ceca93e5ac7:0x90be68147aad3531!8m2!3d15.9615766!4d76.1148021!16s%2Fg%2F11cmsbgrgl!19sChIJx1o-qewMuDsRMTWtehRovpA?authuser=0&hl=en&rclk=1",
        "coordinates": {
            "latitude": 15.961576599999999,
            "longitude": 76.11480209999999
        }
    },
    {
        "name": "Mecca masjid",
        "main_category": "Mosque",
        "address": "Mecca masjid, 4242/B/3, Ilkal, Karnataka 587125",
        "detailed_address": {
            "ward": "Ilkal",
            "street": "4242/B/3",
            "city": "Ilkal",
            "postal_code": "587125",
            "state": "Karnataka",
            "country_code": "IN"
        },
        "images": [
            {
                "about": "All",
                "link": "https://lh5.googleusercontent.com/p/AF1QipPGhJzmikdNYnHKAVZTO5SLRj449Eq7S8sB7b6N=w397-h298-k-no"
            },
            {
                "about": "Street View & 360deg",
                "link": "https://streetviewpixels-pa.googleapis.com/v1/thumbnail?panoid=5LqX5u6daCRzsf_XukTv7Q&cb_client=maps_sv.tactile.gps&w=224&h=298&yaw=43.086937&pitch=0&thumbfov=100"
            }
        ],
        "link": "https://www.google.com/maps/place/Mecca+masjid/data=!4m7!3m6!1s0x3bb80dad300e38e1:0xd03cc6b9663ea3cd!8m2!3d15.9605593!4d76.1214264!16s%2Fg%2F11kpljz52d!19sChIJ4TgOMK0NuDsRzaM-ZrnGPNA?authuser=0&hl=en&rclk=1",
        "coordinates": {
            "latitude": 15.9605593,
            "longitude": 76.12142639999999
        }
    },
    {
        "name": "Madina Masjid",
        "main_category": "Mosque",
        "address": "X457+J55 Madina Masjid, Ward No.3, ragti peth, Ilkal, Karnataka 587125",
        "detailed_address": {
            "ward": "Ward No.3, ragti peth",
            "street": "X457+J55",
            "city": "Ilkal",
            "postal_code": null,
            "state": "Karnataka",
            "country_code": "IN"
        },
        "images": [
            {
                "about": "All",
                "link": "https://streetviewpixels-pa.googleapis.com/v1/thumbnail?panoid=A0EpO5qIvPm6Yab1qpgFjg&cb_client=maps_sv.tactile.gps&w=224&h=298&yaw=312.2902&pitch=0&thumbfov=100"
            },
            {
                "about": "Street View & 360deg",
                "link": "https://streetviewpixels-pa.googleapis.com/v1/thumbnail?panoid=A0EpO5qIvPm6Yab1qpgFjg&cb_client=maps_sv.tactile.gps&w=224&h=298&yaw=312.2902&pitch=0&thumbfov=100"
            }
        ],
        "link": "https://www.google.com/maps/place/Madina+Masjid/data=!4m7!3m6!1s0x3bb80d0bb46d82d9:0xec0e08faa906b247!8m2!3d15.9590214!4d76.1129792!16s%2Fg%2F11f7trnyp7!19sChIJ2YJttAsNuDsRR7IGqfoIDuw?authuser=0&hl=en&rclk=1",
        "coordinates": {
            "latitude": 15.9590214,
            "longitude": 76.1129792
        }
    },
    {
        "name": "Ilkal Mosque",
        "main_category": "Mosque",
        "address": "X476+PVC Ilkal Mosque, Main Road, Ilkal, Karnataka 587125",
        "detailed_address": {
            "ward": null,
            "street": "X476+PVC, Main Road",
            "city": "Ilkal",
            "postal_code": "587125",
            "state": "Karnataka",
            "country_code": "IN"
        },
        "images": [
            {
                "about": "All",
                "link": "https://streetviewpixels-pa.googleapis.com/v1/thumbnail?panoid=AHff2jjUctX1cJiFTCprOw&cb_client=maps_sv.tactile.gps&w=224&h=298&yaw=247.36511&pitch=0&thumbfov=100"
            },
            {
                "about": "Dome",
                "link": "https://lh5.googleusercontent.com/p/AF1QipMiELp2eCpiJqOL2f11rOWwxWr4yO4p7Ytt2HHR=w224-h485-k-no"
            },
            {
                "about": "Street View & 360deg",
                "link": "https://streetviewpixels-pa.googleapis.com/v1/thumbnail?panoid=AHff2jjUctX1cJiFTCprOw&cb_client=maps_sv.tactile.gps&w=224&h=298&yaw=247.36511&pitch=0&thumbfov=100"
            }
        ],
        "link": "https://www.google.com/maps/place/Ilkal+Mosque/data=!4m7!3m6!1s0x3bb80c94fb948fe9:0x48698c04d3509bf3!8m2!3d15.9643179!4d76.1121333!16s%2Fg%2F1hhxlxgtd!19sChIJ6Y-U-5QMuDsR85tQ0wSMaUg?authuser=0&hl=en&rclk=1",
        "coordinates": {
            "latitude": 15.9643179,
            "longitude": 76.1121333
        }
    },
    {
        "name": "Badeghar Masjid",
        "main_category": "Mosque",
        "address": "X458+P8Q Badeghar Masjid, Ilkal, Karnataka 587125",
        "detailed_address": {
            "ward": null,
            "street": "X458+P8Q",
            "city": "Ilkal",
            "postal_code": "587125",
            "state": "Karnataka",
            "country_code": "IN"
        },
        "images": [
            {
                "about": "All",
                "link": "https://lh5.googleusercontent.com/p/AF1QipN-f8S-q7Qyi9McmUxHnyAAhRCwi9kJpUvAVUui=w224-h298-k-no"
            },
            {
                "about": "Dome",
                "link": "https://lh5.googleusercontent.com/p/AF1QipO7zleBSkBVt9nK94i8WS5G9UOl3SqNqYiqEfRh=w224-h298-k-no"
            }
        ],
        "link": "https://www.google.com/maps/place/Badeghar+Masjid/data=!4m7!3m6!1s0x3bb80dbf4734e6d3:0x60dad1fa975b7c48!8m2!3d15.9593395!4d76.1158654!16s%2Fg%2F11ght0c22d!19sChIJ0-Y0R78NuDsRSHxbl_rR2mA?authuser=0&hl=en&rclk=1",
        "coordinates": {
            "latitude": 15.959339499999999,
            "longitude": 76.11586539999999
        }
    },
    {
        "name": "TAQWA MASJID ALAMPURPETH",
        "main_category": "Mosque",
        "address": "X45C+GVX TAQWA MASJID ALAMPURPETH, Ilkal, Karnataka 587125",
        "detailed_address": {
            "ward": null,
            "street": "X45C+GVX",
            "city": "Ilkal",
            "postal_code": "587125",
            "state": "Karnataka",
            "country_code": "IN"
        },
        "images": [
            {
                "about": "All",
                "link": "https://lh5.googleusercontent.com/p/AF1QipOYLk0fCVgBOKPX5mM58EjA3qtnVkicfU4QGrde=w518-h298-k-no"
            },
            {
                "about": "Latest",
                "link": "https://lh5.googleusercontent.com/p/AF1QipPBkulHURPcf5veDLKmn60vgTLNlsAhVby6IHnM=w529-h298-k-no"
            },
            {
                "about": "Street View & 360deg",
                "link": "https://streetviewpixels-pa.googleapis.com/v1/thumbnail?panoid=1uYpcA-l1otIO6uGahAxwg&cb_client=maps_sv.tactile.gps&w=224&h=298&yaw=209.56421&pitch=0&thumbfov=100"
            }
        ],
        "link": "https://www.google.com/maps/place/TAQWA+MASJID+ALAMPURPETH/data=!4m7!3m6!1s0x3bb80d6131a17e6b:0x8aa5116f01447a8!8m2!3d15.9588731!4d76.1222439!16s%2Fg%2F11qnt9nth8!19sChIJa36hMWENuDsRqEcU8BZRqgg?authuser=0&hl=en&rclk=1",
        "coordinates": {
            "latitude": 15.9588731,
            "longitude": 76.1222439
        }
    },
    {
        "name": "Ibrahim Mosque",
        "main_category": "Mosque",
        "address": "X477+P3W Ibrahim Mosque, Ilkal, Karnataka 587125",
        "detailed_address": {
            "ward": null,
            "street": "X477+P3W",
            "city": "Ilkal",
            "postal_code": "587125",
            "state": "Karnataka",
            "country_code": "IN"
        },
        "images": [
            {
                "about": "All",
                "link": "https://lh5.googleusercontent.com/p/AF1QipMsbcrAEe-yciDSqzB5y8G-bToK5MstYKtCrtFz=w403-h298-k-no"
            }
        ],
        "link": "https://www.google.com/maps/place/Ibrahim+Mosque/data=!4m7!3m6!1s0x3bb80c94fa4ee9c9:0x8e94e4062fe65130!8m2!3d15.9643581!4d76.1126876!16s%2Fg%2F11g8yc0n3d!19sChIJyelO-pQMuDsRMFHmLwbklI4?authuser=0&hl=en&rclk=1",
        "coordinates": {
            "latitude": 15.9643581,
            "longitude": 76.1126876
        }
    },
    {
        "name": "Kausar Masjid",
        "main_category": "Mosque",
        "address": "X4F5+F28 Kausar Masjid, Ilkal, Karnataka 587125",
        "detailed_address": {
            "ward": null,
            "street": "X4F5+F28",
            "city": "Ilkal",
            "postal_code": "587125",
            "state": "Karnataka",
            "country_code": "IN"
        },
        "images": [
            {
                "about": "All",
                "link": "https://streetviewpixels-pa.googleapis.com/v1/thumbnail?panoid=4q7ju6IaXFrVA-WEYoKuSw&cb_client=maps_sv.tactile.gps&w=224&h=298&yaw=329.83228&pitch=0&thumbfov=100"
            },
            {
                "about": "Street View & 360deg",
                "link": "https://streetviewpixels-pa.googleapis.com/v1/thumbnail?panoid=4q7ju6IaXFrVA-WEYoKuSw&cb_client=maps_sv.tactile.gps&w=224&h=298&yaw=329.83228&pitch=0&thumbfov=100"
            }
        ],
        "link": "https://www.google.com/maps/place/Kausar+Masjid/data=!4m7!3m6!1s0x3bb80deabaf3c135:0x8b1058a8ec301da3!8m2!3d15.9736741!4d76.107593!16s%2Fg%2F11j0sd89jw!19sChIJNcHzuuoNuDsRox0w7KhYEIs?authuser=0&hl=en&rclk=1",
        "coordinates": {
            "latitude": 15.973674099999998,
            "longitude": 76.107593
        }
    },
    {
        "name": "MAHBOOBIYA MASJID markaz",
        "main_category": "Mosque",
        "address": "MAHBOOBIYA MASJID markaz, KEB Road, Ilkal, Karnataka 587125",
        "detailed_address": {
            "ward": null,
            "street": "KEB Road",
            "city": "Ilkal",
            "postal_code": "587125",
            "state": "Karnataka",
            "country_code": "IN"
        },
        "images": [
            {
                "about": "All",
                "link": "https://streetviewpixels-pa.googleapis.com/v1/thumbnail?panoid=yygIAimo3fZ7bpYUCZLABQ&cb_client=maps_sv.tactile.gps&w=224&h=298&yaw=163.65169&pitch=0&thumbfov=100"
            },
            {
                "about": "Street View & 360deg",
                "link": "https://streetviewpixels-pa.googleapis.com/v1/thumbnail?panoid=yygIAimo3fZ7bpYUCZLABQ&cb_client=maps_sv.tactile.gps&w=224&h=298&yaw=163.65169&pitch=0&thumbfov=100"
            }
        ],
        "link": "https://www.google.com/maps/place/MAHBOOBIYA+MASJID+markaz/data=!4m7!3m6!1s0x3bb80dc5d865ccc9:0x44559c270c2f77a4!8m2!3d15.9570411!4d76.111451!16s%2Fg%2F11qntl9zdr!19sChIJycxl2MUNuDsRpHcvDCecVUQ?authuser=0&hl=en&rclk=1",
        "coordinates": {
            "latitude": 15.9570411,
            "longitude": 76.111451
        }
    },
    {
        "name": "Munavvara masjid Navanagar ilkal",
        "main_category": "Mosque",
        "address": "W4X4+8XJ Munavvara masjid Navanagar ilkal, Ilkal, Karnataka 587125",
        "detailed_address": {
            "ward": null,
            "street": "W4X4+8XJ",
            "city": "Ilkal",
            "postal_code": "587125",
            "state": "Karnataka",
            "country_code": "IN"
        },
        "images": [
            {
                "about": "All",
                "link": "https://streetviewpixels-pa.googleapis.com/v1/thumbnail?panoid=_5Q-LxAwG4oBlHlSTz9X2g&cb_client=maps_sv.tactile.gps&w=224&h=298&yaw=65.8794&pitch=0&thumbfov=100"
            },
            {
                "about": "Street View & 360deg",
                "link": "https://streetviewpixels-pa.googleapis.com/v1/thumbnail?panoid=_5Q-LxAwG4oBlHlSTz9X2g&cb_client=maps_sv.tactile.gps&w=224&h=298&yaw=65.8794&pitch=0&thumbfov=100"
            }
        ],
        "link": "https://www.google.com/maps/place/Munavvara+masjid+Navanagar+ilkal/data=!4m7!3m6!1s0x3bb80dcac6ec0017:0x20821a064b89fa02!8m2!3d15.948336!4d76.107377!16s%2Fg%2F11j8kgwcqy!19sChIJFwDsxsoNuDsRAvqJSwYagiA?authuser=0&hl=en&rclk=1",
        "coordinates": {
            "latitude": 15.948336,
            "longitude": 76.107377
        }
    },
    {
        "name": "Kasab Masjid",
        "main_category": "Mosque",
        "address": "X458+VJ6 Kasab Masjid, Old Municipality Rd, Ilkal, Karnataka 587125",
        "detailed_address": {
            "ward": null,
            "street": "X458+VJ6, Old Municipality Rd",
            "city": "Ilkal",
            "postal_code": "587125",
            "state": "Karnataka",
            "country_code": "IN"
        },
        "images": [],
        "link": "https://www.google.com/maps/place/Kasab+Masjid/data=!4m7!3m6!1s0x3bb80cecf6caffff:0x4313996990cf29ff!8m2!3d15.9596662!4d76.1165134!16s%2Fg%2F11tgg7nvgg!19sChIJ___K9uwMuDsR_ynPkGmZE0M?authuser=0&hl=en&rclk=1",
        "coordinates": {
            "latitude": 15.9596662,
            "longitude": 76.1165134
        }
    },
    {
        "name": "Jamiya masjid",
        "main_category": "Mosque",
        "address": "X468+987 Jamiya masjid, Ilkal, Karnataka 587125",
        "detailed_address": {
            "ward": null,
            "street": "X468+987",
            "city": "Ilkal",
            "postal_code": "587125",
            "state": "Karnataka",
            "country_code": "IN"
        },
        "images": [],
        "link": "https://www.google.com/maps/place/Jamiya+masjid/data=!4m7!3m6!1s0x3bb80d96c03a4d0d:0xff717507e32f4a37!8m2!3d15.9609123!4d76.1158012!16s%2Fg%2F11fmz0brs7!19sChIJDU06wJYNuDsRN0ov4wd1cf8?authuser=0&hl=en&rclk=1",
        "coordinates": {
            "latitude": 15.960912299999999,
            "longitude": 76.11580119999999
        }
    },
    {
        "name": "Masjid-e-Suffa",
        "main_category": "Mosque",
        "address": "X447+GRH Masjid-e-Suffa, kopparad pet, Ward No 06, Ilkal, Karnataka 587125",
        "detailed_address": {
            "ward": "kopparad pet, Ward No 06",
            "street": "X447+GRH",
            "city": "Ilkal",
            "postal_code": null,
            "state": "Karnataka",
            "country_code": "IN"
        },
        "images": [],
        "link": "https://www.google.com/maps/place/Masjid-e-Suffa/data=!4m7!3m6!1s0x3bb80ddedad84007:0xa65e6d1045de7040!8m2!3d15.9563219!4d76.1145993!16s%2Fg%2F11ght10fnj!19sChIJB0DY2t4NuDsRQHDeRRBtXqY?authuser=0&hl=en&rclk=1",
        "coordinates": {
            "latitude": 15.956321899999999,
            "longitude": 76.1145993
        }
    },
    {
        "name": "Aqsa Masjid",
        "main_category": "Mosque",
        "address": "X4G5+JMX Aqsa Masjid, Ilkal, Karnataka 587125",
        "detailed_address": {
            "ward": null,
            "street": "X4G5+JMX",
            "city": "Ilkal",
            "postal_code": "587125",
            "state": "Karnataka",
            "country_code": "IN"
        },
        "images": [
            {
                "about": "All",
                "link": "https://streetviewpixels-pa.googleapis.com/v1/thumbnail?panoid=qS6Cfc1OATbuB1tT1pJ-cA&cb_client=maps_sv.tactile.gps&w=224&h=298&yaw=231.33893&pitch=0&thumbfov=100"
            },
            {
                "about": "Street View & 360deg",
                "link": "https://streetviewpixels-pa.googleapis.com/v1/thumbnail?panoid=qS6Cfc1OATbuB1tT1pJ-cA&cb_client=maps_sv.tactile.gps&w=224&h=298&yaw=231.33893&pitch=0&thumbfov=100"
            }
        ],
        "link": "https://www.google.com/maps/place/Aqsa+Masjid/data=!4m7!3m6!1s0x3bb80d1209d712ef:0xdca009f7cd2da2b7!8m2!3d15.976614!4d76.1092425!16s%2Fg%2F11ftksr53j!19sChIJ7xLXCRINuDsRt6ItzfcJoNw?authuser=0&hl=en&rclk=1",
        "coordinates": {
            "latitude": 15.976614,
            "longitude": 76.1092425
        }
    },
    {
        "name": "JAMIYA MASJID",
        "main_category": "Mosque",
        "address": "W4V6+W4X JAMIYA MASJID, Ilkal, Karnataka 587125",
        "detailed_address": {
            "ward": null,
            "street": "W4V6+W4X",
            "city": "Ilkal",
            "postal_code": "587125",
            "state": "Karnataka",
            "country_code": "IN"
        },
        "images": [
            {
                "about": "All",
                "link": "https://streetviewpixels-pa.googleapis.com/v1/thumbnail?panoid=wiuCZFUj5olFhdoLX0bNkw&cb_client=maps_sv.tactile.gps&w=224&h=298&yaw=275.57855&pitch=0&thumbfov=100"
            },
            {
                "about": "Dome",
                "link": "https://lh5.googleusercontent.com/p/AF1QipPuZGn7EpNJ5MZEsTS4h-G0rzqZV8bh2VuZrGPy=w224-h336-k-no"
            },
            {
                "about": "Street View & 360deg",
                "link": "https://streetviewpixels-pa.googleapis.com/v1/thumbnail?panoid=wiuCZFUj5olFhdoLX0bNkw&cb_client=maps_sv.tactile.gps&w=224&h=298&yaw=275.57855&pitch=0&thumbfov=100"
            }
        ],
        "link": "https://www.google.com/maps/place/JAMIYA+MASJID/data=!4m7!3m6!1s0x3bb80ce735de770d:0xc96fc1b0bfe164a1!8m2!3d15.944875!4d76.1103477!16s%2Fg%2F11hb47l_1z!19sChIJDXfeNecMuDsRoWThv7DBb8k?authuser=0&hl=en&rclk=1",
        "coordinates": {
            "latitude": 15.944875,
            "longitude": 76.11034769999999
        }
    },
    {
        "name": "Fateh Shah Masjid",
        "main_category": "Mosque",
        "address": "Fateh Shah Masjid, 250/A, Old Municipality Rd, Ilkal, Karnataka 587125",
        "detailed_address": {
            "ward": null,
            "street": "250/A, Old Municipality Rd",
            "city": "Ilkal",
            "postal_code": "587125",
            "state": "Karnataka",
            "country_code": "IN"
        },
        "images": [],
        "link": "https://www.google.com/maps/place/Fateh+Shah+Masjid/data=!4m7!3m6!1s0x3bb80cec87a3aaab:0x4262a813e96e608d!8m2!3d15.9593321!4d76.1151769!16s%2Fg%2F11sscs5jx8!19sChIJq6qjh-wMuDsRjWBu6ROoYkI?authuser=0&hl=en&rclk=1",
        "coordinates": {
            "latitude": 15.9593321,
            "longitude": 76.1151769
        }
    },
    {
        "name": "Mohammediya Majid ilkal",
        "main_category": "Mosque",
        "address": "Mohammediya Majid ilkal, 4316/E1, Ilkal, Karnataka 587125",
        "detailed_address": {
            "ward": null,
            "street": "4316/E1",
            "city": "Ilkal",
            "postal_code": "587125",
            "state": "Karnataka",
            "country_code": "IN"
        },
        "images": [],
        "link": "https://www.google.com/maps/place/Mohammediya+Majid+ilkal/data=!4m7!3m6!1s0x3bb80df16b03ef7f:0xb951e21eae9b380d!8m2!3d15.961334!4d76.120122!16s%2Fg%2F11jz3_nwn9!19sChIJf-8Da_ENuDsRDTibrh7iUbk?authuser=0&hl=en&rclk=1",
        "coordinates": {
            "latitude": 15.961333999999999,
            "longitude": 76.120122
        }
    }
]