[
    {
        "name": "Masjid-e-Qadeem",
        "main_category": "Mosque",
        "address": "8FXM+3MX Masjid-e-Qadeem, Nizamuddin Colony, Kagaznagar, Telangana 504296",
        "detailed_address": {
            "ward": "Nizamuddin Colony",
            "street": "8FXM+3MX",
            "city": "Kagaznagar",
            "postal_code": "504296",
            "state": "Telangana",
            "country_code": "IN"
        },
        "images": [
            {
                "about": "All",
                "link": "https://lh5.googleusercontent.com/p/AF1QipOBwg-3PqxwiQDwWdWslsNmPI34GqkFcfNqLY8p=w224-h298-k-no"
            },
            {
                "about": "Street View & 360deg",
                "link": "https://streetviewpixels-pa.googleapis.com/v1/thumbnail?panoid=lF1Elx2f8aK0fGjVNGT8Rw&cb_client=maps_sv.tactile.gps&w=224&h=298&yaw=239.39697&pitch=0&thumbfov=100"
            },
            {
                "about": "Videos",
                "link": "https://lh5.googleusercontent.com/p/AF1QipOl4xNgs0wjVAfZGwMaAO2ZtwMV9aLFBWvUgr37=w224-h407-k-no"
            }
        ],
        "link": "https://www.google.com/maps/place/Masjid-e-Qadeem/data=!4m7!3m6!1s0x3a2d56b063da2fbd:0xe321e240d18cecbb!8m2!3d19.3477485!4d79.4842215!16s%2Fg%2F11bw65hd1l!19sChIJvS_aY7BWLToRu-yM0UDiIeM?authuser=0&hl=en&rclk=1",
        "coordinates": {
            "latitude": 19.347748499999998,
            "longitude": 79.48422149999999
        }
    },
    {
        "name": "Masjid e Khadim",
        "main_category": "Mosque",
        "address": "FHHF+MW9 Masjid e Khadim, Pet Mohalla, Sirpur, Telangana 504299",
        "detailed_address": {
            "ward": null,
            "street": "FHHF+MW9 Pet Mohalla",
            "city": "Sirpur",
            "postal_code": "504299",
            "state": "Telangana",
            "country_code": "IN"
        },
        "images": [
            {
                "about": "All",
                "link": "https://lh5.googleusercontent.com/p/AF1QipOfuQ4n_zPZN9wqnZCIllvRUjsQSVmAS2UxrQxF=w397-h298-k-no"
            },
            {
                "about": "Dome",
                "link": "https://lh5.googleusercontent.com/p/AF1QipMIvY8q6kvq7-HsNoo1uNx7KZmawDbk8eCFkMQv=w529-h298-k-no"
            },
            {
                "about": "Street View & 360deg",
                "link": "https://streetviewpixels-pa.googleapis.com/v1/thumbnail?panoid=XpsKUvhq5rkraDVD1IjHjQ&cb_client=maps_sv.tactile.gps&w=224&h=298&yaw=22.05062&pitch=0&thumbfov=100"
            }
        ],
        "link": "https://www.google.com/maps/place/Masjid+e+Khadim/data=!4m7!3m6!1s0x3a2d45425afd0481:0xbb8003f82b6742d8!8m2!3d19.4791742!4d79.5748539!16s%2Fg%2F11c3w0kdh5!19sChIJgQT9WkJFLToR2EJnK_gDgLs?authuser=0&hl=en&rclk=1",
        "coordinates": {
            "latitude": 19.4791742,
            "longitude": 79.5748539
        }
    },
    {
        "name": "Masjid E Mujtab Sunnatul Jamat",
        "main_category": "Mosque",
        "address": "9F5V+PFV Masjid E Mujtab Sunnatul Jamat, Kagaznagar, Telangana 504296",
        "detailed_address": {
            "ward": null,
            "street": "9F5V+PFV",
            "city": "Kagaznagar",
            "postal_code": "504296",
            "state": "Telangana",
            "country_code": "IN"
        },
        "images": [
            {
                "about": "All",
                "link": "https://lh5.googleusercontent.com/p/AF1QipN5ts7NJwBBhIsMqdJ1HgLQn8yk5F7Aw_ffoS_7=w224-h298-k-no"
            },
            {
                "about": "Street View & 360deg",
                "link": "https://streetviewpixels-pa.googleapis.com/v1/thumbnail?panoid=54Wj68RDD7qGfDChD8PIUg&cb_client=maps_sv.tactile.gps&w=224&h=298&yaw=340.28604&pitch=0&thumbfov=100"
            },
            {
                "about": "Videos",
                "link": "https://lh5.googleusercontent.com/p/AF1QipNA05TpOm1TdKIT5DxU5tGdtLh13xBSfRLnYQLy=w224-h398-k-no"
            }
        ],
        "link": "https://www.google.com/maps/place/Masjid+E+Mujtab+Sunnatul+Jamat/data=!4m7!3m6!1s0x3a2d51354e04ccd1:0xc6571f4357c154c3!8m2!3d19.3593655!4d79.4936785!16s%2Fg%2F11f00j6kvz!19sChIJ0cwETjVRLToRw1TBV0MfV8Y?authuser=0&hl=en&rclk=1",
        "coordinates": {
            "latitude": 19.3593655,
            "longitude": 79.4936785
        }
    },
    {
        "name": "Masjid-e-Aamina",
        "main_category": "Mosque",
        "address": "8FRV+PV6 Masjid-e-Aamina, Bhatpalli Rd, Kagaznagar, Telangana 504296",
        "detailed_address": {
            "ward": null,
            "street": "8FRV+PV6, Bhatpalli Rd",
            "city": "Kagaznagar",
            "postal_code": "504296",
            "state": "Telangana",
            "country_code": "IN"
        },
        "images": [
            {
                "about": "All",
                "link": "https://lh5.googleusercontent.com/p/AF1QipODH33fG4U46skx3CkRO7LLgYBhOYV2htvxcchg=w397-h298-k-no"
            }
        ],
        "link": "https://www.google.com/maps/place/Masjid-e-Aamina/data=!4m7!3m6!1s0x3a2d56c7315505f3:0x478330fdb4e0ec72!8m2!3d19.3417809!4d79.494654!16s%2Fg%2F11f51zzsj0!19sChIJ8wVVMcdWLToRcuzgtP0wg0c?authuser=0&hl=en&rclk=1",
        "coordinates": {
            "latitude": 19.3417809,
            "longitude": 79.494654
        }
    },
    {
        "name": "Masjid e Taiba",
        "main_category": "Mosque",
        "address": "Masjid e Taiba, Industrial Area, near HP Petrol Pump, Kagaznagar, Telangana 504296",
        "detailed_address": {
            "ward": null,
            "street": "Industrial Area, near HP Petrol Pump",
            "city": "Kagaznagar",
            "postal_code": "504296",
            "state": "Telangana",
            "country_code": "IN"
        },
        "images": [
            {
                "about": "All",
                "link": "https://lh5.googleusercontent.com/p/AF1QipP-_tJylHJYPGDTf4C3J3UV1i3q0fS_-MyfQMk=w529-h298-k-no"
            }
        ],
        "link": "https://www.google.com/maps/place/Masjid+e+Taiba/data=!4m7!3m6!1s0x3a2d56a9f9e46a0d:0x9a80284099893d90!8m2!3d19.3515515!4d79.4710951!16s%2Fg%2F11bw77v1l8!19sChIJDWrk-alWLToRkD2JmUAogJo?authuser=0&hl=en&rclk=1",
        "coordinates": {
            "latitude": 19.3515515,
            "longitude": 79.4710951
        }
    },
    {
        "name": "MASJID E QUBA",
        "main_category": "Mosque",
        "address": "MASJID E QUBA, Kagaznagar, Telangana 504296",
        "detailed_address": {
            "ward": null,
            "street": null,
            "city": "Kagaznagar",
            "postal_code": "504296",
            "state": "Telangana",
            "country_code": "IN"
        },
        "images": [
            {
                "about": "All",
                "link": "https://streetviewpixels-pa.googleapis.com/v1/thumbnail?panoid=eNF7Uq4k67ASG-hFDGOyGg&cb_client=maps_sv.tactile.gps&w=224&h=298&yaw=283.48083&pitch=0&thumbfov=100"
            },
            {
                "about": "Street View & 360deg",
                "link": "https://streetviewpixels-pa.googleapis.com/v1/thumbnail?panoid=eNF7Uq4k67ASG-hFDGOyGg&cb_client=maps_sv.tactile.gps&w=224&h=298&yaw=283.48083&pitch=0&thumbfov=100"
            }
        ],
        "link": "https://www.google.com/maps/place/MASJID+E+QUBA/data=!4m7!3m6!1s0x3a2d51c96628b40b:0x7b1d067f67bba92d!8m2!3d19.3596201!4d79.4954535!16s%2Fg%2F11g0h7vzht!19sChIJC7QoZslRLToRLam7Z38GHXs?authuser=0&hl=en&rclk=1",
        "coordinates": {
            "latitude": 19.3596201,
            "longitude": 79.4954535
        }
    },
    {
        "name": "Masjid-e-Aqsa",
        "main_category": "Mosque",
        "address": "Masjid-e-Aqsa, C, Babu Colony, Kagaznagar, Telangana 504296",
        "detailed_address": {
            "ward": "Babu Colony",
            "street": "C",
            "city": "Kagaznagar",
            "postal_code": "504296",
            "state": "Telangana",
            "country_code": "IN"
        },
        "images": [
            {
                "about": "All",
                "link": "https://lh5.googleusercontent.com/p/AF1QipMtcF_J5c1x5eL0ttuyJF1YT9tFftz950TP3zkN=w397-h298-k-no"
            },
            {
                "about": "By owner",
                "link": "https://lh5.googleusercontent.com/p/AF1QipNDf5dedt1aFE_aS7geX0h4-h_cZSacmzUekqoT=w224-h499-k-no"
            },
            {
                "about": "Street View & 360deg",
                "link": "https://streetviewpixels-pa.googleapis.com/v1/thumbnail?panoid=9bFm8Bo8CevBLb89pc0Rag&cb_client=maps_sv.tactile.gps&w=224&h=298&yaw=249.0782&pitch=0&thumbfov=100"
            }
        ],
        "link": "https://www.google.com/maps/place/Masjid-e-Aqsa/data=!4m7!3m6!1s0x3a2d573ca2ab7e55:0xd6c91fd9a55532d!8m2!3d19.338031!4d79.4886317!16s%2Fg%2F11kxknz7mp!19sChIJVX6rojxXLToRLVNVmv2RbA0?authuser=0&hl=en&rclk=1",
        "coordinates": {
            "latitude": 19.338031,
            "longitude": 79.4886317
        }
    },
    {
        "name": "Masjid E Shaheda",
        "main_category": "Mosque",
        "address": "9F48+RXF Masjid E Shaheda, NGO's colony, Kagaznagar, Telangana 504296",
        "detailed_address": {
            "ward": "NGO's colony",
            "street": "9F48+RXF",
            "city": "Kagaznagar",
            "postal_code": "504296",
            "state": "Telangana",
            "country_code": "IN"
        },
        "images": [],
        "link": "https://www.google.com/maps/place/Masjid+E+Shaheda/data=!4m7!3m6!1s0x3a2d5502cd32a55f:0xcdd3f4a3b642f2c!8m2!3d19.3570619!4d79.4674218!16s%2Fg%2F11jf9rxybs!19sChIJX6UyzQJVLToRLC9kO0o_3Qw?authuser=0&hl=en&rclk=1",
        "coordinates": {
            "latitude": 19.357061899999998,
            "longitude": 79.4674218
        }
    },
    {
        "name": "Mosque",
        "main_category": "Mosque",
        "address": "9GV2+4MF Mosque, Vempally, Sirpur, Regulguda, Telangana 504296",
        "detailed_address": {
            "ward": "Vempally",
            "street": "9GV2+4MF",
            "city": "Sirpur, Regulguda",
            "postal_code": "504296",
            "state": "Telangana",
            "country_code": "IN"
        },
        "images": [
            {
                "about": "All",
                "link": "https://streetviewpixels-pa.googleapis.com/v1/thumbnail?panoid=C01vAFGk5W1IgQ9PC6PDlg&cb_client=maps_sv.tactile.gps&w=224&h=298&yaw=138.7122&pitch=0&thumbfov=100"
            },
            {
                "about": "Street View & 360deg",
                "link": "https://streetviewpixels-pa.googleapis.com/v1/thumbnail?panoid=C01vAFGk5W1IgQ9PC6PDlg&cb_client=maps_sv.tactile.gps&w=224&h=298&yaw=138.7122&pitch=0&thumbfov=100"
            }
        ],
        "link": "https://www.google.com/maps/place/Mosque/data=!4m7!3m6!1s0x3a2d51d8ff13e49d:0x26e2fa88db4ae3c5!8m2!3d19.3924202!4d79.5013119!16s%2Fg%2F11sbfj5vqh!19sChIJneQT_9hRLToRxeNK24j64iY?authuser=0&hl=en&rclk=1",
        "coordinates": {
            "latitude": 19.3924202,
            "longitude": 79.50131189999999
        }
    },
    {
        "name": "Masjid e Mohiuddin",
        "main_category": "Mosque",
        "address": "8FVJ+HGX Masjid e Mohiuddin, Street Number 21, Ward Number 3, Kagaznagar, Telangana 504296",
        "detailed_address": {
            "ward": "Ward Number 3",
            "street": "8FVJ+HGX, Street Number 21",
            "city": "Kagaznagar",
            "postal_code": "504296",
            "state": "Telangana",
            "country_code": "IN"
        },
        "images": [
            {
                "about": "All",
                "link": "https://streetviewpixels-pa.googleapis.com/v1/thumbnail?panoid=qVlQPJC6QRbCpRXYmIiyCA&cb_client=maps_sv.tactile.gps&w=224&h=298&yaw=245.40591&pitch=0&thumbfov=100"
            },
            {
                "about": "Street View & 360deg",
                "link": "https://streetviewpixels-pa.googleapis.com/v1/thumbnail?panoid=qVlQPJC6QRbCpRXYmIiyCA&cb_client=maps_sv.tactile.gps&w=224&h=298&yaw=245.40591&pitch=0&thumbfov=100"
            }
        ],
        "link": "https://www.google.com/maps/place/Masjid+e+Mohiuddin/data=!4m7!3m6!1s0x3a2d5746c9550301:0x155a0e1a557e421b!8m2!3d19.3439843!4d79.4813698!16s%2Fg%2F11fq6r4rbw!19sChIJAQNVyUZXLToRG0J-VRoOWhU?authuser=0&hl=en&rclk=1",
        "coordinates": {
            "latitude": 19.3439843,
            "longitude": 79.4813698
        }
    },
    {
        "name": "Masjid-E-Kausar",
        "main_category": "Mosque",
        "address": "MG8Q+6M8 Masjid-E-Kausar, Shanti Nagar, Adilabad, Telangana 504001",
        "detailed_address": {
            "ward": "Shanti Nagar",
            "street": "MG8Q+6M8",
            "city": "Adilabad",
            "postal_code": "504001",
            "state": "Telangana",
            "country_code": "IN"
        },
        "images": [
            {
                "about": "All",
                "link": "https://lh5.googleusercontent.com/p/AF1QipMu_hBLXfEJaMshLwRNSLhcAhS0GAp09HMIfTSl=w224-h497-k-no"
            },
            {
                "about": "Street View & 360deg",
                "link": "https://streetviewpixels-pa.googleapis.com/v1/thumbnail?panoid=msITvqvn7i8QMX0pUqt3mg&cb_client=maps_sv.tactile.gps&w=224&h=298&yaw=303.53305&pitch=0&thumbfov=100"
            }
        ],
        "link": "https://www.google.com/maps/place/Masjid-E-Kausar/data=!4m7!3m6!1s0x3bd25c726cbfffff:0xdcc8a30755b4260c!8m2!3d19.6655322!4d78.5391992!16s%2Fg%2F11txmzh9h_!19sChIJ__-_bHJc0jsRDCa0VQejyNw?authuser=0&hl=en&rclk=1",
        "coordinates": {
            "latitude": 19.665532199999998,
            "longitude": 78.5391992
        }
    },
    {
        "name": "Masjid kouthala",
        "main_category": "Mosque",
        "address": "GPFH+5G6 Masjid kouthala, Kouthala, Telangana 504299",
        "detailed_address": {
            "ward": null,
            "street": "GPFH+5G6",
            "city": "Kouthala",
            "postal_code": "504299",
            "state": "Telangana",
            "country_code": "IN"
        },
        "images": [],
        "link": "https://www.google.com/maps/place/Masjid+kouthala/data=!4m7!3m6!1s0x3a2d43bd15f0a003:0x28a563f5c69a966d!8m2!3d19.5229013!4d79.728775!16s%2Fg%2F11nfq7ktml!19sChIJA6DwFb1DLToRbZaaxvVjpSg?authuser=0&hl=en&rclk=1",
        "coordinates": {
            "latitude": 19.522901299999997,
            "longitude": 79.728775
        }
    }
]