[
    {
        "name": "Sunehri masjid",
        "main_category": "Mosque",
        "address": "M7CQ+XF8 Sunehri masjid, Bholanath Nagar Marg, Near Shahdara Metro Station, New, New Delhi, Delhi 110032",
        "detailed_address": {
            "ward": "Telibara, Shahdara",
            "street": "M7CQ+XF8, Bholanath Nagar Marg, Near Shahdara Metro Station, New",
            "city": "New Delhi, Delhi",
            "postal_code": "110032",
            "state": "Delhi",
            "country_code": "IN"
        },
        "images": [],
        "link": "https://www.google.com/maps/place/Sunehri+masjid/data=!4m7!3m6!1s0x390cfb7e5abcb173:0x35cb49b5aa02127a!8m2!3d28.6724078!4d77.2887129!16s%2Fg%2F11c3k31f60!19sChIJc7G8Wn77DDkRehICqrVJyzU?authuser=0&hl=en&rclk=1",
        "coordinates": {
            "latitude": 28.6724078,
            "longitude": 77.2887129
        }
    },
    {
        "name": "Masjid Eslampura, Sunel",
        "main_category": "Mosque",
        "address": "9XF4+MX9 Masjid Eslampura, Sunel, Sunel, Rajasthan 326513",
        "detailed_address": {
            "ward": null,
            "street": "9XF4+MX9",
            "city": "Sunel",
            "postal_code": "326513",
            "state": "Rajasthan",
            "country_code": "IN"
        },
        "images": [
            {
                "about": "All",
                "link": "https://lh5.googleusercontent.com/p/AF1QipO756aJaE9mFTbUpZJZKWGkCRurWeHa6IfQ9Euw=w224-h298-k-no"
            },
            {
                "about": "Street View & 360deg",
                "link": "https://streetviewpixels-pa.googleapis.com/v1/thumbnail?panoid=XR07YD30jiJy54_kSGroaQ&cb_client=maps_sv.tactile.gps&w=224&h=298&yaw=134.43916&pitch=0&thumbfov=100"
            },
            {
                "about": "Videos",
                "link": "https://lh5.googleusercontent.com/p/AF1QipMHVLLJ9YezKIBRMiUkFNF3gJIJZFKjFOHWQK0e=w298-h298-k-no"
            }
        ],
        "link": "https://www.google.com/maps/place/Masjid+Eslampura,+Sunel/data=!4m7!3m6!1s0x39651ba551bd3157:0xe774578c9846a1c8!8m2!3d24.3741523!4d75.9574737!16s%2Fg%2F11g7y91bfw!19sChIJVzG9UaUbZTkRyKFGmIxXdOc?authuser=0&hl=en&rclk=1",
        "coordinates": {
            "latitude": 24.3741523,
            "longitude": 75.9574737
        }
    },
    {
        "name": "Sunhari Masjid",
        "main_category": "Mosque",
        "address": "2C25+PP4 Sunhari Masjid, Beelni U P, Amroha Rd, Amroha, Noorpur, Uttar Pradesh",
        "detailed_address": {
            "ward": null,
            "street": "2C25+PP4, Beelni U P, Amroha Rd, Amroha",
            "city": "Noorpur, Naugawan Sadat",
            "postal_code": null,
            "state": "Uttar Pradesh",
            "country_code": "IN"
        },
        "images": [
            {
                "about": "All",
                "link": "https://streetviewpixels-pa.googleapis.com/v1/thumbnail?panoid=Xi7yJq5dpvc2EcNT2dHArA&cb_client=maps_sv.tactile.gps&w=224&h=298&yaw=35.015015&pitch=0&thumbfov=100"
            },
            {
                "about": "Street View & 360deg",
                "link": "https://streetviewpixels-pa.googleapis.com/v1/thumbnail?panoid=Xi7yJq5dpvc2EcNT2dHArA&cb_client=maps_sv.tactile.gps&w=224&h=298&yaw=35.015015&pitch=0&thumbfov=100"
            }
        ],
        "link": "https://www.google.com/maps/place/Sunhari+Masjid/data=!4m7!3m6!1s0x390ba69f2cc37a7b:0x2e2eaf703dd081c2!8m2!3d29.001765!4d78.4093371!16s%2Fg%2F11fz9z4mpf!19sChIJe3rDLJ-mCzkRwoHQPXCvLi4?authuser=0&hl=en&rclk=1",
        "coordinates": {
            "latitude": 29.001765,
            "longitude": 78.4093371
        }
    },
    {
        "name": "Masjid mominpura sunel",
        "main_category": "Mosque",
        "address": "Masjid mominpura sunel, Chatri Chowk, Sunel, Rajasthan 326513",
        "detailed_address": {
            "ward": null,
            "street": "Chatri Chowk",
            "city": "Sunel",
            "postal_code": "326513",
            "state": "Rajasthan",
            "country_code": "IN"
        },
        "images": [],
        "link": "https://www.google.com/maps/place/Masjid+mominpura+sunel/data=!4m7!3m6!1s0x39651b89f2726971:0xd9c9212c2f030bc!8m2!3d24.3707208!4d75.956767!16s%2Fg%2F11h3qk687_!19sChIJcWly8okbZTkRvDDwwhKSnA0?authuser=0&hl=en&rclk=1",
        "coordinates": {
            "latitude": 24.370720799999997,
            "longitude": 75.956767
        }
    },
    {
        "name": "ahale Sunnat val jamaat jama masjid",
        "main_category": "Mosque",
        "address": "PFGH+7Q9 ahale Sunnat val jamaat jama masjid, Nehrola, Uttar Pradesh 244304",
        "detailed_address": {
            "ward": null,
            "street": "PFGH+7Q9",
            "city": "Nehrola",
            "postal_code": "244304",
            "state": "Uttar Pradesh",
            "country_code": "IN"
        },
        "images": [
            {
                "about": "All",
                "link": "https://lh5.googleusercontent.com/p/AF1QipPPqW8GaleFLB00GN-ew2jMe1Pv0X1q7Ldi_KHq=w224-h497-k-no"
            }
        ],
        "link": "https://www.google.com/maps/place/ahale+Sunnat+val+jamaat+jama+masjid/data=!4m7!3m6!1s0x390b1bb73b004583:0xebde0aaf04b7ca53!8m2!3d28.7256688!4d78.4794932!16s%2Fg%2F11tjzzd__n!19sChIJg0UAO7cbCzkRU8q3BK8K3us?authuser=0&hl=en&rclk=1",
        "coordinates": {
            "latitude": 28.725668799999998,
            "longitude": 78.4794932
        }
    },
    {
        "name": "Sunni masjid",
        "main_category": "Mosque",
        "address": "R6FW+H58 Sunni masjid, Gajraula, Uttar Pradesh 244235",
        "detailed_address": {
            "ward": null,
            "street": "R6FW+H58",
            "city": "Gajraula",
            "postal_code": "244235",
            "state": "Uttar Pradesh",
            "country_code": "IN"
        },
        "images": [
            {
                "about": "All",
                "link": "https://streetviewpixels-pa.googleapis.com/v1/thumbnail?panoid=Hmk6IQb6Gizan-N889onzQ&cb_client=maps_sv.tactile.gps&w=224&h=298&yaw=358.83603&pitch=0&thumbfov=100"
            },
            {
                "about": "Street View & 360deg",
                "link": "https://streetviewpixels-pa.googleapis.com/v1/thumbnail?panoid=Hmk6IQb6Gizan-N889onzQ&cb_client=maps_sv.tactile.gps&w=224&h=298&yaw=358.83603&pitch=0&thumbfov=100"
            }
        ],
        "link": "https://www.google.com/maps/place/Sunni+masjid/data=!4m7!3m6!1s0x390b7567cf46942d:0x23c2d15f18d734db!8m2!3d28.8239159!4d78.2454676!16s%2Fg%2F11jmqdm79z!19sChIJLZRGz2d1CzkR2zTXGF_RwiM?authuser=0&hl=en&rclk=1",
        "coordinates": {
            "latitude": 28.8239159,
            "longitude": 78.2454676
        }
    },
    {
        "name": "Jaama Masjid SUNEL",
        "main_category": "Mosque",
        "address": "9XC5+RRV Jaama Masjid SUNEL, Sunel, Rajasthan 326513",
        "detailed_address": {
            "ward": null,
            "street": "9XC5+RRV",
            "city": "Sunel",
            "postal_code": "326513",
            "state": "Rajasthan",
            "country_code": "IN"
        },
        "images": [],
        "link": "https://www.google.com/maps/place/Jaama+Masjid+SUNEL/data=!4m7!3m6!1s0x39651bbae037b465:0xb29da491a427daa!8m2!3d24.3721136!4d75.9595337!16s%2Fg%2F11gb3vz9xs!19sChIJZbQ34LobZTkRqn1CGknaKQs?authuser=0&hl=en&rclk=1",
        "coordinates": {
            "latitude": 24.3721136,
            "longitude": 75.9595337
        }
    },
    {
        "name": "Sunil masjid jead",
        "main_category": "Mosque",
        "address": "6GV9+MR6 Sunil masjid jead, NH 730C, Jerh, Uttar Pradesh 243123",
        "detailed_address": {
            "ward": null,
            "street": "6GV9+MR6, NH 730C",
            "city": "Jerh",
            "postal_code": "243123",
            "state": "Uttar Pradesh",
            "country_code": "IN"
        },
        "images": [
            {
                "about": "All",
                "link": "https://streetviewpixels-pa.googleapis.com/v1/thumbnail?panoid=BFSqShWXaX4kODDDuFKphg&cb_client=maps_sv.tactile.gps&w=224&h=298&yaw=203.93367&pitch=0&thumbfov=100"
            },
            {
                "about": "Street View & 360deg",
                "link": "https://streetviewpixels-pa.googleapis.com/v1/thumbnail?panoid=BFSqShWXaX4kODDDuFKphg&cb_client=maps_sv.tactile.gps&w=224&h=298&yaw=203.93367&pitch=0&thumbfov=100"
            }
        ],
        "link": "https://www.google.com/maps/place/Sunil+masjid+jead/data=!4m7!3m6!1s0x399ff9cd16539501:0x5c2d01e62f954499!8m2!3d28.2441612!4d79.519511!16s%2Fg%2F11y1l5gfs_!19sChIJAZVTFs35nzkRmUSVL-YBLVw?authuser=0&hl=en&rclk=1",
        "coordinates": {
            "latitude": 28.244161199999997,
            "longitude": 79.519511
        }
    },
    {
        "name": "Masjid Choraha sunel",
        "main_category": "Mosque",
        "address": "9XF4+8PJ Masjid Choraha sunel, MDR42, Sunel, Rajasthan 326513",
        "detailed_address": {
            "ward": null,
            "street": "9XF4+8PJ, MDR42",
            "city": "Sunel",
            "postal_code": "326513",
            "state": "Rajasthan",
            "country_code": "IN"
        },
        "images": [
            {
                "about": "All",
                "link": "https://streetviewpixels-pa.googleapis.com/v1/thumbnail?panoid=hb8HGf3g5-0oRuDnJFi5Mg&cb_client=maps_sv.tactile.gps&w=224&h=298&yaw=338.083&pitch=0&thumbfov=100"
            },
            {
                "about": "Street View & 360deg",
                "link": "https://streetviewpixels-pa.googleapis.com/v1/thumbnail?panoid=hb8HGf3g5-0oRuDnJFi5Mg&cb_client=maps_sv.tactile.gps&w=224&h=298&yaw=338.083&pitch=0&thumbfov=100"
            }
        ],
        "link": "https://www.google.com/maps/place/Masjid+Choraha+sunel/data=!4m7!3m6!1s0x39651b4eec199103:0xd17469547deace4!8m2!3d24.3733456!4d75.9567676!16s%2Fg%2F11vbs93r66!19sChIJA5EZ7E4bZTkR5KzeR5VGFw0?authuser=0&hl=en&rclk=1",
        "coordinates": {
            "latitude": 24.3733456,
            "longitude": 75.95676759999999
        }
    },
    {
        "name": "Masjid (Mosque)",
        "main_category": "Mosque",
        "address": "9XF4+6P7 Masjid (Mosque), Sunel, Rajasthan 326513",
        "detailed_address": {
            "ward": null,
            "street": "9XF4+6P7",
            "city": "Sunel",
            "postal_code": "326513",
            "state": "Rajasthan",
            "country_code": "IN"
        },
        "images": [
            {
                "about": "All",
                "link": "https://streetviewpixels-pa.googleapis.com/v1/thumbnail?panoid=sCInaYss9teRXhSkQXRTRA&cb_client=maps_sv.tactile.gps&w=224&h=298&yaw=133.70483&pitch=0&thumbfov=100"
            },
            {
                "about": "Street View & 360deg",
                "link": "https://streetviewpixels-pa.googleapis.com/v1/thumbnail?panoid=sCInaYss9teRXhSkQXRTRA&cb_client=maps_sv.tactile.gps&w=224&h=298&yaw=133.70483&pitch=0&thumbfov=100"
            }
        ],
        "link": "https://www.google.com/maps/place/Masjid+%28Mosque%29/data=!4m7!3m6!1s0x39651be70afe9bcb:0x153ffabd6429cbee!8m2!3d24.3730446!4d75.956825!16s%2Fg%2F11q46p8w41!19sChIJy5v-CucbZTkR7sspZL36PxU?authuser=0&hl=en&rclk=1",
        "coordinates": {
            "latitude": 24.3730446,
            "longitude": 75.956825
        }
    }
]