[
    {
        "name": "Jama Masjid Kolad Mohalla",
        "main_category": "Mosque",
        "address": "C678+QXC Jama Masjid Kolad Mohalla, Roha - Kolad Rd, Roha, Pui, Maharashtra 402304",
        "detailed_address": {
            "ward": null,
            "street": "C678+QXC, Roha - Kolad Rd",
            "city": "Roha, Pui",
            "postal_code": null,
            "state": "Maharashtra",
            "country_code": "IN"
        },
        "images": [
            {
                "about": "All",
                "link": "https://lh5.googleusercontent.com/p/AF1QipNk6LuXYwO_Dsw7QkvEwwRA3BHrBeHBMki40vuN=w224-h298-k-no"
            },
            {
                "about": "Dome",
                "link": "https://lh5.googleusercontent.com/p/AF1QipP4Q4dfSZu-oSVODCkgk2QZMyxl7aajvCDDaDOu=w298-h298-k-no"
            }
        ],
        "link": "https://www.google.com/maps/place/Jama+Masjid+Kolad+Mohalla/data=!4m7!3m6!1s0x3be83d900a2c736b:0x3c2aea198ed33e0b!8m2!3d18.4144371!4d73.2173897!16s%2Fg%2F11gbfcr2t6!19sChIJa3MsCpA96DsRCz7TjhnqKjw?authuser=0&hl=en&rclk=1",
        "coordinates": {
            "latitude": 18.4144371,
            "longitude": 73.2173897
        }
    },
    {
        "name": "Astami Masjid",
        "main_category": "Mosque",
        "address": "Astami Masjid, Unnamed Road, 402109, Roha Ashtami, Maharashtra",
        "detailed_address": {
            "ward": null,
            "street": "Unnamed Road, 402109",
            "city": "Roha Ashtami",
            "postal_code": null,
            "state": "Maharashtra",
            "country_code": "IN"
        },
        "images": [
            {
                "about": "All",
                "link": "https://lh5.googleusercontent.com/p/AF1QipP309UgPIBcpGGOhtWpr_Dfb0eDsq_RrAQsEFI-=w224-h398-k-no"
            },
            {
                "about": "Videos",
                "link": "https://lh5.googleusercontent.com/p/AF1QipMrroT0YpNMWfwQ73NIIVvscU-3bips91ayBdUc=w224-h398-k-no"
            }
        ],
        "link": "https://www.google.com/maps/place/Astami+Masjid/data=!4m7!3m6!1s0x3be81512a27571ed:0x8ad01af492a164a0!8m2!3d18.4428403!4d73.1226886!16s%2Fg%2F11gc9l5pvm!19sChIJ7XF1ohIV6DsRoGShkvQa0Io?authuser=0&hl=en&rclk=1",
        "coordinates": {
            "latitude": 18.4428403,
            "longitude": 73.1226886
        }
    },
    {
        "name": "Raha Masjid",
        "main_category": "Mosque",
        "address": "6GJC+6RQ Raha Masjid, Morigaon Roha Rd, Rajagaon, Roha, Garmari, Assam 782103",
        "detailed_address": {
            "ward": "Rajagaon",
            "street": "6GJC+6RQ, Morigaon Roha Rd",
            "city": "Roha, Garmari",
            "postal_code": "782103",
            "state": "Assam",
            "country_code": "IN"
        },
        "images": [
            {
                "about": "All",
                "link": "https://lh5.googleusercontent.com/p/AF1QipM8rUAxsdSYCl_jI3ZGp_ZXiZ6__qS4C5xsFAED=w529-h298-k-no"
            },
            {
                "about": "Dome",
                "link": "https://lh5.googleusercontent.com/p/AF1QipNRK_I4y3CfWHRLPIeTfb7jAD8wTPDwu1_axLsj=w298-h298-k-no"
            },
            {
                "about": "Street View & 360deg",
                "link": "https://streetviewpixels-pa.googleapis.com/v1/thumbnail?panoid=OO2Od0sRk_YxfjxJfy4fWg&cb_client=maps_sv.tactile.gps&w=224&h=298&yaw=313.5651&pitch=0&thumbfov=100"
            }
        ],
        "link": "https://www.google.com/maps/place/Raha+Masjid/data=!4m7!3m6!1s0x37452deaf52aa89b:0xf1fd3691518c8cad!8m2!3d26.2305845!4d92.522115!16s%2Fg%2F11gfb4qqb3!19sChIJm6gq9eotRTcRrYyMUZE2_fE?authuser=0&hl=en&rclk=1",
        "coordinates": {
            "latitude": 26.2305845,
            "longitude": 92.522115
        }
    },
    {
        "name": "Salman Farsi Masjid, Roha",
        "main_category": "Mosque",
        "address": "C4R7+9WF Salman Farsi Masjid, Roha, Unnamed Road, Wali, Roha Ashtami, Roha, Maharashtra 402109",
        "detailed_address": {
            "ward": "Wali",
            "street": "C4R7+9WF, Unnamed Road",
            "city": "Roha Ashtami, Roha",
            "postal_code": "402109",
            "state": "Maharashtra",
            "country_code": "IN"
        },
        "images": [],
        "link": "https://www.google.com/maps/place/Salman+Farsi+Masjid,+Roha/data=!4m7!3m6!1s0x3be815c2f87b5121:0x5fbef0f1f41f492c!8m2!3d18.4409447!4d73.114811!16s%2Fg%2F11h5vjq_1y!19sChIJIVF7-MIV6DsRLEkf9PHwvl8?authuser=0&hl=en&rclk=1",
        "coordinates": {
            "latitude": 18.4409447,
            "longitude": 73.114811
        }
    },
    {
        "name": "Upper Mohalla Masjid Roha",
        "main_category": "Mosque",
        "address": "C4Q8+W93 Upper Mohalla Masjid Roha, Wali, Tala, Roha, Maharashtra 402109",
        "detailed_address": {
            "ward": "Wali",
            "street": "C4Q8+W93",
            "city": "Tala, Roha",
            "postal_code": "402109",
            "state": "Maharashtra",
            "country_code": "IN"
        },
        "images": [
            {
                "about": "All",
                "link": "https://lh5.googleusercontent.com/p/AF1QipPOR0fN0IvaUleVNC7cLBRpU4rr6udzUof4WrkZ=w224-h298-k-no"
            }
        ],
        "link": "https://www.google.com/maps/place/Upper+Mohalla+Masjid+Roha/data=!4m7!3m6!1s0x3be815cb35ff2b11:0x31e1d08c8545a1a9!8m2!3d18.4397594!4d73.1159121!16s%2Fg%2F11q3zkfrvv!19sChIJESv_NcsV6DsRqaFFhYzQ4TE?authuser=0&hl=en&rclk=1",
        "coordinates": {
            "latitude": 18.4397594,
            "longitude": 73.1159121
        }
    },
    {
        "name": "Roha Jama Masjid",
        "main_category": "Mosque",
        "address": "Roha Jama Masjid, Jama masjid, Wali, Roha, Maharashtra 402109",
        "detailed_address": {
            "ward": "Wali",
            "street": "Jama masjid",
            "city": "Roha",
            "postal_code": "402109",
            "state": "Maharashtra",
            "country_code": "IN"
        },
        "images": [
            {
                "about": "All",
                "link": "https://lh5.googleusercontent.com/p/AF1QipN9fxGpmhXXqAcqKkR0eTrL_yj3Z-TnEbyfSsx2=w529-h298-k-no"
            },
            {
                "about": "Latest",
                "link": "https://lh5.googleusercontent.com/p/AF1QipM02gz1dANp7XP6xPFRuXCd5ObuL0_aC7Q48jtg=w529-h298-k-no"
            },
            {
                "about": "Dome",
                "link": "https://lh5.googleusercontent.com/p/AF1QipN9fxGpmhXXqAcqKkR0eTrL_yj3Z-TnEbyfSsx2=w529-h298-k-no"
            }
        ],
        "link": "https://www.google.com/maps/place/Roha+Jama+Masjid/data=!4m7!3m6!1s0x3be815c7da091ed5:0x5651a49efbb8c255!8m2!3d18.4417875!4d73.1146825!16s%2Fg%2F11kpfvtzxq!19sChIJ1R4J2scV6DsRVcK4-56kUVY?authuser=0&hl=en&rclk=1",
        "coordinates": {
            "latitude": 18.4417875,
            "longitude": 73.1146825
        }
    },
    {
        "name": "Jama masjid Roha",
        "main_category": "Mosque",
        "address": "QP27+HHR Jama masjid Roha, Badapur, Maharashtra 431202",
        "detailed_address": {
            "ward": null,
            "street": "QP27+HHR",
            "city": "Badapur",
            "postal_code": null,
            "state": "Maharashtra",
            "country_code": "IN"
        },
        "images": [],
        "link": "https://www.google.com/maps/place/Jama+masjid+Roha/data=!4m7!3m6!1s0x3bdb01481ea7c2c9:0x13bbe34fd20cce76!8m2!3d19.7514798!4d75.7138884!16s%2Fg%2F11kjn9drds!19sChIJycKnHkgB2zsRds4M0k_juxM?authuser=0&hl=en&rclk=1",
        "coordinates": {
            "latitude": 19.7514798,
            "longitude": 75.7138884
        }
    },
    {
        "name": "Mohammadi store",
        "main_category": "Mosque",
        "address": "Mohammadi store, Jama masjid, Wali, Roha, Maharashtra 402109",
        "detailed_address": {
            "ward": "Wali",
            "street": "Jama masjid",
            "city": "Roha",
            "postal_code": "402109",
            "state": "Maharashtra",
            "country_code": "IN"
        },
        "images": [],
        "link": "https://www.google.com/maps/place/Mohammadi+store/data=!4m7!3m6!1s0x3be8152790cd1fcd:0x646305fa9affb5!8m2!3d18.4416918!4d73.114763!16s%2Fg%2F11k567w8zg!19sChIJzR_NkCcV6DsRtf-a-gVjZAA?authuser=0&hl=en&rclk=1",
        "coordinates": {
            "latitude": 18.441691799999997,
            "longitude": 73.114763
        }
    },
    {
        "name": "Roha masjid e nure mustfa",
        "main_category": "Apartment building",
        "address": "57WC+P65 Roha masjid e nure mustfa, Roha, Gujarat 370675",
        "detailed_address": {
            "ward": null,
            "street": "57WC+P65",
            "city": "Roha",
            "postal_code": "370675",
            "state": "Gujarat",
            "country_code": "IN"
        },
        "images": [],
        "link": "https://www.google.com/maps/place/Roha+masjid+e+nure+mustfa/data=!4m7!3m6!1s0x39516bf2b8120701:0xf608a8fbcad0abf8!8m2!3d23.1971683!4d69.2698416!16s%2Fg%2F11s4szn6l3!19sChIJAQcSuPJrUTkR-KvQyvuoCPY?authuser=0&hl=en&rclk=1",
        "coordinates": {
            "latitude": 23.197168299999998,
            "longitude": 69.26984159999999
        }
    }
]