[
    {
        "name": "Jama Masjid",
        "main_category": "Mosque",
        "address": "Jama Masjid, b-2/108, Rani Beauty Parlour St, Rori Bazar, B Block, Ellenabad, Sirsa, Shamshabad Patti, Haryana 125055",
        "detailed_address": {
            "ward": "Rori Bazar, B Block, Ellenabad",
            "street": "b-2/108, Rani Beauty Parlour St",
            "city": "Sirsa, Shamshabad Patti",
            "postal_code": "125055",
            "state": "Haryana",
            "country_code": "IN"
        },
        "images": [
            {
                "about": "All",
                "link": "https://lh5.googleusercontent.com/p/AF1QipMQXPA2PDDoTcPeIMYfRO49TMsifE8aWsBINuPY=w530-h298-k-no"
            },
            {
                "about": "Dome",
                "link": "https://lh5.googleusercontent.com/p/AF1QipMa7QQOa4jxlQFMd5RJAz8Z0XGoyWp86Xb-28du=w629-h298-k-no"
            },
            {
                "about": "Street View & 360deg",
                "link": "https://streetviewpixels-pa.googleapis.com/v1/thumbnail?panoid=rHJ6_eNxOhOVgaM9Vd8v7g&cb_client=maps_sv.tactile.gps&w=224&h=298&yaw=77.77467&pitch=0&thumbfov=100"
            }
        ],
        "link": "https://www.google.com/maps/place/Jama+Masjid/data=!4m7!3m6!1s0x39114c4d2713da53:0x4ebec249f94c8bb1!8m2!3d29.5345428!4d75.0287783!16s%2Fg%2F1td5_382!19sChIJU9oTJ01METkRsYtM-UnCvk4?authuser=0&hl=en&rclk=1",
        "coordinates": {
            "latitude": 29.534542799999997,
            "longitude": 75.0287783
        }
    },
    {
        "name": "Sirsa station masjid",
        "main_category": "Mosque",
        "address": "G2XH+CVP Sirsa station masjid, Railway Colony Sirsa, Officer Quarters, Sirsa, Haryana 125055",
        "detailed_address": {
            "ward": "Railway Colony Sirsa, Officer Quarters",
            "street": "G2XH+CVP",
            "city": "Sirsa",
            "postal_code": "125055",
            "state": "Haryana",
            "country_code": "IN"
        },
        "images": [
            {
                "about": "All",
                "link": "https://lh5.googleusercontent.com/p/AF1QipP3rOb-BYkPikSNnxlnb0s61H5M_fuANp4o7LdA=w529-h298-k-no"
            },
            {
                "about": "Street View & 360deg",
                "link": "https://streetviewpixels-pa.googleapis.com/v1/thumbnail?panoid=fwXFXxscrHVmLMtEgDd_YA&cb_client=maps_sv.tactile.gps&w=224&h=298&yaw=232.42818&pitch=0&thumbfov=100"
            }
        ],
        "link": "https://www.google.com/maps/place/Sirsa+station+masjid/data=!4m7!3m6!1s0x39114dbfd876b57b:0x20f39677b1d6173b!8m2!3d29.5485813!4d75.0297178!16s%2Fg%2F11gnpr198b!19sChIJe7V22L9NETkROxfWsXeW8yA?authuser=0&hl=en&rclk=1",
        "coordinates": {
            "latitude": 29.5485813,
            "longitude": 75.0297178
        }
    },
    {
        "name": "Msjid darul islam",
        "main_category": "Mosque",
        "address": "G2CQ+229 Msjid darul islam, Unnamed Road, Kirti Nagar, Sirsa, Haryana 125055",
        "detailed_address": {
            "ward": "Kirti Nagar",
            "street": "G2CQ+229, Unnamed Road",
            "city": "Sirsa",
            "postal_code": "125055",
            "state": "Haryana",
            "country_code": "IN"
        },
        "images": [
            {
                "about": "All",
                "link": "https://lh5.googleusercontent.com/p/AF1QipP3OCiDZrPwAn4nyhfVuWdvY35dWVUzItUYTK-w=w662-h298-k-no"
            },
            {
                "about": "Street View & 360deg",
                "link": "https://streetviewpixels-pa.googleapis.com/v1/thumbnail?panoid=v8nbcgzBdmnDYqPdd4pktw&cb_client=maps_sv.tactile.gps&w=224&h=298&yaw=186.2194&pitch=0&thumbfov=100"
            }
        ],
        "link": "https://www.google.com/maps/place/Msjid+darul+islam/data=!4m7!3m6!1s0x39114da196126c57:0xb1c4726407b90cf3!8m2!3d29.5200048!4d75.0375555!16s%2Fg%2F11kpqvk4xf!19sChIJV2wSlqFNETkR8wy5B2RyxLE?authuser=0&hl=en&rclk=1",
        "coordinates": {
            "latitude": 29.5200048,
            "longitude": 75.0375555
        }
    },
    {
        "name": "Gamle wala",
        "main_category": "Mosque",
        "address": "H25Q+464 Gamle wala, Prem Nagar, Sirsa, Haryana 125055",
        "detailed_address": {
            "ward": "Prem Nagar",
            "street": "H25Q+464",
            "city": "Sirsa",
            "postal_code": "125055",
            "state": "Haryana",
            "country_code": "IN"
        },
        "images": [],
        "link": "https://www.google.com/maps/place/Gamle+wala/data=!4m7!3m6!1s0x39114dc9a69d0f8b:0xbe3cb4bbbc027d92!8m2!3d29.5577679!4d75.0380626!16s%2Fg%2F11qh85ghmr!19sChIJiw-dpslNETkRkn0CvLu0PL4?authuser=0&hl=en&rclk=1",
        "coordinates": {
            "latitude": 29.557767899999998,
            "longitude": 75.0380626
        }
    }
]