[
    {
        "name": "Gajendragad",
        "main_category": "Bakery and Cake Shop",
        "address": "Gajendragad, KK CIRCLE, Gajendragad, Karnataka 582114",
        "detailed_address": {
            "ward": null,
            "street": "KK CIRCLE",
            "city": "Gajendragad",
            "postal_code": "582114",
            "state": "Karnataka",
            "country_code": "IN"
        },
        "images": [
            {
                "about": "All",
                "link": "https://lh5.googleusercontent.com/p/AF1QipNXw493S_FF_qU1fbGJeLPrRe5fNyJ-dE5IQhqM=w529-h298-k-no"
            },
            {
                "about": "Food & drink",
                "link": "https://lh5.googleusercontent.com/p/AF1QipPCTny1XZ_yxymFmAzTlxndIQCWNzygtKBp-Pjq=w224-h298-k-no"
            },
            {
                "about": "Videos",
                "link": "https://lh5.googleusercontent.com/p/AF1QipNqDNwPdGuz-6BybK_7BZSP2W7ORLYyiff4VKQE=w529-h298-k-no"
            },
            {
                "about": "Vibe",
                "link": "https://lh5.googleusercontent.com/p/AF1QipPDsFRr6uskhPlrzaDArVS7HvXfu1W9mk7k5XzX=w397-h298-k-no"
            },
            {
                "about": "Street View & 360deg",
                "link": "https://lh5.googleusercontent.com/p/AF1QipPW8YpIAw8TJYSpYCLTCvcE0mbBm4A-85IY7ynW=w224-h298-k-no-pi-0-ya110-ro-0-fo100"
            }
        ],
        "link": "https://www.google.com/maps/place/Gajendragad/data=!4m7!3m6!1s0x3bb869bceb68d4ed:0xb97537fd5bf516a!8m2!3d15.7322649!4d75.9654027!16s%2Fg%2F11gg_48n5k!19sChIJ7dRo67xpuDsRalG_1X9Tlws?authuser=0&hl=en&rclk=1",
        "coordinates": {
            "latitude": 15.732264899999999,
            "longitude": 75.9654027
        }
    },
    {
        "name": "Jamalshahvali Dargah Masjid",
        "main_category": "Mosque",
        "address": "PXJ9+6GR Jamalshahvali Dargah Masjid, Gajendragad, Karnataka 582114",
        "detailed_address": {
            "ward": null,
            "street": "PXJ9+6GR",
            "city": "Gajendragad",
            "postal_code": "582114",
            "state": "Karnataka",
            "country_code": "IN"
        },
        "images": [
            {
                "about": "All",
                "link": "https://lh5.googleusercontent.com/p/AF1QipPf3x36ezDTkMrfT4L0VuFU6B5mK_wq7jzAmJr_=w447-h298-k-no"
            },
            {
                "about": "Street View & 360deg",
                "link": "https://streetviewpixels-pa.googleapis.com/v1/thumbnail?panoid=_Ta3kkwOAQHu2xqvxDQETg&cb_client=maps_sv.tactile.gps&w=224&h=298&yaw=244.40767&pitch=0&thumbfov=100"
            },
            {
                "about": "Videos",
                "link": "https://lh5.googleusercontent.com/p/AF1QipMB-CIkfxOjJrUw_0jBKdtWjwquI_YzSF4kzct_=w224-h398-k-no"
            }
        ],
        "link": "https://www.google.com/maps/place/Jamalshahvali+Dargah+Masjid/data=!4m7!3m6!1s0x3bb869bd91ef537f:0xea218af7561b00b7!8m2!3d15.7306155!4d75.9687723!16s%2Fg%2F11hcjtr0fg!19sChIJf1Pvkb1puDsRtwAbVveKIeo?authuser=0&hl=en&rclk=1",
        "coordinates": {
            "latitude": 15.730615499999999,
            "longitude": 75.9687723
        }
    },
    {
        "name": "Jamiya Masjid",
        "main_category": "Mosque",
        "address": "P2M9+3HV Jamiya Masjid, Gogeri, Matarangi, Karnataka 582114",
        "detailed_address": {
            "ward": null,
            "street": "P2M9+3HV",
            "city": "Gogeri, Matarangi",
            "postal_code": "582114",
            "state": "Karnataka",
            "country_code": "IN"
        },
        "images": [],
        "link": "https://www.google.com/maps/place/Jamiya+Masjid/data=!4m7!3m6!1s0x3bb86a46d7ee4b01:0x87ddf322128951a3!8m2!3d15.7327394!4d76.018937!16s%2Fg%2F11g9r109cz!19sChIJAUvu10ZquDsRo1GJEiLz3Yc?authuser=0&hl=en&rclk=1",
        "coordinates": {
            "latitude": 15.7327394,
            "longitude": 76.018937
        }
    },
    {
        "name": "masjid",
        "main_category": "Mosque",
        "address": "masjid, Itagi, Karnataka 582211",
        "detailed_address": {
            "ward": null,
            "street": "masjid",
            "city": "Itagi",
            "postal_code": "582211",
            "state": "Karnataka",
            "country_code": "IN"
        },
        "images": [],
        "link": "https://www.google.com/maps/place/masjid/data=!4m7!3m6!1s0x3bb867c01b0728eb:0xf8d62d2b69938b85!8m2!3d15.7375568!4d75.8266855!16s%2Fg%2F11km9kkf0r!19sChIJ6ygHG8BnuDsRhYuTaSst1vg?authuser=0&hl=en&rclk=1",
        "coordinates": {
            "latitude": 15.7375568,
            "longitude": 75.8266855
        }
    }
]