[
    {
        "name": "Hajrat Khwaja Daud R.A. Dargah",
        "main_category": "Mosque",
        "address": "Hajrat Khwaja Daud R.A. Dargah, Vidyanagar, Akkalkot, Maharashtra 413216",
        "detailed_address": {
            "ward": "Vidyanagar",
            "street": null,
            "city": "Akkalkot",
            "postal_code": "413216",
            "state": "Maharashtra",
            "country_code": "IN"
        },
        "images": [
            {
                "about": "All",
                "link": "https://lh5.googleusercontent.com/p/AF1QipOW1AG73-laySRBTeDoNcTOWZSfh7Q4qzLtW5rO=w224-h472-k-no"
            },
            {
                "about": "By owner",
                "link": "https://lh5.googleusercontent.com/p/AF1QipOW1AG73-laySRBTeDoNcTOWZSfh7Q4qzLtW5rO=w224-h472-k-no"
            }
        ],
        "link": "https://www.google.com/maps/place/Hajrat+Khwaja+Daud+R.A.+Dargah/data=!4m7!3m6!1s0x3bc609a322733f95:0x89c397d3a193e81a!8m2!3d17.5236968!4d76.2049137!16s%2Fg%2F11c5zc9vbp!19sChIJlT9zIqMJxjsRGuiTodOXw4k?authuser=0&hl=en&rclk=1",
        "coordinates": {
            "latitude": 17.5236968,
            "longitude": 76.20491369999999
        }
    },
    {
        "name": "Jama Masjid Motyal",
        "main_category": "Mosque",
        "address": "Jama Masjid Motyal, Motyal, Maharashtra 413216",
        "detailed_address": {
            "ward": null,
            "street": null,
            "city": "Motyal",
            "postal_code": "413216",
            "state": "Maharashtra",
            "country_code": "IN"
        },
        "images": [
            {
                "about": "All",
                "link": "https://lh5.googleusercontent.com/p/AF1QipNGDU76zTZudyFAW0WoKdjd9w7OSLkNzzKL__Ny=w224-h298-k-no"
            },
            {
                "about": "Videos",
                "link": "https://lh5.googleusercontent.com/p/AF1QipM8mmn7qh_zE5vHmVGMzj1P3PfgDIuqPeGbgcX6=w529-h298-k-no"
            }
        ],
        "link": "https://www.google.com/maps/place/Jama+Masjid+Motyal/data=!4m7!3m6!1s0x3bc5e2fef1b61c59:0x7f7515ac87a5f0e1!8m2!3d17.6043125!4d76.2285625!16s%2Fg%2F11ggvs7126!19sChIJWRy28f7ixTsR4fClh6wVdX8?authuser=0&hl=en&rclk=1",
        "coordinates": {
            "latitude": 17.6043125,
            "longitude": 76.2285625
        }
    },
    {
        "name": "Madina Masjid",
        "main_category": "Mosque",
        "address": "G6G5+7MR Madina Masjid, Murum - Akkalkot Rd, Vidyanagar, Akkalkot, Maharashtra 413216",
        "detailed_address": {
            "ward": "Vidyanagar",
            "street": "G6G5+7MR, Murum - Akkalkot Rd",
            "city": "Akkalkot",
            "postal_code": null,
            "state": "Maharashtra",
            "country_code": "IN"
        },
        "images": [
            {
                "about": "All",
                "link": "https://lh5.googleusercontent.com/p/AF1QipMDuAMiEYJDSLzWHsXzOdzxZalngS7N7LJ5mNgs=w224-h298-k-no"
            },
            {
                "about": "Street View & 360deg",
                "link": "https://streetviewpixels-pa.googleapis.com/v1/thumbnail?panoid=M0TuAdtWDhHD_7G_pDT34A&cb_client=maps_sv.tactile.gps&w=224&h=298&yaw=42.02141&pitch=0&thumbfov=100"
            }
        ],
        "link": "https://www.google.com/maps/place/Madina+Masjid/data=!4m7!3m6!1s0x3bc609bb340439db:0x644a1195015d8bba!8m2!3d17.5257326!4d76.209136!16s%2Fg%2F11f316vryx!19sChIJ2zkENLsJxjsRuotdAZURSmQ?authuser=0&hl=en&rclk=1",
        "coordinates": {
            "latitude": 17.525732599999998,
            "longitude": 76.209136
        }
    },
    {
        "name": "Datapir Dargha",
        "main_category": "Mosque",
        "address": "G5HR+3MG Datapir Dargha, Hippargi, Akkalkot, Maharashtra 413216",
        "detailed_address": {
            "ward": "Hippargi",
            "street": "G5HR+3MG",
            "city": "Akkalkot",
            "postal_code": "413216",
            "state": "Maharashtra",
            "country_code": "IN"
        },
        "images": [
            {
                "about": "All",
                "link": "https://lh5.googleusercontent.com/p/AF1QipPigSEAtpPrla2Mrqmr8b2t2Pnroth5JvULArqW=w529-h298-k-no"
            },
            {
                "about": "Street View & 360deg",
                "link": "https://streetviewpixels-pa.googleapis.com/v1/thumbnail?panoid=6mngvW3FQamZGRaimQWYfw&cb_client=maps_sv.tactile.gps&w=224&h=298&yaw=304.5281&pitch=0&thumbfov=100"
            }
        ],
        "link": "https://www.google.com/maps/place/Datapir+Dargha/data=!4m7!3m6!1s0x3bc6094bca8d223d:0x2a387f4d92f6c1d7!8m2!3d17.52768!4d76.1917151!16s%2Fg%2F11fj5lb0y9!19sChIJPSKNyksJxjsR18H2kk1_OCo?authuser=0&hl=en&rclk=1",
        "coordinates": {
            "latitude": 17.52768,
            "longitude": 76.1917151
        }
    },
    {
        "name": "Sayyad Mubarak Masjid",
        "main_category": "Mosque",
        "address": "F76V+376 Sayyad Mubarak Masjid, Near Akkalkot Naka, Maindargi, Maharashtra 413217",
        "detailed_address": {
            "ward": null,
            "street": "F76V+376, Near Akkalkot Naka",
            "city": "Maindargi",
            "postal_code": "413217",
            "state": "Maharashtra",
            "country_code": "IN"
        },
        "images": [],
        "link": "https://www.google.com/maps/place/Sayyad+Mubarak+Masjid/data=!4m7!3m6!1s0x3bc605e83e853227:0xd4a9174d9042f2fa!8m2!3d17.4601714!4d76.2931275!16s%2Fg%2F11b773f5w6!19sChIJJzKFPugFxjsR-vJCkE0XqdQ?authuser=0&hl=en&rclk=1",
        "coordinates": {
            "latitude": 17.4601714,
            "longitude": 76.2931275
        }
    },
    {
        "name": "Hazrat Shah Habib Masjid.",
        "main_category": "Mosque",
        "address": "G6G4+PW4 Hazrat Shah Habib Masjid., Vidyanagar, Akkalkot, Maharashtra 413216",
        "detailed_address": {
            "ward": "Vidyanagar",
            "street": "G6G4+PW4",
            "city": "Akkalkot",
            "postal_code": "413216",
            "state": "Maharashtra",
            "country_code": "IN"
        },
        "images": [
            {
                "about": "All",
                "link": "https://lh5.googleusercontent.com/p/AF1QipNb-cwdoaJyHlo_oLU3keNNwrCmFSOZ3KjT0sRS=w224-h398-k-no"
            }
        ],
        "link": "https://www.google.com/maps/place/Hazrat+Shah+Habib+Masjid./data=!4m7!3m6!1s0x3bc609bc9ffc4221:0x24f6d63176ae5fdc!8m2!3d17.5267515!4d76.2073359!16s%2Fg%2F11hbk5rt9w!19sChIJIUL8n7wJxjsR3F-udjHW9iQ?authuser=0&hl=en&rclk=1",
        "coordinates": {
            "latitude": 17.5267515,
            "longitude": 76.20733589999999
        }
    },
    {
        "name": "Mulla masjid ahlehadith",
        "main_category": "Mosque",
        "address": "G6F4+99C Mulla masjid ahlehadith, Mujawar Galli, Vidyanagar, Akkalkot, Maharashtra 413216",
        "detailed_address": {
            "ward": "Vidyanagar",
            "street": "G6F4+99C, Mujawar Galli",
            "city": "Akkalkot",
            "postal_code": "413216",
            "state": "Maharashtra",
            "country_code": "IN"
        },
        "images": [
            {
                "about": "All",
                "link": "https://lh5.googleusercontent.com/p/AF1QipNf-grnrBQrVpa1bzxkL1rcjuwZqWAcPGYWmbr8=w224-h298-k-no"
            }
        ],
        "link": "https://www.google.com/maps/place/Mulla+masjid+ahlehadith/data=!4m7!3m6!1s0x3bc609fdb6ca5217:0x6be03c7ac097db34!8m2!3d17.5234436!4d76.2059045!16s%2Fg%2F11h6mnt333!19sChIJF1LKtv0JxjsRNNuXwHo84Gs?authuser=0&hl=en&rclk=1",
        "coordinates": {
            "latitude": 17.5234436,
            "longitude": 76.2059045
        }
    },
    {
        "name": "Aalmgeer Masjid",
        "main_category": "Mosque",
        "address": "G56X+HRQ Aalmgeer Masjid, shahnoor Nagar, Mallikarjun Nagar, Akkalkot, Maharashtra 413216",
        "detailed_address": {
            "ward": "Mallikarjun Nagar",
            "street": "G56X+HRQ, shahnoor Nagar",
            "city": "Akkalkot",
            "postal_code": "413216",
            "state": "Maharashtra",
            "country_code": "IN"
        },
        "images": [
            {
                "about": "All",
                "link": "https://streetviewpixels-pa.googleapis.com/v1/thumbnail?panoid=33rfq9VGkTPLfW47NhiP5w&cb_client=maps_sv.tactile.gps&w=224&h=298&yaw=39.349472&pitch=0&thumbfov=100"
            },
            {
                "about": "Street View & 360deg",
                "link": "https://streetviewpixels-pa.googleapis.com/v1/thumbnail?panoid=33rfq9VGkTPLfW47NhiP5w&cb_client=maps_sv.tactile.gps&w=224&h=298&yaw=39.349472&pitch=0&thumbfov=100"
            }
        ],
        "link": "https://www.google.com/maps/place/Aalmgeer+Masjid/data=!4m7!3m6!1s0x3bc6097513b99035:0xa1be8a5f3bc64acc!8m2!3d17.5114578!4d76.1996182!16s%2Fg%2F11gf2n7_h6!19sChIJNZC5E3UJxjsRzErGO1-KvqE?authuser=0&hl=en&rclk=1",
        "coordinates": {
            "latitude": 17.5114578,
            "longitude": 76.1996182
        }
    },
    {
        "name": "Markaz Akkalkot",
        "main_category": "Mosque",
        "address": "G6F3+9X6 Markaz Akkalkot, Vidyanagar, Akkalkot, Maharashtra 413216",
        "detailed_address": {
            "ward": "Vidyanagar",
            "street": "G6F3+9X6",
            "city": "Akkalkot",
            "postal_code": "413216",
            "state": "Maharashtra",
            "country_code": "IN"
        },
        "images": [
            {
                "about": "All",
                "link": "https://lh5.googleusercontent.com/p/AF1QipOjXxWDPCMeOoJ9gbtxxVtGn-Op6mopHisNv01f=w360-h298-k-no"
            },
            {
                "about": "Dome",
                "link": "https://lh5.googleusercontent.com/p/AF1QipMG7Vyur30KuumG58vNOf8iAZi9kGSPJm61kfnb=w418-h298-k-no"
            }
        ],
        "link": "https://www.google.com/maps/place/Markaz+Akkalkot/data=!4m7!3m6!1s0x3bc6090fa551d7b3:0x1b3846d57b61ba42!8m2!3d17.5234151!4d76.2048801!16s%2Fg%2F11spszx1rr!19sChIJs9dRpQ8JxjsRQrphe9VGOBs?authuser=0&hl=en&rclk=1",
        "coordinates": {
            "latitude": 17.523415099999998,
            "longitude": 76.2048801
        }
    },
    {
        "name": "Jama masjid karjal",
        "main_category": "Mosque",
        "address": "H487+69R Jama masjid karjal, Karjal, Maharashtra 413228",
        "detailed_address": {
            "ward": null,
            "street": "H487+69R",
            "city": "Karjal",
            "postal_code": "413228",
            "state": "Maharashtra",
            "country_code": "IN"
        },
        "images": [
            {
                "about": "All",
                "link": "https://lh5.googleusercontent.com/p/AF1QipMMeunlmUe2q5exQbR8upaekFWHq8XBs7DEE-AC=w662-h298-k-no"
            },
            {
                "about": "Street View & 360deg",
                "link": "https://streetviewpixels-pa.googleapis.com/v1/thumbnail?panoid=55QFOS1KeHZ3AABDxR4T-w&cb_client=maps_sv.tactile.gps&w=224&h=298&yaw=308.98315&pitch=0&thumbfov=100"
            },
            {
                "about": "Videos",
                "link": "https://lh5.googleusercontent.com/p/AF1QipPkgjtJjcp4P0xqGRzqWEdaJtAMTfQuRPKX9aWD=w529-h298-k-no"
            }
        ],
        "link": "https://www.google.com/maps/place/Jama+masjid+karjal/data=!4m7!3m6!1s0x3bc5e1f6a43e00ad:0x8b33b68fa1608d98!8m2!3d17.5657569!4d76.1141421!16s%2Fg%2F11rstkyb7g!19sChIJrQA-pPbhxTsRmI1goY-2M4s?authuser=0&hl=en&rclk=1",
        "coordinates": {
            "latitude": 17.5657569,
            "longitude": 76.1141421
        }
    },
    {
        "name": "Masjid e akasa",
        "main_category": "Mosque",
        "address": "F5QW+MQQ Masjid e akasa, Unnamed Road, Akkalkot, Naganhalli, Maharashtra 413216",
        "detailed_address": {
            "ward": null,
            "street": "F5QW+MQQ, Unnamed Road",
            "city": "Akkalkot, Naganhalli",
            "postal_code": "413216",
            "state": "Maharashtra",
            "country_code": "IN"
        },
        "images": [
            {
                "about": "All",
                "link": "https://lh5.googleusercontent.com/p/AF1QipMip0x3RgDLyDzEpbvO8wKS6Uxjh0Q5rNJKNPRy=w224-h497-k-no"
            },
            {
                "about": "Dome",
                "link": "https://lh5.googleusercontent.com/p/AF1QipMip0x3RgDLyDzEpbvO8wKS6Uxjh0Q5rNJKNPRy=w224-h497-k-no"
            },
            {
                "about": "Street View & 360deg",
                "link": "https://streetviewpixels-pa.googleapis.com/v1/thumbnail?panoid=FUhut0p_TUIzPHjelc7KCg&cb_client=maps_sv.tactile.gps&w=224&h=298&yaw=88.09569&pitch=0&thumbfov=100"
            }
        ],
        "link": "https://www.google.com/maps/place/Masjid+e+akasa/data=!4m7!3m6!1s0x3bc6092b2af97089:0x523c8e392906c629!8m2!3d17.4892036!4d76.1969856!16s%2Fg%2F11h_0vq9rr!19sChIJiXD5KisJxjsRKcYGKTmOPFI?authuser=0&hl=en&rclk=1",
        "coordinates": {
            "latitude": 17.4892036,
            "longitude": 76.19698559999999
        }
    },
    {
        "name": "Bagwan Masjid",
        "main_category": "Mosque",
        "address": "G6G4+25Q Bagwan Masjid, Vidyanagar, Akkalkot, Maharashtra 413216",
        "detailed_address": {
            "ward": "Vidyanagar",
            "street": "G6G4+25Q",
            "city": "Akkalkot",
            "postal_code": "413216",
            "state": "Maharashtra",
            "country_code": "IN"
        },
        "images": [
            {
                "about": "All",
                "link": "https://streetviewpixels-pa.googleapis.com/v1/thumbnail?panoid=MQyIQoifv6sbKG5WgD7JVg&cb_client=maps_sv.tactile.gps&w=224&h=298&yaw=160.19904&pitch=0&thumbfov=100"
            },
            {
                "about": "Street View & 360deg",
                "link": "https://streetviewpixels-pa.googleapis.com/v1/thumbnail?panoid=MQyIQoifv6sbKG5WgD7JVg&cb_client=maps_sv.tactile.gps&w=224&h=298&yaw=160.19904&pitch=0&thumbfov=100"
            }
        ],
        "link": "https://www.google.com/maps/place/Bagwan+Masjid/data=!4m7!3m6!1s0x3bc609a333385a87:0x2927a620817e6e85!8m2!3d17.5250933!4d76.2054855!16s%2Fg%2F11gflys0rn!19sChIJh1o4M6MJxjsRhW5-gSCmJyk?authuser=0&hl=en&rclk=1",
        "coordinates": {
            "latitude": 17.525093299999998,
            "longitude": 76.2054855
        }
    },
    {
        "name": "Sharjha Masjid",
        "main_category": "Mosque",
        "address": "G6F5+VCP Sharjha Masjid, Dastgir, Mujawar Galli, Akkalkot, Maharashtra 413216",
        "detailed_address": {
            "ward": "Vidyanagar",
            "street": "G6F5+VCP, Dastgir, Mujawar Galli",
            "city": "Akkalkot",
            "postal_code": "413216",
            "state": "Maharashtra",
            "country_code": "IN"
        },
        "images": [
            {
                "about": "All",
                "link": "https://lh5.googleusercontent.com/p/AF1QipOtNxRGqxaLwEgQOvhctzY8i_kNAXSCFHMrXNk3=w224-h398-k-no"
            },
            {
                "about": "Videos",
                "link": "https://lh5.googleusercontent.com/p/AF1QipOtNxRGqxaLwEgQOvhctzY8i_kNAXSCFHMrXNk3=w224-h398-k-no"
            }
        ],
        "link": "https://www.google.com/maps/place/Sharjha+Masjid/data=!4m7!3m6!1s0x3bc609c7dec018ed:0x88cb961aeacb23f9!8m2!3d17.5247165!4d76.2085691!16s%2Fg%2F11h22jkwjl!19sChIJ7RjA3scJxjsR-SPL6hqWy4g?authuser=0&hl=en&rclk=1",
        "coordinates": {
            "latitude": 17.5247165,
            "longitude": 76.20856909999999
        }
    },
    {
        "name": "Raja Bagsawar Darga",
        "main_category": "Mosque",
        "address": "G58Q+J65 Raja Bagsawar Darga, Samrath Nagar, Akkalkot, Maharashtra 413216",
        "detailed_address": {
            "ward": "Samrath Nagar",
            "street": "G58Q+J65",
            "city": "Akkalkot",
            "postal_code": "413216",
            "state": "Maharashtra",
            "country_code": "IN"
        },
        "images": [
            {
                "about": "All",
                "link": "https://lh5.googleusercontent.com/p/AF1QipO7Yr0wmFISwlme3jf1iD8zV_FFCCMUE031EXNa=w529-h298-k-no"
            },
            {
                "about": "Street View & 360deg",
                "link": "https://streetviewpixels-pa.googleapis.com/v1/thumbnail?panoid=eihzGHtDoC1g2xzXGNVrZQ&cb_client=maps_sv.tactile.gps&w=224&h=298&yaw=33.65007&pitch=0&thumbfov=100"
            },
            {
                "about": "Videos",
                "link": "https://lh5.googleusercontent.com/p/AF1QipNCdUSsuSNrY14NvQZtcPY9iO5IDYqi-21bR86P=w529-h298-k-no"
            }
        ],
        "link": "https://www.google.com/maps/place/Raja+Bagsawar+Darga/data=!4m7!3m6!1s0x3bc6096effcc27f5:0xfa8c7e9e6216b7dd!8m2!3d17.5165006!4d76.1881219!16s%2Fg%2F11g__5kzsr!19sChIJ9SfM_24JxjsR3bcWYp5-jPo?authuser=0&hl=en&rclk=1",
        "coordinates": {
            "latitude": 17.5165006,
            "longitude": 76.1881219
        }
    },
    {
        "name": "Sayed Shah Taher Quadri Dargah Sharif",
        "main_category": "Mosque",
        "address": "G6F4+M5P Sayed Shah Taher Quadri Dargah Sharif, Vidyanagar, Akkalkot, Maharashtra 413216",
        "detailed_address": {
            "ward": "Vidyanagar",
            "street": "G6F4+M5P",
            "city": "Akkalkot",
            "postal_code": "413216",
            "state": "Maharashtra",
            "country_code": "IN"
        },
        "images": [],
        "link": "https://www.google.com/maps/place/Sayed+Shah+Taher+Quadri+Dargah+Sharif/data=!4m7!3m6!1s0x3bc609a33bb5d123:0x9a82099dabace26b!8m2!3d17.5242162!4d76.2054416!16s%2Fg%2F11c70cv2kz!19sChIJI9G1O6MJxjsRa-Ksq50Jgpo?authuser=0&hl=en&rclk=1",
        "coordinates": {
            "latitude": 17.524216199999998,
            "longitude": 76.2054416
        }
    },
    {
        "name": "Masjid",
        "main_category": "Mosque",
        "address": "G3CW+6FR Masjid, At post hanjagi, Akkalkot",
        "detailed_address": {
            "ward": null,
            "street": "G3CW+6FR, At post hanjagi",
            "city": "Akkalkot, Hanjagi",
            "postal_code": null,
            "state": "Maharashtra",
            "country_code": "IN"
        },
        "images": [
            {
                "about": "All",
                "link": "https://lh5.googleusercontent.com/p/AF1QipP5yt1d9x7QfuvYGhuOMqf1-RN0PqoGfigIILKh=w529-h298-k-no"
            },
            {
                "about": "Street View & 360deg",
                "link": "https://streetviewpixels-pa.googleapis.com/v1/thumbnail?panoid=j22VIQVXiYZQKGuoxYqu2A&cb_client=maps_sv.tactile.gps&w=224&h=298&yaw=19.126255&pitch=0&thumbfov=100"
            },
            {
                "about": "Videos",
                "link": "https://lh5.googleusercontent.com/p/AF1QipM6VQthpp4u2AzqZPor--Jf2--i2oNdwHqyuP0Y=w224-h398-k-no"
            }
        ],
        "link": "https://www.google.com/maps/place/Masjid/data=!4m7!3m6!1s0x3bc60b24f803057b:0xd29b2e2520608fa4!8m2!3d17.52062!4d76.0961485!16s%2Fg%2F11sy40g1vt!19sChIJewUD-CQLxjsRpI9gICUum9I?authuser=0&hl=en&rclk=1",
        "coordinates": {
            "latitude": 17.52062,
            "longitude": 76.0961485
        }
    },
    {
        "name": "Chappalgaon Jama Masjid",
        "main_category": "Mosque",
        "address": "J54H+X73 Chappalgaon Jama Masjid, Tuljapur-Akkalkot Rd, Chapalgaon, Maharashtra 413226",
        "detailed_address": {
            "ward": null,
            "street": "J54H+X73, Tuljapur-Akkalkot Rd",
            "city": "Chapalgaon",
            "postal_code": "413226",
            "state": "Maharashtra",
            "country_code": "IN"
        },
        "images": [
            {
                "about": "All",
                "link": "https://streetviewpixels-pa.googleapis.com/v1/thumbnail?panoid=42R8e1ltsdtXWgizEl-Cpg&cb_client=maps_sv.tactile.gps&w=224&h=298&yaw=291.54822&pitch=0&thumbfov=100"
            },
            {
                "about": "Street View & 360deg",
                "link": "https://streetviewpixels-pa.googleapis.com/v1/thumbnail?panoid=42R8e1ltsdtXWgizEl-Cpg&cb_client=maps_sv.tactile.gps&w=224&h=298&yaw=291.54822&pitch=0&thumbfov=100"
            }
        ],
        "link": "https://www.google.com/maps/place/Chappalgaon+Jama+Masjid/data=!4m7!3m6!1s0x3bc5e1df72c6e1ff:0xa4dc57f6f3e47862!8m2!3d17.6073817!4d76.1781766!16s%2Fg%2F11r2lp0dj9!19sChIJ_-HGct_hxTsRYnjk8_ZX3KQ?authuser=0&hl=en&rclk=1",
        "coordinates": {
            "latitude": 17.607381699999998,
            "longitude": 76.1781766
        }
    },
    {
        "name": "Khairat masjid",
        "main_category": "Mosque",
        "address": "Room No .102, Khairat masjid, Talk, Akalkot, near Bus stop, Khairat, Maharashtra 413218",
        "detailed_address": {
            "ward": null,
            "street": "Room No .102, Talk, Akalkot, near Bus stop",
            "city": "Khairat",
            "postal_code": "413218",
            "state": "Maharashtra",
            "country_code": "IN"
        },
        "images": [
            {
                "about": "All",
                "link": "https://lh5.googleusercontent.com/p/AF1QipNNELB1uNGjGug6T94KVkbUj3DY2xd3o6VYmMFd=w224-h298-k-no"
            },
            {
                "about": "Dome",
                "link": "https://lh5.googleusercontent.com/p/AF1QipNNELB1uNGjGug6T94KVkbUj3DY2xd3o6VYmMFd=w224-h298-k-no"
            },
            {
                "about": "Videos",
                "link": "https://lh5.googleusercontent.com/p/AF1QipM1teiTfXN0NlJ3szA_MR4YgP5PsGtDJDiykrou=w224-h450-k-no"
            },
            {
                "about": "Street View & 360deg",
                "link": "https://streetviewpixels-pa.googleapis.com/v1/thumbnail?panoid=g4QwgHbkAvEc-l0NdP-Cog&cb_client=maps_sv.tactile.gps&w=224&h=298&yaw=93.31583&pitch=0&thumbfov=100"
            }
        ],
        "link": "https://www.google.com/maps/place/Khairat+masjid/data=!4m7!3m6!1s0x3bc5ff62ae52beeb:0x93959393ad8bc85d!8m2!3d17.631955!4d76.415807!16s%2Fg%2F11jfjnlm88!19sChIJ675SrmL_xTsRXciLrZOTlZM?authuser=0&hl=en&rclk=1",
        "coordinates": {
            "latitude": 17.631954999999998,
            "longitude": 76.415807
        }
    },
    {
        "name": "Mahemoob Subhani Dargha & masjid",
        "main_category": "Mosque",
        "address": "G6F4+M53 Mahemoob Subhani Dargha & masjid, Dastgir, Mujawar Galli, Akkalkot, Maharashtra 413216",
        "detailed_address": {
            "ward": "Vidyanagar",
            "street": "G6F4+M53, Dastgir, Mujawar Galli",
            "city": "Akkalkot",
            "postal_code": "413216",
            "state": "Maharashtra",
            "country_code": "IN"
        },
        "images": [
            {
                "about": "All",
                "link": "https://lh5.googleusercontent.com/p/AF1QipMCoRgV1LLwgTsguBvX0Sn34WURPTZhWaVQwAno=w224-h398-k-no"
            },
            {
                "about": "Dome",
                "link": "https://lh5.googleusercontent.com/p/AF1QipMCoRgV1LLwgTsguBvX0Sn34WURPTZhWaVQwAno=w224-h398-k-no"
            },
            {
                "about": "Videos",
                "link": "https://lh5.googleusercontent.com/p/AF1QipMVVYMCXlE4QwLdwUvXZQE-ci8HrNXlqoXt04U5=w529-h298-k-no"
            }
        ],
        "link": "https://www.google.com/maps/place/Mahemoob+Subhani+Dargha+%26+masjid/data=!4m7!3m6!1s0x3bc609ea9e15e939:0xafdc788d605f37bc!8m2!3d17.5241451!4d76.205416!16s%2Fg%2F11h5214wx_!19sChIJOekVnuoJxjsRvDdfYI143K8?authuser=0&hl=en&rclk=1",
        "coordinates": {
            "latitude": 17.5241451,
            "longitude": 76.205416
        }
    },
    {
        "name": "Ibrahimiya masjid akkalkot brhymyh msjd",
        "main_category": "Mosque",
        "address": "G57Q+PVJ Ibrahimiya masjid akkalkot brhymyh msjd, Stetion road, Shivapuri, Akkalkot, Maharashtra 413216",
        "detailed_address": {
            "ward": "Shivapuri",
            "street": "G57Q+PVJ, Stetion road",
            "city": "Akkalkot",
            "postal_code": null,
            "state": "Maharashtra",
            "country_code": "IN"
        },
        "images": [
            {
                "about": "All",
                "link": "https://lh5.googleusercontent.com/p/AF1QipNLqK3Eepw2AClbvKylF0UQMUHTgi45A2rnNtz1=w224-h398-k-no"
            },
            {
                "about": "Street View & 360deg",
                "link": "https://streetviewpixels-pa.googleapis.com/v1/thumbnail?panoid=G7J7whiptSHG1gjrS0yOzg&cb_client=maps_sv.tactile.gps&w=224&h=298&yaw=354.93048&pitch=0&thumbfov=100"
            },
            {
                "about": "Videos",
                "link": "https://lh5.googleusercontent.com/p/AF1QipPP84DLl29UddcMmNDBDc1VFHPMDkNeV9ZoCJOQ=w224-h398-k-no"
            }
        ],
        "link": "https://www.google.com/maps/place/Ibrahimiya+masjid+akkalkot+%D8%A7%D8%A8%D8%B1%D8%A7%DB%81%DB%8C%D9%85%DB%8C%DB%81+%D9%85%D8%B3%D8%AC%D8%AF%E2%80%AD/data=!4m7!3m6!1s0x3bc60903582c18f3:0xe017f0f8195232f9!8m2!3d17.5143479!4d76.1896518!16s%2Fg%2F11rv2bp0hs!19sChIJ8xgsWAMJxjsR-TJSGfjwF-A?authuser=0&hl=en&rclk=1",
        "coordinates": {
            "latitude": 17.5143479,
            "longitude": 76.1896518
        }
    },
    {
        "name": "Maulali masjid",
        "main_category": "Mosque",
        "address": "G6F5+P9M Maulali masjid, Dastgir, Mujawar Galli, Akkalkot, Maharashtra 413216",
        "detailed_address": {
            "ward": "Vidyanagar",
            "street": "G6F5+P9M, Dastgir, Mujawar Galli",
            "city": "Akkalkot",
            "postal_code": "413216",
            "state": "Maharashtra",
            "country_code": "IN"
        },
        "images": [],
        "link": "https://www.google.com/maps/place/Maulali+masjid/data=!4m7!3m6!1s0x3bc60927a4e8980b:0x676c1a1d1865c86e!8m2!3d17.5243362!4d76.2084218!16s%2Fg%2F11h52qdp3d!19sChIJC5jopCcJxjsRbshlGB0abGc?authuser=0&hl=en&rclk=1",
        "coordinates": {
            "latitude": 17.5243362,
            "longitude": 76.2084218
        }
    },
    {
        "name": "Hazrat Peer Shah Husaini Chusti Alahi Rahma",
        "main_category": "Mosque",
        "address": "Hazrat Peer Shah Husaini Chusti Alahi Rahma, Nea New Tehsil Office, Mhada Colony, Akkalkot, Maharashtra 413216",
        "detailed_address": {
            "ward": "Mhada Colony",
            "street": "Nea New Tehsil Office",
            "city": "Akkalkot",
            "postal_code": "413216",
            "state": "Maharashtra",
            "country_code": "IN"
        },
        "images": [
            {
                "about": "All",
                "link": "https://lh5.googleusercontent.com/p/AF1QipNeL5NBXALn1hjp7qWiclBa-mL3gcyXIKqM_7z9=w529-h298-k-no"
            },
            {
                "about": "Street View & 360deg",
                "link": "https://streetviewpixels-pa.googleapis.com/v1/thumbnail?panoid=7phJETQ9VTmy5GEV383S6Q&cb_client=maps_sv.tactile.gps&w=224&h=298&yaw=351.90152&pitch=0&thumbfov=100"
            },
            {
                "about": "Videos",
                "link": "https://lh5.googleusercontent.com/p/AF1QipPY027Lct4UJ6qLO2XfiPLwESz3MfNpU7bR8fLJ=w529-h298-k-no"
            }
        ],
        "link": "https://www.google.com/maps/place/Hazrat+Peer+Shah+Husaini+Chusti+Alahi+Rahma/data=!4m7!3m6!1s0x3bc609a92a6057ef:0xae0f4cceadac573f!8m2!3d17.5144044!4d76.198594!16s%2Fg%2F11k_ft4x53!19sChIJ71dgKqkJxjsRP1esrc5MD64?authuser=0&hl=en&rclk=1",
        "coordinates": {
            "latitude": 17.5144044,
            "longitude": 76.198594
        }
    },
    {
        "name": "Jama Masjid,Nimgaon Akkalkot",
        "main_category": "Mosque",
        "address": "G6GX+553 Jama Masjid,Nimgaon Akkalkot, Nimgaon, Hattikanbas, Maharashtra 413216",
        "detailed_address": {
            "ward": null,
            "street": "G6GX+553",
            "city": "Nimgaon, Hattikanbas",
            "postal_code": null,
            "state": "Maharashtra",
            "country_code": "IN"
        },
        "images": [],
        "link": "https://www.google.com/maps/place/Jama+Masjid,Nimgaon+Akkalkot/data=!4m7!3m6!1s0x3bc6096b928d9397:0x3408dacb6faaddd3!8m2!3d17.5253857!4d76.2479201!16s%2Fg%2F11tnk4hpt5!19sChIJl5ONkmsJxjsR092qb8vaCDQ?authuser=0&hl=en&rclk=1",
        "coordinates": {
            "latitude": 17.525385699999998,
            "longitude": 76.2479201
        }
    },
    {
        "name": "Jama Masjid Akkalkot",
        "main_category": "Mosque",
        "address": "G6C4+G7C Jama Masjid Akkalkot, Unnamed Road, Vidyanagar, Akkalkot, Maharashtra 413216",
        "detailed_address": {
            "ward": "Vidyanagar",
            "street": "G6C4+G7C, Unnamed Road",
            "city": "Akkalkot",
            "postal_code": "413216",
            "state": "Maharashtra",
            "country_code": "IN"
        },
        "images": [
            {
                "about": "All",
                "link": "https://lh5.googleusercontent.com/p/AF1QipNCOqZiPmglHlOlAgPirJ3MSksatq8fPKMGcQhJ=w224-h398-k-no"
            },
            {
                "about": "Street View & 360deg",
                "link": "https://streetviewpixels-pa.googleapis.com/v1/thumbnail?panoid=3nLCN7T4wBRB4zX6LYKjTw&cb_client=maps_sv.tactile.gps&w=224&h=298&yaw=130.04945&pitch=0&thumbfov=100"
            },
            {
                "about": "Videos",
                "link": "https://lh5.googleusercontent.com/p/AF1QipPp2gYjbl9n10NUbyM4GhsYIObG2FqUDecxR9DF=w224-h398-k-no"
            }
        ],
        "link": "https://www.google.com/maps/place/Jama+Masjid+Akkalkot/data=!4m7!3m6!1s0x3bc609f8f31369c5:0x1520bea376893948!8m2!3d17.5213076!4d76.2056259!16s%2Fg%2F11nmzyc852!19sChIJxWkT8_gJxjsRSDmJdqO-IBU?authuser=0&hl=en&rclk=1",
        "coordinates": {
            "latitude": 17.5213076,
            "longitude": 76.2056259
        }
    },
    {
        "name": "Iqra masjid akkalkot qr msjd",
        "main_category": "Mosque",
        "address": "G6P4+CX2 Iqra masjid akkalkot qr msjd, Akkalkot, Maharashtra 413216",
        "detailed_address": {
            "ward": null,
            "street": "G6P4+CX2",
            "city": "Akkalkot",
            "postal_code": null,
            "state": "Maharashtra",
            "country_code": "IN"
        },
        "images": [
            {
                "about": "All",
                "link": "https://lh5.googleusercontent.com/p/AF1QipPVz7xQTPDr5Qviueo9D5CNwN0qF1rIJIUnFaI2=w529-h298-k-no"
            },
            {
                "about": "Dome",
                "link": "https://lh5.googleusercontent.com/p/AF1QipPVz7xQTPDr5Qviueo9D5CNwN0qF1rIJIUnFaI2=w529-h298-k-no"
            },
            {
                "about": "Street View & 360deg",
                "link": "https://streetviewpixels-pa.googleapis.com/v1/thumbnail?panoid=v6RMEnIh2BiHUBmtZtquiQ&cb_client=maps_sv.tactile.gps&w=224&h=298&yaw=195.05663&pitch=0&thumbfov=100"
            }
        ],
        "link": "https://www.google.com/maps/place/Iqra+masjid+akkalkot+%D8%A7%D9%82%D8%B1%D8%A7%D8%A1+%D9%85%D8%B3%D8%AC%D8%AF%E2%80%AD/data=!4m7!3m6!1s0x3bc609915acb0fc5:0x8a877d033bf6a157!8m2!3d17.5360072!4d76.2073819!16s%2Fg%2F11swk2krl8!19sChIJxQ_LWpEJxjsRV6H2OwN9h4o?authuser=0&hl=en&rclk=1",
        "coordinates": {
            "latitude": 17.5360072,
            "longitude": 76.2073819
        }
    },
    {
        "name": "Azeemiya masjid akkalkot `Zmyh msjd",
        "main_category": "Mosque",
        "address": "G59W+FJP Azeemiya masjid akkalkot `Zmyh msjd, near Gas godown, Shivaji Nagar, Akkalkot, Maharashtra 413216",
        "detailed_address": {
            "ward": "Shivaji Nagar",
            "street": "G59W+FJP, near Gas godown",
            "city": "Akkalkot",
            "postal_code": null,
            "state": "Maharashtra",
            "country_code": "IN"
        },
        "images": [
            {
                "about": "All",
                "link": "https://streetviewpixels-pa.googleapis.com/v1/thumbnail?panoid=IyDYbnlTQGSqFVDRj5o9LQ&cb_client=maps_sv.tactile.gps&w=224&h=298&yaw=357.996&pitch=0&thumbfov=100"
            },
            {
                "about": "Street View & 360deg",
                "link": "https://streetviewpixels-pa.googleapis.com/v1/thumbnail?panoid=IyDYbnlTQGSqFVDRj5o9LQ&cb_client=maps_sv.tactile.gps&w=224&h=298&yaw=357.996&pitch=0&thumbfov=100"
            }
        ],
        "link": "https://www.google.com/maps/place/Azeemiya+masjid+akkalkot+%D8%B9%D8%B8%D9%85%DB%8C%DB%81+%D9%85%D8%B3%D8%AC%D8%AF%E2%80%AD/data=!4m7!3m6!1s0x3bc609df401bbfe9:0x2c250d7ec5270fd5!8m2!3d17.5187034!4d76.1965789!16s%2Fg%2F11swq5g7vk!19sChIJ6b8bQN8JxjsR1Q8nxX4NJSw?authuser=0&hl=en&rclk=1",
        "coordinates": {
            "latitude": 17.5187034,
            "longitude": 76.19657889999999
        }
    },
    {
        "name": "Aqsa masjid",
        "main_category": "Mosque",
        "address": "G6J2+5XP Aqsa masjid, Khasbag, Vidyanagar, Akkalkot, Maharashtra 413216",
        "detailed_address": {
            "ward": "Khasbag, Vidyanagar",
            "street": "G6J2+5XP",
            "city": "Akkalkot",
            "postal_code": null,
            "state": "Maharashtra",
            "country_code": "IN"
        },
        "images": [
            {
                "about": "All",
                "link": "https://streetviewpixels-pa.googleapis.com/v1/thumbnail?panoid=4xzq__-rGnqg4f9-WSz2uQ&cb_client=maps_sv.tactile.gps&w=224&h=298&yaw=202.38626&pitch=0&thumbfov=100"
            },
            {
                "about": "Street View & 360deg",
                "link": "https://streetviewpixels-pa.googleapis.com/v1/thumbnail?panoid=4xzq__-rGnqg4f9-WSz2uQ&cb_client=maps_sv.tactile.gps&w=224&h=298&yaw=202.38626&pitch=0&thumbfov=100"
            }
        ],
        "link": "https://www.google.com/maps/place/Aqsa+masjid/data=!4m7!3m6!1s0x3bc609ff17b491df:0x536bf2bff48ac2f7!8m2!3d17.5304538!4d76.2024604!16s%2Fg%2F11rttzpfyf!19sChIJ35G0F_8JxjsR98KK9L_ya1M?authuser=0&hl=en&rclk=1",
        "coordinates": {
            "latitude": 17.5304538,
            "longitude": 76.20246039999999
        }
    },
    {
        "name": "Makka Masjid",
        "main_category": "Mosque",
        "address": "G6G5+22J Makka Masjid, Karanja chowk, Vidyanagar, Akkalkot, Maharashtra 413216",
        "detailed_address": {
            "ward": "Vidyanagar",
            "street": "G6G5+22J, Karanja chowk",
            "city": "Akkalkot",
            "postal_code": null,
            "state": "Maharashtra",
            "country_code": "IN"
        },
        "images": [
            {
                "about": "All",
                "link": "https://streetviewpixels-pa.googleapis.com/v1/thumbnail?panoid=2593ZiyZRx9Qnl9nIifaXg&cb_client=maps_sv.tactile.gps&w=224&h=298&yaw=344.15903&pitch=0&thumbfov=100"
            },
            {
                "about": "Street View & 360deg",
                "link": "https://streetviewpixels-pa.googleapis.com/v1/thumbnail?panoid=2593ZiyZRx9Qnl9nIifaXg&cb_client=maps_sv.tactile.gps&w=224&h=298&yaw=344.15903&pitch=0&thumbfov=100"
            }
        ],
        "link": "https://www.google.com/maps/place/Makka+Masjid/data=!4m7!3m6!1s0x3bc60978777b0105:0x8b8690ccc9f8108!8m2!3d17.5250829!4d76.2075136!16s%2Fg%2F11nyp0m0th!19sChIJBQF7d3gJxjsRCIGfzAxpuAg?authuser=0&hl=en&rclk=1",
        "coordinates": {
            "latitude": 17.525082899999997,
            "longitude": 76.2075136
        }
    },
    {
        "name": "Quadiriyah Masjid",
        "main_category": "Mosque",
        "address": "G6F4+V52 Quadiriyah Masjid, Vidyanagar, Akkalkot, Maharashtra 413216",
        "detailed_address": {
            "ward": "Vidyanagar",
            "street": "G6F4+V52",
            "city": "Akkalkot",
            "postal_code": "413216",
            "state": "Maharashtra",
            "country_code": "IN"
        },
        "images": [],
        "link": "https://www.google.com/maps/place/Quadiriyah+Masjid/data=!4m7!3m6!1s0x3bc609622a06f5fd:0x7bd036868ee18ead!8m2!3d17.5246299!4d76.2054007!16s%2Fg%2F11kqkmsrw8!19sChIJ_fUGKmIJxjsRrY7hjoY20Hs?authuser=0&hl=en&rclk=1",
        "coordinates": {
            "latitude": 17.5246299,
            "longitude": 76.2054007
        }
    },
    {
        "name": "masjid-e-umar farooq",
        "main_category": "Mosque",
        "address": "G5CP+983 masjid-e-umar farooq, Byagehalli Rd, Samrath Nagar, Akkalkot, Maharashtra 413216",
        "detailed_address": {
            "ward": "Samrath Nagar",
            "street": "G5CP+983, Byagehalli Rd",
            "city": "Akkalkot",
            "postal_code": "413216",
            "state": "Maharashtra",
            "country_code": "IN"
        },
        "images": [],
        "link": "https://www.google.com/maps/place/masjid-e-umar+farooq/data=!4m7!3m6!1s0x3bc609839c533c7d:0xc94678c11b7a5b22!8m2!3d17.5208796!4d76.1858072!16s%2Fg%2F11rq7t60p0!19sChIJfTxTnIMJxjsRIlt6G8F4Rsk?authuser=0&hl=en&rclk=1",
        "coordinates": {
            "latitude": 17.5208796,
            "longitude": 76.1858072
        }
    },
    {
        "name": "Shah Habib Masjid",
        "main_category": "Mosque",
        "address": "G6F4+M5P Shah Habib Masjid, Vidyanagar, Akkalkot, Maharashtra 413216",
        "detailed_address": {
            "ward": "Vidyanagar",
            "street": "G6F4+M5P",
            "city": "Akkalkot",
            "postal_code": "413216",
            "state": "Maharashtra",
            "country_code": "IN"
        },
        "images": [],
        "link": "https://www.google.com/maps/place/Shah+Habib+Masjid/data=!4m7!3m6!1s0x3bc609a33bb5d123:0x7992d032614544f9!8m2!3d17.5242162!4d76.2054416!16s%2Fg%2F11hbhhzr26!19sChIJI9G1O6MJxjsR-URFYTLQknk?authuser=0&hl=en&rclk=1",
        "coordinates": {
            "latitude": 17.524216199999998,
            "longitude": 76.2054416
        }
    },
    {
        "name": "Jamia Masjid",
        "main_category": "Mosque",
        "address": "G692+VMQ Jamia Masjid, Akkalkot - D.Ganagapur Rd, Mallikarjun Nagar, Akkalkot, Maharashtra 413216",
        "detailed_address": {
            "ward": "Mallikarjun Nagar",
            "street": "G692+VMQ, Akkalkot - D.Ganagapur Rd",
            "city": "Akkalkot",
            "postal_code": "413216",
            "state": "Maharashtra",
            "country_code": "IN"
        },
        "images": [
            {
                "about": "All",
                "link": "https://streetviewpixels-pa.googleapis.com/v1/thumbnail?panoid=gY7hpFdxwLFg__Cm_laL5g&cb_client=maps_sv.tactile.gps&w=224&h=298&yaw=113.50395&pitch=0&thumbfov=100"
            },
            {
                "about": "Street View & 360deg",
                "link": "https://streetviewpixels-pa.googleapis.com/v1/thumbnail?panoid=gY7hpFdxwLFg__Cm_laL5g&cb_client=maps_sv.tactile.gps&w=224&h=298&yaw=113.50395&pitch=0&thumbfov=100"
            }
        ],
        "link": "https://www.google.com/maps/place/Jamia+Masjid/data=!4m7!3m6!1s0x3bc6092bdcadb485:0x4d0b9300d10158c2!8m2!3d17.5197022!4d76.2017386!16s%2Fg%2F11t4x80v32!19sChIJhbSt3CsJxjsRwlgB0QCTC00?authuser=0&hl=en&rclk=1",
        "coordinates": {
            "latitude": 17.519702199999998,
            "longitude": 76.2017386
        }
    },
    {
        "name": "Masjid e akasa",
        "main_category": "Mosque",
        "address": "F5VV+5R4 Masjid e akasa, Matanhalli, Maharashtra 413216",
        "detailed_address": {
            "ward": null,
            "street": "F5VV+5R4",
            "city": "Matanhalli",
            "postal_code": "413216",
            "state": "Maharashtra",
            "country_code": "IN"
        },
        "images": [
            {
                "about": "All",
                "link": "https://lh5.googleusercontent.com/p/AF1QipMVAmCq9ZqGoAkr9uiDELTMqEp452rJW0CwfSUa=w397-h298-k-no"
            }
        ],
        "link": "https://www.google.com/maps/place/Masjid+e+akasa/data=!4m7!3m6!1s0x3bc609d984579ae9:0x3b1a80c1244039df!8m2!3d17.492889!4d76.1945726!16s%2Fg%2F11h3qss616!19sChIJ6ZpXhNkJxjsR3zlAJMGAGjs?authuser=0&hl=en&rclk=1",
        "coordinates": {
            "latitude": 17.492888999999998,
            "longitude": 76.1945726
        }
    },
    {
        "name": "Ayesha Masjid",
        "main_category": "School",
        "address": "G5CR+G69 Ayesha Masjid, byaghelli road, Hippargi, Akkalkot, Maharashtra 413216",
        "detailed_address": {
            "ward": "Hippargi",
            "street": "G5CR+G69, byaghelli road",
            "city": "Akkalkot",
            "postal_code": null,
            "state": "Maharashtra",
            "country_code": "IN"
        },
        "images": [
            {
                "about": "All",
                "link": "https://lh5.googleusercontent.com/p/AF1QipP7CNsz_TOgq_ZvWL1Ve9HOSTSm5DWi1_OdUg5J=w224-h298-k-no"
            },
            {
                "about": "Street View & 360deg",
                "link": "https://streetviewpixels-pa.googleapis.com/v1/thumbnail?panoid=bT8_fWc3fgbzK-VkSDWS3g&cb_client=maps_sv.tactile.gps&w=224&h=298&yaw=32.58365&pitch=0&thumbfov=100"
            }
        ],
        "link": "https://www.google.com/maps/place/Ayesha+Masjid/data=!4m7!3m6!1s0x3bc6091bb2cdf2bd:0x7172a3ffbfcc018d!8m2!3d17.5212872!4d76.1905979!16s%2Fg%2F11h1zws7vv!19sChIJvfLNshsJxjsRjQHMv_-jcnE?authuser=0&hl=en&rclk=1",
        "coordinates": {
            "latitude": 17.5212872,
            "longitude": 76.1905979
        }
    },
    {
        "name": "Ibrahimiya Arabi Madarsa and Masjid",
        "main_category": "School",
        "address": "G57Q+PRH Ibrahimiya Arabi Madarsa and Masjid, Khalil Nagar, Akkalkot, Maharashtra 413216",
        "detailed_address": {
            "ward": "Khalil Nagar",
            "street": "G57Q+PRH",
            "city": "Akkalkot",
            "postal_code": "413216",
            "state": "Maharashtra",
            "country_code": "IN"
        },
        "images": [
            {
                "about": "All",
                "link": "https://streetviewpixels-pa.googleapis.com/v1/thumbnail?panoid=G7J7whiptSHG1gjrS0yOzg&cb_client=maps_sv.tactile.gps&w=224&h=298&yaw=345.29056&pitch=0&thumbfov=100"
            },
            {
                "about": "Street View & 360deg",
                "link": "https://streetviewpixels-pa.googleapis.com/v1/thumbnail?panoid=G7J7whiptSHG1gjrS0yOzg&cb_client=maps_sv.tactile.gps&w=224&h=298&yaw=345.29056&pitch=0&thumbfov=100"
            }
        ],
        "link": "https://www.google.com/maps/place/Ibrahimiya+Arabi+Madarsa+and+Masjid/data=!4m7!3m6!1s0x3bc60915c2127227:0x3ae6f88cb9853c93!8m2!3d17.5143151!4d76.1896071!16s%2Fg%2F11n088cg4r!19sChIJJ3ISwhUJxjsRkzyFuYz45jo?authuser=0&hl=en&rclk=1",
        "coordinates": {
            "latitude": 17.514315099999997,
            "longitude": 76.1896071
        }
    },
    {
        "name": "Jeur road samata nager old milk dairy near akkalkot jamadar masjid",
        "main_category": "Bakery and Cake Shop",
        "address": "G6F4+M5P Jeur road samata nager old milk dairy near akkalkot jamadar masjid, Vidyanagar, Akkalkot, Maharashtra 413216",
        "detailed_address": {
            "ward": "Vidyanagar",
            "street": "G6F4+M5P",
            "city": "Akkalkot",
            "postal_code": null,
            "state": "Maharashtra",
            "country_code": "IN"
        },
        "images": [
            {
                "about": "All",
                "link": "https://lh5.googleusercontent.com/p/AF1QipOzwA18BU6xmUBp-GoYmSjiF303RjiA_9gvN2bo=w397-h298-k-no"
            }
        ],
        "link": "https://www.google.com/maps/place/Jeur+road+samata+nager+old+milk+dairy+near+akkalkot+jamadar+masjid/data=!4m7!3m6!1s0x3bc609f6c37afb9b:0x30dcd6cf7c9001c3!8m2!3d17.5242162!4d76.2054416!16s%2Fg%2F11rt_wd_5m!19sChIJm_t6w_YJxjsRwwGQfM_W3DA?authuser=0&hl=en&rclk=1",
        "coordinates": {
            "latitude": 17.524216199999998,
            "longitude": 76.2054416
        }
    }
]