[
    {
        "name": "Purani Masjid",
        "main_category": "Mosque",
        "address": "GQVH+H3H Purani Masjid, Banda basti, Dr. Ambedkar Nagar, Madhya Pradesh 453441",
        "detailed_address": {
            "ward": "Banda basti",
            "street": "GQVH+H3H",
            "city": "Dr. Ambedkar Nagar",
            "postal_code": "453441",
            "state": "Madhya Pradesh",
            "country_code": "IN"
        },
        "images": [
            {
                "about": "All",
                "link": "https://lh5.googleusercontent.com/p/AF1QipMcXWBRk-acYPl3c6rhAn39Vka0S9pW5aTETSAy=w224-h397-k-no"
            },
            {
                "about": "Videos",
                "link": "https://lh5.googleusercontent.com/p/AF1QipMcXWBRk-acYPl3c6rhAn39Vka0S9pW5aTETSAy=w224-h397-k-no"
            }
        ],
        "link": "https://www.google.com/maps/place/Purani+Masjid/data=!4m7!3m6!1s0x3962f765d6732499:0x419928c688490488!8m2!3d22.54393!4d75.7777372!16s%2Fg%2F11g879y807!19sChIJmSRz1mX3YjkRiARJiMYomUE?authuser=0&hl=en&rclk=1",
        "coordinates": {
            "latitude": 22.54393,
            "longitude": 75.77773719999999
        }
    },
    {
        "name": "Jumma Masjid Velur jumaa msjit veeluur",
        "main_category": "Mosque",
        "address": "4255+MVF Jumma Masjid Velur jumaa msjit veeluur, Velur, Tamil Nadu 638182",
        "detailed_address": {
            "ward": null,
            "street": "4255+MVF",
            "city": "Velur",
            "postal_code": "638182",
            "state": "Tamil Nadu",
            "country_code": "IN"
        },
        "images": [
            {
                "about": "All",
                "link": "https://lh5.googleusercontent.com/p/AF1QipOIr28YWn1JtQaAEWfyigEyOOX3a7mbG4JpgwxG=w529-h298-k-no"
            },
            {
                "about": "Dome",
                "link": "https://lh5.googleusercontent.com/p/AF1QipNfZ8np5Sg4BbHG2riLCFyY4VlS3xJ5zBQ_2yMu=w529-h298-k-no"
            },
            {
                "about": "Street View & 360deg",
                "link": "https://streetviewpixels-pa.googleapis.com/v1/thumbnail?panoid=Dv-zXGi4K2f1_lxaNpjzsA&cb_client=maps_sv.tactile.gps&w=224&h=298&yaw=110.33069&pitch=0&thumbfov=100"
            }
        ],
        "link": "https://www.google.com/maps/place/Jumma+Masjid+Velur+%E0%AE%9C%E0%AF%81%E0%AE%AE%E0%AE%BE+%E0%AE%AE%E0%AE%B8%E0%AF%8D%E0%AE%9C%E0%AE%BF%E0%AE%A4%E0%AF%8D+%E0%AE%B5%E0%AF%87%E0%AE%B2%E0%AF%82%E0%AE%B0%E0%AF%8D/data=!4m7!3m6!1s0x3babd4ae40cce651:0x4d3acb03f21a4799!8m2!3d11.1091793!4d78.0096765!16s%2Fg%2F11f_3l_g27!19sChIJUebMQK7UqzsRmUca8gPLOk0?authuser=0&hl=en&rclk=1",
        "coordinates": {
            "latitude": 11.1091793,
            "longitude": 78.0096765
        }
    },
    {
        "name": "Velur West Juma Masjid",
        "main_category": "Mosque",
        "address": "CQ23+P82 Velur West Juma Masjid, Velur West, Kerala 673315",
        "detailed_address": {
            "ward": null,
            "street": "CQ23+P82",
            "city": "Velur West",
            "postal_code": "673315",
            "state": "Kerala",
            "country_code": "IN"
        },
        "images": [
            {
                "about": "All",
                "link": "https://lh5.googleusercontent.com/p/AF1QipN4AXGsIgDGaitAB1RO97AgS8Y2R7apO8rIjigb=w529-h298-k-no"
            },
            {
                "about": "Dome",
                "link": "https://lh5.googleusercontent.com/p/AF1QipOHnSuce7W5DijzoRslGnTfIYZ3zm_oF8XfryqZ=w397-h298-k-no"
            },
            {
                "about": "Videos",
                "link": "https://lh5.googleusercontent.com/p/AF1QipMiTM0dguGd7y1pkVQI0GhxzAmV_-0bRtamHlgt=w529-h298-k-no"
            },
            {
                "about": "Street View & 360deg",
                "link": "https://streetviewpixels-pa.googleapis.com/v1/thumbnail?panoid=W2M9iWgZjge3HRriqUYzVw&cb_client=maps_sv.tactile.gps&w=224&h=298&yaw=178.14214&pitch=0&thumbfov=100"
            }
        ],
        "link": "https://www.google.com/maps/place/Velur+West+Juma+Masjid/data=!4m7!3m6!1s0x3ba6617448c612f1:0xb0b2a4ad72754000!8m2!3d11.4017527!4d75.7532607!16s%2Fg%2F11g0dsmjzg!19sChIJ8RLGSHRhpjsRAEB1cq2ksrA?authuser=0&hl=en&rclk=1",
        "coordinates": {
            "latitude": 11.4017527,
            "longitude": 75.7532607
        }
    },
    {
        "name": "Masjid",
        "main_category": "Mosque",
        "address": "FJWM+2X8 Masjid, Khudalpura, Madhya Pradesh 453661",
        "detailed_address": {
            "ward": null,
            "street": "FJWM+2X8",
            "city": "Khudalpura",
            "postal_code": "453661",
            "state": "Madhya Pradesh",
            "country_code": "IN"
        },
        "images": [
            {
                "about": "All",
                "link": "https://lh5.googleusercontent.com/p/AF1QipPD2AeebvZWta5T5vEdBbyjPu4oIElajSo4NPvI=w387-h298-k-no"
            },
            {
                "about": "Street View & 360deg",
                "link": "https://streetviewpixels-pa.googleapis.com/v1/thumbnail?panoid=OrXV3CrKrjTd3RzjpFqjmg&cb_client=maps_sv.tactile.gps&w=224&h=298&yaw=25.634832&pitch=0&thumbfov=100"
            },
            {
                "about": "Videos",
                "link": "https://lh5.googleusercontent.com/p/AF1QipMMx2WEnuEFzchedE9oAtmuHjWIvl32abrnrDQk=w224-h398-k-no"
            }
        ],
        "link": "https://www.google.com/maps/place/Masjid/data=!4m7!3m6!1s0x3962599d7351b90b:0xf8f297dcedacebeb!8m2!3d22.4950427!4d75.6349539!16s%2Fg%2F11c2qzzl6_!19sChIJC7lRc51ZYjkR6-us7dyX8vg?authuser=0&hl=en&rclk=1",
        "coordinates": {
            "latitude": 22.4950427,
            "longitude": 75.6349539
        }
    },
    {
        "name": "Nurani Masjid",
        "main_category": "Mosque",
        "address": "Nurani Masjid, Kudalda, Madhya Pradesh 450337",
        "detailed_address": {
            "ward": null,
            "street": null,
            "city": "Kudalda",
            "postal_code": "450337",
            "state": "Madhya Pradesh",
            "country_code": "IN"
        },
        "images": [
            {
                "about": "All",
                "link": "https://lh5.googleusercontent.com/p/AF1QipN0OVQUG1UFsqAd_sN221IeY9eAvHWl4PF6rl7R=w529-h298-k-no"
            }
        ],
        "link": "https://www.google.com/maps/place/Nurani+Masjid/data=!4m7!3m6!1s0x3bd819a55200ea29:0x5c9b277c2903ffec!8m2!3d21.7088646!4d76.3005531!16s%2Fg%2F11kpn4hzb8!19sChIJKeoAUqUZ2DsR7P8DKXwnm1w?authuser=0&hl=en&rclk=1",
        "coordinates": {
            "latitude": 21.7088646,
            "longitude": 76.3005531
        }
    },
    {
        "name": "Noorani Masjid",
        "main_category": "Mosque",
        "address": "Noorani Masjid, Bus Stand, Jalod, Maharashtra 420425",
        "detailed_address": {
            "ward": null,
            "street": "Bus Stand",
            "city": "Jalod",
            "postal_code": "420425",
            "state": "Maharashtra",
            "country_code": "IN"
        },
        "images": [
            {
                "about": "All",
                "link": "https://lh5.googleusercontent.com/p/AF1QipOWRvxxVQyGYF6DBOd5zotn1QWmFYUmivFXlAkq=w529-h298-k-no"
            }
        ],
        "link": "https://www.google.com/maps/place/Noorani+Masjid/data=!4m7!3m6!1s0x3bd929c1b0e82f43:0x6bad512e1ceef3a9!8m2!3d21.1648559!4d75.1408663!16s%2Fg%2F11fkjhnlxy!19sChIJQy_osMEp2TsRqfPuHC5RrWs?authuser=0&hl=en&rclk=1",
        "coordinates": {
            "latitude": 21.1648559,
            "longitude": 75.1408663
        }
    },
    {
        "name": "Chavni Masjid",
        "main_category": "Mosque",
        "address": "Chavni Masjid, Dhulet, Madhya Pradesh 456443",
        "detailed_address": {
            "ward": null,
            "street": null,
            "city": "Dhulet",
            "postal_code": null,
            "state": "Madhya Pradesh",
            "country_code": "IN"
        },
        "images": [],
        "link": "https://www.google.com/maps/place/Chavni+Masjid/data=!4m7!3m6!1s0x396380a452bdd65d:0xae3b2ead610364ab!8m2!3d23.4637999!4d75.6354377!16s%2Fg%2F1hc96cs4s!19sChIJXda9UqSAYzkRq2QDYa0uO64?authuser=0&hl=en&rclk=1",
        "coordinates": {
            "latitude": 23.463799899999998,
            "longitude": 75.6354377
        }
    },
    {
        "name": "Sunni jama masjid",
        "main_category": "Mosque",
        "address": "3V5J+X6P Sunni jama masjid, Temlabari Khairi, Temlawadi Mal, Madhya Pradesh 461441",
        "detailed_address": {
            "ward": null,
            "street": "3V5J+X6P",
            "city": "Temlabari Khairi, Temlawadi Mal",
            "postal_code": "461441",
            "state": "Madhya Pradesh",
            "country_code": "IN"
        },
        "images": [],
        "link": "https://www.google.com/maps/place/Sunni+jama+masjid/data=!4m7!3m6!1s0x3bd7df0f14a22b7d:0xa444da119f9f3d17!8m2!3d22.0600479!4d76.8795656!16s%2Fg%2F11txm0swfy!19sChIJfSuiFA_f1zsRFz2fnxHaRKQ?authuser=0&hl=en&rclk=1",
        "coordinates": {
            "latitude": 22.0600479,
            "longitude": 76.87956559999999
        }
    },
    {
        "name": "Mosque",
        "main_category": "Mosque",
        "address": "4255+FXR Mosque, Thiruvalluvar Salai, Velur, Tamil Nadu 638182",
        "detailed_address": {
            "ward": null,
            "street": "4255+FXR, Thiruvalluvar Salai",
            "city": "Velur",
            "postal_code": "638182",
            "state": "Tamil Nadu",
            "country_code": "IN"
        },
        "images": [
            {
                "about": "All",
                "link": "https://streetviewpixels-pa.googleapis.com/v1/thumbnail?panoid=ihpg-ozRR-OtF1HDfiXcqA&cb_client=maps_sv.tactile.gps&w=224&h=298&yaw=96.546135&pitch=0&thumbfov=100"
            },
            {
                "about": "Street View & 360deg",
                "link": "https://streetviewpixels-pa.googleapis.com/v1/thumbnail?panoid=ihpg-ozRR-OtF1HDfiXcqA&cb_client=maps_sv.tactile.gps&w=224&h=298&yaw=96.546135&pitch=0&thumbfov=100"
            }
        ],
        "link": "https://www.google.com/maps/place/Mosque/data=!4m7!3m6!1s0x3babd4ae6a1eaaab:0x99efcf30fd72d1b5!8m2!3d11.1087351!4d78.0098838!16s%2Fg%2F11txmznm48!19sChIJq6oeaq7UqzsRtdFy_TDP75k?authuser=0&hl=en&rclk=1",
        "coordinates": {
            "latitude": 11.108735099999999,
            "longitude": 78.0098838
        }
    },
    {
        "name": "Nurani masjid",
        "main_category": "Mosque",
        "address": "Nurani masjid, Mansuri mohllah, Onkarpura, Semalkhedi, Madhya Pradesh 456222",
        "detailed_address": {
            "ward": null,
            "street": "Mansuri mohllah",
            "city": "Onkarpura, Semalkhedi",
            "postal_code": null,
            "state": "Madhya Pradesh",
            "country_code": "IN"
        },
        "images": [
            {
                "about": "All",
                "link": "https://lh5.googleusercontent.com/p/AF1QipO4Ov0wv3MoPcUq2F8djIM5xEuYkVVa_CK-oqxO=w592-h298-k-no"
            },
            {
                "about": "Dome",
                "link": "https://lh5.googleusercontent.com/p/AF1QipPBUM8X2Ff1X8YDtsNSJTtP9vuvQFp1vlwKR71N=w224-h398-k-no"
            },
            {
                "about": "Videos",
                "link": "https://lh5.googleusercontent.com/p/AF1QipPkKX3wJElV1DIRyHIzjwf41jwyhvWllGhECfXh=w224-h398-k-no"
            }
        ],
        "link": "https://www.google.com/maps/place/Nurani+masjid/data=!4m7!3m6!1s0x3963914aa400c229:0x98c13f075021c221!8m2!3d23.1896794!4d75.4878377!16s%2Fg%2F11tmvvrmh2!19sChIJKcIApEqRYzkRIcIhUAc_wZg?authuser=0&hl=en&rclk=1",
        "coordinates": {
            "latitude": 23.1896794,
            "longitude": 75.4878377
        }
    },
    {
        "name": "Khadria Masjid T,Velur",
        "main_category": "Mosque",
        "address": "Khadria Masjid T,Velur, 204, Pallivasal Rd, T Velur, Thanipadi, Pallivasal, Kerala 685565",
        "detailed_address": {
            "ward": "T Velur",
            "street": "204, Pallivasal Rd",
            "city": "Thanipadi, Pallivasal",
            "postal_code": "685565",
            "state": "Kerala",
            "country_code": "IN"
        },
        "images": [],
        "link": "https://www.google.com/maps/place/Khadria+Masjid+T,Velur/data=!4m7!3m6!1s0x3b079914c7cb86cb:0xc284df3ee5f0e52c!8m2!3d10.0436622!4d77.0737149!16s%2Fg%2F11jzs4lsl9!19sChIJy4bLxxSZBzsRLOXw5T7fhMI?authuser=0&hl=en&rclk=1",
        "coordinates": {
            "latitude": 10.0436622,
            "longitude": 77.0737149
        }
    },
    {
        "name": "Nurani masjid",
        "main_category": "Mosque",
        "address": "VM46+VVW Nurani masjid, Sonipura, Madhya Pradesh 451335",
        "detailed_address": {
            "ward": null,
            "street": "VM46+VVW",
            "city": "Sonipura",
            "postal_code": null,
            "state": "Madhya Pradesh",
            "country_code": "IN"
        },
        "images": [
            {
                "about": "All",
                "link": "https://lh5.googleusercontent.com/p/AF1QipNMMvSCiRm5dB4a1_opp5NtIpL_oJHoivLvgtYs=w224-h398-k-no"
            },
            {
                "about": "Street View & 360deg",
                "link": "https://streetviewpixels-pa.googleapis.com/v1/thumbnail?panoid=2-q7O54_RKYV6KEF9WeeZA&cb_client=maps_sv.tactile.gps&w=224&h=298&yaw=76.47947&pitch=0&thumbfov=100"
            }
        ],
        "link": "https://www.google.com/maps/place/Nurani+masjid/data=!4m7!3m6!1s0x3bd887f1b54c44a7:0x9674727984ffb85a!8m2!3d21.8572276!4d75.662194!16s%2Fg%2F11t3gv44lv!19sChIJp0RMtfGH2DsRWrj_hHlydJY?authuser=0&hl=en&rclk=1",
        "coordinates": {
            "latitude": 21.857227599999998,
            "longitude": 75.662194
        }
    },
    {
        "name": "Masjid Khadria T,Velur",
        "main_category": "Mosque",
        "address": "4R9Q+FX6 Masjid Khadria T,Velur, Velur T., Tamil Nadu 606708",
        "detailed_address": {
            "ward": null,
            "street": "4R9Q+FX6",
            "city": "Velur T.",
            "postal_code": "606708",
            "state": "Tamil Nadu",
            "country_code": "IN"
        },
        "images": [
            {
                "about": "All",
                "link": "https://streetviewpixels-pa.googleapis.com/v1/thumbnail?panoid=Da2lbMbHLwJFupNeNZep5A&cb_client=maps_sv.tactile.gps&w=224&h=298&yaw=60.60111&pitch=0&thumbfov=100"
            },
            {
                "about": "Street View & 360deg",
                "link": "https://streetviewpixels-pa.googleapis.com/v1/thumbnail?panoid=Da2lbMbHLwJFupNeNZep5A&cb_client=maps_sv.tactile.gps&w=224&h=298&yaw=60.60111&pitch=0&thumbfov=100"
            }
        ],
        "link": "https://www.google.com/maps/place/Masjid+Khadria+T,Velur/data=!4m7!3m6!1s0x3bac9157f7b3d635:0x43fd4ad0d2adf163!8m2!3d12.1186702!4d78.8398786!16s%2Fg%2F11tk0yyvkm!19sChIJNdaz91eRrDsRY_Gt0tBK_UM?authuser=0&hl=en&rclk=1",
        "coordinates": {
            "latitude": 12.118670199999999,
            "longitude": 78.83987859999999
        }
    },
    {
        "name": "Masjid",
        "main_category": "Mosque",
        "address": "XQCF+53M Masjid, Bhawaniya Ryt, Bhawanai, Madhya Pradesh 450116",
        "detailed_address": {
            "ward": null,
            "street": "XQCF+53M",
            "city": "Bhawaniya Ryt, Bhawanai",
            "postal_code": "450116",
            "state": "Madhya Pradesh",
            "country_code": "IN"
        },
        "images": [],
        "link": "https://www.google.com/maps/place/Masjid/data=!4m7!3m6!1s0x3bd7e7623406923f:0x9f9f4fd5728d44c6!8m2!3d21.9704902!4d76.77269!16s%2Fg%2F11krpw95t7!19sChIJP5IGNGLn1zsRxkSNctVPn58?authuser=0&hl=en&rclk=1",
        "coordinates": {
            "latitude": 21.9704902,
            "longitude": 76.77269
        }
    },
    {
        "name": "Masjid",
        "main_category": "Mosque",
        "address": "R48P+VWC Masjid, Khajuri, Madhya Pradesh 450771",
        "detailed_address": {
            "ward": null,
            "street": "R48P+VWC",
            "city": "Khajuri",
            "postal_code": null,
            "state": "Madhya Pradesh",
            "country_code": "IN"
        },
        "images": [],
        "link": "https://www.google.com/maps/place/Masjid/data=!4m7!3m6!1s0x3bd8133fa576a0c3:0xe16ecc41aafcef19!8m2!3d21.8171843!4d76.137277!16s%2Fg%2F11v10xbvnc!19sChIJw6B2pT8T2DsRGe_8qkHMbuE?authuser=0&hl=en&rclk=1",
        "coordinates": {
            "latitude": 21.817184299999997,
            "longitude": 76.137277
        }
    }
]