[
    {
        "name": "MAKKAH MASJID",
        "main_category": "Mosque",
        "address": "3CQ8+VV7 MAKKAH MASJID, Kurduvadi, Maharashtra 413208",
        "detailed_address": {
            "ward": "Bhim Nagar, Bagal Nagar",
            "street": "3CQ8+VV7, MAKKAH MASJID",
            "city": "Kurduvadi",
            "postal_code": "413208",
            "state": "Maharashtra",
            "country_code": "IN"
        },
        "images": [
            {
                "about": "All",
                "link": "https://lh5.googleusercontent.com/p/AF1QipPhJdJ_cmOx3H105mv9SbJqWHN43puFtgfiT6IU=w529-h298-k-no"
            },
            {
                "about": "Street View & 360deg",
                "link": "https://streetviewpixels-pa.googleapis.com/v1/thumbnail?panoid=_TW3d7xbUzYl5vsLO-2QrA&cb_client=maps_sv.tactile.gps&w=224&h=298&yaw=288.44278&pitch=0&thumbfov=100"
            }
        ],
        "link": "https://www.google.com/maps/place/MAKKAH+MASJID/data=!4m7!3m6!1s0x3bc45c9187078e1f:0x2f7c5e4867500c61!8m2!3d18.0896516!4d75.4171834!16s%2Fg%2F11g9vsngk4!19sChIJH44Hh5FcxDsRYQxQZ0hefC8?authuser=0&hl=en&rclk=1",
        "coordinates": {
            "latitude": 18.0896516,
            "longitude": 75.4171834
        }
    },
    {
        "name": "Gulshane Raza Masjed",
        "main_category": "Mosque",
        "address": "3CXH+WF8 Gulshane Raza Masjed, Kurduvadi, Maharashtra 413208",
        "detailed_address": {
            "ward": null,
            "street": "3CXH+WF8",
            "city": "Kurduvadi",
            "postal_code": "413208",
            "state": "Maharashtra",
            "country_code": "IN"
        },
        "images": [
            {
                "about": "All",
                "link": "https://lh5.googleusercontent.com/p/AF1QipORxaIZawwaROmKjkWrEzQn8VZ-b2yxV3JoneTV=w303-h298-k-no"
            },
            {
                "about": "Dome",
                "link": "https://lh5.googleusercontent.com/p/AF1QipORxaIZawwaROmKjkWrEzQn8VZ-b2yxV3JoneTV=w303-h298-k-no"
            }
        ],
        "link": "https://www.google.com/maps/place/Gulshane+Raza+Masjed/data=!4m7!3m6!1s0x3bc45c8152a938f7:0x19e5d319a81aeb08!8m2!3d18.0997832!4d75.4286963!16s%2Fg%2F11hbpxxmxk!19sChIJ9zipUoFcxDsRCOsaqBnT5Rk?authuser=0&hl=en&rclk=1",
        "coordinates": {
            "latitude": 18.099783199999997,
            "longitude": 75.4286963
        }
    },
    {
        "name": "Madina Masjid mdynh msjd",
        "main_category": "Mosque",
        "address": "3CWG+G9V Madina Masjid mdynh msjd, Barshi - Tembhurni Rd, Nalsaheb Nagar, Kurduvadi, Maharashtra 413208",
        "detailed_address": {
            "ward": "Nalsaheb Nagar",
            "street": "3CWG+G9V, Barshi - Tembhurni Rd",
            "city": "Kurduvadi",
            "postal_code": "413208",
            "state": "Maharashtra",
            "country_code": "IN"
        },
        "images": [],
        "link": "https://www.google.com/maps/place/Madina+Masjid+%D9%85%D8%AF%DB%8C%D9%86%DB%81+%D9%85%D8%B3%D8%AC%D8%AF%E2%80%AD/data=!4m7!3m6!1s0x3bc45c844d9dd31f:0x3afe9dddc8f5ae74!8m2!3d18.0963636!4d75.4259256!16s%2Fg%2F11f4wyf40w!19sChIJH9OdTYRcxDsRdK71yN2d_jo?authuser=0&hl=en&rclk=1",
        "coordinates": {
            "latitude": 18.0963636,
            "longitude": 75.4259256
        }
    },
    {
        "name": "Gulshanai Raza Masjid Bhosare",
        "main_category": "Mosque",
        "address": "3CWC+GRQ Gulshanai Raza Masjid Bhosare, MH SH 145, Bagal Nagar, Kurduvadi, Maharashtra 413208",
        "detailed_address": {
            "ward": "Bagal Nagar",
            "street": "3CWC+GRQ, MH SH 145",
            "city": "Kurduvadi",
            "postal_code": "413208",
            "state": "Maharashtra",
            "country_code": "IN"
        },
        "images": [
            {
                "about": "All",
                "link": "https://lh5.googleusercontent.com/p/AF1QipN9sKFUNNe3VEPxxB13cK2V4mRj9IYScf49MDz7=w428-h298-k-no"
            },
            {
                "about": "Dome",
                "link": "https://lh5.googleusercontent.com/p/AF1QipN9sKFUNNe3VEPxxB13cK2V4mRj9IYScf49MDz7=w428-h298-k-no"
            },
            {
                "about": "Street View & 360deg",
                "link": "https://streetviewpixels-pa.googleapis.com/v1/thumbnail?panoid=sAW3utdYWTh0SoCbTd4DGg&cb_client=maps_sv.tactile.gps&w=224&h=298&yaw=131.53658&pitch=0&thumbfov=100"
            }
        ],
        "link": "https://www.google.com/maps/place/Gulshanai+Raza+Masjid+Bhosare/data=!4m7!3m6!1s0x3bc45c8f65ff215d:0xcf97321b0994fbd3!8m2!3d18.0963477!4d75.4221007!16s%2Fg%2F11g9ntgb56!19sChIJXSH_ZY9cxDsR0_uUCRsyl88?authuser=0&hl=en&rclk=1",
        "coordinates": {
            "latitude": 18.0963477,
            "longitude": 75.4221007
        }
    },
    {
        "name": "Jama masjid",
        "main_category": "Mosque",
        "address": "3CR8+989 Jama masjid, Gandhi Chowk, Bhim Nagar, Bagal Nagar, Kurduvadi, Maharashtra 413208",
        "detailed_address": {
            "ward": "Bhim Nagar, Bagal Nagar",
            "street": "3CR8+989, Gandhi Chowk",
            "city": "Kurduvadi",
            "postal_code": "413208",
            "state": "Maharashtra",
            "country_code": "IN"
        },
        "images": [
            {
                "about": "All",
                "link": "https://lh5.googleusercontent.com/p/AF1QipOqtnd7CharPPAs30nKmAF0is6ZINylefSJb01U=w224-h298-k-no"
            }
        ],
        "link": "https://www.google.com/maps/place/Jama+masjid/data=!4m7!3m6!1s0x3bc45d1200c654e1:0xffc573824f755d34!8m2!3d18.0909207!4d75.4158704!16s%2Fg%2F11k9gq8ktm!19sChIJ4VTGABJdxDsRNF11T4Jzxf8?authuser=0&hl=en&rclk=1",
        "coordinates": {
            "latitude": 18.090920699999998,
            "longitude": 75.4158704
        }
    },
    {
        "name": "Masjid",
        "main_category": "Mosque",
        "address": "3CR4+8J8 Masjid, MH SH 145, Sambhaji Nagar, Bagal Nagar, Kurduvadi, Maharashtra 413208",
        "detailed_address": {
            "ward": "Sambhaji Nagar, Bagal Nagar",
            "street": "3CR4+8J8, MH SH 145",
            "city": "Kurduvadi",
            "postal_code": "413208",
            "state": "Maharashtra",
            "country_code": "IN"
        },
        "images": [
            {
                "about": "All",
                "link": "https://streetviewpixels-pa.googleapis.com/v1/thumbnail?panoid=PkjIYJPvwEGY4FKa30_pIQ&cb_client=maps_sv.tactile.gps&w=224&h=298&yaw=207.59685&pitch=0&thumbfov=100"
            },
            {
                "about": "Street View & 360deg",
                "link": "https://streetviewpixels-pa.googleapis.com/v1/thumbnail?panoid=PkjIYJPvwEGY4FKa30_pIQ&cb_client=maps_sv.tactile.gps&w=224&h=298&yaw=207.59685&pitch=0&thumbfov=100"
            }
        ],
        "link": "https://www.google.com/maps/place/Masjid/data=!4m7!3m6!1s0x3bc45de2c8c88489:0x2a78865681a62feb!8m2!3d18.0907238!4d75.4066522!16s%2Fg%2F11sw16flx3!19sChIJiYTIyOJdxDsR6y-mgVaGeCo?authuser=0&hl=en&rclk=1",
        "coordinates": {
            "latitude": 18.0907238,
            "longitude": 75.4066522
        }
    },
    {
        "name": "Marakaj Msjid Kurduwadi",
        "main_category": "School",
        "address": "3CXH+H5H Marakaj Msjid Kurduwadi, Kurduwadi Bypass Rd, Kurduvadi, Maharashtra 413208",
        "detailed_address": {
            "ward": null,
            "street": "3CXH+H5H, Kurduwadi Bypass Rd",
            "city": "Kurduvadi",
            "postal_code": "413208",
            "state": "Maharashtra",
            "country_code": "IN"
        },
        "images": [],
        "link": "https://www.google.com/maps/place/Marakaj+Msjid+Kurduwadi/data=!4m7!3m6!1s0x3bc45c86a8a2f445:0x34a0ab82009cf898!8m2!3d18.0989457!4d75.4279748!16s%2Fg%2F11gh4726_g!19sChIJRfSiqIZcxDsRmPicAIKroDQ?authuser=0&hl=en&rclk=1",
        "coordinates": {
            "latitude": 18.098945699999998,
            "longitude": 75.4279748
        }
    }
]