[
    {
        "name": "Jama Masjid",
        "main_category": "Mosque",
        "address": "Jama Masjid, Moga road street no. 4, Kot Kapura, Punjab 151204",
        "detailed_address": {
            "ward": null,
            "street": "Moga road street no. 4",
            "city": "Kot Kapura",
            "postal_code": "151204",
            "state": "Punjab",
            "country_code": "IN"
        },
        "images": [
            {
                "about": "All",
                "link": "https://lh5.googleusercontent.com/p/AF1QipPJffuhjaJB2i2L5YGzYzO41nvbLv23CgqKvuzi=w529-h298-k-no"
            },
            {
                "about": "Videos",
                "link": "https://lh5.googleusercontent.com/p/AF1QipPHlsHSAVpYIICUKmlWT6pFfwy5VZbvwZiz9KAS=w529-h298-k-no"
            }
        ],
        "link": "https://www.google.com/maps/place/Jama+Masjid/data=!4m7!3m6!1s0x391751b3b20013f9:0x63c5c465c2e84713!8m2!3d30.5792477!4d74.8309783!16s%2Fg%2F11g8vw33j9!19sChIJ-RMAsrNRFzkRE0fowmXExWM?authuser=0&hl=en&rclk=1",
        "coordinates": {
            "latitude": 30.5792477,
            "longitude": 74.8309783
        }
    },
    {
        "name": "Masjid E Baba Farid",
        "main_category": "Mosque",
        "address": "MQC3+GW Masjid E Baba Farid, Ajit Nagar, Faridkot, Punjab 151203",
        "detailed_address": {
            "ward": "Ajit Nagar",
            "street": "MQC3+GW",
            "city": "Faridkot",
            "postal_code": null,
            "state": "Punjab",
            "country_code": "IN"
        },
        "images": [
            {
                "about": "All",
                "link": "https://lh5.googleusercontent.com/p/AF1QipNNAstWSY3zuP0lWRyyYhEzuAvKFsmlfxX21dT0=w224-h298-k-no"
            },
            {
                "about": "Street View & 360deg",
                "link": "https://streetviewpixels-pa.googleapis.com/v1/thumbnail?panoid=1SBUVssypSdhbTyLoD0Pzg&cb_client=maps_sv.tactile.gps&w=224&h=298&yaw=98.04833&pitch=0&thumbfov=100"
            },
            {
                "about": "Videos",
                "link": "https://lh5.googleusercontent.com/p/AF1QipN6EPi9rVVaKEXQhyO1m0JiNdxdVbAA5Le-1-BU=w224-h398-k-no"
            }
        ],
        "link": "https://www.google.com/maps/place/Masjid+E+Baba+Farid/data=!4m7!3m6!1s0x3917596adb70777f:0xad05444bd2009d6c!8m2!3d30.6713731!4d74.7547693!16s%2Fg%2F11rn0dv7g7!19sChIJf3dw22pZFzkRbJ0A0ktEBa0?authuser=0&hl=en&rclk=1",
        "coordinates": {
            "latitude": 30.6713731,
            "longitude": 74.75476929999999
        }
    },
    {
        "name": "Masjid Bathan St",
        "main_category": "Place of worship",
        "address": "MQG4+4M9 Masjid Bathan St, Ajit Nagar, Faridkot, Punjab 151203",
        "detailed_address": {
            "ward": "Ajit Nagar",
            "street": "MQG4+4M9",
            "city": "Faridkot",
            "postal_code": "151203",
            "state": "Punjab",
            "country_code": "IN"
        },
        "images": [],
        "link": "https://www.google.com/maps/place/Masjid+Bathan+St/data=!4m7!3m6!1s0x391759ec4b93aadf:0x1658e708541a533d!8m2!3d30.6752914!4d74.7567294!16s%2Fg%2F11f9hfpny4!19sChIJ36qTS-xZFzkRPVMaVAjnWBY?authuser=0&hl=en&rclk=1",
        "coordinates": {
            "latitude": 30.6752914,
            "longitude": 74.7567294
        }
    }
]