[
    {
        "name": "Jamia Masjid Longowal Chak 28 RB",
        "main_category": "Mosque",
        "address": "PCXM+7C8 Jamia Masjid Longowal Chak 28 RB, Lalanwala Momin Rd, Longowal Chak 28 RB, Nankana Sahib, Punjab, Pakistan",
        "detailed_address": {
            "ward": null,
            "street": "PCXM+7C8, Lalanwala Momin Rd",
            "city": "Longowal Chak 28 RB",
            "postal_code": null,
            "state": "Nankana Sahib, Punjab",
            "country_code": "PK"
        },
        "images": [
            {
                "about": "All",
                "link": "https://lh5.googleusercontent.com/p/AF1QipMRL2ewQHsS3qKWtOassqymsGS4NINpCjoyz0sZ=w395-h298-k-no"
            }
        ],
        "link": "https://www.google.com/maps/place/Jamia+Masjid+Longowal+Chak+28+RB/data=!4m7!3m6!1s0x392209b11d934b51:0x3ee4825fd7460111!8m2!3d31.7481654!4d73.4335915!16s%2Fg%2F11c3q36wgq!19sChIJUUuTHbEJIjkREQFG11-C5D4?authuser=0&hl=en&rclk=1",
        "coordinates": {
            "latitude": 31.748165399999998,
            "longitude": 73.43359149999999
        }
    },
    {
        "name": "Masjid",
        "main_category": "Mosque",
        "address": "5MVG+RQ8 Masjid, Main Rd, Longowal, Punjab 148106",
        "detailed_address": {
            "ward": null,
            "street": "5MVG+RQ8, Main Rd",
            "city": "Longowal",
            "postal_code": "148106",
            "state": "Punjab",
            "country_code": "IN"
        },
        "images": [
            {
                "about": "All",
                "link": "https://lh5.googleusercontent.com/p/AF1QipPYbKczLiwEHnI7mLTrs0yxBf8jL1Z5-v2Qj_Vb=w224-h298-k-no"
            }
        ],
        "link": "https://www.google.com/maps/place/Masjid/data=!4m7!3m6!1s0x3910ffc730b9eeb1:0x2b8e761c1e6cfa15!8m2!3d30.1945268!4d75.6769493!16s%2Fg%2F11h2bx7xtn!19sChIJse65MMf_EDkRFfpsHhx2jis?authuser=0&hl=en&rclk=1",
        "coordinates": {
            "latitude": 30.1945268,
            "longitude": 75.67694929999999
        }
    },
    {
        "name": "Jama masjid, Longowal",
        "main_category": "Mosque",
        "address": "5MVJ+8XG Jama masjid, Longowal, Unnamed Road, Longowal, Punjab 148106",
        "detailed_address": {
            "ward": null,
            "street": "5MVJ+8XG, Unnamed Road",
            "city": "Longowal",
            "postal_code": "148106",
            "state": "Punjab",
            "country_code": "IN"
        },
        "images": [
            {
                "about": "All",
                "link": "https://lh5.googleusercontent.com/p/AF1QipNhKZWyGg7m5Fxjyy_HTPVYxWIUL8UUeuShZ8aS=w224-h398-k-no"
            }
        ],
        "link": "https://www.google.com/maps/place/Jama+masjid,+Longowal/data=!4m7!3m6!1s0x3910ffbb26917eef:0xc5f4edff33bae7f4!8m2!3d30.1933002!4d75.6824517!16s%2Fg%2F11lm43w6hs!19sChIJ736RJrv_EDkR9Oe6M__t9MU?authuser=0&hl=en&rclk=1",
        "coordinates": {
            "latitude": 30.1933002,
            "longitude": 75.6824517
        }
    },
    {
        "name": "Choti Masjid Longowal Chak 28 RB",
        "main_category": "Mosque",
        "address": "PCWM+H4H Choti Masjid Longowal Chak 28 RB, Lalanwala Momin Rd, Longowal Chak 28 RB, Nankana Sahib, Punjab, Pakistan",
        "detailed_address": {
            "ward": null,
            "street": "PCWM+H4H, Lalanwala Momin Rd",
            "city": "Longowal Chak 28 RB",
            "postal_code": null,
            "state": "Nankana Sahib, Punjab",
            "country_code": "PK"
        },
        "images": [],
        "link": "https://www.google.com/maps/place/Choti+Masjid+Longowal+Chak+28+RB/data=!4m7!3m6!1s0x392209b08a8b3843:0xecdae14fe64fc081!8m2!3d31.7464433!4d73.4328475!16s%2Fg%2F11b8v4f8dj!19sChIJQziLirAJIjkRgcBP5k_h2uw?authuser=0&hl=en&rclk=1",
        "coordinates": {
            "latitude": 31.7464433,
            "longitude": 73.4328475
        }
    }
]