[
    {
        "name": "Hazrat Imam Shah Data Chisty R.A (sunni mosque)",
        "main_category": "Mosque",
        "address": "G8Q2+R23 Hazrat Imam Shah Data Chisty R.A (sunni mosque), Heera Lal Colony, Amahiya, Rewa, Madhya Pradesh 486001",
        "detailed_address": {
            "ward": "Heera Lal Colony, Amahiya",
            "street": "G8Q2+R23",
            "city": "Rewa",
            "postal_code": "486001",
            "state": "Madhya Pradesh",
            "country_code": "IN"
        },
        "images": [
            {
                "about": "All",
                "link": "https://lh5.googleusercontent.com/p/AF1QipOid3L32BjAeQP-e3i9FNRLQO30GU1K6wZmUxs2=w224-h298-k-no"
            },
            {
                "about": "Dome",
                "link": "https://lh5.googleusercontent.com/p/AF1QipPJE10yy4YYJsObekJJtZxeqKDP1eGxRvpPmumt=w224-h398-k-no"
            },
            {
                "about": "Videos",
                "link": "https://lh5.googleusercontent.com/p/AF1QipM5b6X6kso6rWEaDPh_HYMkmaBXyrL1jF67qafd=w529-h298-k-no"
            }
        ],
        "link": "https://www.google.com/maps/place/Hazrat+Imam+Shah+Data+Chisty+R.A+%28sunni+mosque%29/data=!4m7!3m6!1s0x39845a347333922b:0x6b7bc48ac006b319!8m2!3d24.539512!4d81.3000378!16s%2Fg%2F1hc5v5vzr!19sChIJK5IzczRahDkRGbMGwIrEe2s?authuser=0&hl=en&rclk=1",
        "coordinates": {
            "latitude": 24.539512,
            "longitude": 81.3000378
        }
    },
    {
        "name": "Masjid",
        "main_category": "Mosque",
        "address": "G7MW+F22 Masjid, Narendra Nagar, Amaiya Colony, Rewa, Madhya Pradesh 486001",
        "detailed_address": {
            "ward": "Narendra Nagar, Amaiya Colony",
            "street": "G7MW+F22",
            "city": "Rewa",
            "postal_code": "486001",
            "state": "Madhya Pradesh",
            "country_code": "IN"
        },
        "images": [
            {
                "about": "All",
                "link": "https://lh5.googleusercontent.com/p/AF1QipMLA6Y_XTE3oF-TUaXlogLlhaELUQUjvp_eXq6A=w224-h298-k-no"
            },
            {
                "about": "Dome",
                "link": "https://lh5.googleusercontent.com/p/AF1QipMM_CuQiQ9wlFz_GU6weMY4sxLw10U2AK5sa0Ho=w224-h298-k-no"
            },
            {
                "about": "Videos",
                "link": "https://lh5.googleusercontent.com/p/AF1QipMtMUx2HRve0lNf-FC9PEbt1n7lEKt8-sIPpWRf=w224-h398-k-no"
            },
            {
                "about": "Street View & 360deg",
                "link": "https://streetviewpixels-pa.googleapis.com/v1/thumbnail?panoid=dwOQldk1hwZllu3woovKnQ&cb_client=maps_sv.tactile.gps&w=224&h=298&yaw=15.756944&pitch=0&thumbfov=100"
            }
        ],
        "link": "https://www.google.com/maps/place/Masjid/data=!4m7!3m6!1s0x39845bb55c65f0eb:0x9c35c9176b67cf5e!8m2!3d24.533628!4d81.2950167!16s%2Fg%2F119vlp6kl!19sChIJ6_BlXLVbhDkRXs9naxfJNZw?authuser=0&hl=en&rclk=1",
        "coordinates": {
            "latitude": 24.533628,
            "longitude": 81.29501669999999
        }
    },
    {
        "name": "SUNNI YASEEN MASJID MADARASA FAIZAN E RAZA",
        "main_category": "Mosque",
        "address": "G7JV+MPX SUNNI YASEEN MASJID MADARASA FAIZAN E RAZA, Tarahti, Rewa, Madhya Pradesh 486001",
        "detailed_address": {
            "ward": "Tarahti",
            "street": "G7JV+MPX",
            "city": "Rewa",
            "postal_code": "486001",
            "state": "Madhya Pradesh",
            "country_code": "IN"
        },
        "images": [
            {
                "about": "All",
                "link": "https://lh5.googleusercontent.com/p/AF1QipPwR62Bnyrf8iydsfI-pmkNflh5BSxVCRX6Sy3y=w397-h298-k-no"
            },
            {
                "about": "Videos",
                "link": "https://lh5.googleusercontent.com/p/AF1QipNJfracibO2A0xhEsUG6Oe8p5JYVyQfDjbX--IP=w224-h395-k-no"
            }
        ],
        "link": "https://www.google.com/maps/place/SUNNI+YASEEN+MASJID+MADARASA+FAIZAN+E+RAZA/data=!4m7!3m6!1s0x39845bb517005fd3:0xc734d3ecb72180a0!8m2!3d24.5317442!4d81.2943716!16s%2Fg%2F11d_tp2y6_!19sChIJ018AF7VbhDkRoIAht-zTNMc?authuser=0&hl=en&rclk=1",
        "coordinates": {
            "latitude": 24.5317442,
            "longitude": 81.29437159999999
        }
    },
    {
        "name": "Bansagar Masjid",
        "main_category": "Mosque",
        "address": "G8M7+RQM Bansagar Masjid, Unnamed Road,, Chhatrapati Nagar, Rewa, Madhya Pradesh 486001",
        "detailed_address": {
            "ward": "Chhatrapati Nagar",
            "street": "G8M7+RQM, Unnamed Road,",
            "city": "Rewa",
            "postal_code": "486001",
            "state": "Madhya Pradesh",
            "country_code": "IN"
        },
        "images": [
            {
                "about": "All",
                "link": "https://lh5.googleusercontent.com/p/AF1QipN5ov-oKL0jtHaDdZy_iaVdH3T1yBZq5eosQWn1=w224-h298-k-no"
            },
            {
                "about": "Street View & 360deg",
                "link": "https://streetviewpixels-pa.googleapis.com/v1/thumbnail?panoid=jRG0xaF0HjCukYPVaJj2Qw&cb_client=maps_sv.tactile.gps&w=224&h=298&yaw=235.43912&pitch=0&thumbfov=100"
            },
            {
                "about": "Videos",
                "link": "https://lh5.googleusercontent.com/p/AF1QipNL83e_CJd5ownMaMWsbi7kPnNId1bMRv-pEuF5=w224-h407-k-no"
            }
        ],
        "link": "https://www.google.com/maps/place/Bansagar+Masjid/data=!4m7!3m6!1s0x39845a407c71737b:0xc1d7bdc7080aed8!8m2!3d24.5345858!4d81.3144248!16s%2Fg%2F11c1t4x5zn!19sChIJe3NxfEBahDkR2K6AcNx7HQw?authuser=0&hl=en&rclk=1",
        "coordinates": {
            "latitude": 24.5345858,
            "longitude": 81.3144248
        }
    },
    {
        "name": "Bansagar Masjid",
        "main_category": "Mosque",
        "address": "G8P6+7X7 Bansagar Masjid, Chhatrapati Nagar, Rewa, Madhya Pradesh 486001",
        "detailed_address": {
            "ward": "Chhatrapati Nagar",
            "street": "G8P6+7X7",
            "city": "Rewa",
            "postal_code": "486001",
            "state": "Madhya Pradesh",
            "country_code": "IN"
        },
        "images": [],
        "link": "https://www.google.com/maps/place/Bansagar+Masjid/data=!4m7!3m6!1s0x39845a38b2ca1eb7:0x8bdf9926b19d703b!8m2!3d24.5356515!4d81.3124334!16s%2Fg%2F11c55kg4ys!19sChIJtx7KsjhahDkRO3CdsSaZ34s?authuser=0&hl=en&rclk=1",
        "coordinates": {
            "latitude": 24.5356515,
            "longitude": 81.3124334
        }
    },
    {
        "name": "Falak Numa Mosque",
        "main_category": "Mosque",
        "address": "Falak Numa Mosque, Allah Buqsh Colony, Boda Bag Housing Board Colony, Rewa, Madhya Pradesh 486003",
        "detailed_address": {
            "ward": "Boda Bag Housing Board Colony, Vidya Nagar Colony",
            "street": "Allah Buqsh Colony",
            "city": "Rewa",
            "postal_code": "486003",
            "state": "Madhya Pradesh",
            "country_code": "IN"
        },
        "images": [
            {
                "about": "All",
                "link": "https://lh5.googleusercontent.com/p/AF1QipMB7OPDzWRpLMAnCagn8hdulTM76r96Q39C3--k=w397-h298-k-no"
            }
        ],
        "link": "https://www.google.com/maps/place/Falak+Numa+Mosque/data=!4m7!3m6!1s0x39845a28949604fb:0x1089f23ce298a8cf!8m2!3d24.5539412!4d81.3056348!16s%2Fg%2F11cmwws2xm!19sChIJ-wSWlChahDkRz6iY4jzyiRA?authuser=0&hl=en&rclk=1",
        "coordinates": {
            "latitude": 24.5539412,
            "longitude": 81.30563479999999
        }
    },
    {
        "name": "Masjid Maulvi Sahab",
        "main_category": "Mosque",
        "address": "G7MQ+624 Masjid Maulvi Sahab, Raniganj, Rewa, Madhya Pradesh 486001",
        "detailed_address": {
            "ward": "Raniganj",
            "street": "G7MQ+624",
            "city": "Rewa",
            "postal_code": "486001",
            "state": "Madhya Pradesh",
            "country_code": "IN"
        },
        "images": [
            {
                "about": "All",
                "link": "https://lh5.googleusercontent.com/p/AF1QipMPK2jZQJL3TpFQLG5n9Y_hRBVuGzjvdS7Tu6YL=w224-h298-k-no"
            }
        ],
        "link": "https://www.google.com/maps/place/Masjid+Maulvi+Sahab/data=!4m7!3m6!1s0x39845bb7d361d015:0x9dc8b49c25682978!8m2!3d24.5330158!4d81.2875699!16s%2Fg%2F11dxcptvq0!19sChIJFdBh07dbhDkReCloJZy0yJ0?authuser=0&hl=en&rclk=1",
        "coordinates": {
            "latitude": 24.533015799999998,
            "longitude": 81.2875699
        }
    },
    {
        "name": "Eidgah Rewa",
        "main_category": "Mosque",
        "address": "G7MP+P22 Eidgah Rewa, Raniganj, Madhya Pradesh 486001",
        "detailed_address": {
            "ward": "Raniganj",
            "street": "G7MP+P22",
            "city": null,
            "postal_code": "486001",
            "state": "Madhya Pradesh",
            "country_code": "IN"
        },
        "images": [
            {
                "about": "All",
                "link": "https://lh5.googleusercontent.com/p/AF1QipPr17BFmVvB2snwBP27Hl3UGtBFMEnVB2Jj0UiO=w662-h298-k-no"
            },
            {
                "about": "Dome",
                "link": "https://lh5.googleusercontent.com/p/AF1QipPncZiI7yCy6_ix6glI6fEzZkJlTCwaYtHthUnc=w397-h298-k-no"
            },
            {
                "about": "Videos",
                "link": "https://lh5.googleusercontent.com/p/AF1QipNDqMaQrUgek609CmLOYJAwft_8S5AG7hxOnqTL=w529-h298-k-no"
            }
        ],
        "link": "https://www.google.com/maps/place/Eidgah+Rewa/data=!4m7!3m6!1s0x39845bc80993f5f3:0xe4485b06592b89c6!8m2!3d24.5342746!4d81.2850201!16s%2Fg%2F1260mxnrf!19sChIJ8_WTCchbhDkRxokrWQZbSOQ?authuser=0&hl=en&rclk=1",
        "coordinates": {
            "latitude": 24.5342746,
            "longitude": 81.2850201
        }
    },
    {
        "name": "Nizami Masjid Khutehi",
        "main_category": "Mosque",
        "address": "G8W3+VRJ Nizami Masjid Khutehi, MDR, Khutehi, Rewa, Madhya Pradesh 486002",
        "detailed_address": {
            "ward": "Khutehi",
            "street": "G8W3+VRJ, MDR",
            "city": "Rewa",
            "postal_code": "486002",
            "state": "Madhya Pradesh",
            "country_code": "IN"
        },
        "images": [
            {
                "about": "All",
                "link": "https://lh5.googleusercontent.com/p/AF1QipOsFiiunckyYevPVH4PXO3JFWKOyCIUh4RklQ3t=w647-h298-k-no"
            },
            {
                "about": "Street View & 360deg",
                "link": "https://streetviewpixels-pa.googleapis.com/v1/thumbnail?panoid=XV_R_mqSVnqQEErX32Cw7g&cb_client=maps_sv.tactile.gps&w=224&h=298&yaw=170.51385&pitch=0&thumbfov=100"
            },
            {
                "about": "Videos",
                "link": "https://lh5.googleusercontent.com/p/AF1QipPEUmYE7Ny8QshN3RqteIvVh2e8Efx0gk2POuiL=w529-h298-k-no"
            }
        ],
        "link": "https://www.google.com/maps/place/Nizami+Masjid+Khutehi/data=!4m7!3m6!1s0x39845a2fcc1b16ad:0x48f08ce32bb7c79e!8m2!3d24.5472075!4d81.304506!16s%2Fg%2F1ptywqgl0!19sChIJrRYbzC9ahDkRnse3K-OM8Eg?authuser=0&hl=en&rclk=1",
        "coordinates": {
            "latitude": 24.5472075,
            "longitude": 81.30450599999999
        }
    },
    {
        "name": "Rewa Masjid",
        "main_category": "Mosque",
        "address": "JX3H+6CP Rewa Masjid, Baluwa, Bihar 801111",
        "detailed_address": {
            "ward": null,
            "street": "JX3H+6CP",
            "city": "Baluwa",
            "postal_code": "801111",
            "state": "Bihar",
            "country_code": "IN"
        },
        "images": [
            {
                "about": "All",
                "link": "https://lh5.googleusercontent.com/p/AF1QipPHiDc9T_amh8teb54fnDAh1n5mfNKSSxp2wESL=w398-h298-k-no"
            }
        ],
        "link": "https://www.google.com/maps/place/Rewa+Masjid/data=!4m7!3m6!1s0x39ed550b05db7e2d:0x25d997652c82dd4f!8m2!3d25.6030855!4d84.9785691!16s%2Fg%2F11g7229tth!19sChIJLX7bBQtV7TkRT92CLGWX2SU?authuser=0&hl=en&rclk=1",
        "coordinates": {
            "latitude": 25.6030855,
            "longitude": 84.9785691
        }
    },
    {
        "name": "Madina Masjid",
        "main_category": "Mosque",
        "address": "MG9W+4G3 Madina Masjid, Rewa, Madhya Pradesh 486111",
        "detailed_address": {
            "ward": null,
            "street": "MG9W+4G3",
            "city": "Rewa",
            "postal_code": "486111",
            "state": "Madhya Pradesh",
            "country_code": "IN"
        },
        "images": [
            {
                "about": "All",
                "link": "https://lh5.googleusercontent.com/p/AF1QipMyZwpFb7472lBdtjjDZVRuK956fAoGS6GngfFu=w224-h298-k-no"
            },
            {
                "about": "Street View & 360deg",
                "link": "https://streetviewpixels-pa.googleapis.com/v1/thumbnail?panoid=-KJEEIZP3tjzvGv-vnVFTw&cb_client=maps_sv.tactile.gps&w=224&h=298&yaw=333.86343&pitch=0&thumbfov=100"
            },
            {
                "about": "Videos",
                "link": "https://lh5.googleusercontent.com/p/AF1QipPExV0WwrYm9jcNxVi-dbg8ez53HRPD3TOG4QP8=w224-h398-k-no"
            }
        ],
        "link": "https://www.google.com/maps/place/Madina+Masjid/data=!4m7!3m6!1s0x39850077b9d90c99:0x1cd38804f2c85159!8m2!3d24.6677551!4d81.5462833!16s%2Fg%2F11c5_bcqgs!19sChIJmQzZuXcAhTkRWVHI8gSI0xw?authuser=0&hl=en&rclk=1",
        "coordinates": {
            "latitude": 24.667755099999997,
            "longitude": 81.5462833
        }
    },
    {
        "name": "Allah rakhu Masjid",
        "main_category": "Religious destination",
        "address": "G7JV+G95 Allah rakhu Masjid, Chikan Tola, Tarahti, Rewa, Madhya Pradesh 486001",
        "detailed_address": {
            "ward": "Tarahti",
            "street": "G7JV+G95, Chikan Tola",
            "city": "Rewa",
            "postal_code": "486001",
            "state": "Madhya Pradesh",
            "country_code": "IN"
        },
        "images": [
            {
                "about": "All",
                "link": "https://lh5.googleusercontent.com/p/AF1QipOhUNUIv3WSTPjs7dZAvb1cCdRi535j9nIcMRmf=w298-h298-k-no"
            },
            {
                "about": "Videos",
                "link": "https://lh5.googleusercontent.com/p/AF1QipMEsJdFk946gucf9kPdBZF2xK9XoAK8-flnMvrD=w224-h398-k-no"
            }
        ],
        "link": "https://www.google.com/maps/place/Allah+rakhu+Masjid/data=!4m7!3m6!1s0x39845bb59f50c78d:0x8c523004a6c70fd0!8m2!3d24.5312516!4d81.2934788!16s%2Fg%2F11g8xhc_k9!19sChIJjcdQn7VbhDkR0A_HpgQwUow?authuser=0&hl=en&rclk=1",
        "coordinates": {
            "latitude": 24.531251599999997,
            "longitude": 81.2934788
        }
    },
    {
        "name": "madeena masjid",
        "main_category": "Place of worship",
        "address": "Q4JX+HCF madeena masjid, Rewa, Madhya Pradesh 486445",
        "detailed_address": {
            "ward": null,
            "street": "Q4JX+HCF",
            "city": "Rewa",
            "postal_code": "486445",
            "state": "Madhya Pradesh",
            "country_code": "IN"
        },
        "images": [
            {
                "about": "All",
                "link": "https://lh5.googleusercontent.com/p/AF1QipMwyk2gH6zutdGqN2fhQE7jLaVTI2r-ClQ_ZxhJ=w397-h298-k-no"
            },
            {
                "about": "Videos",
                "link": "https://lh5.googleusercontent.com/p/AF1QipMN8XZJ1EpXdEDTYca0SOlevKuoBRzwunGFtuY9=w224-h398-k-no"
            }
        ],
        "link": "https://www.google.com/maps/place/madeena+masjid/data=!4m7!3m6!1s0x39848cd8dffb5a59:0x9a7c2c0c0f71d3f5!8m2!3d24.7814257!4d81.1485375!16s%2Fg%2F11c1vltsrg!19sChIJWVr739iMhDkR9dNxDwwsfJo?authuser=0&hl=en&rclk=1",
        "coordinates": {
            "latitude": 24.7814257,
            "longitude": 81.1485375
        }
    },
    {
        "name": "Jama Masjid Badi Dargah Rewa",
        "main_category": "Mosque",
        "address": "G7QX+MX4 Jama Masjid Badi Dargah Rewa, Heera Lal Colony, Amahiya, Rewa, Madhya Pradesh 486001",
        "detailed_address": {
            "ward": "Heera Lal Colony, Amahiya",
            "street": "G7QX+MX4",
            "city": "Rewa",
            "postal_code": "486001",
            "state": "Madhya Pradesh",
            "country_code": "IN"
        },
        "images": [
            {
                "about": "All",
                "link": "https://lh5.googleusercontent.com/p/AF1QipO2qB7nUsR4mmc5TeKpTq0MWNmYHOE7pujCTj0c=w224-h298-k-no"
            },
            {
                "about": "Dome",
                "link": "https://lh5.googleusercontent.com/p/AF1QipOgkB8O721kAmH6_auXqC1huw1ki0mHOr-0rMy4=w224-h398-k-no"
            }
        ],
        "link": "https://www.google.com/maps/place/Jama+Masjid+Badi+Dargah+Rewa/data=!4m7!3m6!1s0x39845bd20dc25f73:0xfee675beea148a47!8m2!3d24.5391459!4d81.2999499!16s%2Fg%2F11ryt49p__!19sChIJc1_CDdJbhDkRR4oU6r515v4?authuser=0&hl=en&rclk=1",
        "coordinates": {
            "latitude": 24.539145899999998,
            "longitude": 81.2999499
        }
    },
    {
        "name": "Shafique Jama Masjid",
        "main_category": "Mosque",
        "address": "G7VJ+7W7 Shafique Jama Masjid, Padmadhar Colony, Rewa, Madhya Pradesh 486001",
        "detailed_address": {
            "ward": "Padmadhar Colony",
            "street": "G7VJ+7W7",
            "city": "Rewa",
            "postal_code": "486001",
            "state": "Madhya Pradesh",
            "country_code": "IN"
        },
        "images": [
            {
                "about": "All",
                "link": "https://lh5.googleusercontent.com/p/AF1QipM4eis-4I0_Tz1FqZ_em2VAE4oyuoILdzNjX1N9=w224-h298-k-no"
            },
            {
                "about": "Street View & 360deg",
                "link": "https://streetviewpixels-pa.googleapis.com/v1/thumbnail?panoid=tkrGHEiZcrIJpEq1mjMzfQ&cb_client=maps_sv.tactile.gps&w=224&h=298&yaw=58.324955&pitch=0&thumbfov=100"
            }
        ],
        "link": "https://www.google.com/maps/place/Shafique+Jama+Masjid/data=!4m7!3m6!1s0x39845b9834564dd1:0x34c37a8b98df2952!8m2!3d24.5430883!4d81.2822798!16s%2Fg%2F11kk7376vc!19sChIJ0U1WNJhbhDkRUinfmIt6wzQ?authuser=0&hl=en&rclk=1",
        "coordinates": {
            "latitude": 24.543088299999997,
            "longitude": 81.2822798
        }
    },
    {
        "name": "Madni Masjid",
        "main_category": "Mosque",
        "address": "G7MQ+7Q8 Madni Masjid, Ghoghar Rd, Raniganj, Rewa, Madhya Pradesh 486001",
        "detailed_address": {
            "ward": "Raniganj",
            "street": "G7MQ+7Q8, Ghoghar Rd",
            "city": "Rewa",
            "postal_code": "486001",
            "state": "Madhya Pradesh",
            "country_code": "IN"
        },
        "images": [
            {
                "about": "All",
                "link": "https://streetviewpixels-pa.googleapis.com/v1/thumbnail?panoid=BXHGzk1EwTj1mH_bSwVRLQ&cb_client=maps_sv.tactile.gps&w=224&h=298&yaw=227.94008&pitch=0&thumbfov=100"
            },
            {
                "about": "Street View & 360deg",
                "link": "https://streetviewpixels-pa.googleapis.com/v1/thumbnail?panoid=BXHGzk1EwTj1mH_bSwVRLQ&cb_client=maps_sv.tactile.gps&w=224&h=298&yaw=227.94008&pitch=0&thumbfov=100"
            }
        ],
        "link": "https://www.google.com/maps/place/Madni+Masjid/data=!4m7!3m6!1s0x39845bfd278fc25f:0xa756b855c8d00b8c!8m2!3d24.5331665!4d81.2894507!16s%2Fg%2F11g0mc3x5h!19sChIJX8KPJ_1bhDkRjAvQyFW4Vqc?authuser=0&hl=en&rclk=1",
        "coordinates": {
            "latitude": 24.5331665,
            "longitude": 81.2894507
        }
    },
    {
        "name": "Husainiya Masjid",
        "main_category": "Mosque",
        "address": "G8V8+HWX Husainiya Masjid, Ravindra Nagar, Rewa, Madhya Pradesh 486001",
        "detailed_address": {
            "ward": "Ravindra Nagar",
            "street": "G8V8+HWX",
            "city": "Rewa",
            "postal_code": "486001",
            "state": "Madhya Pradesh",
            "country_code": "IN"
        },
        "images": [],
        "link": "https://www.google.com/maps/place/Husainiya+Masjid/data=!4m7!3m6!1s0x39845bd47d472115:0xa29840634156cfca!8m2!3d24.5439892!4d81.3173607!16s%2Fg%2F11qp0y28gc!19sChIJFSFHfdRbhDkRys9WQWNAmKI?authuser=0&hl=en&rclk=1",
        "coordinates": {
            "latitude": 24.5439892,
            "longitude": 81.3173607
        }
    },
    {
        "name": "Sufi Masjid",
        "main_category": "Mosque",
        "address": "G7MQ+5JP Sufi Masjid, Raniganj, Rewa, Madhya Pradesh 486001",
        "detailed_address": {
            "ward": "Raniganj",
            "street": "G7MQ+5JP",
            "city": "Rewa",
            "postal_code": "486001",
            "state": "Madhya Pradesh",
            "country_code": "IN"
        },
        "images": [],
        "link": "https://www.google.com/maps/place/Sufi+Masjid/data=!4m7!3m6!1s0x39845b60a572a0e9:0xab4691ae60ba67f0!8m2!3d24.5329545!4d81.289091!16s%2Fg%2F11fn8p09qf!19sChIJ6aBypWBbhDkR8Ge6YK6RRqs?authuser=0&hl=en&rclk=1",
        "coordinates": {
            "latitude": 24.5329545,
            "longitude": 81.289091
        }
    },
    {
        "name": "Choti masjid Nipaniya rewa mp",
        "main_category": "Mosque",
        "address": "G7FP+9R2 Choti masjid Nipaniya rewa mp, Nipania, Rewa, Madhya Pradesh 486001",
        "detailed_address": {
            "ward": "Nipania",
            "street": "G7FP+9R2",
            "city": "Rewa",
            "postal_code": "486001",
            "state": "Madhya Pradesh",
            "country_code": "IN"
        },
        "images": [],
        "link": "https://www.google.com/maps/place/Choti+masjid+Nipaniya+rewa+mp/data=!4m7!3m6!1s0x39845bb09b0d4f43:0xee62656cbd891c1a!8m2!3d24.5233921!4d81.2870083!16s%2Fg%2F11v0mv24b_!19sChIJQ08Nm7BbhDkRGhyJvWxlYu4?authuser=0&hl=en&rclk=1",
        "coordinates": {
            "latitude": 24.5233921,
            "longitude": 81.2870083
        }
    },
    {
        "name": "Eid gah",
        "main_category": "Mosque",
        "address": "G7MP+9PG Eid gah, Ghoghar Rd, Raniganj, Rewa, Madhya Pradesh 486001",
        "detailed_address": {
            "ward": "Raniganj",
            "street": "G7MP+9PG, Ghoghar Rd",
            "city": "Rewa",
            "postal_code": "486001",
            "state": "Madhya Pradesh",
            "country_code": "IN"
        },
        "images": [],
        "link": "https://www.google.com/maps/place/Eid+gah/data=!4m7!3m6!1s0x39845bee29784c91:0x2bbcb7ea369c2a68!8m2!3d24.5334304!4d81.2868414!16s%2Fg%2F11j59s5318!19sChIJkUx4Ke5bhDkRaCqcNuq3vCs?authuser=0&hl=en&rclk=1",
        "coordinates": {
            "latitude": 24.5334304,
            "longitude": 81.2868414
        }
    },
    {
        "name": "Mannan Masjid",
        "main_category": "Mosque",
        "address": "G7JR+PR8 Mannan Masjid, Tarahti Rd, Tarahti, Rewa, Madhya Pradesh 486001",
        "detailed_address": {
            "ward": "Tarahti",
            "street": "G7JR+PR8, Tarahti Rd",
            "city": "Rewa",
            "postal_code": "486001",
            "state": "Madhya Pradesh",
            "country_code": "IN"
        },
        "images": [
            {
                "about": "All",
                "link": "https://lh5.googleusercontent.com/p/AF1QipOGgRflPHBwWs0Upoi49XM3TF7iXFMLnT_qlbWw=w224-h398-k-no"
            }
        ],
        "link": "https://www.google.com/maps/place/Mannan+Masjid/data=!4m7!3m6!1s0x39845bcf9918c9d1:0x441bd7f90f1ab3d9!8m2!3d24.5317793!4d81.2920723!16s%2Fg%2F11tjmrs5cp!19sChIJ0ckYmc9bhDkR2bMaD_nXG0Q?authuser=0&hl=en&rclk=1",
        "coordinates": {
            "latitude": 24.5317793,
            "longitude": 81.2920723
        }
    },
    {
        "name": "Turkan Masjid",
        "main_category": "Mosque",
        "address": "G7MR+74F Turkan Masjid, Ghoghar Rd, Raniganj, Rewa, Madhya Pradesh 486001",
        "detailed_address": {
            "ward": "Raniganj",
            "street": "G7MR+74F, Ghoghar Rd",
            "city": "Rewa",
            "postal_code": "486001",
            "state": "Madhya Pradesh",
            "country_code": "IN"
        },
        "images": [
            {
                "about": "All",
                "link": "https://lh5.googleusercontent.com/p/AF1QipPkwPYsUnMB38nmCAQ6yxp0qbFfx-LVQ0j42QrO=w633-h298-k-no"
            },
            {
                "about": "Street View & 360deg",
                "link": "https://streetviewpixels-pa.googleapis.com/v1/thumbnail?panoid=4aLcR1ZnBA5r-c7RfuDMqw&cb_client=maps_sv.tactile.gps&w=224&h=298&yaw=343.48593&pitch=0&thumbfov=100"
            }
        ],
        "link": "https://www.google.com/maps/place/Turkan+Masjid/data=!4m7!3m6!1s0x39845bfb2277ef97:0x48b6e64232f352fa!8m2!3d24.5332308!4d81.2902608!16s%2Fg%2F11srz0f4d_!19sChIJl-93IvtbhDkR-lLzMkLmtkg?authuser=0&hl=en&rclk=1",
        "coordinates": {
            "latitude": 24.5332308,
            "longitude": 81.2902608
        }
    },
    {
        "name": "Eid gah Ghogher rewa Madhaya Pradesh",
        "main_category": "Mosque",
        "address": "G7QJ+4V4 Eid gah Ghogher rewa Madhaya Pradesh, Pushpraj Nagar, Madhya Pradesh 486001",
        "detailed_address": {
            "ward": "Pushpraj Nagar",
            "street": "G7QJ+4V4",
            "city": null,
            "postal_code": "486001",
            "state": "Madhya Pradesh",
            "country_code": "IN"
        },
        "images": [
            {
                "about": "All",
                "link": "https://lh5.googleusercontent.com/p/AF1QipN-p8ciILREa0K-VceotIAtHgUFOV73Yp7mhhu_=w397-h298-k-no"
            }
        ],
        "link": "https://www.google.com/maps/place/Eid+gah+Ghogher+rewa+Madhaya+Pradesh/data=!4m7!3m6!1s0x39845bcb685c7985:0xdfc6633a74518be9!8m2!3d24.5377705!4d81.2822102!16s%2Fg%2F11v03ybnmy!19sChIJhXlcaMtbhDkR6YtRdDpjxt8?authuser=0&hl=en&rclk=1",
        "coordinates": {
            "latitude": 24.5377705,
            "longitude": 81.2822102
        }
    },
    {
        "name": "Amilkoni",
        "main_category": "Mosque",
        "address": "G8P3+FFW Amilkoni, Aurrhat, Hari Bhushan Nagar, Rewa, Madhya Pradesh 486001",
        "detailed_address": {
            "ward": "Aurrhat, Hari Bhushan Nagar",
            "street": "G8P3+FFW",
            "city": "Rewa",
            "postal_code": null,
            "state": "Madhya Pradesh",
            "country_code": "IN"
        },
        "images": [
            {
                "about": "All",
                "link": "https://streetviewpixels-pa.googleapis.com/v1/thumbnail?panoid=OWl9chGtVxenT85CrFzVTQ&cb_client=maps_sv.tactile.gps&w=224&h=298&yaw=14.1478815&pitch=0&thumbfov=100"
            },
            {
                "about": "Street View & 360deg",
                "link": "https://streetviewpixels-pa.googleapis.com/v1/thumbnail?panoid=OWl9chGtVxenT85CrFzVTQ&cb_client=maps_sv.tactile.gps&w=224&h=298&yaw=14.1478815&pitch=0&thumbfov=100"
            }
        ],
        "link": "https://www.google.com/maps/place/Amilkoni/data=!4m7!3m6!1s0x39845b1d00414723:0x1f740cc3201581b4!8m2!3d24.5362477!4d81.3036946!16s%2Fg%2F11t5vfjzrl!19sChIJI0dBAB1bhDkRtIEVIMMMdB8?authuser=0&hl=en&rclk=1",
        "coordinates": {
            "latitude": 24.5362477,
            "longitude": 81.3036946
        }
    }
]