[
    {
        "name": "Masjid Mujeeb Bagh",
        "main_category": "Mosque",
        "address": "H74R+R4J Masjid Mujeeb Bagh, Mujeeb Bagh, Jamia Nagar, Okhla, New Delhi, Delhi 110025",
        "detailed_address": {
            "ward": "Mujeeb Bagh, Jamia Nagar, Okhla",
            "street": "H74R+R4J",
            "city": "New Delhi",
            "postal_code": "110025",
            "state": "Delhi",
            "country_code": "IN"
        },
        "images": [
            {
                "about": "All",
                "link": "https://lh5.googleusercontent.com/p/AF1QipPuvEEBl7TFqidewO8nsNOsC2QdlIhKzeO8wTqs=w420-h298-k-no"
            },
            {
                "about": "Dome",
                "link": "https://lh5.googleusercontent.com/p/AF1QipPsDBtmO8rEKXfaej3f3ZAybZnhNsdB53hBEPBz=w224-h298-k-no"
            }
        ],
        "link": "https://www.google.com/maps/place/Masjid+Mujeeb+Bagh/data=!4m7!3m6!1s0x390ce40bc79e1ce9:0x18ab01f5fdcf10b3!8m2!3d28.5570856!4d77.2902574!16s%2Fg%2F11hbvrlrnj!19sChIJ6RyexwvkDDkRsxDP_fUBqxg?authuser=0&hl=en&rclk=1",
        "coordinates": {
            "latitude": 28.557085599999997,
            "longitude": 77.2902574
        }
    },
    {
        "name": "Nooh Masjid",
        "main_category": "Mosque",
        "address": "Nooh Masjid, F-12/35, Street Number 12 Jamia Nagar, Block F, Joga Bai Extension, Okhla, New Delhi, Delhi 110025",
        "detailed_address": {
            "ward": "Block F, Joga Bai Extension, Okhla",
            "street": "F-12/35, Street Number 12 Jamia Nagar",
            "city": "New Delhi",
            "postal_code": "110025",
            "state": "Delhi",
            "country_code": "IN"
        },
        "images": [
            {
                "about": "All",
                "link": "https://lh5.googleusercontent.com/p/AF1QipMhMOnaitn_xBsoQEnI_BVzqWlaXORwwDbEG-Q6=w224-h298-k-no"
            },
            {
                "about": "Street View & 360deg",
                "link": "https://streetviewpixels-pa.googleapis.com/v1/thumbnail?panoid=nw3yT3OrOSx4pa44kU8eEQ&cb_client=maps_sv.tactile.gps&w=224&h=298&yaw=221.5163&pitch=0&thumbfov=100"
            },
            {
                "about": "Videos",
                "link": "https://lh5.googleusercontent.com/p/AF1QipMY7Xd_dLJVsO4aShZqDd8FOILdHE2oOu81Udyz=w224-h398-k-no"
            }
        ],
        "link": "https://www.google.com/maps/place/Nooh+Masjid/data=!4m7!3m6!1s0x390ce3899c2d9279:0x291d5f701b631a8!8m2!3d28.56762!4d77.2838107!16s%2Fg%2F11bxfjvp52!19sChIJeZItnInjDDkRqDG2AffVkQI?authuser=0&hl=en&rclk=1",
        "coordinates": {
            "latitude": 28.567619999999998,
            "longitude": 77.28381069999999
        }
    },
    {
        "name": "Noor Masjid",
        "main_category": "Mosque",
        "address": "H73X+CHG Noor Masjid, Kalindi Kunj Rd, Abul Fazal Enclave Part 1, Block J, Jamia Nagar, Okhla, New Delhi, Delhi 110025",
        "detailed_address": {
            "ward": "Abul Fazal Enclave Part 1, Block J, Jamia Nagar, Okhla",
            "street": "H73X+CHG, Kalindi Kunj Rd",
            "city": "New Delhi",
            "postal_code": "110025",
            "state": "Delhi",
            "country_code": "IN"
        },
        "images": [
            {
                "about": "All",
                "link": "https://lh5.googleusercontent.com/p/AF1QipMHTJHzAxvw2Q81nngcyS6NNnh7fTV2ZG5fRoPH=w224-h298-k-no"
            },
            {
                "about": "Street View & 360deg",
                "link": "https://streetviewpixels-pa.googleapis.com/v1/thumbnail?panoid=1lRhKDwNDAPWLk9uEPGzSg&cb_client=maps_sv.tactile.gps&w=224&h=298&yaw=243.19493&pitch=0&thumbfov=100"
            }
        ],
        "link": "https://www.google.com/maps/place/Noor+Masjid/data=!4m7!3m6!1s0x390ce4103435d885:0x70062933e057a0e8!8m2!3d28.5535535!4d77.2989652!16s%2Fg%2F11btvb5bqr!19sChIJhdg1NBDkDDkR6KBX4DMpBnA?authuser=0&hl=en&rclk=1",
        "coordinates": {
            "latitude": 28.5535535,
            "longitude": 77.2989652
        }
    },
    {
        "name": "Noori Masjid",
        "main_category": "Mosque",
        "address": "Noori Masjid, M-20/96, Block B, Dabri Extension East, Dabri, New Delhi, Delhi, 110046",
        "detailed_address": {
            "ward": "Block B, Dabri Extension East, Dabri",
            "street": "M-20/96",
            "city": "New Delhi, Delhi",
            "postal_code": "110046",
            "state": "Delhi",
            "country_code": "IN"
        },
        "images": [
            {
                "about": "All",
                "link": "https://lh5.googleusercontent.com/p/AF1QipPjdzqOBoQ02kC0I9gsaaLCBcB8p4TDXICUi6p2=w224-h398-k-no"
            },
            {
                "about": "Street View & 360deg",
                "link": "https://streetviewpixels-pa.googleapis.com/v1/thumbnail?panoid=3w7RTyDBFGKnEbY68mZ_fg&cb_client=maps_sv.tactile.gps&w=224&h=298&yaw=256.47595&pitch=0&thumbfov=100"
            }
        ],
        "link": "https://www.google.com/maps/place/Noori+Masjid/data=!4m7!3m6!1s0x390d1b4e00048bc3:0xe0fa34299d2b42d8!8m2!3d28.6055137!4d77.0908015!16s%2Fg%2F11c5xczp9s!19sChIJw4sEAE4bDTkR2EIrnSk0-uA?authuser=0&hl=en&rclk=1",
        "coordinates": {
            "latitude": 28.6055137,
            "longitude": 77.0908015
        }
    },
    {
        "name": "Masjid",
        "main_category": "Mosque",
        "address": "H769+P87 Masjid, Block A, Friends Colony East, New Friends Colony, New Delhi, Delhi 110025",
        "detailed_address": {
            "ward": "Block A, Friends Colony East, New Friends Colony",
            "street": "H769+P87",
            "city": "New Delhi",
            "postal_code": "110025",
            "state": "Delhi",
            "country_code": "IN"
        },
        "images": [
            {
                "about": "All",
                "link": "https://streetviewpixels-pa.googleapis.com/v1/thumbnail?panoid=NcRXfKPnQLaPH-Vh57RXGA&cb_client=maps_sv.tactile.gps&w=224&h=298&yaw=105.47298&pitch=0&thumbfov=100"
            },
            {
                "about": "Street View & 360deg",
                "link": "https://streetviewpixels-pa.googleapis.com/v1/thumbnail?panoid=NcRXfKPnQLaPH-Vh57RXGA&cb_client=maps_sv.tactile.gps&w=224&h=298&yaw=105.47298&pitch=0&thumbfov=100"
            }
        ],
        "link": "https://www.google.com/maps/place/Masjid/data=!4m7!3m6!1s0x390ce3a3874c1a6d:0x3777b5148e43553a!8m2!3d28.5617917!4d77.2683072!16s%2Fg%2F11grc87l61!19sChIJbRpMh6PjDDkROlVDjhS1dzc?authuser=0&hl=en&rclk=1",
        "coordinates": {
            "latitude": 28.561791699999997,
            "longitude": 77.2683072
        }
    },
    {
        "name": "Bait Ul Noor Masjid",
        "main_category": "Mosque",
        "address": "Bait Ul Noor Masjid, Indira Gandhi Camp - 1, Block D, Taimoor Nagar, New Friends Colony, New Delhi, Delhi 110025",
        "detailed_address": {
            "ward": "Block D, Taimoor Nagar, New Friends Colony",
            "street": "Indira Gandhi Camp - 1",
            "city": "New Delhi",
            "postal_code": "110025",
            "state": "Delhi",
            "country_code": "IN"
        },
        "images": [
            {
                "about": "All",
                "link": "https://lh5.googleusercontent.com/p/AF1QipNqDkwiUUPxVVgX4gbAhKMNnvgP3zu-PZuSn9Be=w531-h298-k-no"
            },
            {
                "about": "Street View & 360deg",
                "link": "https://streetviewpixels-pa.googleapis.com/v1/thumbnail?panoid=eFnGMeE7dTtV9WExwcX-cQ&cb_client=maps_sv.tactile.gps&w=224&h=298&yaw=240.54243&pitch=0&thumbfov=100"
            }
        ],
        "link": "https://www.google.com/maps/place/Bait+Ul+Noor+Masjid/data=!4m7!3m6!1s0x390ce3b63c45baf3:0xfa4011e6f94af5dc!8m2!3d28.5687986!4d77.2677099!16s%2Fg%2F11g0_nymdb!19sChIJ87pFPLbjDDkR3PVK-eYRQPo?authuser=0&hl=en&rclk=1",
        "coordinates": {
            "latitude": 28.568798599999997,
            "longitude": 77.2677099
        }
    },
    {
        "name": "Jamiya Masjid Markaz Konnur",
        "main_category": "Mosque",
        "address": "6P2X+56C Jamiya Masjid Markaz Konnur, Konnur, Karnataka 591231",
        "detailed_address": {
            "ward": null,
            "street": "6P2X+56C",
            "city": "Konnur",
            "postal_code": "591231",
            "state": "Karnataka",
            "country_code": "IN"
        },
        "images": [
            {
                "about": "All",
                "link": "https://lh5.googleusercontent.com/p/AF1QipPEtgNMXqvx6mwMSVHKv4yHt1Y8sD9Hzv0HtD44=w412-h298-k-no"
            }
        ],
        "link": "https://www.google.com/maps/place/Jamiya+Masjid+Markaz+Konnur/data=!4m7!3m6!1s0x3bc0baf02c041a45:0x866e086e09059afa!8m2!3d16.2004338!4d74.74802!16s%2Fg%2F11g6rlv765!19sChIJRRoELPC6wDsR-poFCW4IboY?authuser=0&hl=en&rclk=1",
        "coordinates": {
            "latitude": 16.2004338,
            "longitude": 74.74802
        }
    },
    {
        "name": "Masjid Nawab Qutubuddin @ Amrood wali Masjid",
        "main_category": "Mosque",
        "address": "Masjid Nawab Qutubuddin @ Amrood wali Masjid, Bulbuli Khana, 110006, Sita Ram Bazar, Chandni Chowk, Delhi, 110006",
        "detailed_address": {
            "ward": "Sita Ram Bazar, Chandni Chowk",
            "street": "Bulbuli Khana, 110006",
            "city": "Delhi",
            "postal_code": "110006",
            "state": "Delhi",
            "country_code": "IN"
        },
        "images": [],
        "link": "https://www.google.com/maps/place/Masjid+Nawab+Qutubuddin+@+Amrood+wali+Masjid/data=!4m7!3m6!1s0x390cfd22f08b979f:0xd0168ca11e45a358!8m2!3d28.6455631!4d77.2313851!16s%2Fg%2F11f_3tnsny!19sChIJn5eL8CL9DDkRWKNFHqGMFtA?authuser=0&hl=en&rclk=1",
        "coordinates": {
            "latitude": 28.6455631,
            "longitude": 77.2313851
        }
    },
    {
        "name": "Noor masjid",
        "main_category": "Mosque",
        "address": "Noor masjid, 88-A, Meharchand Market, Lodi Colony, New Delhi, Delhi 110003",
        "detailed_address": {
            "ward": "Meharchand Market, Lodi Colony",
            "street": "88-A",
            "city": "New Delhi",
            "postal_code": "110003",
            "state": "Delhi",
            "country_code": "IN"
        },
        "images": [
            {
                "about": "All",
                "link": "https://lh5.googleusercontent.com/p/AF1QipOh6J84UlT_eVkjAQxAV1pGO6OxZ4MSsUm-HqG2=w397-h298-k-no"
            }
        ],
        "link": "https://www.google.com/maps/place/Noor+masjid/data=!4m7!3m6!1s0x390ce3bde048d651:0x31a744236a19398c!8m2!3d28.5863397!4d77.2271578!16s%2Fg%2F11j0z5cnj_!19sChIJUdZI4L3jDDkRjDkZaiNEpzE?authuser=0&hl=en&rclk=1",
        "coordinates": {
            "latitude": 28.5863397,
            "longitude": 77.2271578
        }
    },
    {
        "name": "Noor Masjid",
        "main_category": "Mosque",
        "address": "Noor Masjid, 5/9 B 110014, Jangpura, New Delhi, Delhi 110014",
        "detailed_address": {
            "ward": "Jangpura, Samman Bazar, Bhogal",
            "street": "5/9 B 110014",
            "city": "New Delhi",
            "postal_code": "110014",
            "state": "Delhi",
            "country_code": "IN"
        },
        "images": [
            {
                "about": "All",
                "link": "https://lh5.googleusercontent.com/p/AF1QipPexE1GJmI458F0ZuotPxIulJAESOfnuvykAG_I=w224-h298-k-no"
            },
            {
                "about": "Street View & 360deg",
                "link": "https://streetviewpixels-pa.googleapis.com/v1/thumbnail?panoid=fpT5LK3eshoh2-TsY6-Wew&cb_client=maps_sv.tactile.gps&w=224&h=298&yaw=22.226658&pitch=0&thumbfov=100"
            }
        ],
        "link": "https://www.google.com/maps/place/Noor+Masjid/data=!4m7!3m6!1s0x390ce3070da347dd:0x604a9a50b5f9c007!8m2!3d28.5821032!4d77.2485251!16s%2Fg%2F11c1n7_vvk!19sChIJ3UejDQfjDDkRB8D5tVCaSmA?authuser=0&hl=en&rclk=1",
        "coordinates": {
            "latitude": 28.5821032,
            "longitude": 77.2485251
        }
    },
    {
        "name": "Masjid Noorul Islam(chotti masjid)",
        "main_category": "Mosque",
        "address": "G8GH+84X Masjid Noorul Islam(chotti masjid), Madanpur Khadar Phase 3, Madanpur Khadar, New Delhi, Delhi 110076",
        "detailed_address": {
            "ward": "Madanpur Khadar Phase 3, Madanpur Khadar",
            "street": "G8GH+84X",
            "city": "New Delhi",
            "postal_code": "110076",
            "state": "Delhi",
            "country_code": "IN"
        },
        "images": [
            {
                "about": "All",
                "link": "https://lh5.googleusercontent.com/p/AF1QipNi0qbP4Ks8-aABOzpm8PdkTt7WB-VNSpwka4Of=w224-h389-k-no"
            },
            {
                "about": "Videos",
                "link": "https://lh5.googleusercontent.com/p/AF1QipNi0qbP4Ks8-aABOzpm8PdkTt7WB-VNSpwka4Of=w224-h389-k-no"
            }
        ],
        "link": "https://www.google.com/maps/place/Masjid+Noorul+Islam%28chotti+masjid%29/data=!4m7!3m6!1s0x390ce71a1a382a2f:0xf70170af0a005edc!8m2!3d28.5258612!4d77.3278717!16s%2Fg%2F11gmyh4_c2!19sChIJLyo4GhrnDDkR3F4ACq9wAfc?authuser=0&hl=en&rclk=1",
        "coordinates": {
            "latitude": 28.525861199999998,
            "longitude": 77.3278717
        }
    },
    {
        "name": "Masjid",
        "main_category": "Mosque",
        "address": "H77Q+868 Masjid, Okhla Village, Okhla, New Delhi, Delhi 110025",
        "detailed_address": {
            "ward": "Okhla Village, Okhla",
            "street": "H77Q+868",
            "city": "New Delhi",
            "postal_code": "110025",
            "state": "Delhi",
            "country_code": "IN"
        },
        "images": [
            {
                "about": "All",
                "link": "https://lh5.googleusercontent.com/p/AF1QipO67wdhcjjTRrhbmsdg-pG5cIkcPDHZfH_wU5Tx=w224-h497-k-no"
            },
            {
                "about": "Dome",
                "link": "https://lh5.googleusercontent.com/p/AF1QipPs4cW8p06-cNEjZrOGtEZ6GMDTgt-q9K5y641v=w224-h497-k-no"
            },
            {
                "about": "Street View & 360deg",
                "link": "https://streetviewpixels-pa.googleapis.com/v1/thumbnail?panoid=qKwNzWvTzVeGnfIbNb-UvA&cb_client=maps_sv.tactile.gps&w=224&h=298&yaw=212.11421&pitch=0&thumbfov=100"
            }
        ],
        "link": "https://www.google.com/maps/place/Masjid/data=!4m7!3m6!1s0x390ce47512f7aa2b:0x544337a9b9e5d7a2!8m2!3d28.5632814!4d77.2880932!16s%2Fg%2F11gbtpj5td!19sChIJK6r3EnXkDDkRotfluak3Q1Q?authuser=0&hl=en&rclk=1",
        "coordinates": {
            "latitude": 28.563281399999997,
            "longitude": 77.28809319999999
        }
    },
    {
        "name": "Ishaq Masjid",
        "main_category": "Mosque",
        "address": "Ishaq Masjid, Ishaq Masjid Wali Gali, Block C, Sarai Kale Khan, New Delhi, Delhi 110013",
        "detailed_address": {
            "ward": "Block C, Sarai Kale Khan",
            "street": "Ishaq Masjid Wali Gali",
            "city": "New Delhi",
            "postal_code": "110013",
            "state": "Delhi",
            "country_code": "IN"
        },
        "images": [
            {
                "about": "All",
                "link": "https://lh5.googleusercontent.com/p/AF1QipN1iIxdk-jAWsCAE5HhSZZCD5_q18H1CbHZCHn8=w224-h398-k-no"
            },
            {
                "about": "Street View & 360deg",
                "link": "https://streetviewpixels-pa.googleapis.com/v1/thumbnail?panoid=zh2AEyuWQqa_Gd1E3LGcyg&cb_client=maps_sv.tactile.gps&w=224&h=298&yaw=195.90135&pitch=0&thumbfov=100"
            },
            {
                "about": "Videos",
                "link": "https://lh5.googleusercontent.com/p/AF1QipPLr6pbw7AgPOLzyJKUtW9XoqSZJGbdRci4kdMe=w224-h398-k-no"
            }
        ],
        "link": "https://www.google.com/maps/place/Ishaq+Masjid/data=!4m7!3m6!1s0x390ce376f8a80f59:0x43d242dbd3376818!8m2!3d28.5849571!4d77.2565889!16s%2Fg%2F11q2tx_6x1!19sChIJWQ-o-HbjDDkRGGg309tC0kM?authuser=0&hl=en&rclk=1",
        "coordinates": {
            "latitude": 28.5849571,
            "longitude": 77.2565889
        }
    },
    {
        "name": "Masjid Noor msjd nwr",
        "main_category": "Mosque",
        "address": "H74P+PHC Masjid Noor msjd nwr, Ajmal Bagh, Noor Nagar Extension, Noor Nagar, Okhla, New Delhi, Delhi 110025",
        "detailed_address": {
            "ward": "Ajmal Bagh, Noor Nagar Extension, Noor Nagar, Okhla",
            "street": "H74P+PHC",
            "city": "New Delhi",
            "postal_code": "110025",
            "state": "Delhi",
            "country_code": "IN"
        },
        "images": [
            {
                "about": "All",
                "link": "https://lh5.googleusercontent.com/p/AF1QipP-m90Y4cWX3HinwiS0WsUZ9bVulx5eymBZwIlt=w224-h298-k-no"
            },
            {
                "about": "Street View & 360deg",
                "link": "https://streetviewpixels-pa.googleapis.com/v1/thumbnail?panoid=aWZGF8KNr9hw-LD5vYnbEA&cb_client=maps_sv.tactile.gps&w=224&h=298&yaw=338.11206&pitch=0&thumbfov=100"
            },
            {
                "about": "Videos",
                "link": "https://lh5.googleusercontent.com/p/AF1QipP9exrEH-l4_ICCmoRD8_1A4IPNm978pOHbjwnK=w224-h398-k-no"
            }
        ],
        "link": "https://www.google.com/maps/place/Masjid+Noor+%D9%85%D8%B3%D8%AC%D8%AF+%D9%86%D9%88%D8%B1%E2%80%AD/data=!4m7!3m6!1s0x390ce37ce6d300d5:0x808f9d780ec51d19!8m2!3d28.5568118!4d77.2863907!16s%2Fg%2F11sbd_p0hp!19sChIJ1QDT5nzjDDkRGR3FDnidj4A?authuser=0&hl=en&rclk=1",
        "coordinates": {
            "latitude": 28.5568118,
            "longitude": 77.2863907
        }
    },
    {
        "name": "Noori Masjid",
        "main_category": "Mosque",
        "address": "Noori Masjid, S286, Block S, Brahampuri, Shahdara, Delhi, 110053",
        "detailed_address": {
            "ward": "Block S, Brahampuri, Shahdara",
            "street": "S286",
            "city": "Delhi",
            "postal_code": "110053",
            "state": "Delhi",
            "country_code": "IN"
        },
        "images": [
            {
                "about": "All",
                "link": "https://lh5.googleusercontent.com/p/AF1QipOacT0h_pxEwWgTXV424ISQjpmvjUv_kzhU62iT=w397-h298-k-no"
            },
            {
                "about": "Street View & 360deg",
                "link": "https://streetviewpixels-pa.googleapis.com/v1/thumbnail?panoid=IrtyoxPsuWBCnFtWew-ceQ&cb_client=maps_sv.tactile.gps&w=224&h=298&yaw=333.27716&pitch=0&thumbfov=100"
            },
            {
                "about": "Videos",
                "link": "https://lh5.googleusercontent.com/p/AF1QipPyv7t-lIFt4PmO7Bw3mReutP4-OyESy8eFWDph=w529-h298-k-no"
            }
        ],
        "link": "https://www.google.com/maps/place/Noori+Masjid/data=!4m7!3m6!1s0x390cfd49000e16b7:0x7fdd492a359ff0ad!8m2!3d28.68057!4d77.2665461!16s%2Fg%2F11rc9rdr_1!19sChIJtxYOAEn9DDkRrfCfNSpJ3X8?authuser=0&hl=en&rclk=1",
        "coordinates": {
            "latitude": 28.68057,
            "longitude": 77.2665461
        }
    },
    {
        "name": "Masjid Khairunnisa",
        "main_category": "Mosque",
        "address": "Masjid Khairunnisa, Dr Zakir Hussain Marg, Nizamuddin, National Zoological Park, Sundar Nagar, New Delhi, Delhi 110013",
        "detailed_address": {
            "ward": "Nizamuddin, National Zoological Park, Sundar Nagar",
            "street": "Dr Zakir Hussain Marg",
            "city": "New Delhi",
            "postal_code": "110013",
            "state": "Delhi",
            "country_code": "IN"
        },
        "images": [
            {
                "about": "All",
                "link": "https://lh5.googleusercontent.com/p/AF1QipOUXUBgaSicDnlx9RK3XBom4VApEJk8KBjIg6MH=w529-h298-k-no"
            },
            {
                "about": "Street View & 360deg",
                "link": "https://streetviewpixels-pa.googleapis.com/v1/thumbnail?panoid=C9s77CEeKR7PPJQrqWrJxw&cb_client=maps_sv.tactile.gps&w=224&h=298&yaw=137.23889&pitch=0&thumbfov=100"
            }
        ],
        "link": "https://www.google.com/maps/place/Masjid+Khairunnisa/data=!4m7!3m6!1s0x390ce3d200747f85:0x73902dfc0bf948c6!8m2!3d28.5949913!4d77.2432105!16s%2Fg%2F11fkcjf411!19sChIJhX90ANLjDDkRxkj5C_wtkHM?authuser=0&hl=en&rclk=1",
        "coordinates": {
            "latitude": 28.5949913,
            "longitude": 77.2432105
        }
    },
    {
        "name": "Noor Betul Masjid",
        "main_category": "Mosque",
        "address": "13/b2, 2nd floor, Noor Betul Masjid, Nala Rd, near madina masjid, Navjivan Buddh Vihar, Taimoor Nagar, New Friends Colony, New Delhi, Delhi 110025",
        "detailed_address": {
            "ward": "Navjivan Buddh Vihar, Taimoor Nagar, New Friends Colony",
            "street": "13/b2, 2nd floor, Nala Rd, near madina masjid",
            "city": "New Delhi",
            "postal_code": "110025",
            "state": "Delhi",
            "country_code": "IN"
        },
        "images": [
            {
                "about": "All",
                "link": "https://streetviewpixels-pa.googleapis.com/v1/thumbnail?panoid=M06fzDcYhaZjJB-YmEpGUQ&cb_client=maps_sv.tactile.gps&w=224&h=298&yaw=204.96582&pitch=0&thumbfov=100"
            },
            {
                "about": "Street View & 360deg",
                "link": "https://streetviewpixels-pa.googleapis.com/v1/thumbnail?panoid=M06fzDcYhaZjJB-YmEpGUQ&cb_client=maps_sv.tactile.gps&w=224&h=298&yaw=204.96582&pitch=0&thumbfov=100"
            }
        ],
        "link": "https://www.google.com/maps/place/Noor+Betul+Masjid/data=!4m7!3m6!1s0x390ce305c591fb91:0xc9dbc8283542cdaf!8m2!3d28.5711693!4d77.266965!16s%2Fg%2F11v11b0njk!19sChIJkfuRxQXjDDkRr81CNSjI28k?authuser=0&hl=en&rclk=1",
        "coordinates": {
            "latitude": 28.571169299999998,
            "longitude": 77.266965
        }
    },
    {
        "name": "Noori Masjid",
        "main_category": "Mosque",
        "address": "Noori Masjid, 263C, Block G 1, Talimabad, Sangam Vihar, New Delhi, Delhi 110080",
        "detailed_address": {
            "ward": "Block G 1, Talimabad, Sangam Vihar",
            "street": "263C",
            "city": "New Delhi",
            "postal_code": "110080",
            "state": "Delhi",
            "country_code": "IN"
        },
        "images": [
            {
                "about": "All",
                "link": "https://streetviewpixels-pa.googleapis.com/v1/thumbnail?panoid=GtulSbEhwC9M3gyb0rHNHQ&cb_client=maps_sv.tactile.gps&w=224&h=298&yaw=295.37183&pitch=0&thumbfov=100"
            },
            {
                "about": "Street View & 360deg",
                "link": "https://streetviewpixels-pa.googleapis.com/v1/thumbnail?panoid=GtulSbEhwC9M3gyb0rHNHQ&cb_client=maps_sv.tactile.gps&w=224&h=298&yaw=295.37183&pitch=0&thumbfov=100"
            }
        ],
        "link": "https://www.google.com/maps/place/Noori+Masjid/data=!4m7!3m6!1s0x390ce1ce9bad762d:0x8b1bd5983da6f608!8m2!3d28.5055544!4d77.2562686!16s%2Fg%2F11sjght1nw!19sChIJLXatm87hDDkRCPamPZjVG4s?authuser=0&hl=en&rclk=1",
        "coordinates": {
            "latitude": 28.505554399999998,
            "longitude": 77.2562686
        }
    },
    {
        "name": "Masjid",
        "main_category": "Mosque",
        "address": "Shop No: 5035, Masjid, Netaji Subhash Marg, Daryaganj, New Delhi, Delhi, 110002",
        "detailed_address": {
            "ward": "Daryaganj",
            "street": "Shop No: 5035, Netaji Subhash Marg",
            "city": "New Delhi, Delhi",
            "postal_code": "110002",
            "state": "Delhi",
            "country_code": "IN"
        },
        "images": [
            {
                "about": "All",
                "link": "https://streetviewpixels-pa.googleapis.com/v1/thumbnail?panoid=YSwhlhzTck_MDCSAiGS2Aw&cb_client=maps_sv.tactile.gps&w=224&h=298&yaw=322.97766&pitch=0&thumbfov=100"
            },
            {
                "about": "Street View & 360deg",
                "link": "https://streetviewpixels-pa.googleapis.com/v1/thumbnail?panoid=YSwhlhzTck_MDCSAiGS2Aw&cb_client=maps_sv.tactile.gps&w=224&h=298&yaw=322.97766&pitch=0&thumbfov=100"
            }
        ],
        "link": "https://www.google.com/maps/place/Masjid/data=!4m7!3m6!1s0x390cfdf175041b95:0x8ef57a2bc9f92c1c!8m2!3d28.6480954!4d77.2403964!16s%2Fg%2F11s664lvxh!19sChIJlRsEdfH9DDkRHCz5ySt69Y4?authuser=0&hl=en&rclk=1",
        "coordinates": {
            "latitude": 28.6480954,
            "longitude": 77.2403964
        }
    },
    {
        "name": "Jamiya Markaz Masjid Konnur",
        "main_category": "Mosque",
        "address": "VF6W+9J8 Jamiya Markaz Masjid Konnur, Konnur, Karnataka 582206",
        "detailed_address": {
            "ward": null,
            "street": "VF6W+9J8",
            "city": "Konnur",
            "postal_code": "582206",
            "state": "Karnataka",
            "country_code": "IN"
        },
        "images": [
            {
                "about": "All",
                "link": "https://lh5.googleusercontent.com/p/AF1QipMbdyEfXCXrCBEjoGt_D4Ku6crrNacKIptGkSQl=w224-h396-k-no"
            }
        ],
        "link": "https://www.google.com/maps/place/Jamiya+Markaz+Masjid+Konnur/data=!4m7!3m6!1s0x3bb89bbeac5c41f5:0x2c7fa187ed70f8a2!8m2!3d15.8609054!4d75.4965791!16s%2Fg%2F11t5l_lpzb!19sChIJ9UFcrL6buDsRovhw7Yehfyw?authuser=0&hl=en&rclk=1",
        "coordinates": {
            "latitude": 15.8609054,
            "longitude": 75.49657909999999
        }
    }
]