[
    {
        "name": "Jumma Masjid",
        "main_category": "Mosque",
        "address": "57F4+GH6 Jumma Masjid, Colachel, Tamil Nadu 629251",
        "detailed_address": {
            "ward": null,
            "street": "57F4+GH6",
            "city": "Colachel",
            "postal_code": "629251",
            "state": "Tamil Nadu",
            "country_code": "IN"
        },
        "images": [
            {
                "about": "All",
                "link": "https://lh5.googleusercontent.com/p/AF1QipPnz2m6XURAi8AfPucRdNJfd5KWhJNJD1ODwhG2=w397-h298-k-no"
            },
            {
                "about": "Street View & 360deg",
                "link": "https://streetviewpixels-pa.googleapis.com/v1/thumbnail?panoid=ISc5XYA7NkG3VgMTQbRM5w&cb_client=maps_sv.tactile.gps&w=224&h=298&yaw=280.3231&pitch=0&thumbfov=100"
            }
        ],
        "link": "https://www.google.com/maps/place/Jumma+Masjid/data=!4m7!3m6!1s0x3b04fc39200975e5:0x1302bced281f8126!8m2!3d8.173786!4d77.2563834!16s%2Fg%2F11ckxfc6hx!19sChIJ5XUJIDn8BDsRJoEfKO28AhM?authuser=0&hl=en&rclk=1",
        "coordinates": {
            "latitude": 8.173786,
            "longitude": 77.25638339999999
        }
    },
    {
        "name": "Periya Palli",
        "main_category": "Mosque",
        "address": "57F4+GGH Periya Palli, SH 46, Colachel, Tamil Nadu 629251",
        "detailed_address": {
            "ward": null,
            "street": "57F4+GGH, SH 46",
            "city": "Colachel",
            "postal_code": "629251",
            "state": "Tamil Nadu",
            "country_code": "IN"
        },
        "images": [
            {
                "about": "All",
                "link": "https://lh5.googleusercontent.com/p/AF1QipNZbOqQm1j-ShIhyezzejxGaw3JqTMpFieOB6pP=w268-h298-k-no"
            },
            {
                "about": "Street View & 360deg",
                "link": "https://streetviewpixels-pa.googleapis.com/v1/thumbnail?panoid=eaoKF3GtZvZgZxLOZnYQzw&cb_client=maps_sv.tactile.gps&w=224&h=298&yaw=297.15164&pitch=0&thumbfov=100"
            },
            {
                "about": "Videos",
                "link": "https://lh5.googleusercontent.com/p/AF1QipNx8qt3fEJQ-B8gTNlhebdQfIEQgarOppzWERmu=w541-h298-k-no"
            }
        ],
        "link": "https://www.google.com/maps/place/Periya+Palli/data=!4m7!3m6!1s0x3b04fc39202cd6a7:0x3839f2966c3a9f5e!8m2!3d8.1738166!4d77.2563653!16s%2Fg%2F1tf78jkz!19sChIJp9YsIDn8BDsRXp86bJbyOTg?authuser=0&hl=en&rclk=1",
        "coordinates": {
            "latitude": 8.1738166,
            "longitude": 77.2563653
        }
    },
    {
        "name": "Rifai Masjid",
        "main_category": "Mosque",
        "address": "57H4+5C9 Rifai Masjid, Colachel, Tamil Nadu 629251",
        "detailed_address": {
            "ward": null,
            "street": "57H4+5C9",
            "city": "Colachel",
            "postal_code": "629251",
            "state": "Tamil Nadu",
            "country_code": "IN"
        },
        "images": [
            {
                "about": "All",
                "link": "https://lh5.googleusercontent.com/p/AF1QipML5_5LAkq-EeCNwYLObRw-0vIFLFogwUOCCmza=w397-h298-k-no"
            },
            {
                "about": "Street View & 360deg",
                "link": "https://streetviewpixels-pa.googleapis.com/v1/thumbnail?panoid=JlubQGkQ8HE0dcLsmagwWA&cb_client=maps_sv.tactile.gps&w=224&h=298&yaw=180.13783&pitch=0&thumbfov=100"
            }
        ],
        "link": "https://www.google.com/maps/place/Rifai+Masjid/data=!4m7!3m6!1s0x3b04fc3bbf060cef:0xfd042054878b16b8!8m2!3d8.1779101!4d77.2561202!16s%2Fg%2F11c1rgqmxh!19sChIJ7wwGvzv8BDsRuBaLh1QgBP0?authuser=0&hl=en&rclk=1",
        "coordinates": {
            "latitude": 8.1779101,
            "longitude": 77.2561202
        }
    },
    {
        "name": "Mohideen Masjid",
        "main_category": "Mosque",
        "address": "Mohideen Masjid, Beach Road, Colachel, Tamil Nadu 629251",
        "detailed_address": {
            "ward": null,
            "street": "Beach Road",
            "city": "Colachel",
            "postal_code": "629251",
            "state": "Tamil Nadu",
            "country_code": "IN"
        },
        "images": [
            {
                "about": "All",
                "link": "https://lh5.googleusercontent.com/p/AF1QipOc1OfkDM6UfMMT2sc35DbEt8yf-PzouMSwMlxq=w224-h298-k-no"
            },
            {
                "about": "Street View & 360deg",
                "link": "https://streetviewpixels-pa.googleapis.com/v1/thumbnail?panoid=45lL2N1kiP-jSyUAJD8ljg&cb_client=maps_sv.tactile.gps&w=224&h=298&yaw=192.45401&pitch=0&thumbfov=100"
            }
        ],
        "link": "https://www.google.com/maps/place/Mohideen+Masjid/data=!4m7!3m6!1s0x3b04fc3757ff0c5b:0x53082e04be034d47!8m2!3d8.1756676!4d77.251999!16s%2Fg%2F11bxdvqk8d!19sChIJWwz_Vzf8BDsRR00DvgQuCFM?authuser=0&hl=en&rclk=1",
        "coordinates": {
            "latitude": 8.175667599999999,
            "longitude": 77.251999
        }
    },
    {
        "name": "Meeran hajiyar masjid",
        "main_category": "Mosque",
        "address": "57H5+CV5 Meeran hajiyar masjid, Colachel, Tamil Nadu 629251",
        "detailed_address": {
            "ward": null,
            "street": "57H5+CV5",
            "city": "Colachel",
            "postal_code": "629251",
            "state": "Tamil Nadu",
            "country_code": "IN"
        },
        "images": [
            {
                "about": "All",
                "link": "https://lh5.googleusercontent.com/p/AF1QipOPf0h4Qa2hANWqvZf-4gWqe_-n-ZsRCvdJREuw=w401-h298-k-no"
            },
            {
                "about": "Street View & 360deg",
                "link": "https://streetviewpixels-pa.googleapis.com/v1/thumbnail?panoid=4Lpx1bIUh3fLTUqiDp5vMg&cb_client=maps_sv.tactile.gps&w=224&h=298&yaw=81.89535&pitch=0&thumbfov=100"
            }
        ],
        "link": "https://www.google.com/maps/place/Meeran+hajiyar+masjid/data=!4m7!3m6!1s0x3b04fd74043c2be5:0xa9f9fce6d848e00a!8m2!3d8.1785075!4d77.2597293!16s%2Fg%2F11lrff4xs5!19sChIJ5Ss8BHT9BDsRCuBI2Ob8-ak?authuser=0&hl=en&rclk=1",
        "coordinates": {
            "latitude": 8.1785075,
            "longitude": 77.2597293
        }
    },
    {
        "name": "JAQH Masjid",
        "main_category": "Mosque",
        "address": "JAQH Masjid, 23, Palli Rd, Colachel, Tamil Nadu 629251",
        "detailed_address": {
            "ward": null,
            "street": "23, Palli Rd",
            "city": "Colachel",
            "postal_code": "629251",
            "state": "Tamil Nadu",
            "country_code": "IN"
        },
        "images": [
            {
                "about": "All",
                "link": "https://lh5.googleusercontent.com/p/AF1QipN1Hih2mR5Le_k1x3FNBQQowC2U2f-JuOtVKny7=w250-h298-k-no"
            }
        ],
        "link": "https://www.google.com/maps/place/JAQH+Masjid/data=!4m7!3m6!1s0x3b04fd18484dda85:0xecc0966b71b5823b!8m2!3d8.177944!4d77.258336!16s%2Fg%2F11rxmf4_fr!19sChIJhdpNSBj9BDsRO4K1cWuWwOw?authuser=0&hl=en&rclk=1",
        "coordinates": {
            "latitude": 8.177944,
            "longitude": 77.258336
        }
    },
    {
        "name": "Akara palli",
        "main_category": "Mosque",
        "address": "57F3+FWG Akara palli, Sambasivapuram, Colachel, Tamil Nadu 629251",
        "detailed_address": {
            "ward": "Sambasivapuram",
            "street": "57F3+FWG",
            "city": "Colachel",
            "postal_code": "629251",
            "state": "Tamil Nadu",
            "country_code": "IN"
        },
        "images": [
            {
                "about": "All",
                "link": "https://lh5.googleusercontent.com/p/AF1QipMo9KNPhBomsfLyXD_yDJWzFXSe1DpKQIilL-le=w224-h497-k-no"
            },
            {
                "about": "Dome",
                "link": "https://lh5.googleusercontent.com/p/AF1QipO-qWbN1CVol5Z-igFiUPvm5diBC6iTMSRzoB4U=w224-h497-k-no"
            }
        ],
        "link": "https://www.google.com/maps/place/Akara+palli/data=!4m7!3m6!1s0x3b04fd2886ba4445:0x9840318ae9ae028a!8m2!3d8.1736798!4d77.2548331!16s%2Fg%2F11qbgjnmbn!19sChIJRUS6hij9BDsRigKu6YoxQJg?authuser=0&hl=en&rclk=1",
        "coordinates": {
            "latitude": 8.1736798,
            "longitude": 77.2548331
        }
    }
]