[
    {
        "name": "Badi Masjid",
        "main_category": "Mosque",
        "address": "4QQM+2W5 Badi Masjid, Kiraoli, Uttar Pradesh 283122",
        "detailed_address": {
            "ward": null,
            "street": "4QQM+2W5",
            "city": "Kiraoli",
            "postal_code": "283122",
            "state": "Uttar Pradesh",
            "country_code": "IN"
        },
        "images": [
            {
                "about": "All",
                "link": "https://lh5.googleusercontent.com/p/AF1QipNLhyxb685tpqoTQSbXYkjF_REdguvK-gXXI36u=w224-h398-k-no"
            },
            {
                "about": "Videos",
                "link": "https://lh5.googleusercontent.com/p/AF1QipNLhyxb685tpqoTQSbXYkjF_REdguvK-gXXI36u=w224-h398-k-no"
            }
        ],
        "link": "https://www.google.com/maps/place/Badi+Masjid/data=!4m7!3m6!1s0x39738e5be49fff6f:0xb3232d0fb6488f69!8m2!3d27.1375029!4d77.7848714!16s%2Fg%2F11dz3x85w3!19sChIJb_-f5FuOczkRaY9Itg8tI7M?authuser=0&hl=en&rclk=1",
        "coordinates": {
            "latitude": 27.137502899999998,
            "longitude": 77.7848714
        }
    },
    {
        "name": "Choti Masjid Kiraoli",
        "main_category": "Mosque",
        "address": "4QQP+FCM Choti Masjid Kiraoli, Vyapari Mohalla, Kiraoli, Uttar Pradesh 283122",
        "detailed_address": {
            "ward": null,
            "street": "4QQP+FCM, Vyapari Mohalla",
            "city": "Kiraoli",
            "postal_code": "283122",
            "state": "Uttar Pradesh",
            "country_code": "IN"
        },
        "images": [
            {
                "about": "All",
                "link": "https://lh5.googleusercontent.com/p/AF1QipPmt7tcs-yrVN0CAUYoHH58BY3j0De58EcP3bn5=w224-h398-k-no"
            }
        ],
        "link": "https://www.google.com/maps/place/Choti+Masjid+Kiraoli/data=!4m7!3m6!1s0x39738fd68de2b595:0xd9456565a869227d!8m2!3d27.1387!4d77.7860459!16s%2Fg%2F11h24vskfx!19sChIJlbXijdaPczkRfSJpqGVlRdk?authuser=0&hl=en&rclk=1",
        "coordinates": {
            "latitude": 27.1387,
            "longitude": 77.78604589999999
        }
    },
    {
        "name": "Taqiye Wali Masjid SBI Bank Ke Samne",
        "main_category": "Mosque",
        "address": "4QPQ+V8C Taqiye Wali Masjid SBI Bank Ke Samne, Kiraoli, Uttar Pradesh 283122",
        "detailed_address": {
            "ward": null,
            "street": "4QPQ+V8C",
            "city": "Kiraoli",
            "postal_code": "283122",
            "state": "Uttar Pradesh",
            "country_code": "IN"
        },
        "images": [
            {
                "about": "All",
                "link": "https://lh5.googleusercontent.com/p/AF1QipMsvu1MnorxSsLoAANYGosulVjEG4m_vw1YjL6S=w529-h298-k-no"
            },
            {
                "about": "Street View & 360deg",
                "link": "https://streetviewpixels-pa.googleapis.com/v1/thumbnail?panoid=neLNPITfzvMbeOjq1S4S6Q&cb_client=maps_sv.tactile.gps&w=224&h=298&yaw=153.80692&pitch=0&thumbfov=100"
            }
        ],
        "link": "https://www.google.com/maps/place/Taqiye+Wali+Masjid+SBI+Bank+Ke+Samne/data=!4m7!3m6!1s0x39738e58d596e8fb:0x5e330f1cbedff8fa!8m2!3d27.1371984!4d77.7882711!16s%2Fg%2F11fxzm6_hg!19sChIJ--iW1ViOczkR-vjfvhwPM14?authuser=0&hl=en&rclk=1",
        "coordinates": {
            "latitude": 27.1371984,
            "longitude": 77.7882711
        }
    },
    {
        "name": "Jama Masjid Kiraoli",
        "main_category": "Mosque",
        "address": "Jama Masjid Kiraoli, Vyapari Mohalla, Kiraoli, Uttar Pradesh 283122",
        "detailed_address": {
            "ward": null,
            "street": "Vyapari Mohalla",
            "city": "Kiraoli",
            "postal_code": "283122",
            "state": "Uttar Pradesh",
            "country_code": "IN"
        },
        "images": [
            {
                "about": "All",
                "link": "https://lh5.googleusercontent.com/p/AF1QipP1x3m0faI2N3w-GUyjUUWvMybvitMWJpXWYwAo=w224-h382-k-no"
            },
            {
                "about": "Dome",
                "link": "https://lh5.googleusercontent.com/p/AF1QipPa5xDbgmoe7UQTaZqRiDDs1e9bduRttXbld-Wl=w224-h398-k-no"
            },
            {
                "about": "By owner",
                "link": "https://lh5.googleusercontent.com/p/AF1QipOEY3WsgiqQRpTgdS5puBL5M9_f-yNdW00CR-EF=w224-h398-k-no"
            }
        ],
        "link": "https://www.google.com/maps/place/Jama+Masjid+Kiraoli/data=!4m7!3m6!1s0x39738f52d08c155d:0x79a38ba2913fc0a9!8m2!3d27.1375593!4d77.7848725!16s%2Fg%2F11gxtbv0wy!19sChIJXRWM0FKPczkRqcA_kaKLo3k?authuser=0&hl=en&rclk=1",
        "coordinates": {
            "latitude": 27.1375593,
            "longitude": 77.78487249999999
        }
    },
    {
        "name": "Masjid bali gali",
        "main_category": "Mosque",
        "address": "4QPP+X6J Masjid bali gali, Kiraoli, Uttar Pradesh 283122",
        "detailed_address": {
            "ward": null,
            "street": "4QPP+X6J",
            "city": "Kiraoli",
            "postal_code": "283122",
            "state": "Uttar Pradesh",
            "country_code": "IN"
        },
        "images": [],
        "link": "https://www.google.com/maps/place/Masjid+bali+gali/data=!4m7!3m6!1s0x39738f8797940d9d:0xe4e608ec95cb51ed!8m2!3d27.1374632!4d77.7855211!16s%2Fg%2F11s0x0b9_h!19sChIJnQ2Ul4ePczkR7VHLlewI5uQ?authuser=0&hl=en&rclk=1",
        "coordinates": {
            "latitude": 27.1374632,
            "longitude": 77.7855211
        }
    }
]