[
    {
        "name": "Jama Masjid Deenpur",
        "main_category": "Mosque",
        "address": "Jama Masjid Deenpur, RZ-6, nii, Najafgarh Kapashera Rd, Deenpur, Surya Vihar, Najafgarh, New Delhi, Delhi 110043",
        "detailed_address": {
            "ward": "Deenpur, Delhi Teachers Colony, Surya Vihar, Najafgarh",
            "street": "RZ-6, nii, Najafgarh Kapashera Rd",
            "city": "New Delhi, Delhi",
            "postal_code": "110043",
            "state": "Delhi",
            "country_code": "IN"
        },
        "images": [
            {
                "about": "All",
                "link": "https://lh5.googleusercontent.com/p/AF1QipNaVtDtcsBMDV-iJPp8llco_m8LkQH-SvBHqlCx=w224-h398-k-no"
            },
            {
                "about": "Street View & 360deg",
                "link": "https://streetviewpixels-pa.googleapis.com/v1/thumbnail?panoid=zeC9T8hKcgwC47FuaUBoUA&cb_client=maps_sv.tactile.gps&w=224&h=298&yaw=223.58026&pitch=0&thumbfov=100"
            }
        ],
        "link": "https://www.google.com/maps/place/Jama+Masjid+Deenpur/data=!4m7!3m6!1s0x390d101a2f2d3b99:0xca466eeef5b8b9e3!8m2!3d28.5926436!4d76.9934713!16s%2Fg%2F11c6zwdbgj!19sChIJmTstLxoQDTkR47m49e5uRso?authuser=0&hl=en&rclk=1",
        "coordinates": {
            "latitude": 28.5926436,
            "longitude": 76.9934713
        }
    },
    {
        "name": "Kadri Masjid Ranipur Kakshi",
        "main_category": "Mosque",
        "address": "W26H+CHV Kadri Masjid Ranipur Kakshi, Dhourhara Ghat, Uttar Pradesh 271309",
        "detailed_address": {
            "ward": null,
            "street": "W26H+CHV",
            "city": "Dhourhara Ghat",
            "postal_code": null,
            "state": "Uttar Pradesh",
            "country_code": "IN"
        },
        "images": [
            {
                "about": "All",
                "link": "https://lh5.googleusercontent.com/p/AF1QipN9qHaFzKxwTe3-L3hJwpusDdi4NzdhSlc2iXfX=w224-h497-k-no"
            },
            {
                "about": "Street View & 360deg",
                "link": "https://streetviewpixels-pa.googleapis.com/v1/thumbnail?panoid=XjT6Gft5A4IhuuAeJcWNbQ&cb_client=maps_sv.tactile.gps&w=224&h=298&yaw=302.4603&pitch=0&thumbfov=100"
            },
            {
                "about": "Videos",
                "link": "https://lh5.googleusercontent.com/p/AF1QipPcUPCc5HGBkjp16TT9pqOWpJKasC0Mde4d0QFS=w224-h442-k-no"
            }
        ],
        "link": "https://www.google.com/maps/place/Kadri+Masjid+Ranipur+Kakshi/data=!4m7!3m6!1s0x399a1d256f0f53c5:0x532f1bff7c1bd92f!8m2!3d26.911125!4d82.0289188!16s%2Fg%2F11f4qx_k5s!19sChIJxVMPbyUdmjkRL9kbfP8bL1M?authuser=0&hl=en&rclk=1",
        "coordinates": {
            "latitude": 26.911125,
            "longitude": 82.0289188
        }
    },
    {
        "name": "Ranipur Masjid",
        "main_category": "Mosque",
        "address": "HRPJ+CFF Ranipur Masjid, Ranipur, Uttar Pradesh 233231",
        "detailed_address": {
            "ward": null,
            "street": "HRPJ+CFF",
            "city": "Ranipur",
            "postal_code": "233231",
            "state": "Uttar Pradesh",
            "country_code": "IN"
        },
        "images": [
            {
                "about": "All",
                "link": "https://lh5.googleusercontent.com/p/AF1QipN-Ea_eS0v3efOExENbZ_jdM4RSOsB1UW6Wqlmd=w224-h373-k-no"
            }
        ],
        "link": "https://www.google.com/maps/place/Ranipur+Masjid/data=!4m7!3m6!1s0x39920974012912cf:0xcc17fa6f03eaad0e!8m2!3d25.5860607!4d83.8311799!16s%2Fg%2F11g9qg8fvn!19sChIJzxIpAXQJkjkRDq3qA2_6F8w?authuser=0&hl=en&rclk=1",
        "coordinates": {
            "latitude": 25.586060699999997,
            "longitude": 83.8311799
        }
    },
    {
        "name": "Ranipur NOORI masjid",
        "main_category": "Mosque",
        "address": "X6W2+3FQ Ranipur NOORI masjid, Unnamed Road, Maraha, Uttar Pradesh 230135",
        "detailed_address": {
            "ward": null,
            "street": "X6W2+3FQ, Unnamed Road",
            "city": "Maraha",
            "postal_code": "230135",
            "state": "Uttar Pradesh",
            "country_code": "IN"
        },
        "images": [
            {
                "about": "All",
                "link": "https://lh5.googleusercontent.com/p/AF1QipNcb4SwCMCbkDIFr5aEtU1JLKL5A2liB8edZxwF=w653-h298-k-no"
            }
        ],
        "link": "https://www.google.com/maps/place/Ranipur+NOORI+masjid/data=!4m7!3m6!1s0x399a9d65657c7a0d:0xbc49a3387567f3dc!8m2!3d25.9952084!4d82.2012334!16s%2Fg%2F11qwzk0h3b!19sChIJDXp8ZWWdmjkR3PNndTijSbw?authuser=0&hl=en&rclk=1",
        "coordinates": {
            "latitude": 25.9952084,
            "longitude": 82.20123339999999
        }
    },
    {
        "name": "Markaji Masjid Ranipur Mutavallin Qari Ibrahim",
        "main_category": "Mosque",
        "address": "63W6+X88 Markaji Masjid Ranipur Mutavallin Qari Ibrahim, Ranipur, Uttar Pradesh 284205",
        "detailed_address": {
            "ward": null,
            "street": "63W6+X88",
            "city": "Ranipur",
            "postal_code": "284205",
            "state": "Uttar Pradesh",
            "country_code": "IN"
        },
        "images": [],
        "link": "https://www.google.com/maps/place/Markaji+Masjid+Ranipur+Mutavallin+Qari+Ibrahim/data=!4m7!3m6!1s0x39781fd3bc88a045:0xe9aaef63761ed691!8m2!3d25.2474101!4d79.0608151!16s%2Fg%2F11fx623khb!19sChIJRaCIvNMfeDkRkdYedmPvquk?authuser=0&hl=en&rclk=1",
        "coordinates": {
            "latitude": 25.2474101,
            "longitude": 79.0608151
        }
    },
    {
        "name": "Masjid Ranipur",
        "main_category": "Mosque",
        "address": "JJ97+JF9 Masjid Ranipur, Khanpur Umar, Uttar Pradesh 233002",
        "detailed_address": {
            "ward": null,
            "street": "JJ97+JF9",
            "city": "Khanpur Umar",
            "postal_code": "233002",
            "state": "Uttar Pradesh",
            "country_code": "IN"
        },
        "images": [
            {
                "about": "All",
                "link": "https://lh5.googleusercontent.com/p/AF1QipOxPU82vlZ--YSDugzHWig1NusHX__dqrPIZBvc=w224-h400-k-no"
            },
            {
                "about": "Videos",
                "link": "https://lh5.googleusercontent.com/p/AF1QipPLOWd2UlZ_GmastRTctBxf3HAvQWqq7f_34oC_=w224-h399-k-no"
            }
        ],
        "link": "https://www.google.com/maps/place/Masjid+Ranipur/data=!4m7!3m6!1s0x399203ff22616edb:0x98ae7d4e979f045e!8m2!3d25.6190314!4d83.6137224!16s%2Fg%2F11n_z4xty1!19sChIJ225hIv8DkjkRXgSfl059rpg?authuser=0&hl=en&rclk=1",
        "coordinates": {
            "latitude": 25.619031399999997,
            "longitude": 83.6137224
        }
    },
    {
        "name": "bdd'ii msjid saidpur",
        "main_category": "Mosque",
        "address": "VJ8V+F26 bdd'ii msjid saidpur, Unnamed Road, Saidpur Husainpur, Uttar Pradesh 201201",
        "detailed_address": {
            "ward": null,
            "street": "VJ8V+F26, Unnamed Road",
            "city": "Saidpur Husainpur",
            "postal_code": "201201",
            "state": "Uttar Pradesh",
            "country_code": "IN"
        },
        "images": [
            {
                "about": "All",
                "link": "https://streetviewpixels-pa.googleapis.com/v1/thumbnail?panoid=95A2tk1dC3k0wgmK3ZYKfw&cb_client=maps_sv.tactile.gps&w=224&h=298&yaw=345.78894&pitch=0&thumbfov=100"
            },
            {
                "about": "Street View & 360deg",
                "link": "https://streetviewpixels-pa.googleapis.com/v1/thumbnail?panoid=95A2tk1dC3k0wgmK3ZYKfw&cb_client=maps_sv.tactile.gps&w=224&h=298&yaw=345.78894&pitch=0&thumbfov=100"
            },
            {
                "about": "Videos",
                "link": "https://lh5.googleusercontent.com/p/AF1QipNuHqIed2eIA6olCiJ0T3ISze6QgoOBiq5ocsbR=w224-h398-k-no"
            }
        ],
        "link": "https://www.google.com/maps/place/%E0%A4%AC%E0%A4%A1%E0%A4%BC%E0%A5%80+%E0%A4%AE%E0%A4%B8%E0%A5%8D%E0%A4%9C%E0%A4%BF%E0%A4%A6+%E0%A4%B8%E0%A5%88%E0%A4%A6%E0%A4%AA%E0%A5%81%E0%A4%B0/data=!4m7!3m6!1s0x390c614d3920e957:0xc9c439aae7c648df!8m2!3d28.866157!4d77.6425186!16s%2Fg%2F11mvzb5ys2!19sChIJV-kgOU1hDDkR30jG56o5xMk?authuser=0&hl=en&rclk=1",
        "coordinates": {
            "latitude": 28.866156999999998,
            "longitude": 77.6425186
        }
    },
    {
        "name": "Umar masjid",
        "main_category": "Mosque",
        "address": "V6X9+PVF Umar masjid, Ranipur Barsi Must., Uttar Pradesh 247342",
        "detailed_address": {
            "ward": null,
            "street": "V6X9+PVF",
            "city": "Ranipur Barsi Must.",
            "postal_code": "247342",
            "state": "Uttar Pradesh",
            "country_code": "IN"
        },
        "images": [],
        "link": "https://www.google.com/maps/place/Umar+masjid/data=!4m7!3m6!1s0x390e8be12ee7d69b:0x1ea2e88f2184391b!8m2!3d29.8993202!4d77.2196581!16s%2Fg%2F11nfmbdq7h!19sChIJm9bnLuGLDjkRGzmEIY_ooh4?authuser=0&hl=en&rclk=1",
        "coordinates": {
            "latitude": 29.8993202,
            "longitude": 77.21965809999999
        }
    },
    {
        "name": "SUNNI MASJID RANIPUR",
        "main_category": "Mosque",
        "address": "8JWG+J68 SUNNI MASJID RANIPUR, Ranipur, Balbhaddarpur, Uttar Pradesh 227801",
        "detailed_address": {
            "ward": "Ranipur",
            "street": "8JWG+J68",
            "city": "Balbhaddarpur",
            "postal_code": null,
            "state": "Uttar Pradesh",
            "country_code": "IN"
        },
        "images": [
            {
                "about": "All",
                "link": "https://lh5.googleusercontent.com/p/AF1QipO4A_69q3oLeDgwQr3MHQe3DsH1Cc6zjVXV37Gz=w224-h398-k-no"
            }
        ],
        "link": "https://www.google.com/maps/place/SUNNI+MASJID+RANIPUR/data=!4m7!3m6!1s0x399a51d158550799:0xd8b5546aa9c95182!8m2!3d26.3465499!4d81.6255683!16s%2Fg%2F11tfd86v_8!19sChIJmQdVWNFRmjkRglHJqWpUtdg?authuser=0&hl=en&rclk=1",
        "coordinates": {
            "latitude": 26.3465499,
            "longitude": 81.6255683
        }
    },
    {
        "name": "Mohommdi masjid",
        "main_category": "Mosque",
        "address": "gali no 17Dariy, Mohommdi masjid, Prem Vihar Nagali, A-31, Prem Vihar Colony, Ghasipura, Nangli Vihar, Delhi, 110043",
        "detailed_address": {
            "ward": "Prem Vihar Colony, Ghasipura, Nangli Vihar",
            "street": "gali no 17Dariy, Prem Vihar Nagali, A-31",
            "city": "Delhi",
            "postal_code": "110043",
            "state": "Delhi",
            "country_code": "IN"
        },
        "images": [],
        "link": "https://www.google.com/maps/place/Mohommdi+masjid/data=!4m7!3m6!1s0x390d05caf0ec8929:0x16273277b0fd0b7e!8m2!3d28.6253681!4d77.0186624!16s%2Fg%2F11q3n7zwcr!19sChIJKYns8MoFDTkRfgv9sHcyJxY?authuser=0&hl=en&rclk=1",
        "coordinates": {
            "latitude": 28.6253681,
            "longitude": 77.0186624
        }
    },
    {
        "name": "Ranipur Masjid",
        "main_category": "Religious destination",
        "address": "VRCF+49W Ranipur Masjid, Ranipur, Uttar Pradesh 272002",
        "detailed_address": {
            "ward": null,
            "street": "VRCF+49W",
            "city": "Ranipur",
            "postal_code": "272002",
            "state": "Uttar Pradesh",
            "country_code": "IN"
        },
        "images": [
            {
                "about": "All",
                "link": "https://streetviewpixels-pa.googleapis.com/v1/thumbnail?panoid=MIyBJARllGa06xFVOyqfDw&cb_client=maps_sv.tactile.gps&w=224&h=298&yaw=295.46317&pitch=0&thumbfov=100"
            },
            {
                "about": "Street View & 360deg",
                "link": "https://streetviewpixels-pa.googleapis.com/v1/thumbnail?panoid=MIyBJARllGa06xFVOyqfDw&cb_client=maps_sv.tactile.gps&w=224&h=298&yaw=295.46317&pitch=0&thumbfov=100"
            }
        ],
        "link": "https://www.google.com/maps/place/Ranipur+Masjid/data=!4m7!3m6!1s0x3990d73b70c8d527:0xdc6d1df1f00bb8ed!8m2!3d26.8702686!4d82.8230921!16s%2Fg%2F11vd6m03pt!19sChIJJ9XIcDvXkDkR7bgL8PEdbdw?authuser=0&hl=en&rclk=1",
        "coordinates": {
            "latitude": 26.8702686,
            "longitude": 82.8230921
        }
    }
]