[
    {
        "name": "Madeena Ek Minar Masjid",
        "main_category": "Mosque",
        "address": "F984+GFH Madeena Ek Minar Masjid, Banat, Uttar Pradesh 247776",
        "detailed_address": {
            "ward": null,
            "street": "F984+GFH",
            "city": "Banat",
            "postal_code": "247776",
            "state": "Uttar Pradesh",
            "country_code": "IN"
        },
        "images": [
            {
                "about": "All",
                "link": "https://lh5.googleusercontent.com/p/AF1QipMjwV-KpqfKuUni8-fNWUCnhkdWiO-Hhu4-ejJ2=w224-h298-k-no"
            }
        ],
        "link": "https://www.google.com/maps/place/Madeena+Ek+Minar+Masjid/data=!4m7!3m6!1s0x390c2916dd1382a5:0x1ef6b9107e6cff88!8m2!3d29.4663058!4d77.356247!16s%2Fg%2F11gn25b7cw!19sChIJpYIT3RYpDDkRiP9sfhC59h4?authuser=0&hl=en&rclk=1",
        "coordinates": {
            "latitude": 29.466305799999997,
            "longitude": 77.356247
        }
    },
    {
        "name": "Masjid Afghan Muhammad Mubarak Khan",
        "main_category": "Mosque",
        "address": "F972+GWW Masjid Afghan Muhammad Mubarak Khan, Banat, Uttar Pradesh 247776",
        "detailed_address": {
            "ward": null,
            "street": "F972+GWW",
            "city": "Banat",
            "postal_code": "247776",
            "state": "Uttar Pradesh",
            "country_code": "IN"
        },
        "images": [
            {
                "about": "All",
                "link": "https://lh5.googleusercontent.com/p/AF1QipMLwDlzkK7UA3_jDWb6LwrGc_7siKd_CoZXZmOH=w224-h298-k-no"
            },
            {
                "about": "Street View & 360deg",
                "link": "https://streetviewpixels-pa.googleapis.com/v1/thumbnail?panoid=-88auLLrr0H9GGkbM4Eo8w&cb_client=maps_sv.tactile.gps&w=224&h=298&yaw=70.24734&pitch=0&thumbfov=100"
            }
        ],
        "link": "https://www.google.com/maps/place/Masjid+Afghan+Muhammad+Mubarak+Khan/data=!4m7!3m6!1s0x390c299652d31e27:0x5c2a91215ad30b6!8m2!3d29.4638546!4d77.3523357!16s%2Fg%2F11qpylr_71!19sChIJJx7TUpYpDDkRtjCtFRKpwgU?authuser=0&hl=en&rclk=1",
        "coordinates": {
            "latitude": 29.463854599999998,
            "longitude": 77.3523357
        }
    },
    {
        "name": "Sarai wali masjid",
        "main_category": "Mosque",
        "address": "F982+GQ8 Sarai wali masjid, Banat, Uttar Pradesh 247776",
        "detailed_address": {
            "ward": null,
            "street": "F982+GQ8",
            "city": "Banat",
            "postal_code": "247776",
            "state": "Uttar Pradesh",
            "country_code": "IN"
        },
        "images": [
            {
                "about": "All",
                "link": "https://streetviewpixels-pa.googleapis.com/v1/thumbnail?panoid=06Iju6jfok8qYY3dWiZSiw&cb_client=maps_sv.tactile.gps&w=224&h=298&yaw=4.4900565&pitch=0&thumbfov=100"
            },
            {
                "about": "Street View & 360deg",
                "link": "https://streetviewpixels-pa.googleapis.com/v1/thumbnail?panoid=06Iju6jfok8qYY3dWiZSiw&cb_client=maps_sv.tactile.gps&w=224&h=298&yaw=4.4900565&pitch=0&thumbfov=100"
            }
        ],
        "link": "https://www.google.com/maps/place/Sarai+wali+masjid/data=!4m7!3m6!1s0x390c29277d239deb:0x324a63158cc7229a!8m2!3d29.4662926!4d77.3519472!16s%2Fg%2F11lrybjdbk!19sChIJ650jfScpDDkRmiLHjBVjSjI?authuser=0&hl=en&rclk=1",
        "coordinates": {
            "latitude": 29.4662926,
            "longitude": 77.3519472
        }
    },
    {
        "name": "Imam sahab wali masjid",
        "main_category": "Mosque",
        "address": "F87X+RMJ Imam sahab wali masjid, Banat, Uttar Pradesh 247776",
        "detailed_address": {
            "ward": null,
            "street": "F87X+RMJ",
            "city": "Banat",
            "postal_code": "247776",
            "state": "Uttar Pradesh",
            "country_code": "IN"
        },
        "images": [
            {
                "about": "All",
                "link": "https://lh5.googleusercontent.com/p/AF1QipMYk3MuEOLQVWvmDO1scMBtgbQ1gfe2F5MQ0svw=w224-h398-k-no"
            },
            {
                "about": "Videos",
                "link": "https://lh5.googleusercontent.com/p/AF1QipM_G0eoeLIU2S6gUbkZJRKIC5WX0GkfLDbkIq0Z=w224-h405-k-no"
            }
        ],
        "link": "https://www.google.com/maps/place/Imam+sahab+wali+masjid/data=!4m7!3m6!1s0x390c2944120e2727:0x8f5a311cbde8d15f!8m2!3d29.4645947!4d77.3491473!16s%2Fg%2F11lrybk6kk!19sChIJJycOEkQpDDkRX9HovRwxWo8?authuser=0&hl=en&rclk=1",
        "coordinates": {
            "latitude": 29.4645947,
            "longitude": 77.3491473
        }
    },
    {
        "name": "Masjid imaampura bali",
        "main_category": "Mosque",
        "address": "F993+CF5 Masjid imaampura bali, Unnamed Road, Banat, Uttar Pradesh 247776",
        "detailed_address": {
            "ward": null,
            "street": "F993+CF5, Unnamed Road",
            "city": "Banat",
            "postal_code": "247776",
            "state": "Uttar Pradesh",
            "country_code": "IN"
        },
        "images": [
            {
                "about": "All",
                "link": "https://lh5.googleusercontent.com/p/AF1QipMStWAq8p4xYypqBrjPuuahcdjmrwLN4BwUTNG3=w224-h398-k-no"
            }
        ],
        "link": "https://www.google.com/maps/place/Masjid+imaampura+bali/data=!4m7!3m6!1s0x390c295be0e775b9:0xd4f16c12d02861a7!8m2!3d29.468518!4d77.3537243!16s%2Fg%2F11h1m9t8z8!19sChIJuXXn4FspDDkRp2Eo0BJs8dQ?authuser=0&hl=en&rclk=1",
        "coordinates": {
            "latitude": 29.468518,
            "longitude": 77.3537243
        }
    },
    {
        "name": "Inampura Masjid",
        "main_category": "School",
        "address": "F993+9FX Inampura Masjid, Banat, Uttar Pradesh 247776",
        "detailed_address": {
            "ward": null,
            "street": "F993+9FX",
            "city": "Banat",
            "postal_code": "247776",
            "state": "Uttar Pradesh",
            "country_code": "IN"
        },
        "images": [],
        "link": "https://www.google.com/maps/place/Inampura+Masjid/data=!4m7!3m6!1s0x390c2963a708bc93:0x3bb140e35d1fc58b!8m2!3d29.4684784!4d77.3537427!16s%2Fg%2F11f5v7qnw4!19sChIJk7wIp2MpDDkRi8UfXeNAsTs?authuser=0&hl=en&rclk=1",
        "coordinates": {
            "latitude": 29.4684784,
            "longitude": 77.3537427
        }
    },
    {
        "name": "Masjid Banat",
        "main_category": "Mosque",
        "address": "Masjid Banat, Village Bunkotal, Murree, Rawalpindi, Punjab, Pakistan",
        "detailed_address": {
            "ward": null,
            "street": "Village Bunkotal",
            "city": "Murree",
            "postal_code": null,
            "state": "Rawalpindi, Punjab",
            "country_code": "PK"
        },
        "images": [
            {
                "about": "All",
                "link": "https://lh5.googleusercontent.com/p/AF1QipP1odrwtX8Y7uKHeIsNNMYhLiTeihi_bV5FBJO-=w662-h298-k-no"
            },
            {
                "about": "Videos",
                "link": "https://lh5.googleusercontent.com/p/AF1QipNSQwj1IOIl4gMRcPd_u3fPJ_ddxC4cZHEefEdG=w224-h398-k-no"
            }
        ],
        "link": "https://www.google.com/maps/place/Masjid+Banat/data=!4m7!3m6!1s0x38dfd7dd03bdaa6f:0xe34966bc474c709b!8m2!3d33.9453534!4d73.4031153!16s%2Fg%2F11j8slpn40!19sChIJb6q9A93X3zgRm3BMR7xmSeM?authuser=0&hl=en&rclk=1",
        "coordinates": {
            "latitude": 33.9453534,
            "longitude": 73.4031153
        }
    },
    {
        "name": "Masjid Banat",
        "main_category": "Tourist attraction",
        "address": "WCR2+XH Masjid Banat, Dhok Karnah, Rawalpindi, Khyber Pakhtunkhwa, Pakistan",
        "detailed_address": {
            "ward": null,
            "street": "WCR2+XH",
            "city": "Dhok Karnah",
            "postal_code": null,
            "state": "Rawalpindi, Khyber Pakhtunkhwa",
            "country_code": "PK"
        },
        "images": [],
        "link": "https://www.google.com/maps/place/Masjid+Banat/data=!4m7!3m6!1s0x38dfd73b3decaaab:0xd243f6effdf02e9a!8m2!3d33.942422!4d73.4014788!16s%2Fg%2F11t2rcsnr0!19sChIJq6rsPTvX3zgRmi7w_e_2Q9I?authuser=0&hl=en&rclk=1",
        "coordinates": {
            "latitude": 33.942422,
            "longitude": 73.40147879999999
        }
    },
    {
        "name": "Muslim jaat Masjid",
        "main_category": "Mosque",
        "address": "F972+PM4 Muslim jaat Masjid, Banat, Uttar Pradesh 247776",
        "detailed_address": {
            "ward": null,
            "street": "F972+PM4",
            "city": "Banat",
            "postal_code": "247776",
            "state": "Uttar Pradesh",
            "country_code": "IN"
        },
        "images": [
            {
                "about": "All",
                "link": "https://streetviewpixels-pa.googleapis.com/v1/thumbnail?panoid=ISh6hwWxWKjCZQyt4N6eSw&cb_client=maps_sv.tactile.gps&w=224&h=298&yaw=40.678017&pitch=0&thumbfov=100"
            },
            {
                "about": "Street View & 360deg",
                "link": "https://streetviewpixels-pa.googleapis.com/v1/thumbnail?panoid=ISh6hwWxWKjCZQyt4N6eSw&cb_client=maps_sv.tactile.gps&w=224&h=298&yaw=40.678017&pitch=0&thumbfov=100"
            }
        ],
        "link": "https://www.google.com/maps/place/Muslim+jaat+Masjid/data=!4m7!3m6!1s0x390c29290f62c5f9:0x8d055a74c664a993!8m2!3d29.464264!4d77.3516984!16s%2Fg%2F11n60dmb1h!19sChIJ-cViDykpDDkRk6lkxnRaBY0?authuser=0&hl=en&rclk=1",
        "coordinates": {
            "latitude": 29.464264,
            "longitude": 77.35169839999999
        }
    },
    {
        "name": "Choudhariyan masjid",
        "main_category": "Mosque",
        "address": "Choudhariyan masjid, 576, Banat, Uttar Pradesh 247776",
        "detailed_address": {
            "ward": null,
            "street": "576",
            "city": "Banat",
            "postal_code": "247776",
            "state": "Uttar Pradesh",
            "country_code": "IN"
        },
        "images": [],
        "link": "https://www.google.com/maps/place/Choudhariyan+masjid/data=!4m7!3m6!1s0x390c297f333636d1:0xd91592d3b57082f0!8m2!3d29.4631257!4d77.3517773!16s%2Fg%2F11tn_8bpwc!19sChIJ0TY2M38pDDkR8IJwtdOSFdk?authuser=0&hl=en&rclk=1",
        "coordinates": {
            "latitude": 29.4631257,
            "longitude": 77.3517773
        }
    },
    {
        "name": "Sayyed Masjid",
        "main_category": "Mosque",
        "address": "Sayyed Masjid, Banat, Uttar Pradesh 247776",
        "detailed_address": {
            "ward": null,
            "street": null,
            "city": "Banat",
            "postal_code": "247776",
            "state": "Uttar Pradesh",
            "country_code": "IN"
        },
        "images": [
            {
                "about": "All",
                "link": "https://lh5.googleusercontent.com/p/AF1QipM48PrTeOKjFKIsYG6kqw6xXbPEC-JpOjD0uqQ=w298-h298-k-no"
            }
        ],
        "link": "https://www.google.com/maps/place/Sayyed+Masjid/data=!4m7!3m6!1s0x390c295f255b0d73:0x91cfc44ea775eb5d!8m2!3d29.4629692!4d77.3525459!16s%2Fg%2F11g_yfk8qb!19sChIJcw1bJV8pDDkRXet1p07Ez5E?authuser=0&hl=en&rclk=1",
        "coordinates": {
            "latitude": 29.4629692,
            "longitude": 77.3525459
        }
    },
    {
        "name": "Masjid Bait uL Noor and Madrassa LiL Banat",
        "main_category": "Mosque",
        "address": "G7PV+M9G Masjid Bait uL Noor and Madrassa LiL Banat, Bastami Rd, Samanabad Town, Lahore, Punjab 54500, Pakistan",
        "detailed_address": {
            "ward": "Samanabad Town",
            "street": "G7PV+M9G, Bastami Rd",
            "city": "Lahore",
            "postal_code": "54500",
            "state": "Lahore, Punjab",
            "country_code": "PK"
        },
        "images": [],
        "link": "https://www.google.com/maps/place/Masjid+Bait+uL+Noor+and+Madrassa+LiL+Banat/data=!4m7!3m6!1s0x391903bb291a7155:0x8c7f8efd32a77cf6!8m2!3d31.536702!4d74.2937399!16s%2Fg%2F11l6xll2_m!19sChIJVXEaKbsDGTkR9nynMv2Of4w?authuser=0&hl=en&rclk=1",
        "coordinates": {
            "latitude": 31.536702,
            "longitude": 74.29373989999999
        }
    },
    {
        "name": "Masjid Saraye Wali",
        "main_category": "Mosque",
        "address": "F973+52M Masjid Saraye Wali, Main Road, Banat, Uttar Pradesh 247776",
        "detailed_address": {
            "ward": null,
            "street": "F973+52M, Main Road",
            "city": "Banat",
            "postal_code": null,
            "state": "Uttar Pradesh",
            "country_code": "IN"
        },
        "images": [
            {
                "about": "All",
                "link": "https://lh5.googleusercontent.com/p/AF1QipNUWUfVhz7Mxs7wH-Yc53ItJGE_zZBKv23cLguN=w298-h298-k-no"
            },
            {
                "about": "Videos",
                "link": "https://lh5.googleusercontent.com/p/AF1QipNUWUfVhz7Mxs7wH-Yc53ItJGE_zZBKv23cLguN=w298-h298-k-no"
            }
        ],
        "link": "https://www.google.com/maps/place/Masjid+Saraye+Wali/data=!4m7!3m6!1s0x390c29202c4f4f89:0x8c27132cfa30fa71!8m2!3d29.4629692!4d77.3525459!16s%2Fg%2F11g0j6n2bp!19sChIJiU9PLCApDDkRcfow-iwTJ4w?authuser=0&hl=en&rclk=1",
        "coordinates": {
            "latitude": 29.4629692,
            "longitude": 77.3525459
        }
    }
]