[
    {
        "name": "Kalpally Juma Masjid",
        "main_category": "Mosque",
        "address": "7W4R+3JQ Kalpally Juma Masjid, Kozhikode, Mavoor, Kerala 673661",
        "detailed_address": {
            "ward": null,
            "street": "7W4R+3JQ",
            "city": "Kozhikode, Mavoor",
            "postal_code": "673661",
            "state": "Kerala",
            "country_code": "IN"
        },
        "images": [
            {
                "about": "All",
                "link": "https://lh5.googleusercontent.com/p/AF1QipPGnV2Grri0eUI_UEys24DUFkYBzBh5mVTGBcZm=w224-h298-k-no"
            },
            {
                "about": "Latest",
                "link": "https://lh5.googleusercontent.com/p/AF1QipMMJjMnb3ZiwY8RCu3-p1ZB2pRrUW9BtmIX2TrP=w224-h298-k-no"
            },
            {
                "about": "Videos",
                "link": "https://lh5.googleusercontent.com/p/AF1QipNiq-YAq09VtQhV_VByStskl5CIh0BmB9Lkx_JH=w224-h398-k-no"
            },
            {
                "about": "Street View & 360deg",
                "link": "https://streetviewpixels-pa.googleapis.com/v1/thumbnail?panoid=SUSqOb6QkDQhBbsqgwNuhA&cb_client=maps_sv.tactile.gps&w=224&h=298&yaw=2.959825&pitch=0&thumbfov=100"
            }
        ],
        "link": "https://www.google.com/maps/place/Kalpally+Juma+Masjid/data=!4m7!3m6!1s0x3ba644f4acae6f95:0x51bad902b686e926!8m2!3d11.2552243!4d75.9416103!16s%2Fg%2F11bv6pffbz!19sChIJlW-urPREpjsRJumGtgLZulE?authuser=0&hl=en&rclk=1",
        "coordinates": {
            "latitude": 11.2552243,
            "longitude": 75.9416103
        }
    },
    {
        "name": "Thathoor Shuhada Maqaam",
        "main_category": "Mosque",
        "address": "Thathoor Shuhada Maqaam, Jumaa Masjid, Thathoor, Mavoor, Kerala 673003",
        "detailed_address": {
            "ward": "Thathoor",
            "street": "Jumaa Masjid",
            "city": "Mavoor",
            "postal_code": "673003",
            "state": "Kerala",
            "country_code": "IN"
        },
        "images": [
            {
                "about": "All",
                "link": "https://lh5.googleusercontent.com/p/AF1QipNew8SPOG55ermRY2RaIIKA1aq5X17SXnEH3y07=w224-h298-k-no"
            },
            {
                "about": "Dome",
                "link": "https://lh5.googleusercontent.com/p/AF1QipNMBjfzoCrbJ7PT9RKv55vk9Z3ED2CDZY1aZ-9q=w397-h298-k-no"
            },
            {
                "about": "Videos",
                "link": "https://lh5.googleusercontent.com/p/AF1QipNMttJUQsSv6q5g2Yly9iJavQcxtyG1vZHucwdj=w529-h298-k-no"
            }
        ],
        "link": "https://www.google.com/maps/place/Thathoor+Shuhada+Maqaam/data=!4m7!3m6!1s0x3ba64474648c4847:0xed6cbf253273725e!8m2!3d11.2734488!4d75.9662298!16s%2Fg%2F11cnxyxhsz!19sChIJR0iMZHREpjsRXnJzMiW_bO0?authuser=0&hl=en&rclk=1",
        "coordinates": {
            "latitude": 11.273448799999999,
            "longitude": 75.9662298
        }
    },
    {
        "name": "Badar Juma Masjid",
        "main_category": "Mosque",
        "address": "Badar Juma Masjid, Junction, Mavoor Rd, Arayidathupalam, Kozhikode, Kerala 673004",
        "detailed_address": {
            "ward": "Arayidathupalam",
            "street": "Junction, Mavoor Rd",
            "city": "Kozhikode",
            "postal_code": "673004",
            "state": "Kerala",
            "country_code": "IN"
        },
        "images": [
            {
                "about": "All",
                "link": "https://lh5.googleusercontent.com/p/AF1QipPjT7vNBnL6FG_WSxASdS3THU5BNqc4ohyqedch=w224-h325-k-no"
            },
            {
                "about": "Street View & 360deg",
                "link": "https://streetviewpixels-pa.googleapis.com/v1/thumbnail?panoid=qC1_3iu0DRp_0l-G89cOrQ&cb_client=maps_sv.tactile.gps&w=224&h=298&yaw=177.23203&pitch=0&thumbfov=100"
            }
        ],
        "link": "https://www.google.com/maps/place/Badar+Juma+Masjid/data=!4m7!3m6!1s0x3ba6594f61edd015:0xab41a408c2714a7b!8m2!3d11.2586746!4d75.7911932!16s%2Fg%2F1q2vxfjtb!19sChIJFdDtYU9ZpjsRe0pxwgikQas?authuser=0&hl=en&rclk=1",
        "coordinates": {
            "latitude": 11.258674599999999,
            "longitude": 75.7911932
        }
    },
    {
        "name": "Juma Masjid",
        "main_category": "Mosque",
        "address": "7X63+7FP Juma Masjid, Mavoor - Calicut Rd, Mavoor, Kerala 673661",
        "detailed_address": {
            "ward": null,
            "street": "7X63+7FP, Mavoor - Calicut Rd",
            "city": "Mavoor",
            "postal_code": "673661",
            "state": "Kerala",
            "country_code": "IN"
        },
        "images": [
            {
                "about": "All",
                "link": "https://lh5.googleusercontent.com/p/AF1QipNnvyMw8gkAujqzAm5i1Khhk6TsH13VQZbkBpd7=w224-h298-k-no"
            },
            {
                "about": "Street View & 360deg",
                "link": "https://streetviewpixels-pa.googleapis.com/v1/thumbnail?panoid=nwUfKBq7GW7RsUUTMoNALQ&cb_client=maps_sv.tactile.gps&w=224&h=298&yaw=4.7295876&pitch=0&thumbfov=100"
            }
        ],
        "link": "https://www.google.com/maps/place/Juma+Masjid/data=!4m7!3m6!1s0x3ba644669f09b2dd:0x27fae4a3804e0a23!8m2!3d11.2607243!4d75.9537059!16s%2Fg%2F11xf7ynzs!19sChIJ3bIJn2ZEpjsRIwpOgKPk-ic?authuser=0&hl=en&rclk=1",
        "coordinates": {
            "latitude": 11.2607243,
            "longitude": 75.9537059
        }
    },
    {
        "name": "Mavoor Valiya Juma Masjid",
        "main_category": "Mosque",
        "address": "7W4X+Q7J Mavoor Valiya Juma Masjid, Mavoor - Calicut Rd, Mavoor, Kerala 673661",
        "detailed_address": {
            "ward": null,
            "street": "7W4X+Q7J, Mavoor - Calicut Rd",
            "city": "Mavoor",
            "postal_code": "673661",
            "state": "Kerala",
            "country_code": "IN"
        },
        "images": [],
        "link": "https://www.google.com/maps/place/Mavoor+Valiya+Juma+Masjid/data=!4m7!3m6!1s0x3ba6446044279995:0xe21df05971726fc8!8m2!3d11.2569572!4d75.948143!16s%2Fg%2F11b60qdt85!19sChIJlZknRGBEpjsRyG9ycVnwHeI?authuser=0&hl=en&rclk=1",
        "coordinates": {
            "latitude": 11.256957199999999,
            "longitude": 75.948143
        }
    },
    {
        "name": "Mannilthodi Jalal Masjid",
        "main_category": "Mosque",
        "address": "Mannilthodi Jalal Masjid, Mavoor, Kerala 673661",
        "detailed_address": {
            "ward": null,
            "street": null,
            "city": "Mavoor",
            "postal_code": "673661",
            "state": "Kerala",
            "country_code": "IN"
        },
        "images": [],
        "link": "https://www.google.com/maps/place/Mannilthodi+Jalal+Masjid/data=!4m7!3m6!1s0x3ba6445f8ed38347:0x2b500c781a556b1d!8m2!3d11.2516703!4d75.9451802!16s%2Fg%2F11csqjrlhn!19sChIJR4PTjl9EpjsRHWtVGngMUCs?authuser=0&hl=en&rclk=1",
        "coordinates": {
            "latitude": 11.251670299999999,
            "longitude": 75.9451802
        }
    },
    {
        "name": "Mubarak Masjid-Sunni , Parammal, Mavoor",
        "main_category": "Mosque",
        "address": "7W4W+J4G Mubarak Masjid-Sunni , Parammal, Mavoor, Kozhikode - Mavoor - Areacode Rd, Mavoor, Kerala 673661",
        "detailed_address": {
            "ward": null,
            "street": "7W4W+J4G, Kozhikode - Mavoor - Areacode Rd",
            "city": "Mavoor",
            "postal_code": "673661",
            "state": "Kerala",
            "country_code": "IN"
        },
        "images": [
            {
                "about": "All",
                "link": "https://lh5.googleusercontent.com/p/AF1QipOmvFEwmPkt0eGg7jR8qzAtzXCWmUQRSqyNMl65=w224-h298-k-no"
            },
            {
                "about": "Street View & 360deg",
                "link": "https://streetviewpixels-pa.googleapis.com/v1/thumbnail?panoid=ve67FRFjxAF0piuogxs7pQ&cb_client=maps_sv.tactile.gps&w=224&h=298&yaw=142.39626&pitch=0&thumbfov=100"
            }
        ],
        "link": "https://www.google.com/maps/place/Mubarak+Masjid-Sunni+,+Parammal,+Mavoor/data=!4m7!3m6!1s0x3ba6448a96f68d91:0x36db90882bae89e0!8m2!3d11.2565515!4d75.945323!16s%2Fg%2F11gbzcjwpd!19sChIJkY32lopEpjsR4ImuK4iQ2zY?authuser=0&hl=en&rclk=1",
        "coordinates": {
            "latitude": 11.256551499999999,
            "longitude": 75.945323
        }
    },
    {
        "name": "Salafi Masjid",
        "main_category": "Mosque",
        "address": "7W4V+QR6 Salafi Masjid, Mavoor - Calicut Rd, Mavoor, Kerala 673661",
        "detailed_address": {
            "ward": null,
            "street": "7W4V+QR6, Mavoor - Calicut Rd",
            "city": "Mavoor",
            "postal_code": "673661",
            "state": "Kerala",
            "country_code": "IN"
        },
        "images": [
            {
                "about": "All",
                "link": "https://lh5.googleusercontent.com/p/AF1QipNYM75cxac56MgXS8p_4oykXQFe3lXizHN14AUY=w646-h298-k-no"
            },
            {
                "about": "Street View & 360deg",
                "link": "https://streetviewpixels-pa.googleapis.com/v1/thumbnail?panoid=L-Ns0VVyo8muWmtIZ4AsCA&cb_client=maps_sv.tactile.gps&w=224&h=298&yaw=3.9828382&pitch=0&thumbfov=100"
            }
        ],
        "link": "https://www.google.com/maps/place/Salafi+Masjid/data=!4m7!3m6!1s0x3ba645dcb6428fb5:0x2abe79c52bf99941!8m2!3d11.2567994!4d75.9445458!16s%2Fg%2F11shy0krst!19sChIJtY9CttxFpjsRQZn5K8V5vio?authuser=0&hl=en&rclk=1",
        "coordinates": {
            "latitude": 11.2567994,
            "longitude": 75.9445458
        }
    }
]