[
    {
        "name": "Masjid e Moosa",
        "main_category": "Mosque",
        "address": "Masjid e Moosa, 26 & 27, Shawzadhi, Begum St, Avarapakkam, Tindivanam, Tamil Nadu 604001",
        "detailed_address": {
            "ward": "MGR Nagar, Avarapakkam",
            "street": "26 & 27, Shawzadhi, Begum St",
            "city": "Tindivanam",
            "postal_code": "604001",
            "state": "Tamil Nadu",
            "country_code": "IN"
        },
        "images": [
            {
                "about": "All",
                "link": "https://lh5.googleusercontent.com/p/AF1QipPm-yDLLlAFi1LZDyuForebajIdMNAm-nL8B7mr=w397-h298-k-no"
            },
            {
                "about": "By owner",
                "link": "https://lh5.googleusercontent.com/p/AF1QipPpPOuhZL58S-Tr-3mbvhwbUQQnN8a6wH2_DrLA=w224-h298-k-no"
            }
        ],
        "link": "https://www.google.com/maps/place/Masjid+e+Moosa/data=!4m7!3m6!1s0x3a5347a52c87a1cb:0x9c71a648ab016cf9!8m2!3d12.2411431!4d79.6438658!16s%2Fg%2F11q8wf9zwv!19sChIJy6GHLKVHUzoR-WwBq0imcZw?authuser=0&hl=en&rclk=1",
        "coordinates": {
            "latitude": 12.241143099999999,
            "longitude": 79.6438658
        }
    },
    {
        "name": "Alhudha Masjid",
        "main_category": "Mosque",
        "address": "7JW8+G29 Alhudha Masjid, Tindivanam - Vandavasi Rd, Govindapuram, Govidapuram, Tamil Nadu 604207",
        "detailed_address": {
            "ward": null,
            "street": "7JW8+G29, Tindivanam - Vandavasi Rd",
            "city": "Govindapuram, Govidapuram",
            "postal_code": "604207",
            "state": "Tamil Nadu",
            "country_code": "IN"
        },
        "images": [
            {
                "about": "All",
                "link": "https://lh5.googleusercontent.com/p/AF1QipObxcPDLlvXeeAqC6HZNqUN3PQG8i4TA4EyZRZP=w529-h298-k-no"
            }
        ],
        "link": "https://www.google.com/maps/place/Alhudha+Masjid/data=!4m7!3m6!1s0x3a53390567f94967:0xd1e8b5fbd0af00ea!8m2!3d12.2962978!4d79.6150996!16s%2Fg%2F11c5_gktry!19sChIJZ0n5ZwU5UzoR6gCv0Pu16NE?authuser=0&hl=en&rclk=1",
        "coordinates": {
            "latitude": 12.2962978,
            "longitude": 79.6150996
        }
    },
    {
        "name": "Gidangal Mosque",
        "main_category": "Mosque",
        "address": "6JGX+75M Gidangal Mosque, Gidangal 1, Tindivanam, Tamil Nadu 604001",
        "detailed_address": {
            "ward": "Gidangal 1",
            "street": "6JGX+75M",
            "city": "Tindivanam",
            "postal_code": "604001",
            "state": "Tamil Nadu",
            "country_code": "IN"
        },
        "images": [
            {
                "about": "All",
                "link": "https://lh5.googleusercontent.com/p/AF1QipMCdbBWps8HeDJOJ6sxl7h2BORKxeuyOVjme15F=w397-h298-k-no"
            }
        ],
        "link": "https://www.google.com/maps/place/Gidangal+Mosque/data=!4m7!3m6!1s0x3a53474c8e542bf5:0xafcddb979a622bd2!8m2!3d12.2257218!4d79.6479262!16s%2Fg%2F1pp2x8qrw!19sChIJ9StUjkxHUzoR0itimpfbza8?authuser=0&hl=en&rclk=1",
        "coordinates": {
            "latitude": 12.225721799999999,
            "longitude": 79.6479262
        }
    },
    {
        "name": "Masjid-E-Nabavi (Mosque)",
        "main_category": "Mosque",
        "address": "6M98+453 Masjid-E-Nabavi (Mosque), SH 134, Manoor, Tindivanam, Tamil Nadu 604001",
        "detailed_address": {
            "ward": "Manoor",
            "street": "6M98+453, SH 134",
            "city": "Tindivanam",
            "postal_code": "604001",
            "state": "Tamil Nadu",
            "country_code": "IN"
        },
        "images": [
            {
                "about": "All",
                "link": "https://lh5.googleusercontent.com/p/AF1QipOatRZ0I5cY8rCN4Qoo_Yr4KbD3lNvsraE-5uzg=w529-h298-k-no"
            },
            {
                "about": "Street View & 360deg",
                "link": "https://streetviewpixels-pa.googleapis.com/v1/thumbnail?panoid=mNjfJzzeiuYqhjoTSiTL9w&cb_client=maps_sv.tactile.gps&w=224&h=298&yaw=182.57239&pitch=0&thumbfov=100"
            }
        ],
        "link": "https://www.google.com/maps/place/Masjid-E-Nabavi+%28Mosque%29/data=!4m7!3m6!1s0x3a5340c71649c3bd:0xf0db2989ae63be35!8m2!3d12.2177575!4d79.6654269!16s%2Fg%2F1pp2x8qmp!19sChIJvcNJFsdAUzoRNb5jrokp2_A?authuser=0&hl=en&rclk=1",
        "coordinates": {
            "latitude": 12.2177575,
            "longitude": 79.6654269
        }
    },
    {
        "name": "Mubarak Masjid",
        "main_category": "Mosque",
        "address": "6JFR+J2V Mubarak Masjid, Bootheri, Tindivanam, Tamil Nadu 604001",
        "detailed_address": {
            "ward": "Bootheri",
            "street": "6JFR+J2V",
            "city": "Tindivanam",
            "postal_code": "604001",
            "state": "Tamil Nadu",
            "country_code": "IN"
        },
        "images": [
            {
                "about": "All",
                "link": "https://lh5.googleusercontent.com/p/AF1QipMZ9WvzV4sG-MbacBw75d8SHncBpnTj5v7P41SV=w224-h398-k-no"
            },
            {
                "about": "Street View & 360deg",
                "link": "https://streetviewpixels-pa.googleapis.com/v1/thumbnail?panoid=sPY50S-Eaxv4jj9cHsOEcw&cb_client=maps_sv.tactile.gps&w=224&h=298&yaw=237.2075&pitch=0&thumbfov=100"
            }
        ],
        "link": "https://www.google.com/maps/place/Mubarak+Masjid/data=!4m7!3m6!1s0x3a534748b6ad5ded:0xea58a9ed68f00d20!8m2!3d12.2241138!4d79.6400401!16s%2Fg%2F11ck69pvl8!19sChIJ7V2ttkhHUzoRIA3waO2pWOo?authuser=0&hl=en&rclk=1",
        "coordinates": {
            "latitude": 12.2241138,
            "longitude": 79.6400401
        }
    },
    {
        "name": "Madhina Masjid",
        "main_category": "Mosque",
        "address": "6JQX+J52 Madhina Masjid, Tindivanam, Tamil Nadu 604001",
        "detailed_address": {
            "ward": null,
            "street": "6JQX+J52",
            "city": "Tindivanam",
            "postal_code": "604001",
            "state": "Tamil Nadu",
            "country_code": "IN"
        },
        "images": [
            {
                "about": "All",
                "link": "https://lh5.googleusercontent.com/p/AF1QipM_J_N8IFbB8mYSkZcjBou2KIVwrLALP4erom8p=w396-h298-k-no"
            }
        ],
        "link": "https://www.google.com/maps/place/Madhina+Masjid/data=!4m7!3m6!1s0x3a534755024295e7:0x144aeb11e6ff2d67!8m2!3d12.239014!4d79.6478802!16s%2Fg%2F1pp2x8r22!19sChIJ55VCAlVHUzoRZy3_5hHrShQ?authuser=0&hl=en&rclk=1",
        "coordinates": {
            "latitude": 12.239014,
            "longitude": 79.6478802
        }
    },
    {
        "name": "New Mosque",
        "main_category": "Mosque",
        "address": "6JJX+5V2 New Mosque, Tindivanam, Tamil Nadu 604001",
        "detailed_address": {
            "ward": null,
            "street": "6JJX+5V2",
            "city": "Tindivanam",
            "postal_code": "604001",
            "state": "Tamil Nadu",
            "country_code": "IN"
        },
        "images": [
            {
                "about": "All",
                "link": "https://streetviewpixels-pa.googleapis.com/v1/thumbnail?panoid=mGq3vhP1blIiLeMIsG9wPg&cb_client=maps_sv.tactile.gps&w=224&h=298&yaw=302.64023&pitch=0&thumbfov=100"
            },
            {
                "about": "Street View & 360deg",
                "link": "https://streetviewpixels-pa.googleapis.com/v1/thumbnail?panoid=mGq3vhP1blIiLeMIsG9wPg&cb_client=maps_sv.tactile.gps&w=224&h=298&yaw=302.64023&pitch=0&thumbfov=100"
            }
        ],
        "link": "https://www.google.com/maps/place/New+Mosque/data=!4m7!3m6!1s0x3a53474d5644bd43:0x703e5a6e3ee38b40!8m2!3d12.2303974!4d79.6496513!16s%2Fg%2F1tjt0c18!19sChIJQ71EVk1HUzoRQIvjPm5aPnA?authuser=0&hl=en&rclk=1",
        "coordinates": {
            "latitude": 12.2303974,
            "longitude": 79.6496513
        }
    },
    {
        "name": "Nawab Masjid",
        "main_category": "Mosque",
        "address": "6JMX+HJM Nawab Masjid, NH 66, Tindivanam, Tamil Nadu 604001",
        "detailed_address": {
            "ward": null,
            "street": "6JMX+HJM, NH 66",
            "city": "Tindivanam",
            "postal_code": "604001",
            "state": "Tamil Nadu",
            "country_code": "IN"
        },
        "images": [
            {
                "about": "All",
                "link": "https://streetviewpixels-pa.googleapis.com/v1/thumbnail?panoid=qkLfezEFWwKqGUPnh6yk7Q&cb_client=maps_sv.tactile.gps&w=224&h=298&yaw=259.276&pitch=0&thumbfov=100"
            },
            {
                "about": "Street View & 360deg",
                "link": "https://streetviewpixels-pa.googleapis.com/v1/thumbnail?panoid=qkLfezEFWwKqGUPnh6yk7Q&cb_client=maps_sv.tactile.gps&w=224&h=298&yaw=259.276&pitch=0&thumbfov=100"
            }
        ],
        "link": "https://www.google.com/maps/place/Nawab+Masjid/data=!4m7!3m6!1s0x3a534753231c6321:0x44e5cb352eda247a!8m2!3d12.2339588!4d79.6490483!16s%2Fg%2F1tgmtps1!19sChIJIWMcI1NHUzoReiTaLjXL5UQ?authuser=0&hl=en&rclk=1",
        "coordinates": {
            "latitude": 12.2339588,
            "longitude": 79.64904829999999
        }
    },
    {
        "name": "Usmania Masjid",
        "main_category": "Mosque",
        "address": "6JQV+2W9 Usmania Masjid, Sanjeevi Nagar, Tindivanam, Tamil Nadu 604001",
        "detailed_address": {
            "ward": "Sanjeevi Nagar",
            "street": "6JQV+2W9",
            "city": "Tindivanam",
            "postal_code": "604001",
            "state": "Tamil Nadu",
            "country_code": "IN"
        },
        "images": [
            {
                "about": "All",
                "link": "https://lh5.googleusercontent.com/p/AF1QipMGV8EcLCHmTWBBM1BJ1cQ8rgeNMY-1_TDLnuEn=w224-h298-k-no"
            },
            {
                "about": "Dome",
                "link": "https://lh5.googleusercontent.com/p/AF1QipMGV8EcLCHmTWBBM1BJ1cQ8rgeNMY-1_TDLnuEn=w224-h298-k-no"
            }
        ],
        "link": "https://www.google.com/maps/place/Usmania+Masjid/data=!4m7!3m6!1s0x3a53475421989d15:0x17105df5c3c0c506!8m2!3d12.237536!4d79.6448593!16s%2Fg%2F1pp2xbp27!19sChIJFZ2YIVRHUzoRBsXAw_VdEBc?authuser=0&hl=en&rclk=1",
        "coordinates": {
            "latitude": 12.237535999999999,
            "longitude": 79.6448593
        }
    },
    {
        "name": "Masjidh-E-Quba",
        "main_category": "Mosque",
        "address": "6JCW+8GR Masjidh-E-Quba, Tindivanam, Tamil Nadu 604001",
        "detailed_address": {
            "ward": null,
            "street": "6JCW+8GR",
            "city": "Tindivanam",
            "postal_code": "604001",
            "state": "Tamil Nadu",
            "country_code": "IN"
        },
        "images": [
            {
                "about": "All",
                "link": "https://lh5.googleusercontent.com/p/AF1QipP2jVzSWwwapVDhH8EVAptqPlWMbtqSw2yPj03N=w646-h298-k-no"
            },
            {
                "about": "Street View & 360deg",
                "link": "https://streetviewpixels-pa.googleapis.com/v1/thumbnail?panoid=XQ35W5sihMwL8O3n9U-w8Q&cb_client=maps_sv.tactile.gps&w=224&h=298&yaw=132.27344&pitch=0&thumbfov=100"
            }
        ],
        "link": "https://www.google.com/maps/place/Masjidh-E-Quba/data=!4m7!3m6!1s0x3a53474a414aba19:0x33792781117d140b!8m2!3d12.22086!4d79.6462672!16s%2Fg%2F11gfjr970p!19sChIJGbpKQUpHUzoRCxR9EYEneTM?authuser=0&hl=en&rclk=1",
        "coordinates": {
            "latitude": 12.22086,
            "longitude": 79.6462672
        }
    },
    {
        "name": "Rahmaniya Masjid",
        "main_category": "Mosque",
        "address": "Rahmaniya Masjid, 604001/604002, Tindivanam, Tamil Nadu",
        "detailed_address": {
            "ward": null,
            "street": "604001/604002",
            "city": "Tindivanam",
            "postal_code": null,
            "state": "Tamil Nadu",
            "country_code": "IN"
        },
        "images": [],
        "link": "https://www.google.com/maps/place/Rahmaniya+Masjid/data=!4m7!3m6!1s0x3a53475315be0215:0x2d4e2e131f637808!8m2!3d12.234474!4d79.6487191!16s%2Fg%2F11ckkq_j_r!19sChIJFQK-FVNHUzoRCHhjHxMuTi0?authuser=0&hl=en&rclk=1",
        "coordinates": {
            "latitude": 12.234473999999999,
            "longitude": 79.6487191
        }
    },
    {
        "name": "Dharussalam Mosque",
        "main_category": "Mosque",
        "address": "6JJX+77J Dharussalam Mosque, Kasamiyan St, next to AL Madarasathu Aayisha Niswan Building, Tindivanam, Tamil Nadu 604001",
        "detailed_address": {
            "ward": null,
            "street": "6JJX+77J, Kasamiyan St, next to AL Madarasathu Aayisha Niswan Building",
            "city": "Tindivanam",
            "postal_code": "604001",
            "state": "Tamil Nadu",
            "country_code": "IN"
        },
        "images": [
            {
                "about": "All",
                "link": "https://lh5.googleusercontent.com/p/AF1QipNt2_vOmUkd3LknekhH-V5MKFAoUWBcUt6jZ8hz=w224-h398-k-no"
            }
        ],
        "link": "https://www.google.com/maps/place/Dharussalam+Mosque/data=!4m7!3m6!1s0x3a5347529cae99b5:0xb09e5c397754b894!8m2!3d12.230717!4d79.6481521!16s%2Fg%2F1ptz6ntzh!19sChIJtZmunFJHUzoRlLhUdzlcnrA?authuser=0&hl=en&rclk=1",
        "coordinates": {
            "latitude": 12.230717,
            "longitude": 79.64815209999999
        }
    },
    {
        "name": "Umar Pulavar Mosque",
        "main_category": "Mosque",
        "address": "6JVW+2X6 Umar Pulavar Mosque, Roshanai, Tindivanam, Tamil Nadu 604001",
        "detailed_address": {
            "ward": "Roshanai",
            "street": "6JVW+2X6",
            "city": "Tindivanam",
            "postal_code": "604001",
            "state": "Tamil Nadu",
            "country_code": "IN"
        },
        "images": [],
        "link": "https://www.google.com/maps/place/Umar+Pulavar+Mosque/data=!4m7!3m6!1s0x3a5338aa882250d3:0x6ace3381a4abab4!8m2!3d12.2425375!4d79.6473833!16s%2Fg%2F11g8cy38yj!19sChIJ01AiiKo4UzoRtLpKGjjjrAY?authuser=0&hl=en&rclk=1",
        "coordinates": {
            "latitude": 12.2425375,
            "longitude": 79.6473833
        }
    },
    {
        "name": "Jumma Masjid",
        "main_category": "Religious organization",
        "address": "6MR8+X4X Jumma Masjid, T.V Nagar, Tindivanam, Salavadi, Tamil Nadu 604001",
        "detailed_address": {
            "ward": "T.V Nagar",
            "street": "6MR8+X4X",
            "city": "Tindivanam, Salavadi",
            "postal_code": null,
            "state": "Tamil Nadu",
            "country_code": "IN"
        },
        "images": [
            {
                "about": "All",
                "link": "https://lh5.googleusercontent.com/p/AF1QipOo1yq1PFEmFXmQqv_lmCeZPZbbSJQnPb8bzek3=w224-h398-k-no"
            },
            {
                "about": "Street View & 360deg",
                "link": "https://streetviewpixels-pa.googleapis.com/v1/thumbnail?panoid=w2qE8hZrpe1mQFsFw2FYsQ&cb_client=maps_sv.tactile.gps&w=224&h=298&yaw=91.63138&pitch=0&thumbfov=100"
            }
        ],
        "link": "https://www.google.com/maps/place/Jumma+Masjid/data=!4m7!3m6!1s0x3a533f3a0bbc5467:0xf12f76fdc5710132!8m2!3d12.2424807!4d79.665372!16s%2Fg%2F11gy9q6ll_!19sChIJZ1S8Czo_UzoRMgFxxf12L_E?authuser=0&hl=en&rclk=1",
        "coordinates": {
            "latitude": 12.2424807,
            "longitude": 79.66537199999999
        }
    },
    {
        "name": "Sandook inam masjid",
        "main_category": "Mosque",
        "address": "6JMX+5J2 Sandook inam masjid, Mir Nasar ali Street, Tindivanam, Tamil Nadu 604001",
        "detailed_address": {
            "ward": null,
            "street": "6JMX+5J2, Mir Nasar ali Street",
            "city": "Tindivanam",
            "postal_code": "604001",
            "state": "Tamil Nadu",
            "country_code": "IN"
        },
        "images": [
            {
                "about": "All",
                "link": "https://lh5.googleusercontent.com/p/AF1QipO6oR1DyuL4KKyoY2d68g_jvJwh6uqg6AoXrqHb=w529-h298-k-no"
            },
            {
                "about": "Street View & 360deg",
                "link": "https://streetviewpixels-pa.googleapis.com/v1/thumbnail?panoid=lwEaj2lzxCxsVKaSUmaUqw&cb_client=maps_sv.tactile.gps&w=224&h=298&yaw=219.48352&pitch=0&thumbfov=100"
            }
        ],
        "link": "https://www.google.com/maps/place/Sandook+inam+masjid/data=!4m7!3m6!1s0x3a5347bd8f8b9d93:0x9f75bfa28e17904b!8m2!3d12.2328963!4d79.649021!16s%2Fg%2F11pw72t_kl!19sChIJk52Lj71HUzoRS5AXjqK_dZ8?authuser=0&hl=en&rclk=1",
        "coordinates": {
            "latitude": 12.2328963,
            "longitude": 79.64902099999999
        }
    },
    {
        "name": "MARKAZ MASJID",
        "main_category": "Mosque",
        "address": "6JJX+6V MARKAZ MASJID, Tindivanam, Tamil Nadu 604001",
        "detailed_address": {
            "ward": null,
            "street": "6JJX+6V",
            "city": "Tindivanam",
            "postal_code": null,
            "state": "Tamil Nadu",
            "country_code": "IN"
        },
        "images": [
            {
                "about": "All",
                "link": "https://streetviewpixels-pa.googleapis.com/v1/thumbnail?panoid=avX7MbwabWZG2qonLFqfrg&cb_client=maps_sv.tactile.gps&w=224&h=298&yaw=309.96048&pitch=0&thumbfov=100"
            },
            {
                "about": "Street View & 360deg",
                "link": "https://streetviewpixels-pa.googleapis.com/v1/thumbnail?panoid=avX7MbwabWZG2qonLFqfrg&cb_client=maps_sv.tactile.gps&w=224&h=298&yaw=309.96048&pitch=0&thumbfov=100"
            }
        ],
        "link": "https://www.google.com/maps/place/MARKAZ+MASJID/data=!4m7!3m6!1s0x3a5347e4cabb876d:0xfb119df749563bf1!8m2!3d12.2305972!4d79.6497186!16s%2Fg%2F11p74fjfl4!19sChIJbYe7yuRHUzoR8TtWSfedEfs?authuser=0&hl=en&rclk=1",
        "coordinates": {
            "latitude": 12.2305972,
            "longitude": 79.6497186
        }
    },
    {
        "name": "TNTJ MOSQUE",
        "main_category": "Mosque",
        "address": "6JVV+76C TNTJ MOSQUE, Tindivanam, Tamil Nadu 604001",
        "detailed_address": {
            "ward": null,
            "street": "6JVV+76C",
            "city": "Tindivanam",
            "postal_code": "604001",
            "state": "Tamil Nadu",
            "country_code": "IN"
        },
        "images": [],
        "link": "https://www.google.com/maps/place/TNTJ+MOSQUE/data=!4m7!3m6!1s0x3a5339a9f236efc1:0x34856b4918753c61!8m2!3d12.2431834!4d79.6430264!16s%2Fg%2F11sx0ntxb2!19sChIJwe828qk5UzoRYTx1GElrhTQ?authuser=0&hl=en&rclk=1",
        "coordinates": {
            "latitude": 12.2431834,
            "longitude": 79.6430264
        }
    },
    {
        "name": "Roshanai Pallivasal",
        "main_category": "Mosque",
        "address": "6JVW+C2C Roshanai Pallivasal, Roshanai, Tindivanam, Tamil Nadu 604001",
        "detailed_address": {
            "ward": "Roshanai",
            "street": "6JVW+C2C",
            "city": "Tindivanam",
            "postal_code": "604001",
            "state": "Tamil Nadu",
            "country_code": "IN"
        },
        "images": [],
        "link": "https://www.google.com/maps/place/Roshanai+Pallivasal/data=!4m7!3m6!1s0x3a5338aa26955555:0x324674dce4b36ce2!8m2!3d12.2434835!4d79.6448597!16s%2Fg%2F11tgg7r6t5!19sChIJVVWVJqo4UzoR4myz5Nx0RjI?authuser=0&hl=en&rclk=1",
        "coordinates": {
            "latitude": 12.2434835,
            "longitude": 79.6448597
        }
    },
    {
        "name": "Eid Ground (Khabarastan)",
        "main_category": "Mosque",
        "address": "6JVV+3P5 Eid Ground (Khabarastan), vasanthapuram, Tindivanam, Tamil Nadu 604001",
        "detailed_address": {
            "ward": "vasanthapuram",
            "street": "6JVV+3P5",
            "city": "Tindivanam",
            "postal_code": "604001",
            "state": "Tamil Nadu",
            "country_code": "IN"
        },
        "images": [
            {
                "about": "All",
                "link": "https://streetviewpixels-pa.googleapis.com/v1/thumbnail?panoid=u6Oll0VnbX-G_8V5iehVag&cb_client=maps_sv.tactile.gps&w=224&h=298&yaw=242.34187&pitch=0&thumbfov=100"
            },
            {
                "about": "Street View & 360deg",
                "link": "https://streetviewpixels-pa.googleapis.com/v1/thumbnail?panoid=u6Oll0VnbX-G_8V5iehVag&cb_client=maps_sv.tactile.gps&w=224&h=298&yaw=242.34187&pitch=0&thumbfov=100"
            }
        ],
        "link": "https://www.google.com/maps/place/Eid+Ground+%28Khabarastan%29/data=!4m7!3m6!1s0x3a5338a9ead65fb7:0x1c3507cbcd0611d4!8m2!3d12.242632!4d79.6443595!16s%2Fg%2F1pp2xbp4w!19sChIJt1_W6qk4UzoR1BEGzcsHNRw?authuser=0&hl=en&rclk=1",
        "coordinates": {
            "latitude": 12.242631999999999,
            "longitude": 79.6443595
        }
    },
    {
        "name": "Makkah Masjid",
        "main_category": "Museum",
        "address": "6MG2+M4H Makkah Masjid, sudhakar nagar, sandhai medu, Tindivanam",
        "detailed_address": {
            "ward": null,
            "street": "6MG2+M4H, sudhakar nagar, sandhai medu",
            "city": "Tindivanam",
            "postal_code": null,
            "state": "Tamil Nadu",
            "country_code": "IN"
        },
        "images": [
            {
                "about": "All",
                "link": "https://streetviewpixels-pa.googleapis.com/v1/thumbnail?panoid=ZYg_-ziaoDncJk-8yCIc4g&cb_client=maps_sv.tactile.gps&w=224&h=298&yaw=308.62405&pitch=0&thumbfov=100"
            },
            {
                "about": "Street View & 360deg",
                "link": "https://streetviewpixels-pa.googleapis.com/v1/thumbnail?panoid=ZYg_-ziaoDncJk-8yCIc4g&cb_client=maps_sv.tactile.gps&w=224&h=298&yaw=308.62405&pitch=0&thumbfov=100"
            }
        ],
        "link": "https://www.google.com/maps/place/Makkah+Masjid/data=!4m7!3m6!1s0x3a534143ae6f33fd:0xa421fe839c560360!8m2!3d12.2266754!4d79.6503543!16s%2Fg%2F11h_1vdkg5!19sChIJ_TNvrkNBUzoRYANWnIP-IaQ?authuser=0&hl=en&rclk=1",
        "coordinates": {
            "latitude": 12.2266754,
            "longitude": 79.65035429999999
        }
    }
]