[
    {
        "name": "Sadar Bazar Jame Masjid",
        "main_category": "Mosque",
        "address": "RW4M+CCX Sadar Bazar Jame Masjid, Masjid Road, Paona Bazar, Imphal, Manipur 795004",
        "detailed_address": {
            "ward": "Paona Bazar",
            "street": "RW4M+CCX, Masjid Road",
            "city": "Imphal",
            "postal_code": "795004",
            "state": "Manipur",
            "country_code": "IN"
        },
        "images": [
            {
                "about": "All",
                "link": "https://lh5.googleusercontent.com/p/AF1QipPxTjI47Qik21QQuVlasv0hgbHG9jkwjs9nhyxn=w244-h298-k-no"
            },
            {
                "about": "Dome",
                "link": "https://lh5.googleusercontent.com/p/AF1QipMMdzgZyS2dbJjZ11S9iet3TxoVM4lEC1GdWntS=w224-h398-k-no"
            }
        ],
        "link": "https://www.google.com/maps/place/Sadar+Bazar+Jame+Masjid/data=!4m7!3m6!1s0x374927237bc7a357:0x99ec6200dd95d863!8m2!3d24.8061192!4d93.9336235!16s%2Fg%2F11h404lsp_!19sChIJV6PHeyMnSTcRY9iV3QBi7Jk?authuser=0&hl=en&rclk=1",
        "coordinates": {
            "latitude": 24.806119199999998,
            "longitude": 93.9336235
        }
    },
    {
        "name": "Hafiz Hatta Masjid",
        "main_category": "Mosque",
        "address": "Hafiz Hatta Masjid, Hafiz Hatta, War Cemetry Rd, Soibam Leikai, Imphal, Kairang Meitei, Manipur 795005",
        "detailed_address": {
            "ward": "Soibam Leikai",
            "street": "Hafiz Hatta, War Cemetry Rd",
            "city": "Imphal, Kairang Meitei",
            "postal_code": "795005",
            "state": "Manipur",
            "country_code": "IN"
        },
        "images": [
            {
                "about": "All",
                "link": "https://lh5.googleusercontent.com/p/AF1QipPBqxhp8nG1UbtA29T5k8WuwkF0Zfp-ku9_eu0t=w224-h398-k-no"
            },
            {
                "about": "Videos",
                "link": "https://lh5.googleusercontent.com/p/AF1QipOuU5jtUof_w0gBV94vE8lB6IFvsbIP5nKeQXAt=w224-h398-k-no"
            }
        ],
        "link": "https://www.google.com/maps/place/Hafiz+Hatta+Masjid/data=!4m7!3m6!1s0x374927068138cffd:0x23589ae6becf7500!8m2!3d24.8133846!4d93.9518769!16s%2Fg%2F1pw3xvmrd!19sChIJ_c84gQYnSTcRAHXPvuaaWCM?authuser=0&hl=en&rclk=1",
        "coordinates": {
            "latitude": 24.8133846,
            "longitude": 93.9518769
        }
    },
    {
        "name": "Imphal Central Masjid",
        "main_category": "Mosque",
        "address": "Imphal Central Masjid, Golapati Auto Parking, NA, KR Ln, Hatta Golapati Maning Leikai, Imphal, Kairang Meitei, Manipur 795001",
        "detailed_address": {
            "ward": "Hatta Golapati Maning Leikai",
            "street": "Golapati Auto Parking, NA, KR Ln",
            "city": "Imphal, Kairang Meitei",
            "postal_code": "795001",
            "state": "Manipur",
            "country_code": "IN"
        },
        "images": [
            {
                "about": "All",
                "link": "https://lh5.googleusercontent.com/p/AF1QipOM4aBfG4ic2jr4KMa3DTqwvVse_Vy9l0C9Ogg=w408-h298-k-no"
            }
        ],
        "link": "https://www.google.com/maps/place/Imphal+Central+Masjid/data=!4m7!3m6!1s0x37492707249be86b:0x4cf829cf7868e322!8m2!3d24.8118678!4d93.9490418!16s%2Fg%2F119wvghsc!19sChIJa-ibJAcnSTcRIuNoeM8p-Ew?authuser=0&hl=en&rclk=1",
        "coordinates": {
            "latitude": 24.811867799999998,
            "longitude": 93.94904179999999
        }
    },
    {
        "name": "Awang Sabal Leikai Madrassa Masjid",
        "main_category": "Mosque",
        "address": "QXW9+P9H Awang Sabal Leikai Madrassa Masjid, Imphal, Manipur 795005",
        "detailed_address": {
            "ward": null,
            "street": "QXW9+P9H",
            "city": "Imphal",
            "postal_code": "795005",
            "state": "Manipur",
            "country_code": "IN"
        },
        "images": [
            {
                "about": "All",
                "link": "https://lh5.googleusercontent.com/p/AF1QipMWUGRS6ClUlMeHUD9cl6KAVOwj74nTVCkCL4gO=w224-h298-k-no"
            },
            {
                "about": "Videos",
                "link": "https://lh5.googleusercontent.com/p/AF1QipOzzV-loDWB7u-uH4aSU9M2JU_1MG0sqJnVVW6R=w224-h398-k-no"
            }
        ],
        "link": "https://www.google.com/maps/place/Awang+Sabal+Leikai+Madrassa+Masjid/data=!4m7!3m6!1s0x374926dd94d1a26b:0xb41e0d3f0a637a8c!8m2!3d24.7968101!4d93.9684977!16s%2Fg%2F1hm3frdm9!19sChIJa6LRlN0mSTcRjHpjCj8NHrQ?authuser=0&hl=en&rclk=1",
        "coordinates": {
            "latitude": 24.7968101,
            "longitude": 93.9684977
        }
    },
    {
        "name": "Golapati Jame Masjid (Masjid Achouba)",
        "main_category": "Mosque",
        "address": "RW6W+M89 Golapati Jame Masjid (Masjid Achouba), Hatta Golapati Maning Leikai, Imphal, Manipur 795001",
        "detailed_address": {
            "ward": "Hatta Golapati Maning Leikai",
            "street": "RW6W+M89",
            "city": "Imphal",
            "postal_code": "795001",
            "state": "Manipur",
            "country_code": "IN"
        },
        "images": [
            {
                "about": "All",
                "link": "https://lh5.googleusercontent.com/p/AF1QipMEqY1Vm9ZK1naOhqxpQ9qV67VNf9u87qEl0QeP=w224-h298-k-no"
            }
        ],
        "link": "https://www.google.com/maps/place/Golapati+Jame+Masjid+%28Masjid+Achouba%29/data=!4m7!3m6!1s0x374927a9ed6b7aeb:0x2fd216b42801025!8m2!3d24.8116733!4d93.9458625!16s%2Fg%2F11c2m_dhnf!19sChIJ63pr7aknSTcRJRCAQmsh_QI?authuser=0&hl=en&rclk=1",
        "coordinates": {
            "latitude": 24.8116733,
            "longitude": 93.94586249999999
        }
    },
    {
        "name": "Khomidok Jama Masjid",
        "main_category": "Mosque",
        "address": "RXR9+6CM Khomidok Jama Masjid, Imphal-Pangei Rd, Imphal, Kairang Muslim, Manipur 795010",
        "detailed_address": {
            "ward": null,
            "street": "RXR9+6CM, Imphal-Pangei Rd",
            "city": "Imphal, Kairang Muslim",
            "postal_code": "795010",
            "state": "Manipur",
            "country_code": "IN"
        },
        "images": [
            {
                "about": "All",
                "link": "https://lh5.googleusercontent.com/p/AF1QipOV640TbyAvaHNXdfHsVetdjbqTOa0PoQaDW3rH=w397-h298-k-no"
            }
        ],
        "link": "https://www.google.com/maps/place/Khomidok+Jama+Masjid/data=!4m7!3m6!1s0x3749275d471674b1:0x5d4e5f9cb099cfe3!8m2!3d24.8405789!4d93.9685385!16s%2Fg%2F11b8_qvkxy!19sChIJsXQWR10nSTcR48-ZsJxfTl0?authuser=0&hl=en&rclk=1",
        "coordinates": {
            "latitude": 24.8405789,
            "longitude": 93.9685385
        }
    },
    {
        "name": "Khabeisoi Leirak Machin Masjid",
        "main_category": "Mosque",
        "address": "Khabeisoi Leirak Machin Masjid, Khabeisoi, Imphal, Kairang Muslim, Manipur 795010",
        "detailed_address": {
            "ward": "Khabeisoi",
            "street": null,
            "city": "Imphal, Kairang Muslim",
            "postal_code": "795010",
            "state": "Manipur",
            "country_code": "IN"
        },
        "images": [],
        "link": "https://www.google.com/maps/place/Khabeisoi+Leirak+Machin+Masjid/data=!4m7!3m6!1s0x3749274574cd8d79:0xf9741c09eb241311!8m2!3d24.8369406!4d93.9763779!16s%2Fg%2F11f15h_k9q!19sChIJeY3NdEUnSTcRERMk6wkcdPk?authuser=0&hl=en&rclk=1",
        "coordinates": {
            "latitude": 24.8369406,
            "longitude": 93.9763779
        }
    },
    {
        "name": "Babupara Jama Masajid",
        "main_category": "Mosque",
        "address": "QWXR+VV6 Babupara Jama Masajid, Babupara, Imphal, Manipur 795001",
        "detailed_address": {
            "ward": "Babupara",
            "street": "QWXR+VV6",
            "city": "Imphal",
            "postal_code": "795001",
            "state": "Manipur",
            "country_code": "IN"
        },
        "images": [
            {
                "about": "All",
                "link": "https://lh5.googleusercontent.com/p/AF1QipPQFwb_u5jaRU7Rgbs2IWtKhoXO112bxo53jfjE=w343-h298-k-no"
            },
            {
                "about": "Dome",
                "link": "https://lh5.googleusercontent.com/p/AF1QipPQFwb_u5jaRU7Rgbs2IWtKhoXO112bxo53jfjE=w343-h298-k-no"
            }
        ],
        "link": "https://www.google.com/maps/place/Babupara+Jama+Masajid/data=!4m7!3m6!1s0x374926540644cca5:0x95fd96a5a45b5272!8m2!3d24.799656!4d93.9421321!16s%2Fg%2F11c1vfmlq9!19sChIJpcxEBlQmSTcRclJbpKWW_ZU?authuser=0&hl=en&rclk=1",
        "coordinates": {
            "latitude": 24.799656,
            "longitude": 93.9421321
        }
    },
    {
        "name": "Tanky Wali Masjid",
        "main_category": "Mosque",
        "address": "RW7W+954 Tanky Wali Masjid, Hatta Golapati Maning Leikai, Imphal, Kairang Meitei, Manipur 795001",
        "detailed_address": {
            "ward": "Hatta Golapati Maning Leikai",
            "street": "RW7W+954",
            "city": "Imphal, Kairang Meitei",
            "postal_code": "795001",
            "state": "Manipur",
            "country_code": "IN"
        },
        "images": [],
        "link": "https://www.google.com/maps/place/Tanky+Wali+Masjid/data=!4m7!3m6!1s0x374927075e75a0e7:0xeffb821cb138b3bc!8m2!3d24.8133863!4d93.9454652!16s%2Fg%2F11cs5xn4_k!19sChIJ56B1XgcnSTcRvLM4sRyC--8?authuser=0&hl=en&rclk=1",
        "coordinates": {
            "latitude": 24.813386299999998,
            "longitude": 93.9454652
        }
    },
    {
        "name": "Jama Masjid",
        "main_category": "Mosque",
        "address": "RWVQ+CX5 Jama Masjid, Mantripukhri, Heingang, Manipur 795002",
        "detailed_address": {
            "ward": "Mantripukhri",
            "street": "RWVQ+CX5",
            "city": "Heingang",
            "postal_code": "795002",
            "state": "Manipur",
            "country_code": "IN"
        },
        "images": [],
        "link": "https://www.google.com/maps/place/Jama+Masjid/data=!4m7!3m6!1s0x37492784f816b6d5:0xea3542e63764a7a4!8m2!3d24.8435199!4d93.9399739!16s%2Fg%2F11c6dkmz7_!19sChIJ1bYW-IQnSTcRpKdkN-ZCNeo?authuser=0&hl=en&rclk=1",
        "coordinates": {
            "latitude": 24.8435199,
            "longitude": 93.9399739
        }
    },
    {
        "name": "Shahi Masjid",
        "main_category": "Mosque",
        "address": "RX3G+7GH Shahi Masjid, Kshetri Awang Leikai, Idgah Rd, Epham Colony, Kshetrigao, Imphal, Manipur 795005",
        "detailed_address": {
            "ward": "Epham Colony, Kshetrigao",
            "street": "RX3G+7GH, Kshetri Awang Leikai, Idgah Rd",
            "city": "Imphal",
            "postal_code": "795005",
            "state": "Manipur",
            "country_code": "IN"
        },
        "images": [
            {
                "about": "All",
                "link": "https://lh5.googleusercontent.com/p/AF1QipNDfvOYunSoTvyqDjhLFMoIngJEOl6i7GQWC5a8=w300-h298-k-no"
            }
        ],
        "link": "https://www.google.com/maps/place/Shahi+Masjid/data=!4m7!3m6!1s0x374926d86d2d90c5:0x29506a0f050e4597!8m2!3d24.8031836!4d93.9763521!16s%2Fg%2F1hhgh70zg!19sChIJxZAtbdgmSTcRl0UOBQ9qUCk?authuser=0&hl=en&rclk=1",
        "coordinates": {
            "latitude": 24.8031836,
            "longitude": 93.9763521
        }
    },
    {
        "name": "Purana Masjid",
        "main_category": "Mosque",
        "address": "QXWF+7GP Purana Masjid, Merai Colony, Kshetrigao, Imphal, Manipur 795005",
        "detailed_address": {
            "ward": "Merai Colony, Kshetrigao",
            "street": "QXWF+7GP",
            "city": "Imphal",
            "postal_code": "795005",
            "state": "Manipur",
            "country_code": "IN"
        },
        "images": [
            {
                "about": "All",
                "link": "https://lh5.googleusercontent.com/p/AF1QipPtbQjIDTJy0ovn_IHtz36TVKiZyiFHipjyw9l_=w224-h298-k-no"
            }
        ],
        "link": "https://www.google.com/maps/place/Purana+Masjid/data=!4m7!3m6!1s0x374926dba208f473:0x909acef90ec8bc7b!8m2!3d24.7957222!4d93.9738241!16s%2Fg%2F11h0j09vl!19sChIJc_QIotsmSTcRe7zIDvnOmpA?authuser=0&hl=en&rclk=1",
        "coordinates": {
            "latitude": 24.7957222,
            "longitude": 93.9738241
        }
    },
    {
        "name": "Masajid-E-Sana",
        "main_category": "Mosque",
        "address": "RX3H+5P8 Masajid-E-Sana, kshetri bengoon awang leikai, Manipur 795008",
        "detailed_address": {
            "ward": "Kshetri Bengoon Mayai Leikai",
            "street": "RX3H+5P8, kshetri bengoon awang leikai",
            "city": "Imphal, Sajeb",
            "postal_code": "795008",
            "state": "Manipur",
            "country_code": "IN"
        },
        "images": [
            {
                "about": "All",
                "link": "https://lh5.googleusercontent.com/p/AF1QipPawCRS8DTeg-y7nOR2LPeCA8Hi1UH6bovwGL26=w224-h298-k-no"
            }
        ],
        "link": "https://www.google.com/maps/place/Masajid-E-Sana/data=!4m7!3m6!1s0x374926d7c69c649d:0xcebe9b0f045cba4c!8m2!3d24.8029099!4d93.9793414!16s%2Fg%2F1jglwv9dv!19sChIJnWScxtcmSTcRTLpcBA-bvs4?authuser=0&hl=en&rclk=1",
        "coordinates": {
            "latitude": 24.8029099,
            "longitude": 93.9793414
        }
    },
    {
        "name": "kairang awang mosque",
        "main_category": "Mosque",
        "address": "RXX2+XQ4 kairang awang mosque, Kairang Village Rd, Imphal, Manipur 795002",
        "detailed_address": {
            "ward": null,
            "street": "RXX2+XQ4, Kairang Village Rd",
            "city": "Imphal",
            "postal_code": "795002",
            "state": "Manipur",
            "country_code": "IN"
        },
        "images": [
            {
                "about": "All",
                "link": "https://lh5.googleusercontent.com/p/AF1QipPFOpcqAZJTrC_rrQQiL1y8zztfTNS7Ye215m82=w224-h398-k-no"
            },
            {
                "about": "Videos",
                "link": "https://lh5.googleusercontent.com/p/AF1QipPFOpcqAZJTrC_rrQQiL1y8zztfTNS7Ye215m82=w224-h398-k-no"
            }
        ],
        "link": "https://www.google.com/maps/place/kairang+awang+mosque/data=!4m7!3m6!1s0x3749277e682169e1:0x5c11238fbb51e700!8m2!3d24.8498848!4d93.9519527!16s%2Fg%2F11fxccb9sz!19sChIJ4WkhaH4nSTcRAOdRu48jEVw?authuser=0&hl=en&rclk=1",
        "coordinates": {
            "latitude": 24.849884799999998,
            "longitude": 93.95195269999999
        }
    },
    {
        "name": "Jama Masjid",
        "main_category": "Mosque",
        "address": "QXPF+P45 Jama Masjid, Makha Leikai, Imphal, Manipur 795008",
        "detailed_address": {
            "ward": "Makha Leikai",
            "street": "QXPF+P45",
            "city": "Imphal",
            "postal_code": "795008",
            "state": "Manipur",
            "country_code": "IN"
        },
        "images": [
            {
                "about": "All",
                "link": "https://lh5.googleusercontent.com/p/AF1QipNkZLZTdIxM48uk8saav92_q0gHb-18O_M2RfiV=w397-h298-k-no"
            }
        ],
        "link": "https://www.google.com/maps/place/Jama+Masjid/data=!4m7!3m6!1s0x374926c4014e8f73:0xb5a14e8f1cf42fb0!8m2!3d24.7867515!4d93.9728475!16s%2Fg%2F11fxvd7dkg!19sChIJc49OAcQmSTcRsC_0HI9OobU?authuser=0&hl=en&rclk=1",
        "coordinates": {
            "latitude": 24.786751499999998,
            "longitude": 93.9728475
        }
    },
    {
        "name": "Karong Masjid",
        "main_category": "Mosque",
        "address": "RXRF+W83 Karong Masjid, Pangei, Manipur 795010",
        "detailed_address": {
            "ward": null,
            "street": "RXRF+W83",
            "city": "Pangei",
            "postal_code": null,
            "state": "Manipur",
            "country_code": "IN"
        },
        "images": [
            {
                "about": "All",
                "link": "https://lh5.googleusercontent.com/p/AF1QipNd2naQN0hOCJRqWIkfIimDN17P3ZPNJxlM6J9b=w224-h298-k-no"
            }
        ],
        "link": "https://www.google.com/maps/place/Karong+Masjid/data=!4m7!3m6!1s0x3749275b70dd467f:0x5d7f49eb72e14fbf!8m2!3d24.8422542!4d93.973298!16s%2Fg%2F11f38_ggpk!19sChIJf0bdcFsnSTcRv0_hcutJf10?authuser=0&hl=en&rclk=1",
        "coordinates": {
            "latitude": 24.8422542,
            "longitude": 93.973298
        }
    },
    {
        "name": "Masjid Al-Fatah",
        "main_category": "Mosque",
        "address": "RX2G+8H3 Masjid Al-Fatah, Meena Bazar,, Idgah Rd, Imphal, Manipur 795005",
        "detailed_address": {
            "ward": null,
            "street": "RX2G+8H3, Meena Bazar,, Idgah Rd",
            "city": "Imphal",
            "postal_code": "795005",
            "state": "Manipur",
            "country_code": "IN"
        },
        "images": [
            {
                "about": "All",
                "link": "https://lh5.googleusercontent.com/p/AF1QipM1Nmk09FP-JmcDaLRLRGlzNW5UkWj5XNqCUlBQ=w397-h298-k-no"
            },
            {
                "about": "Videos",
                "link": "https://lh5.googleusercontent.com/p/AF1QipO3OsLzURNI9boIcTM4SEKaV9V5uJYtn6Ixik0D=w224-h398-k-no"
            }
        ],
        "link": "https://www.google.com/maps/place/Masjid+Al-Fatah/data=!4m7!3m6!1s0x374926d9b593bbd1:0xb5dfe9ecc30b22e1!8m2!3d24.8007748!4d93.976416!16s%2Fg%2F1q5bp2bpn!19sChIJ0buTtdkmSTcR4SILw-zp37U?authuser=0&hl=en&rclk=1",
        "coordinates": {
            "latitude": 24.8007748,
            "longitude": 93.976416
        }
    },
    {
        "name": "Rahmania Masjid",
        "main_category": "Mosque",
        "address": "RX2F+252 Rahmania Masjid, Kshetri Mayai Leikai, Kshetrigao, Imphal, Manipur 795005",
        "detailed_address": {
            "ward": "Kshetrigao",
            "street": "RX2F+252, Kshetri Mayai Leikai",
            "city": "Imphal",
            "postal_code": "795005",
            "state": "Manipur",
            "country_code": "IN"
        },
        "images": [
            {
                "about": "All",
                "link": "https://lh5.googleusercontent.com/p/AF1QipNZ9Mi1ENK9aNqHvZ7pfm4QybAe62uIbDEnEy7o=w245-h298-k-no"
            },
            {
                "about": "Dome",
                "link": "https://lh5.googleusercontent.com/p/AF1QipNZ9Mi1ENK9aNqHvZ7pfm4QybAe62uIbDEnEy7o=w245-h298-k-no"
            },
            {
                "about": "Videos",
                "link": "https://lh5.googleusercontent.com/p/AF1QipM0O2XUOxJ029YmAy_ET8vVtEy8lIA6eI0LwqO4=w224-h398-k-no"
            }
        ],
        "link": "https://www.google.com/maps/place/Rahmania+Masjid/data=!4m7!3m6!1s0x374926d93427f4e7:0x4e01aab8f82a35f9!8m2!3d24.8000006!4d93.972896!16s%2Fg%2F11xfb7tms!19sChIJ5_QnNNkmSTcR-TUq-LiqAU4?authuser=0&hl=en&rclk=1",
        "coordinates": {
            "latitude": 24.8000006,
            "longitude": 93.97289599999999
        }
    },
    {
        "name": "Chandam Bade Masjid",
        "main_category": "Mosque",
        "address": "Chandam Bade Masjid, Kshetri Rahmania Road, Kshetrigaon, Imphal East - 795001,, Manipur",
        "detailed_address": {
            "ward": "Khergao Awang Leikai, Kshetri Chandam Leikai",
            "street": "Kshetri Rahmania Road, Kshetrigaon, Imphal East - 795001,",
            "city": "Imphal",
            "postal_code": null,
            "state": "Manipur",
            "country_code": "IN"
        },
        "images": [],
        "link": "https://www.google.com/maps/place/Chandam+Bade+Masjid/data=!4m7!3m6!1s0x374926db58fc8457:0xd0a3ce9c2e8c231!8m2!3d24.7933894!4d93.9730524!16s%2Fg%2F1tdmc7s5!19sChIJV4T8WNsmSTcRMcLowuk8Cg0?authuser=0&hl=en&rclk=1",
        "coordinates": {
            "latitude": 24.7933894,
            "longitude": 93.9730524
        }
    },
    {
        "name": "Masjid-e-Makkah",
        "main_category": "Mosque",
        "address": "RX4M+6FQ Masjid-e-Makkah, Awang Leikai Rd, Kshetri Bengoon, Imphal, Manipur 795008",
        "detailed_address": {
            "ward": "Kshetri Bengoon",
            "street": "RX4M+6FQ, Awang Leikai Rd",
            "city": "Imphal",
            "postal_code": "795008",
            "state": "Manipur",
            "country_code": "IN"
        },
        "images": [
            {
                "about": "All",
                "link": "https://lh5.googleusercontent.com/p/AF1QipNoKGUFyGKHdZ5Rn950aoTTebt1UX7P6T_Yvf5Z=w596-h298-k-no"
            }
        ],
        "link": "https://www.google.com/maps/place/Masjid-e-Makkah/data=!4m7!3m6!1s0x374927f8b94b8ba5:0xfd274b1d6bbf4233!8m2!3d24.8055823!4d93.9837207!16s%2Fg%2F11fb0jnj7n!19sChIJpYtLufgnSTcRM0K_ax1LJ_0?authuser=0&hl=en&rclk=1",
        "coordinates": {
            "latitude": 24.805582299999998,
            "longitude": 93.98372069999999
        }
    },
    {
        "name": "JAMA MASJID KHABEISOI",
        "main_category": "Mosque",
        "address": "RXRH+4V6 JAMA MASJID KHABEISOI, Imphal - Ukhrul Rd, Khabeisoi, Imphal, Manipur 795010",
        "detailed_address": {
            "ward": "Khabeisoi",
            "street": "RXRH+4V6, Imphal - Ukhrul Rd",
            "city": "Imphal",
            "postal_code": null,
            "state": "Manipur",
            "country_code": "IN"
        },
        "images": [],
        "link": "https://www.google.com/maps/place/JAMA+MASJID+KHABEISOI/data=!4m7!3m6!1s0x374927d019657639:0xd4a6cdf6a70a9ccb!8m2!3d24.8402887!4d93.9796327!16s%2Fg%2F11f5vfyk3m!19sChIJOXZlGdAnSTcRy5wKp_bNptQ?authuser=0&hl=en&rclk=1",
        "coordinates": {
            "latitude": 24.8402887,
            "longitude": 93.9796327
        }
    },
    {
        "name": "Masjid Al Jannah",
        "main_category": "Mosque",
        "address": "VW2Q+FMH Masjid Al Jannah, Mantripukhri, Achanbigei, Imphal, Manipur 795002",
        "detailed_address": {
            "ward": "Mantripukhri, Achanbigei",
            "street": "VW2Q+FMH",
            "city": "Imphal",
            "postal_code": null,
            "state": "Manipur",
            "country_code": "IN"
        },
        "images": [],
        "link": "https://www.google.com/maps/place/Masjid+Al+Jannah/data=!4m7!3m6!1s0x3749277f077e777b:0x2e29da4a9eb268ca!8m2!3d24.8511858!4d93.9392377!16s%2Fg%2F11g3x211w7!19sChIJe3d-B38nSTcRymiynkraKS4?authuser=0&hl=en&rclk=1",
        "coordinates": {
            "latitude": 24.8511858,
            "longitude": 93.93923769999999
        }
    },
    {
        "name": "Moinam Masjid",
        "main_category": "Mosque",
        "address": "QXVF+954 Moinam Masjid, Khergao Awang Leikai, Kshetri Chandam Leikai, Imphal, Manipur 795005",
        "detailed_address": {
            "ward": "Khergao Awang Leikai, Kshetri Chandam Leikai",
            "street": "QXVF+954",
            "city": "Imphal",
            "postal_code": "795005",
            "state": "Manipur",
            "country_code": "IN"
        },
        "images": [],
        "link": "https://www.google.com/maps/place/Moinam+Masjid/data=!4m7!3m6!1s0x374926db5b94e6db:0xabcd57b6449d2528!8m2!3d24.793391!4d93.972942!16s%2Fg%2F1pyqs9ksg!19sChIJ2-aUW9smSTcRKCWdRLZXzas?authuser=0&hl=en&rclk=1",
        "coordinates": {
            "latitude": 24.793391,
            "longitude": 93.97294199999999
        }
    },
    {
        "name": "Yumkhaibam Masjid",
        "main_category": "Mosque",
        "address": "QXRC+M42 Yumkhaibam Masjid, Keikhu Awang Leikai, Ningthoubung, Imphal, Manipur 795008",
        "detailed_address": {
            "ward": "Keikhu Awang Leikai",
            "street": "QXRC+M42",
            "city": "Ningthoubung, Imphal",
            "postal_code": "795008",
            "state": "Manipur",
            "country_code": "IN"
        },
        "images": [],
        "link": "https://www.google.com/maps/place/Yumkhaibam+Masjid/data=!4m7!3m6!1s0x374926c32611cc73:0xe9e2fe8bdbbcacce!8m2!3d24.7916411!4d93.9702657!16s%2Fg%2F11c5943b93!19sChIJc8wRJsMmSTcRzqy824v-4uk?authuser=0&hl=en&rclk=1",
        "coordinates": {
            "latitude": 24.7916411,
            "longitude": 93.9702657
        }
    },
    {
        "name": "Kuthaibam Ariba Masjid",
        "main_category": "Mosque",
        "address": "QXRC+FGX Kuthaibam Ariba Masjid, Keikhu Awang Leikai, Ningthoubung, Imphal, Manipur 795008",
        "detailed_address": {
            "ward": "Keikhu Awang Leikai",
            "street": "QXRC+FGX",
            "city": "Ningthoubung, Imphal",
            "postal_code": "795008",
            "state": "Manipur",
            "country_code": "IN"
        },
        "images": [],
        "link": "https://www.google.com/maps/place/Kuthaibam+Ariba+Masjid/data=!4m7!3m6!1s0x374926c340cc3ac5:0xcda2dd841ae775af!8m2!3d24.7912391!4d93.9713668!16s%2Fg%2F11c6dg6d86!19sChIJxTrMQMMmSTcRr3XnGoTdos0?authuser=0&hl=en&rclk=1",
        "coordinates": {
            "latitude": 24.7912391,
            "longitude": 93.9713668
        }
    },
    {
        "name": "Masjid e Rabbi",
        "main_category": "Mosque",
        "address": "QXJG+67X Masjid e Rabbi, Naharup pangong, Imphal",
        "detailed_address": {
            "ward": null,
            "street": "QXJG+67X, Naharup pangong",
            "city": "Imphal, Top Dusara East",
            "postal_code": null,
            "state": "Manipur",
            "country_code": "IN"
        },
        "images": [],
        "link": "https://www.google.com/maps/place/Masjid+e+Rabbi/data=!4m7!3m6!1s0x3749278ff4b0d31f:0x99757f413b0435a0!8m2!3d24.7806191!4d93.9757454!16s%2Fg%2F11fshyz0qb!19sChIJH9Ow9I8nSTcRoDUEO0F_dZk?authuser=0&hl=en&rclk=1",
        "coordinates": {
            "latitude": 24.7806191,
            "longitude": 93.9757454
        }
    },
    {
        "name": "KHANQA E NAQSABANDIA MANIPUR BRANCH",
        "main_category": "Mosque",
        "address": "RXR8+CJR KHANQA E NAQSABANDIA MANIPUR BRANCH, Khomidok Masjid maning, Imphal, Manipur",
        "detailed_address": {
            "ward": null,
            "street": "RXR8+CJR, Khomidok Masjid maning",
            "city": "Imphal",
            "postal_code": null,
            "state": "Manipur",
            "country_code": "IN"
        },
        "images": [],
        "link": "https://www.google.com/maps/place/KHANQA+E+NAQSABANDIA+MANIPUR+BRANCH/data=!4m7!3m6!1s0x374927f186240d95:0xa688292067ab1e5d!8m2!3d24.8411217!4d93.9665198!16s%2Fg%2F11h106ssz_!19sChIJlQ0khvEnSTcRXR6rZyApiKY?authuser=0&hl=en&rclk=1",
        "coordinates": {
            "latitude": 24.8411217,
            "longitude": 93.9665198
        }
    },
    {
        "name": "Masjid Al Muttaqin",
        "main_category": "Place of worship",
        "address": "RX2F+8W3 Masjid Al Muttaqin, Sajeb, Imphal, Manipur 795005",
        "detailed_address": {
            "ward": null,
            "street": "RX2F+8W3",
            "city": "Sajeb, Imphal",
            "postal_code": null,
            "state": "Manipur",
            "country_code": "IN"
        },
        "images": [
            {
                "about": "All",
                "link": "https://lh5.googleusercontent.com/p/AF1QipOoPbo_BlWwshnUGsJ4p3eAcKKFJ4qmzRyeusfv=w397-h298-k-no"
            }
        ],
        "link": "https://www.google.com/maps/place/Masjid+Al+Muttaqin/data=!4m7!3m6!1s0x3749278b17398b77:0xbf1fe5ba0b513924!8m2!3d24.800771!4d93.9748011!16s%2Fg%2F11fk1jt1d3!19sChIJd4s5F4snSTcRJDlRC7rlH78?authuser=0&hl=en&rclk=1",
        "coordinates": {
            "latitude": 24.800770999999997,
            "longitude": 93.9748011
        }
    },
    {
        "name": "Jannat Wali Masjid",
        "main_category": "Mosque",
        "address": "PXP4+CM9 Jannat Wali Masjid, Kyamgei Awang Leikai, Kitna Panung, Uchekon Khunou, Manipur 795003",
        "detailed_address": {
            "ward": "Kyamgei Awang Leikai",
            "street": "PXP4+CM9",
            "city": "Kitna Panung, Uchekon Khunou",
            "postal_code": "795003",
            "state": "Manipur",
            "country_code": "IN"
        },
        "images": [],
        "link": "https://www.google.com/maps/place/Jannat+Wali+Masjid/data=!4m7!3m6!1s0x374924481f085a25:0x5d0dfec8ba9faceb!8m2!3d24.7360278!4d93.956745!16s%2Fg%2F11cs9ypj61!19sChIJJVoIH0gkSTcR66yfusj-DV0?authuser=0&hl=en&rclk=1",
        "coordinates": {
            "latitude": 24.7360278,
            "longitude": 93.956745
        }
    },
    {
        "name": "Teen Ali Masjid",
        "main_category": "Mosque",
        "address": "QXRC+9G5 Teen Ali Masjid, Keikhu Awang Leikai, Ningthoubung, Imphal, Manipur 795008",
        "detailed_address": {
            "ward": "Keikhu Awang Leikai",
            "street": "QXRC+9G5",
            "city": "Ningthoubung, Imphal",
            "postal_code": "795008",
            "state": "Manipur",
            "country_code": "IN"
        },
        "images": [],
        "link": "https://www.google.com/maps/place/Teen+Ali+Masjid/data=!4m7!3m6!1s0x374926c36a9942a7:0xa3ebe8bdd800c4b7!8m2!3d24.7908909!4d93.9713595!16s%2Fg%2F11c6dgjrn4!19sChIJp0KZasMmSTcRt8QA2L3o66M?authuser=0&hl=en&rclk=1",
        "coordinates": {
            "latitude": 24.790890899999997,
            "longitude": 93.97135949999999
        }
    },
    {
        "name": "Noor Masjid, Kshetri Bengoon",
        "main_category": "Mosque",
        "address": "RX3H+RWW Noor Masjid, Kshetri Bengoon, Kshetri Bengoon, Awang leikai, Imphal, Manipur 795005",
        "detailed_address": {
            "ward": "Kshetri Bengoon",
            "street": "RX3H+RWW",
            "city": "Awang leikai, Imphal",
            "postal_code": null,
            "state": "Manipur",
            "country_code": "IN"
        },
        "images": [
            {
                "about": "All",
                "link": "https://lh5.googleusercontent.com/p/AF1QipOmQk6rteSgc5iHc5WxfGGoEOUPQ3or_zUi-b6p=w529-h298-k-no"
            },
            {
                "about": "Dome",
                "link": "https://lh5.googleusercontent.com/p/AF1QipMJxGtogF7gCcxagZhqAhv56xkPwmEYw8Z0vz1I=w529-h298-k-no"
            }
        ],
        "link": "https://www.google.com/maps/place/Noor+Masjid,+Kshetri+Bengoon/data=!4m7!3m6!1s0x374927e95cee8d63:0x46c251d22c5d47d6!8m2!3d24.8046031!4d93.9798413!16s%2Fg%2F11kjghtv6r!19sChIJY43uXOknSTcR1kddLNJRwkY?authuser=0&hl=en&rclk=1",
        "coordinates": {
            "latitude": 24.804603099999998,
            "longitude": 93.97984129999999
        }
    },
    {
        "name": "Kairang Purana Masjid",
        "main_category": "Mosque",
        "address": "Kairang Purana Masjid, Kairang Mamang Leikai Rd, Kairang Muslim, Imphal, Manipur 795010",
        "detailed_address": {
            "ward": null,
            "street": "Kairang Mamang Leikai Rd",
            "city": "Kairang Muslim, Imphal",
            "postal_code": "795010",
            "state": "Manipur",
            "country_code": "IN"
        },
        "images": [
            {
                "about": "All",
                "link": "https://lh5.googleusercontent.com/p/AF1QipMZk7023u5H9SukHzTWU3J4g5kK6VR5XCdJRaH2=w646-h298-k-no"
            }
        ],
        "link": "https://www.google.com/maps/place/Kairang+Purana+Masjid/data=!4m7!3m6!1s0x374927bf29a7a8e9:0x7b459fe5f96c4e3a!8m2!3d24.8414482!4d93.9632924!16s%2Fg%2F11q7z_sjbn!19sChIJ6ainKb8nSTcROk5s-eWfRXs?authuser=0&hl=en&rclk=1",
        "coordinates": {
            "latitude": 24.8414482,
            "longitude": 93.9632924
        }
    },
    {
        "name": "Khullakpham Masjid Keikhu",
        "main_category": "Mosque",
        "address": "QXQF+245 Khullakpham Masjid Keikhu, Makha Leikai, Imphal, Manipur 795008",
        "detailed_address": {
            "ward": "Makha Leikai",
            "street": "QXQF+245",
            "city": "Imphal",
            "postal_code": "795008",
            "state": "Manipur",
            "country_code": "IN"
        },
        "images": [
            {
                "about": "All",
                "link": "https://lh5.googleusercontent.com/p/AF1QipPedXh7HuBRQ9Pwf3gGzH3myMUnt0E_oITHDCuo=w397-h298-k-no"
            }
        ],
        "link": "https://www.google.com/maps/place/Khullakpham+Masjid+Keikhu/data=!4m7!3m6!1s0x374927e669203bf7:0x2e24ad10ae3490d0!8m2!3d24.7875131!4d93.9728464!16s%2Fg%2F11f61thgqj!19sChIJ9zsgaeYnSTcR0JA0rhCtJC4?authuser=0&hl=en&rclk=1",
        "coordinates": {
            "latitude": 24.787513099999998,
            "longitude": 93.9728464
        }
    },
    {
        "name": "Masjide Nasib (Pusham Masjid)",
        "main_category": "Mosque",
        "address": "QXJG+VVP Masjide Nasib (Pusham Masjid), Top Dusara East, Imphal, Manipur 795008",
        "detailed_address": {
            "ward": null,
            "street": "QXJG+VVP",
            "city": "Top Dusara East, Imphal",
            "postal_code": "795008",
            "state": "Manipur",
            "country_code": "IN"
        },
        "images": [],
        "link": "https://www.google.com/maps/place/Masjide+Nasib+%28Pusham+Masjid%29/data=!4m7!3m6!1s0x37492782f1799e6f:0xb343ed1606985047!8m2!3d24.7822099!4d93.9771933!16s%2Fg%2F11qqkp981j!19sChIJb5558YInSTcRR1CYBhbtQ7M?authuser=0&hl=en&rclk=1",
        "coordinates": {
            "latitude": 24.782209899999998,
            "longitude": 93.9771933
        }
    },
    {
        "name": "Porompat Jama Masjid",
        "main_category": "Mosque",
        "address": "RX47+6G Porompat Jama Masjid, Pang-han Leirak, Khurai Sajor Leikai, Imphal, Manipur 795005",
        "detailed_address": {
            "ward": "Pang-han Leirak, Khurai Sajor Leikai",
            "street": "RX47+6G",
            "city": "Imphal",
            "postal_code": null,
            "state": "Manipur",
            "country_code": "IN"
        },
        "images": [
            {
                "about": "All",
                "link": "https://lh5.googleusercontent.com/p/AF1QipPKfQoz4cIUgmmXwTJMbxU3PwqOFUtsyHH2R1CK=w224-h398-k-no"
            }
        ],
        "link": "https://www.google.com/maps/place/Porompat+Jama+Masjid/data=!4m7!3m6!1s0x3749273a1eb1c411:0xaa2026769b5298d!8m2!3d24.80558!4d93.9638276!16s%2Fg%2F11s0t3yscj!19sChIJEcSxHjonSTcRjSm1aWcCogo?authuser=0&hl=en&rclk=1",
        "coordinates": {
            "latitude": 24.80558,
            "longitude": 93.9638276
        }
    },
    {
        "name": "Mosque",
        "main_category": "Place of worship",
        "address": "RWWR+9QQ Mosque, Mantripukhri, Imphal, Heingang, Manipur 795002",
        "detailed_address": {
            "ward": "Mantripukhri",
            "street": "RWWR+9QQ",
            "city": "Imphal, Heingang",
            "postal_code": null,
            "state": "Manipur",
            "country_code": "IN"
        },
        "images": [],
        "link": "https://www.google.com/maps/place/Mosque/data=!4m7!3m6!1s0x374927fcb84b0361:0xd60f0ea063abce33!8m2!3d24.8459598!4d93.941996!16s%2Fg%2F11gjt1zdd5!19sChIJYQNLuPwnSTcRM86rY6AOD9Y?authuser=0&hl=en&rclk=1",
        "coordinates": {
            "latitude": 24.8459598,
            "longitude": 93.94199599999999
        }
    },
    {
        "name": "Usmaniya Masjid",
        "main_category": "Mosque",
        "address": "Usmaniya Masjid, Makha Leikai, Imphal, Manipur 795008",
        "detailed_address": {
            "ward": "Makha Leikai",
            "street": null,
            "city": "Imphal",
            "postal_code": "795008",
            "state": "Manipur",
            "country_code": "IN"
        },
        "images": [],
        "link": "https://www.google.com/maps/place/Usmaniya+Masjid/data=!4m7!3m6!1s0x3749270e7bcb411f:0xc81a586ff8831673!8m2!3d24.7888546!4d93.9703548!16s%2Fg%2F11j7kg2tf_!19sChIJH0HLew4nSTcRcxaD-G9YGsg?authuser=0&hl=en&rclk=1",
        "coordinates": {
            "latitude": 24.7888546,
            "longitude": 93.9703548
        }
    },
    {
        "name": "Kabarstaan Porompat Jama Masjid",
        "main_category": "Mosque",
        "address": "RX45+87F Kabarstaan Porompat Jama Masjid, Thawanthaba Leirak, Lairikyengbam Leikai, Manipur 795005",
        "detailed_address": {
            "ward": "Thawanthaba Leirak",
            "street": "RX45+87F",
            "city": "Lairikyengbam Leikai",
            "postal_code": "795005",
            "state": "Manipur",
            "country_code": "IN"
        },
        "images": [
            {
                "about": "All",
                "link": "https://lh5.googleusercontent.com/p/AF1QipPFmbpPswm-F03rOfta9f2-e5TQO9tUa2KxswDU=w397-h298-k-no"
            }
        ],
        "link": "https://www.google.com/maps/place/Kabarstaan+Porompat+Jama+Masjid/data=!4m7!3m6!1s0x3749271d4706a09d:0x13192a315978fed!8m2!3d24.8058231!4d93.9581855!16s%2Fg%2F11f40qntm1!19sChIJnaAGRx0nSTcR7Y-XFaOSMQE?authuser=0&hl=en&rclk=1",
        "coordinates": {
            "latitude": 24.805823099999998,
            "longitude": 93.9581855
        }
    },
    {
        "name": "Masjid Al Huda",
        "main_category": "Religious destination",
        "address": "RWWR+CQ6 Masjid Al Huda, Mantripukhri, Friend's Colony, Imphal, Heingang, Manipur Sector 3",
        "detailed_address": {
            "ward": "Mantripukhri, Friend's Colony",
            "street": "RWWR+CQ6",
            "city": "Imphal, Heingang",
            "postal_code": "Sector 3",
            "state": "Manipur",
            "country_code": "IN"
        },
        "images": [
            {
                "about": "All",
                "link": "https://lh5.googleusercontent.com/p/AF1QipP8fLZotEZDyJH8FWZCBzBTGeNBg_dCXr9b61qd=w224-h298-k-no"
            }
        ],
        "link": "https://www.google.com/maps/place/Masjid+Al+Huda/data=!4m7!3m6!1s0x37492701da57a0dd:0x1a6e306f94b350d0!8m2!3d24.8460328!4d93.9418811!16s%2Fg%2F11gyysg3kf!19sChIJ3aBX2gEnSTcR0FCzlG8wbho?authuser=0&hl=en&rclk=1",
        "coordinates": {
            "latitude": 24.8460328,
            "longitude": 93.94188109999999
        }
    },
    {
        "name": "Al Huda Masajid",
        "main_category": "Mosque",
        "address": "RX4J+5Q5 Al Huda Masajid, Kshetri, Manang, Imphal, Manipur 795005",
        "detailed_address": {
            "ward": null,
            "street": "RX4J+5Q5, Kshetri",
            "city": "Manang, Imphal",
            "postal_code": "795005",
            "state": "Manipur",
            "country_code": "IN"
        },
        "images": [
            {
                "about": "All",
                "link": "https://lh5.googleusercontent.com/p/AF1QipP308N_A6RMGNqN7xNX5HN_GFFRrMCCQgpe8W1b=w529-h298-k-no"
            }
        ],
        "link": "https://www.google.com/maps/place/Al+Huda+Masajid/data=!4m7!3m6!1s0x374920df5c57de13:0x3ad238c24597ca6e!8m2!3d24.8053997!4d93.9819772!16s%2Fg%2F11dftth9w3!19sChIJE95XXN8gSTcRbsqXRcI40jo?authuser=0&hl=en&rclk=1",
        "coordinates": {
            "latitude": 24.8053997,
            "longitude": 93.98197719999999
        }
    },
    {
        "name": "Crpf masjid",
        "main_category": "Mosque",
        "address": "Crpf masjid, CPWD Office, Imphal, Manipur 795113",
        "detailed_address": {
            "ward": null,
            "street": "CPWD Office",
            "city": "Imphal",
            "postal_code": "795113",
            "state": "Manipur",
            "country_code": "IN"
        },
        "images": [
            {
                "about": "All",
                "link": "https://lh5.googleusercontent.com/p/AF1QipOgoJlTyoGBsoa09ulWlh5-kU_XvuxMVSlafucc=w529-h298-k-no"
            }
        ],
        "link": "https://www.google.com/maps/place/Crpf+masjid/data=!4m7!3m6!1s0x37492962553bbb79:0x3b6050d0a5e02b4e!8m2!3d24.8027504!4d93.8925398!16s%2Fg%2F11j8zyrxh2!19sChIJebs7VWIpSTcRTivgpdBQYDs?authuser=0&hl=en&rclk=1",
        "coordinates": {
            "latitude": 24.802750399999997,
            "longitude": 93.8925398
        }
    },
    {
        "name": "Azizia Masjid",
        "main_category": "Mosque",
        "address": "Azizia Masjid, Sajao road Guna road, Khergao Rd, Makha Leikai, Imphal, Manipur 795008",
        "detailed_address": {
            "ward": "Makha Leikai",
            "street": "Sajao road Guna road, Khergao Rd",
            "city": "Imphal",
            "postal_code": "795008",
            "state": "Manipur",
            "country_code": "IN"
        },
        "images": [],
        "link": "https://www.google.com/maps/place/Azizia+Masjid/data=!4m7!3m6!1s0x374927d6904db4ed:0xfe8bcc1a947484e0!8m2!3d24.7898613!4d93.9664472!16s%2Fg%2F11j024phyt!19sChIJ7bRNkNYnSTcR4IR0lBrMi_4?authuser=0&hl=en&rclk=1",
        "coordinates": {
            "latitude": 24.7898613,
            "longitude": 93.96644719999999
        }
    },
    {
        "name": "Basei Masjid Khergao Thambalkhong",
        "main_category": "Mosque",
        "address": "QXV8+3WJ Basei Masjid Khergao Thambalkhong, Khergao Rd, Imphal, Manipur 795005",
        "detailed_address": {
            "ward": null,
            "street": "QXV8+3WJ, Khergao Rd",
            "city": "Imphal",
            "postal_code": "795005",
            "state": "Manipur",
            "country_code": "IN"
        },
        "images": [
            {
                "about": "All",
                "link": "https://lh5.googleusercontent.com/p/AF1QipOBgM10idaZ64KhqnwwguvnYSqdBTV4xnG00ByZ=w397-h298-k-no"
            }
        ],
        "link": "https://www.google.com/maps/place/Basei+Masjid+Khergao+Thambalkhong/data=!4m7!3m6!1s0x374926e7fefe5f63:0xe64bcdf8a794c52e!8m2!3d24.7927247!4d93.9672582!16s%2Fg%2F11ddwxgxtm!19sChIJY1_-_ucmSTcRLsWUp_jNS-Y?authuser=0&hl=en&rclk=1",
        "coordinates": {
            "latitude": 24.792724699999997,
            "longitude": 93.96725819999999
        }
    },
    {
        "name": "PURANI MASJID KHABEISOI",
        "main_category": "Mosque",
        "address": "RXQG+JMX PURANI MASJID KHABEISOI, Khabeisoi, Imphal, Manipur 795010",
        "detailed_address": {
            "ward": "Khabeisoi",
            "street": "RXQG+JMX",
            "city": "Imphal",
            "postal_code": "795010",
            "state": "Manipur",
            "country_code": "IN"
        },
        "images": [],
        "link": "https://www.google.com/maps/place/PURANI+MASJID+KHABEISOI/data=!4m7!3m6!1s0x374927b170f9f433:0xf6c023aa96e18710!8m2!3d24.8391126!4d93.9767379!16s%2Fg%2F11g19yfxht!19sChIJM_T5cLEnSTcREIfhlqojwPY?authuser=0&hl=en&rclk=1",
        "coordinates": {
            "latitude": 24.8391126,
            "longitude": 93.97673789999999
        }
    },
    {
        "name": "Masjid E-Al-Hasan",
        "main_category": "Place of worship",
        "address": "QXWC+2FP Masjid E-Al-Hasan, Khergao Awang Leikai, Imphal, Manipur 795005",
        "detailed_address": {
            "ward": "Khergao Awang Leikai",
            "street": "QXWC+2FP",
            "city": "Imphal",
            "postal_code": "795005",
            "state": "Manipur",
            "country_code": "IN"
        },
        "images": [],
        "link": "https://www.google.com/maps/place/Masjid+E-Al-Hasan/data=!4m7!3m6!1s0x374926dcf4b8aab7:0x7fd8ebf2a998b503!8m2!3d24.7950759!4d93.9712076!16s%2Fg%2F11f3n2b2zk!19sChIJt6q49NwmSTcRA7WYqfLr2H8?authuser=0&hl=en&rclk=1",
        "coordinates": {
            "latitude": 24.7950759,
            "longitude": 93.9712076
        }
    },
    {
        "name": "Mosque Ahallup New",
        "main_category": "Religious institution",
        "address": "RWWV+XCJ Mosque Ahallup New, Mantripukhri, Heingang, Manipur 795002",
        "detailed_address": {
            "ward": "Mantripukhri",
            "street": "RWWV+XCJ",
            "city": "Heingang",
            "postal_code": "795002",
            "state": "Manipur",
            "country_code": "IN"
        },
        "images": [],
        "link": "https://www.google.com/maps/place/Mosque+Ahallup+New/data=!4m7!3m6!1s0x374927c696d3a219:0x90050669e169aea5!8m2!3d24.8474717!4d93.9435306!16s%2Fg%2F11ffv30bsg!19sChIJGaLTlsYnSTcRpa5p4WkGBZA?authuser=0&hl=en&rclk=1",
        "coordinates": {
            "latitude": 24.8474717,
            "longitude": 93.9435306
        }
    },
    {
        "name": "Alahi BabuparaJama Masjid",
        "main_category": "Mosque",
        "address": "RWCG+C45 Alahi BabuparaJama Masjid, Babupara, Imphal, Manipur 795116",
        "detailed_address": {
            "ward": "Babupara",
            "street": "RWCG+C45",
            "city": "Imphal",
            "postal_code": "795116",
            "state": "Manipur",
            "country_code": "IN"
        },
        "images": [],
        "link": "https://www.google.com/maps/place/Alahi+BabuparaJama+Masjid/data=!4m7!3m6!1s0x3749278a6e393af5:0x97eddc43bb26e603!8m2!3d24.821022!4d93.925356!16s%2Fg%2F11ns18vkj8!19sChIJ9To5boonSTcRA-Ymu0Pc7Zc?authuser=0&hl=en&rclk=1",
        "coordinates": {
            "latitude": 24.821022,
            "longitude": 93.925356
        }
    },
    {
        "name": "Nijamia Masjid,",
        "main_category": "Mosque",
        "address": "RXQF+274 Nijamia Masjid,, Ipum Pond Rd, Kairang Muslim, Imphal, Manipur 795010",
        "detailed_address": {
            "ward": null,
            "street": "RXQF+274, Ipum Pond Rd",
            "city": "Kairang Muslim, Imphal",
            "postal_code": "795010",
            "state": "Manipur",
            "country_code": "IN"
        },
        "images": [
            {
                "about": "All",
                "link": "https://lh5.googleusercontent.com/p/AF1QipOK2gk_Ox_722WuDjvpMls-hrL4MAbLQ6N4-Aoy=w224-h497-k-no"
            }
        ],
        "link": "https://www.google.com/maps/place/Nijamia+Masjid,/data=!4m7!3m6!1s0x374927546dace2d3:0xa9671cc2756bd8c!8m2!3d24.8375232!4d93.9732057!16s%2Fg%2F11khgmxyy3!19sChIJ0-KsbVQnSTcRjL1WJ8xxlgo?authuser=0&hl=en&rclk=1",
        "coordinates": {
            "latitude": 24.8375232,
            "longitude": 93.9732057
        }
    },
    {
        "name": "Syed Ali Masjid",
        "main_category": "Mosque",
        "address": "RX4H+86W Syed Ali Masjid, Kshetri Awang Leikai, Kshetrigao, Imphal, Manipur 795005",
        "detailed_address": {
            "ward": "Kshetrigao",
            "street": "RX4H+86W, Kshetri Awang Leikai",
            "city": "Imphal",
            "postal_code": "795005",
            "state": "Manipur",
            "country_code": "IN"
        },
        "images": [],
        "link": "https://www.google.com/maps/place/Syed+Ali+Masjid/data=!4m7!3m6!1s0x3749272fc8c232cb:0x495b1a44b9b614fe!8m2!3d24.805866!4d93.9780918!16s%2Fg%2F11nmqdswf1!19sChIJyzLCyC8nSTcR_hS2uUQaW0k?authuser=0&hl=en&rclk=1",
        "coordinates": {
            "latitude": 24.805865999999998,
            "longitude": 93.9780918
        }
    },
    {
        "name": "Tabah Masjid",
        "main_category": "Mosque",
        "address": "QXWG+RFG Tabah Masjid, Kshetri Bengoon Mayai Leikai, Imphal, Manipur 795005",
        "detailed_address": {
            "ward": "Kshetri Bengoon Mayai Leikai",
            "street": "QXWG+RFG",
            "city": "Imphal",
            "postal_code": "795005",
            "state": "Manipur",
            "country_code": "IN"
        },
        "images": [],
        "link": "https://www.google.com/maps/place/Tabah+Masjid/data=!4m7!3m6!1s0x374926da3e7dc433:0x858f983312c370e6!8m2!3d24.79706!4d93.976211!16s%2Fg%2F11g8w8wvhn!19sChIJM8R9PtomSTcR5nDDEjOYj4U?authuser=0&hl=en&rclk=1",
        "coordinates": {
            "latitude": 24.79706,
            "longitude": 93.97621099999999
        }
    },
    {
        "name": "Masjid-e-Rashidiya",
        "main_category": "Mosque",
        "address": "QXXH+WQG Masjid-e-Rashidiya, Bengoon Road, Kshetri Bengoon Mayai Leikai, Imphal, Manipur 795005",
        "detailed_address": {
            "ward": "Kshetri Bengoon Mayai Leikai",
            "street": "QXXH+WQG, Bengoon Road",
            "city": "Imphal",
            "postal_code": "795005",
            "state": "Manipur",
            "country_code": "IN"
        },
        "images": [],
        "link": "https://www.google.com/maps/place/Masjid-e-Rashidiya/data=!4m7!3m6!1s0x37492763eba7fdb9:0xbaeaff1a2ca35a6d!8m2!3d24.799816!4d93.979449!16s%2Fg%2F11nx1f1v3h!19sChIJuf2n62MnSTcRbVqjLBr_6ro?authuser=0&hl=en&rclk=1",
        "coordinates": {
            "latitude": 24.799816,
            "longitude": 93.979449
        }
    },
    {
        "name": "Masjid Firdous",
        "main_category": "Mosque",
        "address": "RXRH+7JC Masjid Firdous, Khabeisoi, Imphal, Manipur 795010",
        "detailed_address": {
            "ward": "Khabeisoi",
            "street": "RXRH+7JC",
            "city": "Imphal",
            "postal_code": "795010",
            "state": "Manipur",
            "country_code": "IN"
        },
        "images": [],
        "link": "https://www.google.com/maps/place/Masjid+Firdous/data=!4m7!3m6!1s0x3749271d352ef27d:0x6b6df1ce255122e8!8m2!3d24.8406952!4d93.979009!16s%2Fg%2F11s99wk705!19sChIJffIuNR0nSTcR6CJRJc7xbWs?authuser=0&hl=en&rclk=1",
        "coordinates": {
            "latitude": 24.8406952,
            "longitude": 93.97900899999999
        }
    },
    {
        "name": "Kurbatul Masjid",
        "main_category": "Mosque",
        "address": "Kurbatul Masjid, Mayai Leikai, Khabeisoi, Imphal, Pangei, Manipur 795114",
        "detailed_address": {
            "ward": "Khabeisoi",
            "street": "Mayai Leikai",
            "city": "Imphal, Pangei",
            "postal_code": "795114",
            "state": "Manipur",
            "country_code": "IN"
        },
        "images": [],
        "link": "https://www.google.com/maps/place/Kurbatul+Masjid/data=!4m7!3m6!1s0x374927b4a3453f25:0xa9acabbdee5c5046!8m2!3d24.8409809!4d93.973987!16s%2Fg%2F11l5gzq4zv!19sChIJJT9Fo7QnSTcRRlBc7r2rrKk?authuser=0&hl=en&rclk=1",
        "coordinates": {
            "latitude": 24.840980899999998,
            "longitude": 93.973987
        }
    },
    {
        "name": "Hafiz hatta masjid road",
        "main_category": "Mosque",
        "address": "RX72+85W Hafiz hatta masjid road, Hafiz Hatta Masjid Rd, hatta, Soibam Leikai, Imphal, Kairang Meitei, Manipur 795001",
        "detailed_address": {
            "ward": "hatta, Soibam Leikai",
            "street": "RX72+85W, Hafiz Hatta Masjid Rd",
            "city": "Imphal, Kairang Meitei",
            "postal_code": "795001",
            "state": "Manipur",
            "country_code": "IN"
        },
        "images": [],
        "link": "https://www.google.com/maps/place/Hafiz+hatta+masjid+road/data=!4m7!3m6!1s0x374927711682bd01:0x95d2e00a91c7d85c!8m2!3d24.8133576!4d93.950443!16s%2Fg%2F11rdgxzf_l!19sChIJAb2CFnEnSTcRXNjHkQrg0pU?authuser=0&hl=en&rclk=1",
        "coordinates": {
            "latitude": 24.8133576,
            "longitude": 93.95044299999999
        }
    },
    {
        "name": "Mayangkhut Masjid",
        "main_category": "Mosque",
        "address": "RXRF+CH4 Mayangkhut Masjid, Khabeisoi, Imphal, Pangei, Manipur 795010",
        "detailed_address": {
            "ward": "Khabeisoi",
            "street": "RXRF+CH4",
            "city": "Imphal, Pangei",
            "postal_code": "795010",
            "state": "Manipur",
            "country_code": "IN"
        },
        "images": [],
        "link": "https://www.google.com/maps/place/Mayangkhut+Masjid/data=!4m7!3m6!1s0x374927ee327b2ef9:0xfee33aef488a1bd1!8m2!3d24.8410122!4d93.9739656!16s%2Fg%2F11h_d706x9!19sChIJ-S57Mu4nSTcR0RuKSO864_4?authuser=0&hl=en&rclk=1",
        "coordinates": {
            "latitude": 24.841012199999998,
            "longitude": 93.9739656
        }
    },
    {
        "name": "Porompat Masajit, Manipur First Masajit",
        "main_category": "Mosque",
        "address": "RX45+793 Porompat Masajit, Manipur First Masajit, Thawanthaba Leirak, Porompat, Lairikyengbam Leikai, Manipur 795005",
        "detailed_address": {
            "ward": "Thawanthaba Leirak",
            "street": "RX45+793",
            "city": "Porompat, Lairikyengbam Leikai",
            "postal_code": "795005",
            "state": "Manipur",
            "country_code": "IN"
        },
        "images": [],
        "link": "https://www.google.com/maps/place/Porompat+Masajit,+Manipur+First+Masajit/data=!4m7!3m6!1s0x37492782cd19f6dd:0x4497d1d8d173472!8m2!3d24.8056377!4d93.9584271!16s%2Fg%2F11t3dxf63g!19sChIJ3fYZzYInSTcRcjQXjR19SQQ?authuser=0&hl=en&rclk=1",
        "coordinates": {
            "latitude": 24.8056377,
            "longitude": 93.9584271
        }
    },
    {
        "name": "Mantripukhary",
        "main_category": "Mosque",
        "address": "RWXM+VQ2 Mantripukhary, Mantripukhri, Achanbigei, Imphal, Manipur 795002",
        "detailed_address": {
            "ward": "Mantripukhri, Achanbigei",
            "street": "RWXM+VQ2",
            "city": "Imphal",
            "postal_code": null,
            "state": "Manipur",
            "country_code": "IN"
        },
        "images": [],
        "link": "https://www.google.com/maps/place/Mantripukhary/data=!4m7!3m6!1s0x37492784a26ce2eb:0x618c299f01ce4f18!8m2!3d24.8496358!4d93.9343826!16s%2Fg%2F11s3bvj587!19sChIJ6-JsooQnSTcRGE_OAZ8pjGE?authuser=0&hl=en&rclk=1",
        "coordinates": {
            "latitude": 24.849635799999998,
            "longitude": 93.93438259999999
        }
    },
    {
        "name": "Darus Salam Masjid",
        "main_category": "Mosque",
        "address": "QXHH+P5F Darus Salam Masjid, Pangong Makhong Thangbijrou, Imphal, Manipur",
        "detailed_address": {
            "ward": "Bamon Kampu, Kshetri Bengoon",
            "street": "QXHH+P5F, Pangong Makhong Thangbijrou",
            "city": "Imphal",
            "postal_code": null,
            "state": "Manipur",
            "country_code": "IN"
        },
        "images": [],
        "link": "https://www.google.com/maps/place/Darus+Salam+Masjid/data=!4m7!3m6!1s0x374927702f4a5255:0x7e477d7948c902df!8m2!3d24.7793162!4d93.977922!16s%2Fg%2F11qqkqjkmq!19sChIJVVJKL3AnSTcR3wLJSHl9R34?authuser=0&hl=en&rclk=1",
        "coordinates": {
            "latitude": 24.7793162,
            "longitude": 93.97792199999999
        }
    }
]