[
    {
        "name": "Jama Masjid - jm` msjd",
        "main_category": "Mosque",
        "address": "XVJ2+VM6 Jama Masjid - jm` msjd, National Highway 28A, Noneadih, Raxaul, Bihar 845305",
        "detailed_address": {
            "ward": "Noneadih",
            "street": "XVJ2+VM6, National Highway 28A",
            "city": "Raxaul",
            "postal_code": "845305",
            "state": "Bihar",
            "country_code": "IN"
        },
        "images": [
            {
                "about": "All",
                "link": "https://lh5.googleusercontent.com/p/AF1QipNAhGS5i1zpm9WAFoIcB55If_zPCE6lIp3RZGmH=w311-h298-k-no"
            },
            {
                "about": "Street View & 360deg",
                "link": "https://streetviewpixels-pa.googleapis.com/v1/thumbnail?panoid=g8BOzUPnL6-TQw9EODMY_w&cb_client=maps_sv.tactile.gps&w=224&h=298&yaw=283.4324&pitch=0&thumbfov=100"
            }
        ],
        "link": "https://www.google.com/maps/place/Jama+Masjid+-+%D8%AC%D8%A7%D9%85%D8%B9+%D9%85%D8%B3%D8%AC%D8%AF%E2%80%AD/data=!4m7!3m6!1s0x3993515478896807:0xee958a00784bbd71!8m2!3d26.982165!4d84.851636!16s%2Fg%2F11bwh5st8_!19sChIJB2iJeFRRkzkRcb1LeACKle4?authuser=0&hl=en&rclk=1",
        "coordinates": {
            "latitude": 26.982165,
            "longitude": 84.851636
        }
    },
    {
        "name": "Juman Masjid - Tumariya Tola",
        "main_category": "Mosque",
        "address": "Ward No - 3, Juman Masjid - Tumariya Tola, Duncan Rd, Raxaul, Bihar 845305",
        "detailed_address": {
            "ward": null,
            "street": "Ward No - 3, Duncan Rd",
            "city": "Raxaul",
            "postal_code": "845305",
            "state": "Bihar",
            "country_code": "IN"
        },
        "images": [
            {
                "about": "All",
                "link": "https://lh5.googleusercontent.com/p/AF1QipPV42UMivWyqMfmAzymTsOtBnhIEcLHMNOwLROf=w224-h298-k-no"
            },
            {
                "about": "By owner",
                "link": "https://lh5.googleusercontent.com/p/AF1QipPV42UMivWyqMfmAzymTsOtBnhIEcLHMNOwLROf=w224-h298-k-no"
            },
            {
                "about": "Videos",
                "link": "https://lh5.googleusercontent.com/p/AF1QipM1fMo-oZ83_5HC3DOCzKoTrt9iCdoplgXVXOhM=w224-h398-k-no"
            }
        ],
        "link": "https://www.google.com/maps/place/Juman+Masjid+-+Tumariya+Tola/data=!4m7!3m6!1s0x399356ae5f555e35:0x5861b832fc9c028a!8m2!3d26.9932454!4d84.8489963!16s%2Fg%2F1q62hzvv9!19sChIJNV5VX65WkzkRigKc_DK4YVg?authuser=0&hl=en&rclk=1",
        "coordinates": {
            "latitude": 26.9932454,
            "longitude": 84.8489963
        }
    },
    {
        "name": "Ekderwa Masjid",
        "main_category": "Mosque",
        "address": "XRXG+R42 Ekderwa Masjid, NH28A, Ekderwa, Raxaul, Bihar 845305",
        "detailed_address": {
            "ward": null,
            "street": "XRXG+R42, NH28A",
            "city": "Ekderwa, Raxaul",
            "postal_code": "845305",
            "state": "Bihar",
            "country_code": "IN"
        },
        "images": [
            {
                "about": "All",
                "link": "https://lh5.googleusercontent.com/p/AF1QipNcMlpbb1-9np4cpm2TCZTk5Hbc9QN8A2nrN7fC=w529-h298-k-no"
            },
            {
                "about": "Videos",
                "link": "https://lh5.googleusercontent.com/p/AF1QipNTnNcUYQ_T-79arzRv6WtMBK81NyNsf6moWqJP=w224-h400-k-no"
            }
        ],
        "link": "https://www.google.com/maps/place/Ekderwa+Masjid/data=!4m7!3m6!1s0x399356c4caa263f7:0x2919b16098ca3838!8m2!3d26.9995038!4d84.8252709!16s%2Fg%2F11c5qsx4g7!19sChIJ92OiysRWkzkRODjKmGCxGSk?authuser=0&hl=en&rclk=1",
        "coordinates": {
            "latitude": 26.9995038,
            "longitude": 84.82527089999999
        }
    },
    {
        "name": "Islampur Mosque,Raxaul",
        "main_category": "Mosque",
        "address": "Ward No. 08, Islampur Mosque,Raxaul, Islampur, Noneadih, Raxaul, Bihar 845305",
        "detailed_address": {
            "ward": "Noneadih",
            "street": "Ward No. 08, Islampur",
            "city": "Raxaul",
            "postal_code": "845305",
            "state": "Bihar",
            "country_code": "IN"
        },
        "images": [
            {
                "about": "All",
                "link": "https://lh5.googleusercontent.com/p/AF1QipN-pcd8VwctW7U0mTw96yJQGtLkITCetoU2eRGO=w448-h298-k-no"
            }
        ],
        "link": "https://www.google.com/maps/place/Islampur+Mosque,Raxaul/data=!4m7!3m6!1s0x399353ffa95643d9:0x45e52ee15436bee4!8m2!3d26.9833031!4d84.8583877!16s%2Fg%2F11c3s95qzf!19sChIJ2UNWqf9TkzkR5L42VOEu5UU?authuser=0&hl=en&rclk=1",
        "coordinates": {
            "latitude": 26.9833031,
            "longitude": 84.8583877
        }
    },
    {
        "name": "Aysha Masjid",
        "main_category": "Mosque",
        "address": "XR6G+FXM Aysha Masjid, Dumaria, Raxaul, Bihar 845305",
        "detailed_address": {
            "ward": null,
            "street": "XR6G+FXM, Dumaria",
            "city": "Raxaul, Kananaparshotimpur",
            "postal_code": "845305",
            "state": "Bihar",
            "country_code": "IN"
        },
        "images": [
            {
                "about": "All",
                "link": "https://lh5.googleusercontent.com/p/AF1QipN9xDEaSyPndCtFwY7lvB1QXDkt1aN1S-oXP-CC=w224-h448-k-no"
            }
        ],
        "link": "https://www.google.com/maps/place/Aysha+Masjid/data=!4m7!3m6!1s0x399351a7ffc7ff59:0x9b9efbb7cf0c2eed!8m2!3d26.961217!4d84.8274169!16s%2Fg%2F11g0mgym9p!19sChIJWf_H_6dRkzkR7S4Mz7f7nps?authuser=0&hl=en&rclk=1",
        "coordinates": {
            "latitude": 26.961216999999998,
            "longitude": 84.8274169
        }
    },
    {
        "name": "Chhoti Masjid",
        "main_category": "Mosque",
        "address": "XR8W+7CC Chhoti Masjid, Laxmipur, NH 28A, Raxaul, Bihar 845305",
        "detailed_address": {
            "ward": null,
            "street": "XR8W+7CC, Laxmipur, NH 28A",
            "city": "Raxaul",
            "postal_code": "845305",
            "state": "Bihar",
            "country_code": "IN"
        },
        "images": [
            {
                "about": "All",
                "link": "https://lh5.googleusercontent.com/p/AF1QipP9n_tEipEdaOQh2Q1JgmQ9TuEHaUsd2HsYGtmI=w397-h298-k-no"
            },
            {
                "about": "Street View & 360deg",
                "link": "https://streetviewpixels-pa.googleapis.com/v1/thumbnail?panoid=0BzE9R2Lh9HqTvSsmGuPnw&cb_client=maps_sv.tactile.gps&w=224&h=298&yaw=146.84007&pitch=0&thumbfov=100"
            }
        ],
        "link": "https://www.google.com/maps/place/Chhoti+Masjid/data=!4m7!3m6!1s0x399351433052f39b:0x5059768ec61001de!8m2!3d26.9656803!4d84.8460312!16s%2Fg%2F1262pbgr2!19sChIJm_NSMENRkzkR3gEQxo52WVA?authuser=0&hl=en&rclk=1",
        "coordinates": {
            "latitude": 26.9656803,
            "longitude": 84.8460312
        }
    },
    {
        "name": "Laxmipur Jama Masjid",
        "main_category": "Mosque",
        "address": "XR8W+6R4 Laxmipur Jama Masjid, Raxaul, Bihar 845305",
        "detailed_address": {
            "ward": null,
            "street": "XR8W+6R4",
            "city": "Raxaul",
            "postal_code": "845305",
            "state": "Bihar",
            "country_code": "IN"
        },
        "images": [
            {
                "about": "All",
                "link": "https://lh5.googleusercontent.com/p/AF1QipPJwJQZj0FFZIKJHv99GYI-etijHwi3VBpalnm9=w224-h298-k-no"
            }
        ],
        "link": "https://www.google.com/maps/place/Laxmipur+Jama+Masjid/data=!4m7!3m6!1s0x3993515cd078208f:0x9ef773d26b373bd1!8m2!3d26.9655025!4d84.8470812!16s%2Fg%2F11g9vx0frv!19sChIJjyB40FxRkzkR0Ts3a9Jz954?authuser=0&hl=en&rclk=1",
        "coordinates": {
            "latitude": 26.9655025,
            "longitude": 84.84708119999999
        }
    },
    {
        "name": "Abu Bakar Masjid",
        "main_category": "Mosque",
        "address": "XR8W+G4P Abu Bakar Masjid, Raxaul, Bihar 845305",
        "detailed_address": {
            "ward": null,
            "street": "XR8W+G4P",
            "city": "Raxaul",
            "postal_code": "845305",
            "state": "Bihar",
            "country_code": "IN"
        },
        "images": [
            {
                "about": "All",
                "link": "https://lh5.googleusercontent.com/p/AF1QipP5jhekimqaF2JQGC_twFr2hNz2zplveoUkki92=w224-h298-k-no"
            },
            {
                "about": "Videos",
                "link": "https://lh5.googleusercontent.com/p/AF1QipPKtb7G094KBX2T16dSkAUAIp75kY71Dne109BB=w224-h398-k-no"
            }
        ],
        "link": "https://www.google.com/maps/place/Abu+Bakar+Masjid/data=!4m7!3m6!1s0x3993514340a7bc51:0x226793ddd9182777!8m2!3d26.9663384!4d84.8453421!16s%2Fg%2F11c6q5048x!19sChIJUbynQENRkzkRdycY2d2TZyI?authuser=0&hl=en&rclk=1",
        "coordinates": {
            "latitude": 26.966338399999998,
            "longitude": 84.8453421
        }
    },
    {
        "name": "Laxmipur Eid-Gah",
        "main_category": "Mosque",
        "address": "XR9V+63G Laxmipur Eid-Gah, Raxaul, Bihar 845305",
        "detailed_address": {
            "ward": null,
            "street": "XR9V+63G",
            "city": "Raxaul",
            "postal_code": "845305",
            "state": "Bihar",
            "country_code": "IN"
        },
        "images": [
            {
                "about": "All",
                "link": "https://lh5.googleusercontent.com/p/AF1QipMWvlZdc9buAVy8E9iK5tva6nyZNysxmCj507EB=w397-h298-k-no"
            }
        ],
        "link": "https://www.google.com/maps/place/Laxmipur+Eid-Gah/data=!4m7!3m6!1s0x3993514474750673:0xd528cdb81e9a5825!8m2!3d26.9680608!4d84.8426924!16s%2Fg%2F11c2pwpjc0!19sChIJcwZ1dERRkzkRJViaHrjNKNU?authuser=0&hl=en&rclk=1",
        "coordinates": {
            "latitude": 26.9680608,
            "longitude": 84.84269239999999
        }
    },
    {
        "name": "Masjid",
        "main_category": "Mosque",
        "address": "XRPR+J75 Masjid, Bada Pareuwa, Raxaul, Bihar 845305",
        "detailed_address": {
            "ward": "Bada Pareuwa",
            "street": "XRPR+J75",
            "city": "Raxaul",
            "postal_code": "845305",
            "state": "Bihar",
            "country_code": "IN"
        },
        "images": [
            {
                "about": "All",
                "link": "https://lh5.googleusercontent.com/p/AF1QipOKALhLEjHg2z5yZjMLe9CMPy4E8zxmvzxEE1pT=w397-h298-k-no"
            }
        ],
        "link": "https://www.google.com/maps/place/Masjid/data=!4m7!3m6!1s0x399357a9d7855e73:0x209240e43163f3c8!8m2!3d26.9865135!4d84.8407473!16s%2Fg%2F11ryldq_sg!19sChIJc16F16lXkzkRyPNjMeRAkiA?authuser=0&hl=en&rclk=1",
        "coordinates": {
            "latitude": 26.986513499999997,
            "longitude": 84.84074729999999
        }
    },
    {
        "name": "Chhota Pareuwa Masjid",
        "main_category": "Mosque",
        "address": "XRJR+2CG Chhota Pareuwa Masjid, Bada Pareuwa, Raxaul, Bihar 845305",
        "detailed_address": {
            "ward": "Bada Pareuwa",
            "street": "XRJR+2CG",
            "city": "Raxaul",
            "postal_code": "845305",
            "state": "Bihar",
            "country_code": "IN"
        },
        "images": [],
        "link": "https://www.google.com/maps/place/Chhota+Pareuwa+Masjid/data=!4m7!3m6!1s0x399351872558ff39:0xef4d3f97b1f696a5!8m2!3d26.9800656!4d84.8410848!16s%2Fg%2F11h5mbr513!19sChIJOf9YJYdRkzkRpZb2sZc_Te8?authuser=0&hl=en&rclk=1",
        "coordinates": {
            "latitude": 26.9800656,
            "longitude": 84.84108479999999
        }
    },
    {
        "name": "Madarsa Mahmudiya Talimool Banat",
        "main_category": "Mosque",
        "address": "XRQQ+5RF Madarsa Mahmudiya Talimool Banat, Raxaul, Bihar 845305",
        "detailed_address": {
            "ward": null,
            "street": "XRQQ+5RF",
            "city": "Raxaul",
            "postal_code": null,
            "state": "Bihar",
            "country_code": "IN"
        },
        "images": [
            {
                "about": "All",
                "link": "https://lh5.googleusercontent.com/p/AF1QipP-30AtTjIvU1eZfd9PCvamqyfVCbYy2OqMCpgl=w224-h298-k-no"
            }
        ],
        "link": "https://www.google.com/maps/place/Madarsa+Mahmudiya+Talimool+Banat/data=!4m7!3m6!1s0x399357fc3eb600f9:0xeac9d268d930178b!8m2!3d26.9879348!4d84.8395367!16s%2Fg%2F11fmgmkbrg!19sChIJ-QC2PvxXkzkRixcw2WjSyeo?authuser=0&hl=en&rclk=1",
        "coordinates": {
            "latitude": 26.987934799999998,
            "longitude": 84.8395367
        }
    },
    {
        "name": "Jama Masjid Bada Pareuwa",
        "main_category": "Mosque",
        "address": "XRMR+94F Jama Masjid Bada Pareuwa, Bada Pareuwa Rd, Bada Pareuwa, Raxaul, Bihar 845305",
        "detailed_address": {
            "ward": "Bada Pareuwa",
            "street": "XRMR+94F, Bada Pareuwa Rd",
            "city": "Raxaul",
            "postal_code": "845305",
            "state": "Bihar",
            "country_code": "IN"
        },
        "images": [
            {
                "about": "All",
                "link": "https://lh5.googleusercontent.com/p/AF1QipPNrK-ufvFTkoHEHA-Fov6-Lo7s6oOYsFH2KrU9=w224-h398-k-no"
            }
        ],
        "link": "https://www.google.com/maps/place/Jama+Masjid+Bada+Pareuwa/data=!4m7!3m6!1s0x3993516874c52dc1:0xd909d10313b62ad!8m2!3d26.9834389!4d84.840294!16s%2Fg%2F11h49j__5z!19sChIJwS3FdGhRkzkRrWI7MRCdkA0?authuser=0&hl=en&rclk=1",
        "coordinates": {
            "latitude": 26.9834389,
            "longitude": 84.840294
        }
    },
    {
        "name": "Ahirwatola Masjid, Raxaul",
        "main_category": "Place of worship",
        "address": "XVM4+PVX Ahirwatola Masjid, Raxaul, Noneadih, Raxaul, Bihar",
        "detailed_address": {
            "ward": "Noneadih",
            "street": "XVM4+PVX",
            "city": "Raxaul",
            "postal_code": null,
            "state": "Bihar",
            "country_code": "IN"
        },
        "images": [
            {
                "about": "All",
                "link": "https://lh5.googleusercontent.com/p/AF1QipORdCae29Chgze5WcF6aqFORrtnC4chi4XAkQFB=w224-h298-k-no"
            }
        ],
        "link": "https://www.google.com/maps/place/Ahirwatola+Masjid,+Raxaul/data=!4m7!3m6!1s0x399353e6e635fcf1:0x2ce3158a94b8095e!8m2!3d26.9843556!4d84.8572369!16s%2Fg%2F11fwj0k4wz!19sChIJ8fw15uZTkzkRXgm4lIoV4yw?authuser=0&hl=en&rclk=1",
        "coordinates": {
            "latitude": 26.984355599999997,
            "longitude": 84.85723689999999
        }
    },
    {
        "name": "Mosque Usmaniya",
        "main_category": "Mosque",
        "address": "XVM5+23R Mosque Usmaniya, Noneadih, Raxaul, Bihar",
        "detailed_address": {
            "ward": "Noneadih",
            "street": "XVM5+23R",
            "city": "Raxaul",
            "postal_code": null,
            "state": "Bihar",
            "country_code": "IN"
        },
        "images": [],
        "link": "https://www.google.com/maps/place/Mosque+Usmaniya/data=!4m7!3m6!1s0x399353070a5b04dd:0x20fd0694b3e21d22!8m2!3d26.982619!4d84.8576166!16s%2Fg%2F11rpngk6h2!19sChIJ3QRbCgdTkzkRIh3is5QG_SA?authuser=0&hl=en&rclk=1",
        "coordinates": {
            "latitude": 26.982619,
            "longitude": 84.8576166
        }
    },
    {
        "name": "Pipra tola Masjid ",
        "main_category": "Mosque",
        "address": "XR6V+J4F Pipra tola Masjid , Laxmipur, Raxaul, Kaurihar, Bihar 845305",
        "detailed_address": {
            "ward": "Laxmipur",
            "street": "XR6V+J4F",
            "city": "Raxaul, Kaurihar",
            "postal_code": "845305",
            "state": "Bihar",
            "country_code": "IN"
        },
        "images": [
            {
                "about": "All",
                "link": "https://lh5.googleusercontent.com/p/AF1QipPz-0-t8YW-t92W1zvy-ilspIRN6Drhl9x6uvN7=w224-h398-k-no"
            },
            {
                "about": "Videos",
                "link": "https://lh5.googleusercontent.com/p/AF1QipPz-0-t8YW-t92W1zvy-ilspIRN6Drhl9x6uvN7=w224-h398-k-no"
            }
        ],
        "link": "https://www.google.com/maps/place/Pipra+tola+Masjid+%F0%9F%8C%99/data=!4m7!3m6!1s0x39935148ca2bda7b:0x107a18e4cb078bf1!8m2!3d26.9611163!4d84.8428311!16s%2Fg%2F11tgd_zd9h!19sChIJe9orykhRkzkR8YsHy-QYehA?authuser=0&hl=en&rclk=1",
        "coordinates": {
            "latitude": 26.9611163,
            "longitude": 84.8428311
        }
    }
]