[
    {
        "name": "Badabass Masjid",
        "main_category": "Mosque",
        "address": "CRJ6+3M3 Badabass Masjid, Kherli Veeran, Rajasthan 301021",
        "detailed_address": {
            "ward": null,
            "street": "CRJ6+3M3",
            "city": "Kherli Veeran",
            "postal_code": "301021",
            "state": "Rajasthan",
            "country_code": "IN"
        },
        "images": [],
        "link": "https://www.google.com/maps/place/Badabass+Masjid/data=!4m7!3m6!1s0x39728da87400eb8f:0x8ac62cd5a10c3a91!8m2!3d27.4301336!4d76.8116621!16s%2Fg%2F11fn0tlv35!19sChIJj-sAdKiNcjkRkToModUsxoo?authuser=0&hl=en&rclk=1",
        "coordinates": {
            "latitude": 27.430133599999998,
            "longitude": 76.81166209999999
        }
    },
    {
        "name": "Jama masjid (jaamaa msjid) bada Imambada Pahersar",
        "main_category": "Mosque",
        "address": "577P+WR2 Jama masjid (jaamaa msjid) bada Imambada Pahersar, Unnamed Road, Paharsar, Rajasthan 321602",
        "detailed_address": {
            "ward": null,
            "street": "577P+WR2, Unnamed Road",
            "city": "Paharsar",
            "postal_code": "321602",
            "state": "Rajasthan",
            "country_code": "IN"
        },
        "images": [
            {
                "about": "All",
                "link": "https://lh5.googleusercontent.com/p/AF1QipN-3NKVGIMNL2VbX6Pl47eCptlQNMf3329eDlyI=w224-h298-k-no"
            }
        ],
        "link": "https://www.google.com/maps/place/Jama+masjid+%28%E0%A4%9C%E0%A4%BE%E0%A4%AE%E0%A4%BE+%E0%A4%AE%E0%A4%B8%E0%A5%8D%E0%A4%9C%E0%A4%BF%E0%A4%A6%29+bada+Imambada+Pahersar/data=!4m7!3m6!1s0x3973afde38f14559:0x3b87e3e869e482a3!8m2!3d27.1647646!4d77.2870115!16s%2Fg%2F11j8z74gjf!19sChIJWUXxON6vczkRo4Lkaejjhzs?authuser=0&hl=en&rclk=1",
        "coordinates": {
            "latitude": 27.164764599999998,
            "longitude": 77.28701149999999
        }
    },
    {
        "name": "Masjid baas",
        "main_category": "Mosque",
        "address": "G4HV+MC3 Masjid baas, Bharatpur, Rajasthan 321024",
        "detailed_address": {
            "ward": null,
            "street": "G4HV+MC3",
            "city": "Bharatpur",
            "postal_code": null,
            "state": "Rajasthan",
            "country_code": "IN"
        },
        "images": [
            {
                "about": "All",
                "link": "https://lh5.googleusercontent.com/p/AF1QipPd84K1iwuV-FDpk5YhcW6h_dDAW6e0cbkw58jb=w397-h298-k-no"
            },
            {
                "about": "Videos",
                "link": "https://lh5.googleusercontent.com/p/AF1QipPVrGfBAnMox8lwe1eQN4HGrqsD9sH0xXgJAC2b=w224-h448-k-no"
            }
        ],
        "link": "https://www.google.com/maps/place/Masjid+baas/data=!4m7!3m6!1s0x3972e3ce5ddf3aff:0xf16732baa05201b4!8m2!3d27.5291392!4d77.1435399!16s%2Fg%2F11fjwzqhd5!19sChIJ_zrfXc7jcjkRtAFSoLoyZ_E?authuser=0&hl=en&rclk=1",
        "coordinates": {
            "latitude": 27.5291392,
            "longitude": 77.1435399
        }
    },
    {
        "name": "Aaisa masjid",
        "main_category": "Mosque",
        "address": "CVGW+MV5 Aaisa masjid, Kherli Chandrawat, Rajasthan 301021",
        "detailed_address": {
            "ward": null,
            "street": "CVGW+MV5",
            "city": "Kherli Chandrawat",
            "postal_code": null,
            "state": "Rajasthan",
            "country_code": "IN"
        },
        "images": [
            {
                "about": "All",
                "link": "https://lh5.googleusercontent.com/p/AF1QipNXw7Zt_b7uNzEs_3TGRY8S4v_3MqawT39XNjuf=w224-h510-k-no"
            }
        ],
        "link": "https://www.google.com/maps/place/Aaisa+masjid/data=!4m7!3m6!1s0x3972f3e76f45fd1f:0xa120e1ba7a35665!8m2!3d27.4266428!4d76.897236!16s%2Fg%2F11rktvcfsz!19sChIJH_1Fb-fzcjkRZVajpxsOEgo?authuser=0&hl=en&rclk=1",
        "coordinates": {
            "latitude": 27.4266428,
            "longitude": 76.89723599999999
        }
    },
    {
        "name": "Madina Masjid Jhantli",
        "main_category": "Mosque",
        "address": "H3XG+4C8 Madina Masjid Jhantli, Jhantli, Rajasthan 321024",
        "detailed_address": {
            "ward": null,
            "street": "H3XG+4C8",
            "city": "Jhantli",
            "postal_code": "321024",
            "state": "Rajasthan",
            "country_code": "IN"
        },
        "images": [
            {
                "about": "All",
                "link": "https://lh5.googleusercontent.com/p/AF1QipNdQtdZibLVkQZy8MgHG4xp81jNVJXSumUdtBA=w224-h301-k-no"
            },
            {
                "about": "Videos",
                "link": "https://lh5.googleusercontent.com/p/AF1QipOCt99PaSzJSf8Hi8vEwBsH_n41wKI6vw2fWMBb=w224-h398-k-no"
            }
        ],
        "link": "https://www.google.com/maps/place/Madina+Masjid+Jhantli/data=!4m7!3m6!1s0x3972e52db50166a3:0x78ebfcef03935698!8m2!3d27.5977764!4d77.0760756!16s%2Fg%2F11p0n22vkv!19sChIJo2YBtS3lcjkRmFaTA-_863g?authuser=0&hl=en&rclk=1",
        "coordinates": {
            "latitude": 27.597776399999997,
            "longitude": 77.0760756
        }
    },
    {
        "name": "Andhwadi Juma masjid",
        "main_category": "Mosque",
        "address": "M274+GHH Andhwadi Juma masjid, Jot Roohalla, Rajasthan 321204",
        "detailed_address": {
            "ward": null,
            "street": "M274+GHH",
            "city": "Jot Roohalla",
            "postal_code": "321204",
            "state": "Rajasthan",
            "country_code": "IN"
        },
        "images": [],
        "link": "https://www.google.com/maps/place/Andhwadi+Juma+masjid/data=!4m7!3m6!1s0x3972e99fbb0eb2df:0x779b777ee8c6fcd8!8m2!3d27.6638071!4d77.0064699!16s%2Fg%2F11rm_5dhfz!19sChIJ37IOu5_pcjkR2PzG6H53m3c?authuser=0&hl=en&rclk=1",
        "coordinates": {
            "latitude": 27.6638071,
            "longitude": 77.0064699
        }
    },
    {
        "name": "Madina masjid",
        "main_category": "Mosque",
        "address": "6F8R+H7J Madina masjid, Pai Bagh, Bharatpur, Rajasthan 321001",
        "detailed_address": {
            "ward": "Pai Bagh",
            "street": "6F8R+H7J",
            "city": "Bharatpur",
            "postal_code": "321001",
            "state": "Rajasthan",
            "country_code": "IN"
        },
        "images": [
            {
                "about": "All",
                "link": "https://lh5.googleusercontent.com/p/AF1QipPAblF8uIxGURsvSk4XBwMqs3zyoVP4rdHMWyMY=w224-h448-k-no"
            },
            {
                "about": "Dome",
                "link": "https://lh5.googleusercontent.com/p/AF1QipPSJ74C2l9Kq8nsjN3iphq-ga9EVq_5SVzn9Aso=w224-h448-k-no"
            }
        ],
        "link": "https://www.google.com/maps/place/Madina+masjid/data=!4m7!3m6!1s0x3973a3b0b9bdbc37:0x7b6dd2c1bb8dc28b!8m2!3d27.2164667!4d77.4906377!16s%2Fg%2F11l4wnky23!19sChIJN7y9ubCjczkRi8KNu8HSbXs?authuser=0&hl=en&rclk=1",
        "coordinates": {
            "latitude": 27.216466699999998,
            "longitude": 77.4906377
        }
    },
    {
        "name": "New masjid",
        "main_category": "Mosque",
        "address": "GXVG+WQR New masjid, Kherli Bahadar, Rajasthan 301604",
        "detailed_address": {
            "ward": null,
            "street": "GXVG+WQR",
            "city": "Kherli Bahadar",
            "postal_code": null,
            "state": "Rajasthan",
            "country_code": "IN"
        },
        "images": [
            {
                "about": "All",
                "link": "https://lh5.googleusercontent.com/p/AF1QipNvxU2gsKqpzJxsRS5rIWOIt6DyVQNScEFyn7UD=w224-h398-k-no"
            }
        ],
        "link": "https://www.google.com/maps/place/New+masjid/data=!4m7!3m6!1s0x3972ef68f0baa3d3:0x7df667323ba4c0e5!8m2!3d27.5448735!4d76.9768929!16s%2Fg%2F11jny9dm8k!19sChIJ06O68GjvcjkR5cCkOzJn9n0?authuser=0&hl=en&rclk=1",
        "coordinates": {
            "latitude": 27.544873499999998,
            "longitude": 76.9768929
        }
    },
    {
        "name": "moriivaale baabaa saiyd",
        "main_category": "Mosque",
        "address": "moriivaale baabaa saiyd, Patvari Ka Nagla, Kathoomar, Salimpur, Rajasthan 321606",
        "detailed_address": {
            "ward": null,
            "street": "Patvari Ka Nagla",
            "city": "Kathoomar, Salimpur",
            "postal_code": "321606",
            "state": "Rajasthan",
            "country_code": "IN"
        },
        "images": [
            {
                "about": "All",
                "link": "https://lh5.googleusercontent.com/p/AF1QipOhhzA919KGm4EYsfYeOPCMM4OLTvJHof-JXFyd=w529-h298-k-no"
            }
        ],
        "link": "https://www.google.com/maps/place/%E0%A4%AE%E0%A5%8B%E0%A4%B0%E0%A5%80%E0%A4%B5%E0%A4%BE%E0%A4%B2%E0%A5%87+%E0%A4%AC%E0%A4%BE%E0%A4%AC%E0%A4%BE+%E0%A4%B8%E0%A5%88%E0%A4%AF%E0%A4%A6/data=!4m7!3m6!1s0x397251eac7d56d8f:0x2388352ce823819a!8m2!3d27.2009315!4d77.0822397!16s%2Fg%2F11h84r8dzn!19sChIJj23Vx-pRcjkRmoEj6Cw1iCM?authuser=0&hl=en&rclk=1",
        "coordinates": {
            "latitude": 27.2009315,
            "longitude": 77.0822397
        }
    },
    {
        "name": "Badediya Wali Masjid",
        "main_category": "Mosque",
        "address": "M3JV+9XR Badediya Wali Masjid, Gadli, Bodoli, Rajasthan 321204",
        "detailed_address": {
            "ward": null,
            "street": "M3JV+9XR",
            "city": "Gadli, Bodoli",
            "postal_code": "321204",
            "state": "Rajasthan",
            "country_code": "IN"
        },
        "images": [],
        "link": "https://www.google.com/maps/place/Badediya+Wali+Masjid/data=!4m7!3m6!1s0x3972e7b9155d9f55:0x91bded1fd4c6d4dc!8m2!3d27.6809768!4d77.0948866!16s%2Fg%2F11ppwmyhlp!19sChIJVZ9dFbnncjkR3NTG1B_tvZE?authuser=0&hl=en&rclk=1",
        "coordinates": {
            "latitude": 27.6809768,
            "longitude": 77.0948866
        }
    },
    {
        "name": "Naiyyan ki Masjid",
        "main_category": "Mosque",
        "address": "R53F+X4C Naiyyan ki Masjid, Ghoseenga, Rajasthan 321023",
        "detailed_address": {
            "ward": null,
            "street": "R53F+X4C",
            "city": "Ghoseenga",
            "postal_code": null,
            "state": "Rajasthan",
            "country_code": "IN"
        },
        "images": [
            {
                "about": "All",
                "link": "https://lh5.googleusercontent.com/p/AF1QipOj93R8h1Hr0FxABnqkiM58T2meDuLU1hxGVfHZ=w327-h298-k-no"
            }
        ],
        "link": "https://www.google.com/maps/place/Naiyyan+ki+Masjid/data=!4m7!3m6!1s0x3972d9fb20a6099d:0xd96f7226e2f805f1!8m2!3d27.8049396!4d77.172758!16s%2Fg%2F11grsq6y_r!19sChIJnQmmIPvZcjkR8QX44iZyb9k?authuser=0&hl=en&rclk=1",
        "coordinates": {
            "latitude": 27.804939599999997,
            "longitude": 77.172758
        }
    },
    {
        "name": "ndbii",
        "main_category": "Place of worship",
        "address": "657W+W3M ndbii, Nadbai, Rajasthan 321602",
        "detailed_address": {
            "ward": null,
            "street": "657W+W3M",
            "city": "Nadbai",
            "postal_code": "321602",
            "state": "Rajasthan",
            "country_code": "IN"
        },
        "images": [
            {
                "about": "All",
                "link": "https://streetviewpixels-pa.googleapis.com/v1/thumbnail?panoid=BjOtW3SiGjTwoYGE4_-liw&cb_client=maps_sv.tactile.gps&w=224&h=298&yaw=148.45111&pitch=0&thumbfov=100"
            },
            {
                "about": "Street View & 360deg",
                "link": "https://streetviewpixels-pa.googleapis.com/v1/thumbnail?panoid=BjOtW3SiGjTwoYGE4_-liw&cb_client=maps_sv.tactile.gps&w=224&h=298&yaw=148.45111&pitch=0&thumbfov=100"
            }
        ],
        "link": "https://www.google.com/maps/place/%E0%A4%A8%E0%A4%A6%E0%A4%AC%E0%A4%88/data=!4m7!3m6!1s0x3973ad94276d999f:0x5a3cacc9b424d492!8m2!3d27.2148266!4d77.1951798!16s%2Fg%2F11sw01ykb8!19sChIJn5ltJ5StczkRktQktMmsPFo?authuser=0&hl=en&rclk=1",
        "coordinates": {
            "latitude": 27.2148266,
            "longitude": 77.19517979999999
        }
    },
    {
        "name": "Masjid",
        "main_category": "School",
        "address": "788G+79R Masjid, Punth, Nagla Moti, Rajasthan 321201",
        "detailed_address": {
            "ward": "Punth",
            "street": "788G+79R",
            "city": "Nagla Moti",
            "postal_code": "321201",
            "state": "Rajasthan",
            "country_code": "IN"
        },
        "images": [],
        "link": "https://www.google.com/maps/place/Masjid/data=!4m7!3m6!1s0x3973a9198c2777e7:0x5642532f08ce1005!8m2!3d27.2657278!4d77.3258919!16s%2Fg%2F11svk6ckjr!19sChIJ53cnjBmpczkRBRDOCC9TQlY?authuser=0&hl=en&rclk=1",
        "coordinates": {
            "latitude": 27.2657278,
            "longitude": 77.3258919
        }
    },
    {
        "name": "mokss dhaam dyaavlii",
        "main_category": "Mosque",
        "address": "479W+65V mokss dhaam dyaavlii, Dayawali, Rajasthan 321028",
        "detailed_address": {
            "ward": null,
            "street": "479W+65V",
            "city": "Dayawali",
            "postal_code": "321028",
            "state": "Rajasthan",
            "country_code": "IN"
        },
        "images": [],
        "link": "https://www.google.com/maps/place/%E0%A4%AE%E0%A5%8B%E0%A4%95%E0%A5%8D%E0%A4%B7+%E0%A4%A7%E0%A4%BE%E0%A4%AE+%E0%A4%A6%E0%A4%AF%E0%A4%BE%E0%A4%B5%E0%A4%B2%E0%A5%80/data=!4m7!3m6!1s0x3973b10a3d8eafcb:0xd0f9155f307b826b!8m2!3d27.1182464!4d77.2954621!16s%2Fg%2F11kb9d5dfm!19sChIJy6-OPQqxczkRa4J7MF8V-dA?authuser=0&hl=en&rclk=1",
        "coordinates": {
            "latitude": 27.1182464,
            "longitude": 77.2954621
        }
    },
    {
        "name": "Masjid",
        "main_category": "Mosque",
        "address": "Masjid, 63C, Main Road, Peesoo, Bhadaka, Rajasthan 321204",
        "detailed_address": {
            "ward": "Peesoo",
            "street": "63C, Main Road",
            "city": "Bhadaka",
            "postal_code": "321204",
            "state": "Rajasthan",
            "country_code": "IN"
        },
        "images": [
            {
                "about": "All",
                "link": "https://streetviewpixels-pa.googleapis.com/v1/thumbnail?panoid=PadBJJzcsTD46HA5jUKCNw&cb_client=maps_sv.tactile.gps&w=224&h=298&yaw=326.92795&pitch=0&thumbfov=100"
            },
            {
                "about": "Street View & 360deg",
                "link": "https://streetviewpixels-pa.googleapis.com/v1/thumbnail?panoid=PadBJJzcsTD46HA5jUKCNw&cb_client=maps_sv.tactile.gps&w=224&h=298&yaw=326.92795&pitch=0&thumbfov=100"
            }
        ],
        "link": "https://www.google.com/maps/place/Masjid/data=!4m7!3m6!1s0x3972e70374d4c929:0xb43326bf954ffba4!8m2!3d27.6519941!4d77.0865101!16s%2Fg%2F11qt2r5_y7!19sChIJKcnUdAPncjkRpPtPlb8mM7Q?authuser=0&hl=en&rclk=1",
        "coordinates": {
            "latitude": 27.6519941,
            "longitude": 77.0865101
        }
    },
    {
        "name": "Nadbai",
        "main_category": null,
        "address": "Nadbai, Rajasthan 321602",
        "detailed_address": {
            "ward": null,
            "street": null,
            "city": "Nadbai",
            "postal_code": null,
            "state": "Rajasthan",
            "country_code": "IN"
        },
        "images": [
            {
                "about": "All",
                "link": "https://lh5.googleusercontent.com/p/AF1QipPELRiKE5SWuw7gn5pr9SzY0tIkGFvzJuFfC_9V=w397-h298-k-no"
            }
        ],
        "link": "https://www.google.com/maps/place/Nadbai/data=!4m7!3m6!1s0x3973acb4bc5faf63:0x5482f97ec65bd9a2!8m2!3d27.2144024!4d77.2031493!16zL20vMDk4d2d6!19sChIJY69fvLSsczkRotlbxn75glQ?authuser=0&hl=en&rclk=1",
        "coordinates": {
            "latitude": 27.214402399999997,
            "longitude": 77.20314929999999
        }
    },
    {
        "name": "NAYA GANJ WARD NO 16 NADBAI",
        "main_category": "Hindu temple",
        "address": "6673+Q76 NAYA GANJ WARD NO 16 NADBAI, Nadbai, Rajasthan 321602",
        "detailed_address": {
            "ward": null,
            "street": "6673+Q76",
            "city": "Nadbai",
            "postal_code": "321602",
            "state": "Rajasthan",
            "country_code": "IN"
        },
        "images": [
            {
                "about": "All",
                "link": "https://streetviewpixels-pa.googleapis.com/v1/thumbnail?panoid=ZHTzGwqteAQ5jYN6RMS7dA&cb_client=maps_sv.tactile.gps&w=224&h=298&yaw=260.5695&pitch=0&thumbfov=100"
            },
            {
                "about": "Street View & 360deg",
                "link": "https://streetviewpixels-pa.googleapis.com/v1/thumbnail?panoid=ZHTzGwqteAQ5jYN6RMS7dA&cb_client=maps_sv.tactile.gps&w=224&h=298&yaw=260.5695&pitch=0&thumbfov=100"
            }
        ],
        "link": "https://www.google.com/maps/place/NAYA+GANJ+WARD+NO+16+NADBAI/data=!4m7!3m6!1s0x3973ad7d6d02963f:0xbb837de2f432c7e4!8m2!3d27.2144024!4d77.2031493!16s%2Fg%2F11tp761zvb!19sChIJP5YCbX2tczkR5Mcy9OJ9g7s?authuser=0&hl=en&rclk=1",
        "coordinates": {
            "latitude": 27.214402399999997,
            "longitude": 77.20314929999999
        }
    }
]