[
    {
        "name": "Bashiran Masjid",
        "main_category": "Mosque",
        "address": "2WH2+972 Bashiran Masjid, Barwani, Madhya Pradesh 451551",
        "detailed_address": {
            "ward": null,
            "street": "2WH2+972",
            "city": "Barwani",
            "postal_code": "451551",
            "state": "Madhya Pradesh",
            "country_code": "IN"
        },
        "images": [
            {
                "about": "All",
                "link": "https://lh5.googleusercontent.com/p/AF1QipNAYljOrT50Gv5HEMahWyM4GWzzpHgSGYlJUFRe=w533-h298-k-no"
            },
            {
                "about": "Street View & 360deg",
                "link": "https://streetviewpixels-pa.googleapis.com/v1/thumbnail?panoid=k7ulI9EntwA3SHqzahKIUQ&cb_client=maps_sv.tactile.gps&w=224&h=298&yaw=8.434424&pitch=0&thumbfov=100"
            },
            {
                "about": "Videos",
                "link": "https://lh5.googleusercontent.com/p/AF1QipO0R6kQg-mZQMxKtKpsUVJgaRX8mD94xclERm7C=w224-h398-k-no"
            }
        ],
        "link": "https://www.google.com/maps/place/Bashiran+Masjid/data=!4m7!3m6!1s0x3961f93e4c7ae18b:0xda3494cac7de30af!8m2!3d22.0283952!4d74.9006331!16s%2Fg%2F11fx679tmb!19sChIJi-F6TD75YTkRrzDex8qUNNo?authuser=0&hl=en&rclk=1",
        "coordinates": {
            "latitude": 22.0283952,
            "longitude": 74.9006331
        }
    },
    {
        "name": "Saify Mosque",
        "main_category": "Mosque",
        "address": "2VJW+5FH Saify Mosque, Bohra Mohalla, Barwani, Madhya Pradesh 451551",
        "detailed_address": {
            "ward": "Bohrawari",
            "street": "2VJW+5FH, Bohra Mohalla",
            "city": "Barwani",
            "postal_code": "451551",
            "state": "Madhya Pradesh",
            "country_code": "IN"
        },
        "images": [],
        "link": "https://www.google.com/maps/place/Saify+Mosque/data=!4m7!3m6!1s0x3961f96aa31de847:0x39d32f887369e93b!8m2!3d22.0304453!4d74.8962189!16s%2Fg%2F11bwq97gmb!19sChIJR-gdo2r5YTkRO-lpc4gv0zk?authuser=0&hl=en&rclk=1",
        "coordinates": {
            "latitude": 22.0304453,
            "longitude": 74.8962189
        }
    },
    {
        "name": "Sahi Masjid",
        "main_category": "Mosque",
        "address": "Sahi Masjid, 15, Subhash Marg, Jwahar Ward, Ranipura, Barwani, Madhya Pradesh 451551",
        "detailed_address": {
            "ward": "Jwahar Ward, Ranipura",
            "street": "15, Subhash Marg",
            "city": "Barwani",
            "postal_code": "451551",
            "state": "Madhya Pradesh",
            "country_code": "IN"
        },
        "images": [
            {
                "about": "All",
                "link": "https://streetviewpixels-pa.googleapis.com/v1/thumbnail?panoid=wwt6FfwG6WTGvrlObahbOA&cb_client=maps_sv.tactile.gps&w=224&h=298&yaw=216.1922&pitch=0&thumbfov=100"
            },
            {
                "about": "Street View & 360deg",
                "link": "https://streetviewpixels-pa.googleapis.com/v1/thumbnail?panoid=wwt6FfwG6WTGvrlObahbOA&cb_client=maps_sv.tactile.gps&w=224&h=298&yaw=216.1922&pitch=0&thumbfov=100"
            }
        ],
        "link": "https://www.google.com/maps/place/Sahi+Masjid/data=!4m7!3m6!1s0x3961f96ba999e133:0x1f5a307223dd5c3c!8m2!3d22.0330099!4d74.8944308!16s%2Fg%2F11d_5mvms0!19sChIJM-GZqWv5YTkRPFzdI3IwWh8?authuser=0&hl=en&rclk=1",
        "coordinates": {
            "latitude": 22.0330099,
            "longitude": 74.8944308
        }
    },
    {
        "name": "Kadimi Masjid",
        "main_category": "Mosque",
        "address": "2VJX+H6C Kadimi Masjid, Barwani, Madhya Pradesh 451551",
        "detailed_address": {
            "ward": null,
            "street": "2VJX+H6C",
            "city": "Barwani",
            "postal_code": "451551",
            "state": "Madhya Pradesh",
            "country_code": "IN"
        },
        "images": [
            {
                "about": "All",
                "link": "https://lh5.googleusercontent.com/p/AF1QipOEI75eSz-heNAzJz9Q-yYp1sKtOJRlUuD58YAH=w224-h298-k-no"
            },
            {
                "about": "Street View & 360deg",
                "link": "https://streetviewpixels-pa.googleapis.com/v1/thumbnail?panoid=6tbF0gxJooRFlp--JNFUHA&cb_client=maps_sv.tactile.gps&w=224&h=298&yaw=19.718634&pitch=0&thumbfov=100"
            }
        ],
        "link": "https://www.google.com/maps/place/Kadimi+Masjid/data=!4m7!3m6!1s0x3961f91549d0e67f:0x911a8081a82a9ac6!8m2!3d22.0314264!4d74.8980042!16s%2Fg%2F11g8sqfdvh!19sChIJf-bQSRX5YTkRxpoqqIGAGpE?authuser=0&hl=en&rclk=1",
        "coordinates": {
            "latitude": 22.031426399999997,
            "longitude": 74.8980042
        }
    },
    {
        "name": "Usmania Masjid",
        "main_category": "Mosque",
        "address": "2VGW+X7Q Usmania Masjid, Sneh Nagar Colony, Barwani, Madhya Pradesh 451551",
        "detailed_address": {
            "ward": "Sneh Nagar Colony",
            "street": "2VGW+X7Q",
            "city": "Barwani",
            "postal_code": "451551",
            "state": "Madhya Pradesh",
            "country_code": "IN"
        },
        "images": [
            {
                "about": "All",
                "link": "https://lh5.googleusercontent.com/p/AF1QipNmucE9VCbvsAqSR88PPt32znuFFZlewJlBJ-JT=w224-h298-k-no"
            },
            {
                "about": "Dome",
                "link": "https://lh5.googleusercontent.com/p/AF1QipNmucE9VCbvsAqSR88PPt32znuFFZlewJlBJ-JT=w224-h298-k-no"
            }
        ],
        "link": "https://www.google.com/maps/place/Usmania+Masjid/data=!4m7!3m6!1s0x3961f94058555555:0x735e4a071a17e461!8m2!3d22.0274684!4d74.8957324!16s%2Fg%2F11dzv44mkt!19sChIJVVVVWED5YTkRYeQXGgdKXnM?authuser=0&hl=en&rclk=1",
        "coordinates": {
            "latitude": 22.0274684,
            "longitude": 74.8957324
        }
    },
    {
        "name": "Eidgah",
        "main_category": "Mosque",
        "address": "2VHQ+7Q7 Eidgah, Barwani, Madhya Pradesh 451551",
        "detailed_address": {
            "ward": null,
            "street": "2VHQ+7Q7",
            "city": "Barwani",
            "postal_code": "451551",
            "state": "Madhya Pradesh",
            "country_code": "IN"
        },
        "images": [
            {
                "about": "All",
                "link": "https://streetviewpixels-pa.googleapis.com/v1/thumbnail?panoid=Zv9hnij0eyF-t096nGBtMA&cb_client=maps_sv.tactile.gps&w=224&h=298&yaw=134.1438&pitch=0&thumbfov=100"
            },
            {
                "about": "Street View & 360deg",
                "link": "https://streetviewpixels-pa.googleapis.com/v1/thumbnail?panoid=Zv9hnij0eyF-t096nGBtMA&cb_client=maps_sv.tactile.gps&w=224&h=298&yaw=134.1438&pitch=0&thumbfov=100"
            }
        ],
        "link": "https://www.google.com/maps/place/Eidgah/data=!4m7!3m6!1s0x3961f94265f039a9:0x2bd30f3808797e2a!8m2!3d22.0281603!4d74.8894124!16s%2Fg%2F11fx68vp_8!19sChIJqTnwZUL5YTkRKn55CDgP0ys?authuser=0&hl=en&rclk=1",
        "coordinates": {
            "latitude": 22.0281603,
            "longitude": 74.8894124
        }
    },
    {
        "name": "Saood Masjid",
        "main_category": "Mosque",
        "address": "2VQX+V62 Saood Masjid, Barwani, Madhya Pradesh 451551",
        "detailed_address": {
            "ward": null,
            "street": "2VQX+V62",
            "city": "Barwani",
            "postal_code": "451551",
            "state": "Madhya Pradesh",
            "country_code": "IN"
        },
        "images": [],
        "link": "https://www.google.com/maps/place/Saood+Masjid/data=!4m7!3m6!1s0x3961f912c6eac71f:0xbda6d443c5d6634a!8m2!3d22.0396308!4d74.8980297!16s%2Fg%2F11fx3zp6qt!19sChIJH8fqxhL5YTkRSmPWxUPUpr0?authuser=0&hl=en&rclk=1",
        "coordinates": {
            "latitude": 22.039630799999998,
            "longitude": 74.8980297
        }
    },
    {
        "name": "Mohammedi Marqaz masjid",
        "main_category": "Mosque",
        "address": "2VMW+W98 Mohammedi Marqaz masjid, Neminath Nagar, Barwani, Madhya Pradesh 451551",
        "detailed_address": {
            "ward": "Neminath Nagar",
            "street": "2VMW+W98",
            "city": "Barwani",
            "postal_code": "451551",
            "state": "Madhya Pradesh",
            "country_code": "IN"
        },
        "images": [
            {
                "about": "All",
                "link": "https://streetviewpixels-pa.googleapis.com/v1/thumbnail?panoid=NSYS9ehbEFxIZ-9TDvvxdQ&cb_client=maps_sv.tactile.gps&w=224&h=298&yaw=148.91841&pitch=0&thumbfov=100"
            },
            {
                "about": "Street View & 360deg",
                "link": "https://streetviewpixels-pa.googleapis.com/v1/thumbnail?panoid=NSYS9ehbEFxIZ-9TDvvxdQ&cb_client=maps_sv.tactile.gps&w=224&h=298&yaw=148.91841&pitch=0&thumbfov=100"
            }
        ],
        "link": "https://www.google.com/maps/place/Mohammedi+Marqaz+masjid/data=!4m7!3m6!1s0x3961f9f855b2e273:0xf33ecc78ede8ee9!8m2!3d22.0347946!4d74.8959594!16s%2Fg%2F11fstmm8vj!19sChIJc-KyVfj5YTkR6Y7ejsfsMw8?authuser=0&hl=en&rclk=1",
        "coordinates": {
            "latitude": 22.034794599999998,
            "longitude": 74.8959594
        }
    },
    {
        "name": "Ezzi Masjid",
        "main_category": "Mosque",
        "address": "Ezzi Masjid, 174, Devi Singh Marg, Barwani, Madhya Pradesh 451551",
        "detailed_address": {
            "ward": null,
            "street": "174, Devi Singh Marg",
            "city": "Barwani",
            "postal_code": "451551",
            "state": "Madhya Pradesh",
            "country_code": "IN"
        },
        "images": [
            {
                "about": "All",
                "link": "https://lh5.googleusercontent.com/p/AF1QipO0eZNBRUx8lEafLkEqXNGWtlZ2AIwh4dCDGluW=w224-h298-k-no"
            },
            {
                "about": "Street View & 360deg",
                "link": "https://streetviewpixels-pa.googleapis.com/v1/thumbnail?panoid=VrI7jAZ_EXHLqVYaGnudKg&cb_client=maps_sv.tactile.gps&w=224&h=298&yaw=178.4553&pitch=0&thumbfov=100"
            }
        ],
        "link": "https://www.google.com/maps/place/Ezzi+Masjid/data=!4m7!3m6!1s0x3961f9d7e7d7ad79:0xf74fd7cee47868de!8m2!3d22.0289705!4d74.8949431!16s%2Fg%2F11t_vjklc_!19sChIJea3X59f5YTkR3mh45M7XT_c?authuser=0&hl=en&rclk=1",
        "coordinates": {
            "latitude": 22.0289705,
            "longitude": 74.89494309999999
        }
    },
    {
        "name": "Zama Masjid",
        "main_category": "School",
        "address": "Zama Masjid, 187, MG Rd, Old Itwariya Bazar, Barwani, Madhya Pradesh 451551",
        "detailed_address": {
            "ward": "Old Itwariya Bazar",
            "street": "187, MG Rd",
            "city": "Barwani",
            "postal_code": "451551",
            "state": "Madhya Pradesh",
            "country_code": "IN"
        },
        "images": [
            {
                "about": "All",
                "link": "https://streetviewpixels-pa.googleapis.com/v1/thumbnail?panoid=bKN0ZiDl4ZkHxQHZCXJf0w&cb_client=maps_sv.tactile.gps&w=224&h=298&yaw=52.86577&pitch=0&thumbfov=100"
            },
            {
                "about": "Building",
                "link": "https://lh5.googleusercontent.com/p/AF1QipPDunuj9TwzYmWmPjh9r5Q4miTBSL0xGkLxdM98=w224-h298-k-no"
            },
            {
                "about": "Street View & 360deg",
                "link": "https://streetviewpixels-pa.googleapis.com/v1/thumbnail?panoid=bKN0ZiDl4ZkHxQHZCXJf0w&cb_client=maps_sv.tactile.gps&w=224&h=298&yaw=52.86577&pitch=0&thumbfov=100"
            }
        ],
        "link": "https://www.google.com/maps/place/Zama+Masjid/data=!4m7!3m6!1s0x3961f91507eb2f67:0xda4f9068e2f49671!8m2!3d22.0324364!4d74.8999814!16s%2Fg%2F11c6_jxqvc!19sChIJZy_rBxX5YTkRcZb04miQT9o?authuser=0&hl=en&rclk=1",
        "coordinates": {
            "latitude": 22.032436399999998,
            "longitude": 74.8999814
        }
    },
    {
        "name": "Najmi Masjid",
        "main_category": "Place of worship",
        "address": "Najmi Masjid, 15, Subhash Marg, Bohrawari, Barwani, Madhya Pradesh 451551",
        "detailed_address": {
            "ward": "Bohrawari",
            "street": "15, Subhash Marg",
            "city": "Barwani",
            "postal_code": "451551",
            "state": "Madhya Pradesh",
            "country_code": "IN"
        },
        "images": [
            {
                "about": "All",
                "link": "https://streetviewpixels-pa.googleapis.com/v1/thumbnail?panoid=07FctV631J1Ge2mvtgCg6g&cb_client=maps_sv.tactile.gps&w=224&h=298&yaw=200.46234&pitch=0&thumbfov=100"
            },
            {
                "about": "Street View & 360deg",
                "link": "https://streetviewpixels-pa.googleapis.com/v1/thumbnail?panoid=07FctV631J1Ge2mvtgCg6g&cb_client=maps_sv.tactile.gps&w=224&h=298&yaw=200.46234&pitch=0&thumbfov=100"
            }
        ],
        "link": "https://www.google.com/maps/place/Najmi+Masjid/data=!4m7!3m6!1s0x3961f937c6eadde1:0x950c0ac8dd761310!8m2!3d22.0315476!4d74.8962433!16s%2Fg%2F11st83w4_2!19sChIJ4d3qxjf5YTkREBN23cgKDJU?authuser=0&hl=en&rclk=1",
        "coordinates": {
            "latitude": 22.0315476,
            "longitude": 74.8962433
        }
    },
    {
        "name": "Chandshah Wali Dargah",
        "main_category": "Mosque",
        "address": "Chandshah Wali Dargah, E-27, Neminath Nagar, Barwani, Madhya Pradesh 452001",
        "detailed_address": {
            "ward": "Neminath Nagar",
            "street": "E-27",
            "city": "Barwani",
            "postal_code": "452001",
            "state": "Madhya Pradesh",
            "country_code": "IN"
        },
        "images": [
            {
                "about": "All",
                "link": "https://streetviewpixels-pa.googleapis.com/v1/thumbnail?panoid=1qlm2qQZV061jS3LrEdMaA&cb_client=maps_sv.tactile.gps&w=224&h=298&yaw=164.61084&pitch=0&thumbfov=100"
            },
            {
                "about": "Street View & 360deg",
                "link": "https://streetviewpixels-pa.googleapis.com/v1/thumbnail?panoid=1qlm2qQZV061jS3LrEdMaA&cb_client=maps_sv.tactile.gps&w=224&h=298&yaw=164.61084&pitch=0&thumbfov=100"
            }
        ],
        "link": "https://www.google.com/maps/place/Chandshah+Wali+Dargah/data=!4m7!3m6!1s0x3961f96b2225e3c1:0x9192e7e27064b021!8m2!3d22.033156!4d74.8961453!16s%2Fg%2F11d_3l0wx5!19sChIJweMlImv5YTkRIbBkcOLnkpE?authuser=0&hl=en&rclk=1",
        "coordinates": {
            "latitude": 22.033155999999998,
            "longitude": 74.8961453
        }
    },
    {
        "name": "Jama Masjid, MASJID MOHALLAH",
        "main_category": "School",
        "address": "2WQ5+F6H Jama Masjid, MASJID MOHALLAH, Ashagram Rd, Barwani, Madhya Pradesh 451551",
        "detailed_address": {
            "ward": null,
            "street": "2WQ5+F6H, Ashagram Rd",
            "city": "Barwani",
            "postal_code": "451551",
            "state": "Madhya Pradesh",
            "country_code": "IN"
        },
        "images": [
            {
                "about": "All",
                "link": "https://streetviewpixels-pa.googleapis.com/v1/thumbnail?panoid=Fl1i2_HTyOJdrahCzHKpvg&cb_client=maps_sv.tactile.gps&w=224&h=298&yaw=124.893036&pitch=0&thumbfov=100"
            },
            {
                "about": "Street View & 360deg",
                "link": "https://streetviewpixels-pa.googleapis.com/v1/thumbnail?panoid=Fl1i2_HTyOJdrahCzHKpvg&cb_client=maps_sv.tactile.gps&w=224&h=298&yaw=124.893036&pitch=0&thumbfov=100"
            }
        ],
        "link": "https://www.google.com/maps/place/Jama+Masjid,+MASJID+MOHALLAH/data=!4m7!3m6!1s0x3961f9db0d448663:0x262120f70b3bd473!8m2!3d22.0386882!4d74.9081243!16s%2Fg%2F11h2n7nyv2!19sChIJY4ZEDdv5YTkRc9Q7C_cgISY?authuser=0&hl=en&rclk=1",
        "coordinates": {
            "latitude": 22.0386882,
            "longitude": 74.9081243
        }
    }
]