[
    {
        "name": "Jama Masjid Chaibasa - Tablighi Jamaat (Sunni Hanafi)",
        "main_category": "Mosque",
        "address": "HR42+VQ7 Jama Masjid Chaibasa - Tablighi Jamaat (Sunni Hanafi), Bari bazar Bridge, Masjid Mohalla, Muslim Basti, Chaibasa, Jharkhand 833201",
        "detailed_address": {
            "ward": "Masjid Mohalla, Muslim Basti",
            "street": "HR42+VQ7, Bari bazar Bridge",
            "city": "Chaibasa",
            "postal_code": "833201",
            "state": "Jharkhand",
            "country_code": "IN"
        },
        "images": [
            {
                "about": "All",
                "link": "https://lh5.googleusercontent.com/p/AF1QipO8oI8H6OwLaTyD18-hrpiS6xb5isphhBaeKVtf=w541-h298-k-no"
            },
            {
                "about": "Latest",
                "link": "https://lh5.googleusercontent.com/p/AF1QipPRvrGTbHwPGisYjoVsJHgW4ER2Uv91jeN2gI38=w296-h298-k-no"
            },
            {
                "about": "Videos",
                "link": "https://lh5.googleusercontent.com/p/AF1QipPLQl-N6MFgFEMUFkl2MnE4gRSsmjcw1DsRTYGK=w224-h407-k-no"
            },
            {
                "about": "Dome",
                "link": "https://lh5.googleusercontent.com/p/AF1QipNCbjrj0YtW98Oe-y829zNiJWHRqwiods9SY50x=w298-h298-k-no"
            },
            {
                "about": "Street View & 360deg",
                "link": "https://streetviewpixels-pa.googleapis.com/v1/thumbnail?panoid=3i4PHmqFwcbWF0B7bjpGaw&cb_client=maps_sv.tactile.gps&w=224&h=298&yaw=57.429535&pitch=0&thumbfov=100"
            }
        ],
        "link": "https://www.google.com/maps/place/Jama+Masjid+Chaibasa+-+Tablighi+Jamaat+%28Sunni+Hanafi%29/data=!4m7!3m6!1s0x3a1e27847018354f:0xc10327d807a0689b!8m2!3d22.557168!4d85.8019322!16s%2Fg%2F11clthv_0w!19sChIJTzUYcIQnHjoRm2igB9gnA8E?authuser=0&hl=en&rclk=1",
        "coordinates": {
            "latitude": 22.557167999999997,
            "longitude": 85.8019322
        }
    },
    {
        "name": "Sadar Bazar Masjid - Tablighi Jamaat (Sunni Hanafi)",
        "main_category": "Mosque",
        "address": "GRX4+J88 Sadar Bazar Masjid - Tablighi Jamaat (Sunni Hanafi), NH 75, Sadar Bazaar, Chaibasa, Jharkhand 833201",
        "detailed_address": {
            "ward": "Sadar Bazaar",
            "street": "GRX4+J88, NH 75",
            "city": "Chaibasa",
            "postal_code": "833201",
            "state": "Jharkhand",
            "country_code": "IN"
        },
        "images": [
            {
                "about": "All",
                "link": "https://lh5.googleusercontent.com/p/AF1QipO2oJ23xdUFMNvMonCHzcl2cAE9PqBWSTJo_11l=w398-h298-k-no"
            },
            {
                "about": "Street View & 360deg",
                "link": "https://streetviewpixels-pa.googleapis.com/v1/thumbnail?panoid=o1iLUJxsig5O47VKH0RDHQ&cb_client=maps_sv.tactile.gps&w=224&h=298&yaw=115.08939&pitch=0&thumbfov=100"
            }
        ],
        "link": "https://www.google.com/maps/place/Sadar+Bazar+Masjid+-+Tablighi+Jamaat+%28Sunni+Hanafi%29/data=!4m7!3m6!1s0x3a1e279db8631973:0xe76a8da9b6753c55!8m2!3d22.5490327!4d85.8058357!16s%2Fg%2F11h0nx85j!19sChIJcxljuJ0nHjoRVTx1tqmNauc?authuser=0&hl=en&rclk=1",
        "coordinates": {
            "latitude": 22.549032699999998,
            "longitude": 85.8058357
        }
    },
    {
        "name": "Madina Masjid - Sunni Hanafi",
        "main_category": "Mosque",
        "address": "HR42+4X6 Madina Masjid - Sunni Hanafi, Sentola, Chaibasa, Jharkhand 833201",
        "detailed_address": {
            "ward": "Sentola",
            "street": "HR42+4X6",
            "city": "Chaibasa",
            "postal_code": "833201",
            "state": "Jharkhand",
            "country_code": "IN"
        },
        "images": [
            {
                "about": "All",
                "link": "https://lh5.googleusercontent.com/p/AF1QipN0tbB6Y4a7G_4DQ4OhsIf6JJe8ek3Sfz2fI6Sl=w224-h398-k-no"
            },
            {
                "about": "Street View & 360deg",
                "link": "https://streetviewpixels-pa.googleapis.com/v1/thumbnail?panoid=50ep_uah9CTOUWD9m3ppeQ&cb_client=maps_sv.tactile.gps&w=224&h=298&yaw=135.32994&pitch=0&thumbfov=100"
            }
        ],
        "link": "https://www.google.com/maps/place/Madina+Masjid+-+Sunni+Hanafi/data=!4m7!3m6!1s0x3a1e27849c36c375:0xa5896bafc3fec5c4!8m2!3d22.5552925!4d85.8024059!16s%2Fg%2F11hd05w3s1!19sChIJdcM2nIQnHjoRxMX-w69riaU?authuser=0&hl=en&rclk=1",
        "coordinates": {
            "latitude": 22.5552925,
            "longitude": 85.8024059
        }
    },
    {
        "name": "Asra Masjid - Sunni Hanafi",
        "main_category": "Mosque",
        "address": "HQ5X+2PJ Asra Masjid - Sunni Hanafi, Bari bazar Bridge, Chaibasa, Jharkhand 833201",
        "detailed_address": {
            "ward": null,
            "street": "HQ5X+2PJ, Bari bazar Bridge",
            "city": "Chaibasa",
            "postal_code": "833201",
            "state": "Jharkhand",
            "country_code": "IN"
        },
        "images": [],
        "link": "https://www.google.com/maps/place/Asra+Masjid+-+Sunni+Hanafi/data=!4m7!3m6!1s0x3a1e2785b8d9bcf3:0x3bf2281d40b9ce05!8m2!3d22.5575968!4d85.7992547!16s%2Fg%2F11dymqvk7w!19sChIJ87zZuIUnHjoRBc65QB0o8js?authuser=0&hl=en&rclk=1",
        "coordinates": {
            "latitude": 22.5575968,
            "longitude": 85.79925469999999
        }
    },
    {
        "name": "Masjid and Madarsa Rahmania - Tablighi Jamaat (Sunni Hanafi)",
        "main_category": "Mosque",
        "address": "HQ4X+5FG Masjid and Madarsa Rahmania - Tablighi Jamaat (Sunni Hanafi), Chaibasa, Jharkhand 833201",
        "detailed_address": {
            "ward": null,
            "street": "HQ4X+5FG",
            "city": "Chaibasa",
            "postal_code": "833201",
            "state": "Jharkhand",
            "country_code": "IN"
        },
        "images": [],
        "link": "https://www.google.com/maps/place/Masjid+and+Madarsa+Rahmania+-+Tablighi+Jamaat+%28Sunni+Hanafi%29/data=!4m7!3m6!1s0x3a1e27f434b0bb6d:0xa000d8f75dcee29c!8m2!3d22.5554309!4d85.7987049!16s%2Fg%2F11g0s7sj69!19sChIJbbuwNPQnHjoRnOLOXffYAKA?authuser=0&hl=en&rclk=1",
        "coordinates": {
            "latitude": 22.555430899999998,
            "longitude": 85.79870489999999
        }
    },
    {
        "name": "Muslim Eidgah Chaibasa",
        "main_category": "Mosque",
        "address": "GQXW+FFJ Muslim Eidgah Chaibasa, Chaibasa, Jharkhand 833201",
        "detailed_address": {
            "ward": null,
            "street": "GQXW+FFJ",
            "city": "Chaibasa",
            "postal_code": "833201",
            "state": "Jharkhand",
            "country_code": "IN"
        },
        "images": [],
        "link": "https://www.google.com/maps/place/Muslim+Eidgah+Chaibasa/data=!4m7!3m6!1s0x3a1e274805704763:0xdbc1a2e2040238f3!8m2!3d22.5485642!4d85.7961778!16s%2Fg%2F11sbvv6zdv!19sChIJY0dwBUgnHjoR8zgCBOKiwds?authuser=0&hl=en&rclk=1",
        "coordinates": {
            "latitude": 22.548564199999998,
            "longitude": 85.7961778
        }
    }
]