[
    {
        "name": "Jamia Masjid Bilal Jandiala",
        "main_category": "Mosque",
        "address": "9WVC+R8V Jamia Masjid Bilal Jandiala, Jandiala, Narowal, Punjab, Pakistan",
        "detailed_address": {
            "ward": null,
            "street": "9WVC+R8V",
            "city": "Jandiala",
            "postal_code": null,
            "state": "Narowal, Punjab",
            "country_code": "PK"
        },
        "images": [
            {
                "about": "All",
                "link": "https://lh5.googleusercontent.com/p/AF1QipOAlGBrhhPjve82UHEuURIojOuU7I1mqo2WmGc5=w224-h495-k-no"
            }
        ],
        "link": "https://www.google.com/maps/place/Jamia+Masjid+Bilal+Jandiala/data=!4m7!3m6!1s0x391ea70f33f46967:0x2bd1d54de612bdeb!8m2!3d32.3946172!4d74.9207927!16s%2Fg%2F11f7r653c8!19sChIJZ2n0Mw-nHjkR670S5k3V0Ss?authuser=0&hl=en&rclk=1",
        "coordinates": {
            "latitude": 32.3946172,
            "longitude": 74.92079269999999
        }
    },
    {
        "name": "Jama Masjid Jandiala",
        "main_category": "Mosque",
        "address": "5J69+64Q Jama Masjid Jandiala, Unnamed Road, Jandiala Manjki, Punjab 144033",
        "detailed_address": {
            "ward": null,
            "street": "5J69+64Q, Unnamed Road",
            "city": "Jandiala Manjki",
            "postal_code": "144033",
            "state": "Punjab",
            "country_code": "IN"
        },
        "images": [
            {
                "about": "All",
                "link": "https://lh5.googleusercontent.com/p/AF1QipN5k8zD5303bRDtjC9Ifx1fA-6WGPYrkT-hO9Me=w224-h407-k-no"
            },
            {
                "about": "Videos",
                "link": "https://lh5.googleusercontent.com/p/AF1QipNUvm9yDTj9hdxqE89wj5-LUDvkQrpjPEmQibZT=w541-h298-k-no"
            }
        ],
        "link": "https://www.google.com/maps/place/Jama+Masjid+Jandiala/data=!4m7!3m6!1s0x391a671a2c7ef1af:0xc0b14df82b17c8e4!8m2!3d31.1605941!4d75.6178604!16s%2Fg%2F11h7f3zl9_!19sChIJr_F-LBpnGjkR5MgXK_hNscA?authuser=0&hl=en&rclk=1",
        "coordinates": {
            "latitude": 31.160594099999997,
            "longitude": 75.6178604
        }
    },
    {
        "name": "Massed",
        "main_category": "Mosque",
        "address": "H26G+F2 Massed, Jandiala Guru, Jandiala, Punjab 143115",
        "detailed_address": {
            "ward": null,
            "street": "H26G+F2",
            "city": "Jandiala Guru, Jandiala",
            "postal_code": null,
            "state": "Punjab",
            "country_code": "IN"
        },
        "images": [],
        "link": "https://www.google.com/maps/place/Massed/data=!4m7!3m6!1s0x391bd78d07a19b4d:0xac7bf7ece8ae1160!8m2!3d31.5612352!4d75.0251144!16s%2Fg%2F11sq13c8yq!19sChIJTZuhB43XGzkRYBGu6Oz3e6w?authuser=0&hl=en&rclk=1",
        "coordinates": {
            "latitude": 31.5612352,
            "longitude": 75.02511439999999
        }
    },
    {
        "name": "MASJID.HUZAIFA",
        "main_category": "Housing society",
        "address": "5J45+G6 MASJID.HUZAIFA, Jandiala Manjki, Punjab 144033",
        "detailed_address": {
            "ward": null,
            "street": "5J45+G6",
            "city": "Jandiala Manjki",
            "postal_code": null,
            "state": "Punjab",
            "country_code": "IN"
        },
        "images": [
            {
                "about": "All",
                "link": "https://lh5.googleusercontent.com/p/AF1QipOJRiE_RamKIcL8-wOS4eE4M23jgd5-TXNP5Xfr=w445-h298-k-no"
            }
        ],
        "link": "https://www.google.com/maps/place/MASJID.HUZAIFA/data=!4m7!3m6!1s0x391a674452d11013:0x4cd4adcd5d0a14a6!8m2!3d31.15632!4d75.6081237!16s%2Fg%2F11kb1xhhl6!19sChIJExDRUkRnGjkRphQKXc2t1Ew?authuser=0&hl=en&rclk=1",
        "coordinates": {
            "latitude": 31.156319999999997,
            "longitude": 75.6081237
        }
    }
]