[
    {
        "name": "Shahi Jama Masjid",
        "main_category": "Mosque",
        "address": "7327+R5R Shahi Jama Masjid, Thakur Wara, Sohna, Sohna Rural, Haryana 122103",
        "detailed_address": {
            "ward": "Thakur Wara",
            "street": "7327+R5R",
            "city": "Sohna, Sohna Rural",
            "postal_code": "122103",
            "state": "Haryana",
            "country_code": "IN"
        },
        "images": [
            {
                "about": "All",
                "link": "https://lh5.googleusercontent.com/p/AF1QipPb_NgCjOtkZWGH2WsBuEMweTnk4mwg6VIvQcFf=w298-h298-k-no"
            },
            {
                "about": "Dome",
                "link": "https://lh5.googleusercontent.com/p/AF1QipPODL2kKhmeI64QR8AfeVqDJu0wa7KF-RJ8nKDW=w397-h298-k-no"
            }
        ],
        "link": "https://www.google.com/maps/place/Shahi+Jama+Masjid/data=!4m7!3m6!1s0x390d2584afde1bfb:0x4cf30cce79ae11ef!8m2!3d28.2521167!4d77.0629039!16s%2Fg%2F11c53d9hdg!19sChIJ-xver4QlDTkR7xGuec4M80w?authuser=0&hl=en&rclk=1",
        "coordinates": {
            "latitude": 28.2521167,
            "longitude": 77.0629039
        }
    },
    {
        "name": "Shahi Jama Masjid",
        "main_category": "Mosque",
        "address": "63H7+8XM Shahi Jama Masjid, Alwar Road, Near Rajiv Gandhi Park, Sohna, Haryana 122103",
        "detailed_address": {
            "ward": null,
            "street": "63H7+8XM, Alwar Road, Near Rajiv Gandhi Park",
            "city": "Sohna, Raipur",
            "postal_code": "122103",
            "state": "Haryana",
            "country_code": "IN"
        },
        "images": [
            {
                "about": "All",
                "link": "https://lh5.googleusercontent.com/p/AF1QipMhXMo8gH3eT1xl6lil3uWNWP77slqcEB5EAoJt=w224-h298-k-no"
            },
            {
                "about": "Dome",
                "link": "https://lh5.googleusercontent.com/p/AF1QipP8dOt8Xa7xLWIKhB7hKMfDXkBAs0GdSTGRc1T4=w529-h298-k-no"
            },
            {
                "about": "Videos",
                "link": "https://lh5.googleusercontent.com/p/AF1QipM_w3MDd2J6sNF4xKIl3VQz5bI1n06OcY3fuGWV=w224-h398-k-no"
            },
            {
                "about": "Street View & 360deg",
                "link": "https://lh5.googleusercontent.com/p/AF1QipM8gCUqMhrY6edUH2leeoaLSCBVMXx65Hbqhg8v=w224-h298-k-no-pi-20-ya286-ro-0-fo100"
            }
        ],
        "link": "https://www.google.com/maps/place/Shahi+Jama+Masjid/data=!4m7!3m6!1s0x390d2f70f5074e79:0xb976eb30f0507dab!8m2!3d28.2283446!4d77.064925!16s%2Fg%2F11hctynrhl!19sChIJeU4H9XAvDTkRq31Q8DDrdrk?authuser=0&hl=en&rclk=1",
        "coordinates": {
            "latitude": 28.2283446,
            "longitude": 77.064925
        }
    },
    {
        "name": "Masjid Madina-Sohna",
        "main_category": "Mosque",
        "address": "Masjid Madina-Sohna, Kawasika Express, Sohna, Raipur, Haryana 122103",
        "detailed_address": {
            "ward": "Kawasika Express",
            "street": "Kawasika Express",
            "city": "Sohna, Raipur",
            "postal_code": "122103",
            "state": "Haryana",
            "country_code": "IN"
        },
        "images": [],
        "link": "https://www.google.com/maps/place/Masjid+Madina-Sohna/data=!4m7!3m6!1s0x390d2f868d822817:0xb16ad1c42042a1da!8m2!3d28.2341809!4d77.0687206!16s%2Fg%2F11f5q7fdpw!19sChIJFyiCjYYvDTkR2qFCIMTRarE?authuser=0&hl=en&rclk=1",
        "coordinates": {
            "latitude": 28.2341809,
            "longitude": 77.06872059999999
        }
    },
    {
        "name": "Masjid Aksa sohna",
        "main_category": "Mosque",
        "address": "Masjid Aksa sohna, Kabir Nagar, Sohna, Raipur, Haryana 122103",
        "detailed_address": {
            "ward": "Kabir Nagar",
            "street": null,
            "city": "Sohna, Raipur",
            "postal_code": "122103",
            "state": "Haryana",
            "country_code": "IN"
        },
        "images": [
            {
                "about": "All",
                "link": "https://lh5.googleusercontent.com/p/AF1QipPKv_1I0prGZSQsR7DDJqjo7HgNqVGQzMWRq2bE=w224-h298-k-no"
            },
            {
                "about": "Dome",
                "link": "https://lh5.googleusercontent.com/p/AF1QipNV5xKCo6G745nlGg6lw4HHLt6n14WqCIWqF-ic=w224-h398-k-no"
            }
        ],
        "link": "https://www.google.com/maps/place/Masjid+Aksa+sohna/data=!4m7!3m6!1s0x390d2f64e9e30e43:0x82196e28dfe789db!8m2!3d28.2342828!4d77.069413!16s%2Fg%2F11hbkybk0d!19sChIJQw7j6WQvDTkR24nn3yhuGYI?authuser=0&hl=en&rclk=1",
        "coordinates": {
            "latitude": 28.2342828,
            "longitude": 77.069413
        }
    },
    {
        "name": "Noorani Masjid",
        "main_category": "Mosque",
        "address": "63R9+GX2 Noorani Masjid, ITI Colony, Sohna, Haryana 122103",
        "detailed_address": {
            "ward": "ITI Colony",
            "street": "63R9+GX2",
            "city": "Sohna",
            "postal_code": "122103",
            "state": "Haryana",
            "country_code": "IN"
        },
        "images": [],
        "link": "https://www.google.com/maps/place/Noorani+Masjid/data=!4m7!3m6!1s0x390d2f629a6e3e9d:0x6e58c6ec4951bf6a!8m2!3d28.2412525!4d77.0698767!16s%2Fg%2F11hcfq9pfy!19sChIJnT5ummIvDTkRar9RSezGWG4?authuser=0&hl=en&rclk=1",
        "coordinates": {
            "latitude": 28.241252499999998,
            "longitude": 77.0698767
        }
    },
    {
        "name": "MASJID MAKKA SOHNA",
        "main_category": "Mosque",
        "address": "MASJID MAKKA SOHNA, Kawasika Express, Sohna, Raipur, Haryana 122103",
        "detailed_address": {
            "ward": "Kawasika Express",
            "street": null,
            "city": "Sohna, Raipur",
            "postal_code": "122103",
            "state": "Haryana",
            "country_code": "IN"
        },
        "images": [
            {
                "about": "All",
                "link": "https://lh5.googleusercontent.com/p/AF1QipMh8DG-n4WDEg-0UJ39Wum4a7NFILs-NV3QHS6Y=w447-h298-k-no"
            },
            {
                "about": "Dome",
                "link": "https://lh5.googleusercontent.com/p/AF1QipMh8DG-n4WDEg-0UJ39Wum4a7NFILs-NV3QHS6Y=w447-h298-k-no"
            }
        ],
        "link": "https://www.google.com/maps/place/MASJID+MAKKA+SOHNA/data=!4m7!3m6!1s0x390d2fc8252becb9:0x519a4e5d75413ba0!8m2!3d28.2313703!4d77.0681748!16s%2Fg%2F11py33j980!19sChIJuewrJcgvDTkRoDtBdV1OmlE?authuser=0&hl=en&rclk=1",
        "coordinates": {
            "latitude": 28.2313703,
            "longitude": 77.0681748
        }
    },
    {
        "name": "Jama masjid",
        "main_category": "Mosque",
        "address": "63W8+Q22 Jama masjid, Nehru Bazaar, near Shiv Kund, Thakur Wara, Sohna, Sohna Rural, Haryana 122103",
        "detailed_address": {
            "ward": "Thakur Wara",
            "street": "63W8+Q22, Nehru Bazaar, near Shiv Kund",
            "city": "Sohna, Sohna Rural",
            "postal_code": "122103",
            "state": "Haryana",
            "country_code": "IN"
        },
        "images": [],
        "link": "https://www.google.com/maps/place/Jama+masjid/data=!4m7!3m6!1s0x390d252ff8bb88ef:0x2fe8abb814a51460!8m2!3d28.2468918!4d77.0650181!16s%2Fg%2F11syrfhcn_!19sChIJ74i7-C8lDTkRYBSlFLir6C8?authuser=0&hl=en&rclk=1",
        "coordinates": {
            "latitude": 28.2468918,
            "longitude": 77.0650181
        }
    },
    {
        "name": "Mosque sohna",
        "main_category": "Mosque",
        "address": "63W7+G3M Mosque sohna, Thakur Wara, Sohna Rural, Haryana 122103",
        "detailed_address": {
            "ward": "Thakur Wara",
            "street": "63W7+G3M",
            "city": "Sohna Rural",
            "postal_code": "122103",
            "state": "Haryana",
            "country_code": "IN"
        },
        "images": [],
        "link": "https://www.google.com/maps/place/Mosque+sohna/data=!4m7!3m6!1s0x390d2548acd3d83f:0xed8a8f9eb2d273ba!8m2!3d28.2464845!4d77.0625596!16s%2Fg%2F11tnzsr6k8!19sChIJP9jTrEglDTkRunPSsp6Piu0?authuser=0&hl=en&rclk=1",
        "coordinates": {
            "latitude": 28.246484499999998,
            "longitude": 77.0625596
        }
    }
]