[
    {
        "name": "Masjid E Mahboobia",
        "main_category": "Mosque",
        "address": "38RV+23Q Masjid E Mahboobia, Madina colony, Eidgoan, Nirmal, Telangana 504106",
        "detailed_address": {
            "ward": "Eidgoan",
            "street": "38RV+23Q, Madina colony",
            "city": "Nirmal",
            "postal_code": "504106",
            "state": "Telangana",
            "country_code": "IN"
        },
        "images": [
            {
                "about": "All",
                "link": "https://lh5.googleusercontent.com/p/AF1QipNE9nJW_EmRkCAHiwZbfWh0fPyznoUlOC6LiQaq=w397-h298-k-no"
            },
            {
                "about": "Street View & 360deg",
                "link": "https://streetviewpixels-pa.googleapis.com/v1/thumbnail?panoid=aVWrNl8hcEypuVuijU3Erg&cb_client=maps_sv.tactile.gps&w=224&h=298&yaw=275.89703&pitch=0&thumbfov=100"
            },
            {
                "about": "Videos",
                "link": "https://lh5.googleusercontent.com/p/AF1QipOrK2hwtvkF2AAcF76nPt9_JAGMZJffMe2WKDhb=w529-h298-k-no"
            }
        ],
        "link": "https://www.google.com/maps/place/Masjid+E+Mahboobia/data=!4m7!3m6!1s0x3bcd8c7cc72f32ad:0xc87a1e0f04aa3a5d!8m2!3d19.0900799!4d78.3427318!16s%2Fg%2F11b6njqqlh!19sChIJrTIvx3yMzTsRXTqqBA8eesg?authuser=0&hl=en&rclk=1",
        "coordinates": {
            "latitude": 19.0900799,
            "longitude": 78.3427318
        }
    },
    {
        "name": "Mohammadia Masjid",
        "main_category": "Mosque",
        "address": "38JR+55J Mohammadia Masjid, Adharsha Nagar, Nirmal, Telangana 504106",
        "detailed_address": {
            "ward": "Adharsha Nagar",
            "street": "38JR+55J",
            "city": "Nirmal",
            "postal_code": "504106",
            "state": "Telangana",
            "country_code": "IN"
        },
        "images": [
            {
                "about": "All",
                "link": "https://lh5.googleusercontent.com/p/AF1QipPT-fyrZsgImfZxDJIWHk9tPorkG8VOCbPO4H8=w224-h474-k-no"
            },
            {
                "about": "Street View & 360deg",
                "link": "https://streetviewpixels-pa.googleapis.com/v1/thumbnail?panoid=HpdQmfvaaVnTupeCfoC-1Q&cb_client=maps_sv.tactile.gps&w=224&h=298&yaw=71.06642&pitch=0&thumbfov=100"
            }
        ],
        "link": "https://www.google.com/maps/place/Mohammadia+Masjid/data=!4m7!3m6!1s0x3bcd8c604b0a54d3:0x67084e8473077f46!8m2!3d19.0804551!4d78.340404!16s%2Fg%2F11bzq338xz!19sChIJ01QKS2CMzTsRRn8Hc4ROCGc?authuser=0&hl=en&rclk=1",
        "coordinates": {
            "latitude": 19.0804551,
            "longitude": 78.34040399999999
        }
    },
    {
        "name": "Thimmapur masjid",
        "main_category": "Mosque",
        "address": "435F+Q9G Thimmapur masjid, Unnamed Road, Thimmapur, Telangana 504109",
        "detailed_address": {
            "ward": null,
            "street": "435F+Q9G, Unnamed Road",
            "city": "Thimmapur",
            "postal_code": "504109",
            "state": "Telangana",
            "country_code": "IN"
        },
        "images": [],
        "link": "https://www.google.com/maps/place/Thimmapur+masjid/data=!4m7!3m6!1s0x3bcdf93c28513963:0x7dcfb1f3b4f8e7af!8m2!3d19.1094489!4d78.0734603!16s%2Fg%2F11qzbkts3t!19sChIJYzlRKDz5zTsRr-f4tPOxz30?authuser=0&hl=en&rclk=1",
        "coordinates": {
            "latitude": 19.1094489,
            "longitude": 78.0734603
        }
    },
    {
        "name": "Jama Masjid",
        "main_category": "Mosque",
        "address": "4733+GPV Jama Masjid, Near the Nirmal Bhainsa main Road.Mdl: Dilawarpur. Dist:, Nirmal, Telangana 504306",
        "detailed_address": {
            "ward": null,
            "street": "4733+GPV, Near the Nirmal Bhainsa main Road.Mdl: Dilawarpur. Dist:",
            "city": "Nirmal, Lolam",
            "postal_code": "504306",
            "state": "Telangana",
            "country_code": "IN"
        },
        "images": [
            {
                "about": "All",
                "link": "https://lh5.googleusercontent.com/p/AF1QipOanWra0dqCUmLoygSZdKN1kn3teocUhBnZZ40=w224-h398-k-no"
            },
            {
                "about": "Videos",
                "link": "https://lh5.googleusercontent.com/p/AF1QipOanWra0dqCUmLoygSZdKN1kn3teocUhBnZZ40=w224-h398-k-no"
            }
        ],
        "link": "https://www.google.com/maps/place/Jama+Masjid/data=!4m7!3m6!1s0x3bcdfff87705fb39:0xd33edc6cec828713!8m2!3d19.1038707!4d78.2542839!16s%2Fg%2F11gtdzt517!19sChIJOfsFd_j_zTsRE4eC7GzcPtM?authuser=0&hl=en&rclk=1",
        "coordinates": {
            "latitude": 19.103870699999998,
            "longitude": 78.25428389999999
        }
    }
]