[
    {
        "name": "MASJID E MOINUDDIN ZAHED, MAKTAB HAZRAT UMAR FAROOQ R.Z",
        "main_category": "Mosque",
        "address": "MASJID E MOINUDDIN ZAHED, MAKTAB HAZRAT UMAR FAROOQ R.Z, SUNNAM BATTI, Edla Wada, Mancherial, Telangana 504208",
        "detailed_address": {
            "ward": null,
            "street": "SUNNAM BATTI, Edla Wada",
            "city": "Mancherial",
            "postal_code": "504208",
            "state": "Telangana",
            "country_code": "IN"
        },
        "images": [
            {
                "about": "All",
                "link": "https://lh5.googleusercontent.com/p/AF1QipOuZshI-VB1JL0e6zeFPUndXtoHfJglw8YGx8nV=w397-h298-k-no"
            },
            {
                "about": "By owner",
                "link": "https://lh5.googleusercontent.com/p/AF1QipOc_etRkgnJTjipRtV1JWj4SfrfCOFFLlPtx0X_=w529-h298-k-no"
            },
            {
                "about": "Videos",
                "link": "https://lh5.googleusercontent.com/p/AF1QipPQpydZIYpSLNJkZSNLaXlqXaEkwttcChw255L1=w224-h398-k-no"
            },
            {
                "about": "Street View & 360deg",
                "link": "https://streetviewpixels-pa.googleapis.com/v1/thumbnail?panoid=xN1uM8-8Ougb0LjMKQEpyQ&cb_client=maps_sv.tactile.gps&w=224&h=298&yaw=184.14812&pitch=0&thumbfov=100"
            }
        ],
        "link": "https://www.google.com/maps/place/MASJID+E+MOINUDDIN+ZAHED,+MAKTAB+HAZRAT+UMAR+FAROOQ+R.Z/data=!4m7!3m6!1s0x3a32cbd20eb48977:0x15c91af9fdef8ae3!8m2!3d18.8653693!4d79.4573734!16s%2Fg%2F11swy46385!19sChIJd4m0DtLLMjoR44rv_fkayRU?authuser=0&hl=en&rclk=1",
        "coordinates": {
            "latitude": 18.865369299999998,
            "longitude": 79.4573734
        }
    },
    {
        "name": "Razvi TAiLORS masjid e Bilal",
        "main_category": "Mosque",
        "address": "3F6V+V6V Razvi TAiLORS masjid e Bilal, Bellampalle, Telangana 504251",
        "detailed_address": {
            "ward": null,
            "street": "3F6V+V6V",
            "city": "Bellampalle",
            "postal_code": "504251",
            "state": "Telangana",
            "country_code": "IN"
        },
        "images": [
            {
                "about": "All",
                "link": "https://lh5.googleusercontent.com/p/AF1QipNPbbO5A3_l_d059IX5z6Ra_qSIGr4Z3sXN7BS2=w224-h300-k-no"
            },
            {
                "about": "Videos",
                "link": "https://lh5.googleusercontent.com/p/AF1QipOtALavEheBD8x_zYdtzLH1LaFLE4yYAUrtluJu=w224-h398-k-no"
            }
        ],
        "link": "https://www.google.com/maps/place/Razvi+TAiLORS+masjid+e+Bilal/data=!4m7!3m6!1s0x3a32b10ed88c3029:0x4f65cd5899f32fc8!8m2!3d19.0622332!4d79.4930366!16s%2Fg%2F11f62g5tr5!19sChIJKTCM2A6xMjoRyC_zmVjNZU8?authuser=0&hl=en&rclk=1",
        "coordinates": {
            "latitude": 19.062233199999998,
            "longitude": 79.4930366
        }
    },
    {
        "name": "Madina Masjid Ahlesunnat 5 Incline",
        "main_category": "Mosque",
        "address": "Madina Masjid Ahlesunnat 5 Incline, Masjid Complex, Godavarikhani, Ramagundam, Telangana 505209",
        "detailed_address": {
            "ward": "Godavarikhani",
            "street": "Masjid Complex",
            "city": "Ramagundam",
            "postal_code": "505209",
            "state": "Telangana",
            "country_code": "IN"
        },
        "images": [
            {
                "about": "All",
                "link": "https://lh5.googleusercontent.com/p/AF1QipPzuHpnU3DpoyksyL1BDpONy5iGbSsT2zgu8kCv=w397-h298-k-no"
            },
            {
                "about": "Street View & 360deg",
                "link": "https://streetviewpixels-pa.googleapis.com/v1/thumbnail?panoid=4VkJBvLF7BdCAcoZKqBtUw&cb_client=maps_sv.tactile.gps&w=224&h=298&yaw=132.34189&pitch=0&thumbfov=100"
            }
        ],
        "link": "https://www.google.com/maps/place/Madina+Masjid+Ahlesunnat+5+Incline/data=!4m7!3m6!1s0x3a32cfae1dfbdb55:0xf954e1cdb2f1d221!8m2!3d18.7383921!4d79.5220246!16s%2Fg%2F11bwkdwn7p!19sChIJVdv7Ha7PMjoRIdLxss3hVPk?authuser=0&hl=en&rclk=1",
        "coordinates": {
            "latitude": 18.7383921,
            "longitude": 79.5220246
        }
    },
    {
        "name": "JAMIA MASJID (MARKAZ) MANCHERIAL",
        "main_category": "Mosque",
        "address": "JAMIA MASJID (MARKAZ) MANCHERIAL, Maqsood Nagar, Railway Sta Rd, Mancherial, Telangana 504208",
        "detailed_address": {
            "ward": null,
            "street": "Maqsood Nagar, Railway Sta Rd",
            "city": "Mancherial",
            "postal_code": "504208",
            "state": "Telangana",
            "country_code": "IN"
        },
        "images": [
            {
                "about": "All",
                "link": "https://lh5.googleusercontent.com/p/AF1QipM-K5cC5uboSk6w2mdqdZs11JqGyt420PnyaDM=w397-h298-k-no"
            },
            {
                "about": "Street View & 360deg",
                "link": "https://streetviewpixels-pa.googleapis.com/v1/thumbnail?panoid=2t_nWyTrt6LTPodnThsY_Q&cb_client=maps_sv.tactile.gps&w=224&h=298&yaw=301.807&pitch=0&thumbfov=100"
            }
        ],
        "link": "https://www.google.com/maps/place/JAMIA+MASJID+%28MARKAZ%29+MANCHERIAL/data=!4m7!3m6!1s0x3a32ca7332981fc3:0x904801a97d7d4749!8m2!3d18.8786662!4d79.4481227!16s%2Fg%2F11_t9gzls!19sChIJwx-YMnPKMjoRSUd9fakBSJA?authuser=0&hl=en&rclk=1",
        "coordinates": {
            "latitude": 18.878666199999998,
            "longitude": 79.4481227
        }
    },
    {
        "name": "Masjid-E-zaffar",
        "main_category": "Mosque",
        "address": "VCMX+966 Masjid-E-zaffar, Zafar Nagar, Mancherial, Telangana 504208",
        "detailed_address": {
            "ward": "Zafar Nagar",
            "street": "VCMX+966",
            "city": "Mancherial",
            "postal_code": "504208",
            "state": "Telangana",
            "country_code": "IN"
        },
        "images": [
            {
                "about": "All",
                "link": "https://lh5.googleusercontent.com/p/AF1QipNm2DTd9x7uuz7TNSN1js35U0HcRmqeHdkn1mGz=w397-h298-k-no"
            },
            {
                "about": "Street View & 360deg",
                "link": "https://streetviewpixels-pa.googleapis.com/v1/thumbnail?panoid=jv7wa-9U7nx2wFCE0vHdHg&cb_client=maps_sv.tactile.gps&w=224&h=298&yaw=339.59012&pitch=0&thumbfov=100"
            }
        ],
        "link": "https://www.google.com/maps/place/Masjid-E-zaffar/data=!4m7!3m6!1s0x3a32ca0b2b7b5ea1:0xe0b727326da73e2c!8m2!3d18.8834195!4d79.4480221!16s%2Fg%2F11cr_fbjhp!19sChIJoV57KwvKMjoRLD6nbTInt-A?authuser=0&hl=en&rclk=1",
        "coordinates": {
            "latitude": 18.8834195,
            "longitude": 79.4480221
        }
    },
    {
        "name": "MASJID-E-JABAL",
        "main_category": "Mosque",
        "address": "MASJID-E-JABAL, 8333, State Highway 1, Annapoorna Colony, Jyothi Nagar, Ramagundam, Telangana 505208",
        "detailed_address": {
            "ward": "Annapoorna Colony, Jyothi Nagar",
            "street": "8333, State Highway 1, Annapoorna Colony, Jyothi Nagar",
            "city": "Ramagundam",
            "postal_code": "505208",
            "state": "Telangana",
            "country_code": "IN"
        },
        "images": [
            {
                "about": "All",
                "link": "https://lh5.googleusercontent.com/p/AF1QipMmOd-_DoU3oTyqgcNQiBNbRR4eem3ubkgxzh5s=w529-h298-k-no"
            },
            {
                "about": "Dome",
                "link": "https://lh5.googleusercontent.com/p/AF1QipNR6ShdUgTAFI1RCZX9wDR60cOorqYn3Xe1iqXI=w224-h398-k-no"
            },
            {
                "about": "Videos",
                "link": "https://lh5.googleusercontent.com/p/AF1QipMmOd-_DoU3oTyqgcNQiBNbRR4eem3ubkgxzh5s=w529-h298-k-no"
            },
            {
                "about": "Street View & 360deg",
                "link": "https://lh5.googleusercontent.com/p/AF1QipMurXDV-u-V-XR3hnemsrlSVi7cPlf1-SwURAxB=w224-h298-k-no-pi0-ya329-ro-0-fo100"
            }
        ],
        "link": "https://www.google.com/maps/place/MASJID-E-JABAL/data=!4m7!3m6!1s0x3a32ce9deb465e61:0x840237a29406bf93!8m2!3d18.7634328!4d79.4715152!16s%2Fg%2F11c51vn5h4!19sChIJYV5G653OMjoRk78GlKI3AoQ?authuser=0&hl=en&rclk=1",
        "coordinates": {
            "latitude": 18.7634328,
            "longitude": 79.4715152
        }
    },
    {
        "name": "MASJID-E-ABBAS Ntpc Mominnagar Ramagundam",
        "main_category": "Mosque",
        "address": "MASJID-E-ABBAS Ntpc Mominnagar Ramagundam, 8333, SH1, mominnagar Ramagundum, TTS Twp, Ramagundam, Telangana 505208",
        "detailed_address": {
            "ward": "Annapoorna Colony, TTS Township",
            "street": "8333, SH1, mominnagar Ramagundum",
            "city": "Ramagundam",
            "postal_code": "505208",
            "state": "Telangana",
            "country_code": "IN"
        },
        "images": [
            {
                "about": "All",
                "link": "https://lh5.googleusercontent.com/p/AF1QipO_YTARIhfDp6Vv9TzUXs0Rm6t8CSpveLvWy70C=w529-h298-k-no"
            },
            {
                "about": "Street View & 360deg",
                "link": "https://streetviewpixels-pa.googleapis.com/v1/thumbnail?panoid=0uMOzCe6hzRuifkl7nCrXA&cb_client=maps_sv.tactile.gps&w=224&h=298&yaw=19.928925&pitch=0&thumbfov=100"
            },
            {
                "about": "Videos",
                "link": "https://lh5.googleusercontent.com/p/AF1QipPjPTreUzIx9L3jyNJJWRGcVD1ZEQD2xi5QmzHO=w224-h398-k-no"
            }
        ],
        "link": "https://www.google.com/maps/place/MASJID-E-ABBAS+Ntpc+Mominnagar+Ramagundam/data=!4m7!3m6!1s0x3a32cc27155b57bd:0x723da47a750f2058!8m2!3d18.7634087!4d79.4689864!16s%2Fg%2F11g69h8ssv!19sChIJvVdbFSfMMjoRWCAPdXqkPXI?authuser=0&hl=en&rclk=1",
        "coordinates": {
            "latitude": 18.7634087,
            "longitude": 79.46898639999999
        }
    },
    {
        "name": "Masjid E Ahle Hadees",
        "main_category": "Mosque",
        "address": "VCHV+RXH Masjid E Ahle Hadees, near A1 Hotel, Iqbal Ahmed Nagar, Mancherial, Telangana 504208",
        "detailed_address": {
            "ward": "Iqbal Ahmed Nagar",
            "street": "VCHV+RXH, near A1 Hotel",
            "city": "Mancherial",
            "postal_code": "504208",
            "state": "Telangana",
            "country_code": "IN"
        },
        "images": [
            {
                "about": "All",
                "link": "https://lh5.googleusercontent.com/p/AF1QipOHg5hJmggm9eatlhmFVXOTDdWDZbinkh_bvFYT=w397-h298-k-no"
            }
        ],
        "link": "https://www.google.com/maps/place/Masjid+E+Ahle+Hadees/data=!4m7!3m6!1s0x3a32ca739dbc90b5:0x396d12ab7c93be86!8m2!3d18.8795742!4d79.4449801!16s%2Fg%2F11g6yk8qs1!19sChIJtZC8nXPKMjoRhr6TfKsSbTk?authuser=0&hl=en&rclk=1",
        "coordinates": {
            "latitude": 18.8795742,
            "longitude": 79.4449801
        }
    },
    {
        "name": "Golleti Masjid",
        "main_category": "Mosque",
        "address": "69HJ+MRR Golleti Masjid, Gollet, Telangana 504292",
        "detailed_address": {
            "ward": null,
            "street": "69HJ+MRR",
            "city": "Gollet",
            "postal_code": "504292",
            "state": "Telangana",
            "country_code": "IN"
        },
        "images": [
            {
                "about": "All",
                "link": "https://lh5.googleusercontent.com/p/AF1QipOTQ6sXraWculK7N5pAWXsmT8F6DoxskhfZYmU=w529-h298-k-no"
            },
            {
                "about": "Videos",
                "link": "https://lh5.googleusercontent.com/p/AF1QipOMMTNumgFe-twJqgzc5YQhXbcuqin_nXAw4A8=w529-h298-k-no"
            }
        ],
        "link": "https://www.google.com/maps/place/Golleti+Masjid/data=!4m7!3m6!1s0x3a32aacb61c1b09d:0x3d1c844762d42b55!8m2!3d19.2292306!4d79.3820089!16s%2Fg%2F11c0xp7n2t!19sChIJnbDBYcuqMjoRVSvUYkeEHD0?authuser=0&hl=en&rclk=1",
        "coordinates": {
            "latitude": 19.229230599999998,
            "longitude": 79.3820089
        }
    },
    {
        "name": "Noorani Masjid ( Ahle sunnat wal jamaat )",
        "main_category": "Mosque",
        "address": "Noorani Masjid ( Ahle sunnat wal jamaat ), 20-2-682, Gandhi Nagar, Godavarikhani, Ramagundam, Telangana 505209",
        "detailed_address": {
            "ward": "Gandhi Nagar, Godavarikhani",
            "street": "20-2-682",
            "city": "Ramagundam",
            "postal_code": "505209",
            "state": "Telangana",
            "country_code": "IN"
        },
        "images": [
            {
                "about": "All",
                "link": "https://lh5.googleusercontent.com/p/AF1QipNjM7ijK74xdXm8mz4JhGJpIiJUmInf51wgled1=w397-h298-k-no"
            },
            {
                "about": "Dome",
                "link": "https://lh5.googleusercontent.com/p/AF1QipPLEKM1LvdxmVeT6BnxU4K9nDNXZ9vSCrUZpwk6=w224-h298-k-no"
            },
            {
                "about": "Street View & 360deg",
                "link": "https://streetviewpixels-pa.googleapis.com/v1/thumbnail?panoid=v3q4ZsgrnlVgQR5jIM9zBg&cb_client=maps_sv.tactile.gps&w=224&h=298&yaw=104.9513&pitch=0&thumbfov=100"
            }
        ],
        "link": "https://www.google.com/maps/place/Noorani+Masjid+%28+Ahle+sunnat+wal+jamaat+%29/data=!4m7!3m6!1s0x3a32cefdd7de9345:0x152e74014f1039e9!8m2!3d18.7554818!4d79.5131662!16s%2Fg%2F11g7z7l4lb!19sChIJRZPe1_3OMjoR6TkQTwF0LhU?authuser=0&hl=en&rclk=1",
        "coordinates": {
            "latitude": 18.7554818,
            "longitude": 79.5131662
        }
    },
    {
        "name": "MASJID-E-RIZWAN",
        "main_category": "Mosque",
        "address": "VCWW+C27 MASJID-E-RIZWAN, Mancherial, Telangana 504209",
        "detailed_address": {
            "ward": null,
            "street": "VCWW+C27",
            "city": "Mancherial",
            "postal_code": "504209",
            "state": "Telangana",
            "country_code": "IN"
        },
        "images": [
            {
                "about": "All",
                "link": "https://lh5.googleusercontent.com/p/AF1QipMwb53E2e21eJqB0vL47HJuhbDMvg25G9a8uQEI=w224-h398-k-no"
            },
            {
                "about": "Street View & 360deg",
                "link": "https://streetviewpixels-pa.googleapis.com/v1/thumbnail?panoid=geABrqu7PJBBfZi-gar15Q&cb_client=maps_sv.tactile.gps&w=224&h=298&yaw=213.41835&pitch=0&thumbfov=100"
            }
        ],
        "link": "https://www.google.com/maps/place/MASJID-E-RIZWAN/data=!4m7!3m6!1s0x3a32b58da7fca97b:0xb169a17a1ec89dec!8m2!3d18.8960394!4d79.4450408!16s%2Fg%2F1hc2rzj_z!19sChIJe6n8p421MjoR7J3IHnqhabE?authuser=0&hl=en&rclk=1",
        "coordinates": {
            "latitude": 18.8960394,
            "longitude": 79.4450408
        }
    },
    {
        "name": "Madina Masjid",
        "main_category": "Mosque",
        "address": "VF6H+HRF Madina Masjid, Naspur Colony, Naspur, Mancherial, Telangana 504302",
        "detailed_address": {
            "ward": "Naspur Colony",
            "street": "VF6H+HRF",
            "city": "Naspur, Mancherial",
            "postal_code": "504302",
            "state": "Telangana",
            "country_code": "IN"
        },
        "images": [
            {
                "about": "All",
                "link": "https://lh5.googleusercontent.com/p/AF1QipMwpGZY-TJW9CkfTG0DKaBQrWTVTTeOjrLf6YGq=w529-h298-k-no"
            },
            {
                "about": "Street View & 360deg",
                "link": "https://streetviewpixels-pa.googleapis.com/v1/thumbnail?panoid=1vckaDGA8QCPCWMACdHh_w&cb_client=maps_sv.tactile.gps&w=224&h=298&yaw=173.88863&pitch=0&thumbfov=100"
            }
        ],
        "link": "https://www.google.com/maps/place/Madina+Masjid/data=!4m7!3m6!1s0x3a32c98c60135b39:0xf6135a4c8f0dcb3b!8m2!3d18.8614304!4d79.479548!16s%2Fg%2F1tgn80xm!19sChIJOVsTYIzJMjoRO8sNj0xaE_Y?authuser=0&hl=en&rclk=1",
        "coordinates": {
            "latitude": 18.8614304,
            "longitude": 79.479548
        }
    },
    {
        "name": "Masjid-E-Arafath",
        "main_category": "Mosque",
        "address": "VCMR+3H2 Masjid-E-Arafath, Islampura, Mancherial, Telangana 504208",
        "detailed_address": {
            "ward": "Islampura",
            "street": "VCMR+3H2",
            "city": "Mancherial",
            "postal_code": "504208",
            "state": "Telangana",
            "country_code": "IN"
        },
        "images": [
            {
                "about": "All",
                "link": "https://lh5.googleusercontent.com/p/AF1QipP2z5vLxDr-hnYd2EN7WqOWAEKHpBG15QLlArb1=w224-h298-k-no"
            },
            {
                "about": "Street View & 360deg",
                "link": "https://streetviewpixels-pa.googleapis.com/v1/thumbnail?panoid=avDLDet8pc3nG14b9jwRgg&cb_client=maps_sv.tactile.gps&w=224&h=298&yaw=26.789251&pitch=0&thumbfov=100"
            }
        ],
        "link": "https://www.google.com/maps/place/Masjid-E-Arafath/data=!4m7!3m6!1s0x3a32ca7691caee01:0xfcc8cbca71e2ae52!8m2!3d18.8826432!4d79.4413931!16s%2Fg%2F11fxcdj5cf!19sChIJAe7KkXbKMjoRUq7iccrLyPw?authuser=0&hl=en&rclk=1",
        "coordinates": {
            "latitude": 18.8826432,
            "longitude": 79.4413931
        }
    },
    {
        "name": "Masjid -e- Waheed",
        "main_category": "Mosque",
        "address": "VCPW+3Q3 Masjid -e- Waheed, Mancherial, Telangana 504208",
        "detailed_address": {
            "ward": null,
            "street": "VCPW+3Q3",
            "city": "Mancherial",
            "postal_code": "504208",
            "state": "Telangana",
            "country_code": "IN"
        },
        "images": [
            {
                "about": "All",
                "link": "https://lh5.googleusercontent.com/p/AF1QipNpFfZzDpMxf89aEqq4WUlLw8GBpy_zAuagvDO2=w298-h298-k-no"
            }
        ],
        "link": "https://www.google.com/maps/place/Masjid+-e-+Waheed/data=!4m7!3m6!1s0x3a32ca7538a3edc1:0xb2ec2d8d60f8c3ec!8m2!3d18.8851382!4d79.4469226!16s%2Fg%2F11c60ckx1x!19sChIJwe2jOHXKMjoR7MP4YI0t7LI?authuser=0&hl=en&rclk=1",
        "coordinates": {
            "latitude": 18.8851382,
            "longitude": 79.4469226
        }
    },
    {
        "name": "Masjid-e-Namrah (Jamat-e-islami hind)",
        "main_category": "Mosque",
        "address": "Masjid-e-Namrah (Jamat-e-islami hind), Caltex Fly Over, Radagambhala Bhasti, Station Road Colony, Bellampalle, Telangana 504251",
        "detailed_address": {
            "ward": "Radagambhala Bhasti, Station Road Colony",
            "street": "Caltex Fly Over",
            "city": "Bellampalle",
            "postal_code": "504251",
            "state": "Telangana",
            "country_code": "IN"
        },
        "images": [
            {
                "about": "All",
                "link": "https://lh5.googleusercontent.com/p/AF1QipNPxZW0TpPD2kU4z1t5cgY06U5UMnzqEh6rIf8e=w529-h298-k-no"
            }
        ],
        "link": "https://www.google.com/maps/place/Masjid-e-Namrah+%28Jamat-e-islami+hind%29/data=!4m7!3m6!1s0x3a32b1e88e7040b5:0xe7ba857867af821d!8m2!3d19.064002!4d79.4894995!16s%2Fg%2F11b6dd8kzr!19sChIJtUBwjuixMjoRHYKvZ3iFuuc?authuser=0&hl=en&rclk=1",
        "coordinates": {
            "latitude": 19.064002,
            "longitude": 79.4894995
        }
    },
    {
        "name": "masjid asra",
        "main_category": "Mosque",
        "address": "masjid asra, Area Workshop Mandamarri, Sripathi Nagar, Mandamarri Market, Mandamarri, Telangana 504231",
        "detailed_address": {
            "ward": "Sripathi Nagar, Mandamarri Market",
            "street": "Area Workshop Mandamarri",
            "city": "Mandamarri",
            "postal_code": "504231",
            "state": "Telangana",
            "country_code": "IN"
        },
        "images": [
            {
                "about": "All",
                "link": "https://lh5.googleusercontent.com/p/AF1QipOoG0shmrt74OKfV7QZfriaS5_QlMcr8IVnUTPP=w224-h398-k-no"
            },
            {
                "about": "Street View & 360deg",
                "link": "https://streetviewpixels-pa.googleapis.com/v1/thumbnail?panoid=ZSMdYHrK0q3S5ibRDU3ziQ&cb_client=maps_sv.tactile.gps&w=224&h=298&yaw=329.7253&pitch=0&thumbfov=100"
            }
        ],
        "link": "https://www.google.com/maps/place/masjid+asra/data=!4m7!3m6!1s0x3a32b6b2c1197fcd:0x2ff4d75af9263f7f!8m2!3d18.9813782!4d79.4833177!16s%2Fg%2F11f1wl9rtk!19sChIJzX8ZwbK2MjoRfz8m-VrX9C8?authuser=0&hl=en&rclk=1",
        "coordinates": {
            "latitude": 18.981378199999998,
            "longitude": 79.4833177
        }
    },
    {
        "name": "Jama Masjid",
        "main_category": "Mosque",
        "address": "3F9Q+X45 Jama Masjid, Belmuri, Hanman Basti, Bellampalle, Telangana 504251",
        "detailed_address": {
            "ward": "Belmuri, Hanman Basti",
            "street": "3F9Q+X45",
            "city": "Bellampalle",
            "postal_code": "504251",
            "state": "Telangana",
            "country_code": "IN"
        },
        "images": [
            {
                "about": "All",
                "link": "https://lh5.googleusercontent.com/p/AF1QipM5RM-7FhQ_V8eaxsMbGndvqbaVKoM_IwdlqlEl=w577-h298-k-no"
            },
            {
                "about": "Street View & 360deg",
                "link": "https://streetviewpixels-pa.googleapis.com/v1/thumbnail?panoid=u-5ZZTU6mzeLcg963f0_3w&cb_client=maps_sv.tactile.gps&w=224&h=298&yaw=326.50388&pitch=0&thumbfov=100"
            },
            {
                "about": "Videos",
                "link": "https://lh5.googleusercontent.com/p/AF1QipMQOUeadfQFzcMxEX_bB2MW7QbWYLVzb-UIcizA=w529-h298-k-no"
            }
        ],
        "link": "https://www.google.com/maps/place/Jama+Masjid/data=!4m7!3m6!1s0x3a32b1e6a4eb0557:0x32163b4072eb7836!8m2!3d19.0698971!4d79.4878633!16s%2Fg%2F11csb3stf2!19sChIJVwXrpOaxMjoRNnjrckA7FjI?authuser=0&hl=en&rclk=1",
        "coordinates": {
            "latitude": 19.0698971,
            "longitude": 79.4878633
        }
    },
    {
        "name": "Jam-e-masjid",
        "main_category": "Mosque",
        "address": "RGCH+5VH Jam-e-masjid, Unnamed Road, Kasimpally, Indaram, Telangana 504216",
        "detailed_address": {
            "ward": "Kasimpally",
            "street": "RGCH+5VH, Unnamed Road",
            "city": "Indaram",
            "postal_code": "504216",
            "state": "Telangana",
            "country_code": "IN"
        },
        "images": [
            {
                "about": "All",
                "link": "https://lh5.googleusercontent.com/p/AF1QipN45tEPT2u61Opc0R1axP9mIWseTp2B_sjn6h0C=w397-h298-k-no"
            },
            {
                "about": "Street View & 360deg",
                "link": "https://streetviewpixels-pa.googleapis.com/v1/thumbnail?panoid=IqvuNEK1taRHtdRSG4OtRw&cb_client=maps_sv.tactile.gps&w=224&h=298&yaw=291.99893&pitch=0&thumbfov=100"
            }
        ],
        "link": "https://www.google.com/maps/place/Jam-e-masjid/data=!4m7!3m6!1s0x3a32c8c27c6f8c5d:0x1c6dcbccf5e6bfa0!8m2!3d18.8204262!4d79.5297329!16s%2Fg%2F11h9rbtcfx!19sChIJXYxvfMLIMjoRoL_m9czLbRw?authuser=0&hl=en&rclk=1",
        "coordinates": {
            "latitude": 18.8204262,
            "longitude": 79.5297329
        }
    },
    {
        "name": "Masjid-e-Bilaal",
        "main_category": "Mosque",
        "address": "PC69+8GV Masjid-e-Bilaal, Basanth Nagar, Telangana 505001",
        "detailed_address": {
            "ward": null,
            "street": "PC69+8GV",
            "city": "Basanth Nagar",
            "postal_code": "505001",
            "state": "Telangana",
            "country_code": "IN"
        },
        "images": [
            {
                "about": "All",
                "link": "https://lh5.googleusercontent.com/p/AF1QipPTiwEdaNJLapFJ9VHgpZHm6YhSVkGfba1aIgB6=w224-h398-k-no"
            },
            {
                "about": "Street View & 360deg",
                "link": "https://streetviewpixels-pa.googleapis.com/v1/thumbnail?panoid=MDlNEGRQBTh-tS4cNztJOQ&cb_client=maps_sv.tactile.gps&w=224&h=298&yaw=57.278175&pitch=0&thumbfov=100"
            }
        ],
        "link": "https://www.google.com/maps/place/Masjid-e-Bilaal/data=!4m7!3m6!1s0x3a32cd70c697aea3:0x3f1a6ec9bde7876e!8m2!3d18.710851!4d79.4187917!16s%2Fg%2F11cmzf3svx!19sChIJo66XxnDNMjoRbofnvcluGj8?authuser=0&hl=en&rclk=1",
        "coordinates": {
            "latitude": 18.710850999999998,
            "longitude": 79.4187917
        }
    },
    {
        "name": "Krishna Colony Masjid",
        "main_category": "Mosque",
        "address": "VGC4+P8Q Krishna Colony Masjid, Srirampur Colony, Mancherial, Telangana 504303",
        "detailed_address": {
            "ward": "Srirampur Colony",
            "street": "VGC4+P8Q",
            "city": "Mancherial",
            "postal_code": "504303",
            "state": "Telangana",
            "country_code": "IN"
        },
        "images": [
            {
                "about": "All",
                "link": "https://lh5.googleusercontent.com/p/AF1QipO-3G0awhJ0IHGisd0Y9HwPWNEVVTqWStwMKo1B=w224-h398-k-no"
            },
            {
                "about": "Videos",
                "link": "https://lh5.googleusercontent.com/p/AF1QipOgK2cuQuzceMXxmFWhovLAK2xTVynQJaD3vUqI=w224-h398-k-no"
            }
        ],
        "link": "https://www.google.com/maps/place/Krishna+Colony+Masjid/data=!4m7!3m6!1s0x3a32c9c8c9117427:0x5384663c433ceea2!8m2!3d18.8718323!4d79.5058457!16s%2Fg%2F11gdt6f3n1!19sChIJJ3QRycjJMjoRou48QzxmhFM?authuser=0&hl=en&rclk=1",
        "coordinates": {
            "latitude": 18.871832299999998,
            "longitude": 79.5058457
        }
    },
    {
        "name": "Jame Masjid CCC",
        "main_category": "Mosque",
        "address": "VFFQ+M4M Jame Masjid CCC, Masjid rd, R K 5 Colony, Naspur, Mancherial, Telangana 504302",
        "detailed_address": {
            "ward": "R K 5 Colony",
            "street": "VFFQ+M4M, Masjid rd",
            "city": "Naspur, Mancherial",
            "postal_code": "504302",
            "state": "Telangana",
            "country_code": "IN"
        },
        "images": [
            {
                "about": "All",
                "link": "https://lh5.googleusercontent.com/p/AF1QipNgMnPX84oEtZyoLdFX0GSIbLzFpOwxez0Qy7cF=w397-h298-k-no"
            },
            {
                "about": "Street View & 360deg",
                "link": "https://lh5.googleusercontent.com/p/AF1QipNhMM1CMk1MzQqjmof2brPzz94LdcSSOoECWKvq=w224-h298-k-no-pi-20-ya349-ro-0-fo100"
            }
        ],
        "link": "https://www.google.com/maps/place/Jame+Masjid+CCC/data=!4m7!3m6!1s0x3a32c9e92835d0cd:0x2e5ad0d10d935b4a!8m2!3d18.87421!4d79.4878097!16s%2Fg%2F11c32c7c71!19sChIJzdA1KOnJMjoRSluTDdHQWi4?authuser=0&hl=en&rclk=1",
        "coordinates": {
            "latitude": 18.874209999999998,
            "longitude": 79.4878097
        }
    },
    {
        "name": "Masjid Cricket Ground (MCG)",
        "main_category": "Mosque",
        "address": "XFPC+4XX Masjid Cricket Ground (MCG), Mandamarri, Telangana 504231",
        "detailed_address": {
            "ward": null,
            "street": "XFPC+4XX",
            "city": "Mandamarri",
            "postal_code": "504231",
            "state": "Telangana",
            "country_code": "IN"
        },
        "images": [
            {
                "about": "All",
                "link": "https://lh5.googleusercontent.com/p/AF1QipNUCtLgnFYMctEgDyaz3XH08o_qptYrXZTfNSCd=w397-h298-k-no"
            },
            {
                "about": "Videos",
                "link": "https://lh5.googleusercontent.com/p/AF1QipOQM1OU6qUZgsjp5OheJt8t7_ieF0TOTFKD-tDt=w224-h398-k-no"
            }
        ],
        "link": "https://www.google.com/maps/place/Masjid+Cricket+Ground+%28MCG%29/data=!4m7!3m6!1s0x3a32b155ae99a1f7:0x3e7fdba6ca3f5258!8m2!3d18.9853697!4d79.4724889!16s%2Fg%2F124srq232!19sChIJ96GZrlWxMjoRWFI_yqbbfz4?authuser=0&hl=en&rclk=1",
        "coordinates": {
            "latitude": 18.9853697,
            "longitude": 79.4724889
        }
    },
    {
        "name": "MASJID-E-HUDA",
        "main_category": "Mosque",
        "address": "VCJP+XH6 MASJID-E-HUDA, Gautami Nagar, Mancherial, Telangana 504208",
        "detailed_address": {
            "ward": "Gautami Nagar",
            "street": "VCJP+XH6",
            "city": "Mancherial",
            "postal_code": "504208",
            "state": "Telangana",
            "country_code": "IN"
        },
        "images": [
            {
                "about": "All",
                "link": "https://lh5.googleusercontent.com/p/AF1QipNcg4YINcZD32wUKzd_OwQDvTetHxdBw_qbLYUE=w224-h298-k-no"
            },
            {
                "about": "Street View & 360deg",
                "link": "https://streetviewpixels-pa.googleapis.com/v1/thumbnail?panoid=kM1xE89JfR7G9IbpXPx_cQ&cb_client=maps_sv.tactile.gps&w=224&h=298&yaw=341.68268&pitch=0&thumbfov=100"
            }
        ],
        "link": "https://www.google.com/maps/place/MASJID-E-HUDA/data=!4m7!3m6!1s0x3a32ca79d70e4bb7:0x2dc21fc4d0147e98!8m2!3d18.8824203!4d79.4363988!16s%2Fg%2F11cs6drznx!19sChIJt0sO13nKMjoRmH4U0MQfwi0?authuser=0&hl=en&rclk=1",
        "coordinates": {
            "latitude": 18.8824203,
            "longitude": 79.43639879999999
        }
    },
    {
        "name": "Jamah Masjid",
        "main_category": "Mosque",
        "address": "Jamah Masjid, 21-4-43, Tilak Nagar Road, Fertilizer City, Tilak Nagar Road, Fertilizer City, Godavarikhani, Ramagundam, Shanthinagar, Telangana 505211",
        "detailed_address": {
            "ward": "Fertilizer City, Godavarikhani",
            "street": "21-4-43, Tilak Nagar Road, Fertilizer City, Tilak Nagar Road",
            "city": "Ramagundam, Shanthinagar",
            "postal_code": "505211",
            "state": "Telangana",
            "country_code": "IN"
        },
        "images": [
            {
                "about": "All",
                "link": "https://streetviewpixels-pa.googleapis.com/v1/thumbnail?panoid=IOk-sKAE61hYv4sl5eWVpQ&cb_client=maps_sv.tactile.gps&w=224&h=298&yaw=43.616436&pitch=0&thumbfov=100"
            },
            {
                "about": "Street View & 360deg",
                "link": "https://streetviewpixels-pa.googleapis.com/v1/thumbnail?panoid=IOk-sKAE61hYv4sl5eWVpQ&cb_client=maps_sv.tactile.gps&w=224&h=298&yaw=43.616436&pitch=0&thumbfov=100"
            }
        ],
        "link": "https://www.google.com/maps/place/Jamah+Masjid/data=!4m7!3m6!1s0x3a32ce5c85790e6b:0xd31aaa3a2dd0934a!8m2!3d18.7393712!4d79.4978368!16s%2Fg%2F11c60d45mn!19sChIJaw55hVzOMjoRSpPQLTqqGtM?authuser=0&hl=en&rclk=1",
        "coordinates": {
            "latitude": 18.7393712,
            "longitude": 79.4978368
        }
    },
    {
        "name": "EID GAH. MUSLIM PRAYER TOWER",
        "main_category": "Mosque",
        "address": "QCFM+GWX EID GAH. MUSLIM PRAYER TOWER, Kundanpalli, Ramagundam, Telangana 505208",
        "detailed_address": {
            "ward": "Kundanpalli",
            "street": "QCFM+GWX",
            "city": "Ramagundam",
            "postal_code": "505208",
            "state": "Telangana",
            "country_code": "IN"
        },
        "images": [
            {
                "about": "All",
                "link": "https://lh5.googleusercontent.com/p/AF1QipNO0g1PzJ9GVVz16o-D8i-o9WZ6iPKkhHawNf6M=w224-h298-k-no"
            },
            {
                "about": "Street View & 360deg",
                "link": "https://streetviewpixels-pa.googleapis.com/v1/thumbnail?panoid=1d_Y_a_Sey1K_GP9QOjkzQ&cb_client=maps_sv.tactile.gps&w=224&h=298&yaw=282.95584&pitch=0&thumbfov=100"
            }
        ],
        "link": "https://www.google.com/maps/place/EID+GAH.+MUSLIM+PRAYER+TOWER/data=!4m7!3m6!1s0x3a32cc66719510c3:0xcb75795517d5d271!8m2!3d18.7738567!4d79.4348604!16s%2Fg%2F11gfdd6g8w!19sChIJwxCVcWbMMjoRcdLVF1V5dcs?authuser=0&hl=en&rclk=1",
        "coordinates": {
            "latitude": 18.7738567,
            "longitude": 79.43486039999999
        }
    },
    {
        "name": "Kausar Masjid",
        "main_category": "Mosque",
        "address": "3G32+XH3 Kausar Masjid, Subhash Nagar, Bellampalle, Telangana 504251",
        "detailed_address": {
            "ward": "Subhash Nagar",
            "street": "3G32+XH3",
            "city": "Bellampalle",
            "postal_code": "504251",
            "state": "Telangana",
            "country_code": "IN"
        },
        "images": [
            {
                "about": "All",
                "link": "https://lh5.googleusercontent.com/p/AF1QipOuFy1p4mGQ0DqhkHCTtVZ2tSycS4-uV4MG1Ter=w529-h298-k-no"
            },
            {
                "about": "Dome",
                "link": "https://lh5.googleusercontent.com/p/AF1QipOE9sNofroT9aq8tZ8Xu17C6AYlxF1qfeVSoope=w397-h298-k-no"
            },
            {
                "about": "Videos",
                "link": "https://lh5.googleusercontent.com/p/AF1QipMNyqgDkSPa-OzD9RMSJPnP9boeHxpMoIClJUFn=w529-h298-k-no"
            },
            {
                "about": "Street View & 360deg",
                "link": "https://streetviewpixels-pa.googleapis.com/v1/thumbnail?panoid=EQRWiXaho71mn8P5E4kiog&cb_client=maps_sv.tactile.gps&w=224&h=298&yaw=172.86365&pitch=0&thumbfov=100"
            }
        ],
        "link": "https://www.google.com/maps/place/Kausar+Masjid/data=!4m7!3m6!1s0x3a32b1c79d1963ff:0x433868c68e905e51!8m2!3d19.0548975!4d79.5014369!16s%2Fg%2F11g9r54_23!19sChIJ_2MZncexMjoRUV6QjsZoOEM?authuser=0&hl=en&rclk=1",
        "coordinates": {
            "latitude": 19.0548975,
            "longitude": 79.5014369
        }
    },
    {
        "name": "Masjid-e-gouse-ul-wara",
        "main_category": "Mosque",
        "address": "3FGP+WXC Masjid-e-gouse-ul-wara, Bellampalle, Kannal Rural, Telangana 504251",
        "detailed_address": {
            "ward": null,
            "street": "3FGP+WXC",
            "city": "Bellampalle, Kannal Rural",
            "postal_code": "504251",
            "state": "Telangana",
            "country_code": "IN"
        },
        "images": [
            {
                "about": "All",
                "link": "https://lh5.googleusercontent.com/p/AF1QipPF8JcToKulM5sEcg6-jJwxDvefVMEuM9OaEVc=w397-h298-k-no"
            }
        ],
        "link": "https://www.google.com/maps/place/Masjid-e-gouse-ul-wara/data=!4m7!3m6!1s0x3a32ae1e07a8f3a1:0x30d5ea744ddf5099!8m2!3d19.0773045!4d79.4873999!16s%2Fg%2F11dfmg17l2!19sChIJofOoBx6uMjoRmVDfTXTq1TA?authuser=0&hl=en&rclk=1",
        "coordinates": {
            "latitude": 19.0773045,
            "longitude": 79.4873999
        }
    },
    {
        "name": "Masjid E Firdous",
        "main_category": "Mosque",
        "address": "Masjid E Firdous, Utukur, Lakshettipet, Telangana 504215",
        "detailed_address": {
            "ward": null,
            "street": null,
            "city": "Utukur, Lakshettipet",
            "postal_code": null,
            "state": "Telangana",
            "country_code": "IN"
        },
        "images": [
            {
                "about": "All",
                "link": "https://lh5.googleusercontent.com/p/AF1QipPT7IB1G4WIzjOlIfmFRzj27CESxvsoRgL5D3tp=w224-h298-k-no"
            },
            {
                "about": "Street View & 360deg",
                "link": "https://streetviewpixels-pa.googleapis.com/v1/thumbnail?panoid=GhmZhEdq-mUDp4XUM-1JPQ&cb_client=maps_sv.tactile.gps&w=224&h=298&yaw=44.815517&pitch=0&thumbfov=100"
            }
        ],
        "link": "https://www.google.com/maps/place/Masjid+E+Firdous/data=!4m7!3m6!1s0x3bcd480ee90e2c3f:0xfcd8f71cabc7c5c8!8m2!3d18.8884431!4d79.2072006!16s%2Fg%2F1td5721r!19sChIJPywO6Q5IzTsRyMXHqxz32Pw?authuser=0&hl=en&rclk=1",
        "coordinates": {
            "latitude": 18.8884431,
            "longitude": 79.2072006
        }
    },
    {
        "name": "Masjid E Tayyaba",
        "main_category": "Mosque",
        "address": "VF7F+3FH Masjid E Tayyaba, Flood Colony, Naspur, Mancherial, Telangana 504302",
        "detailed_address": {
            "ward": "Flood Colony",
            "street": "VF7F+3FH",
            "city": "Naspur, Mancherial",
            "postal_code": "504302",
            "state": "Telangana",
            "country_code": "IN"
        },
        "images": [
            {
                "about": "All",
                "link": "https://lh5.googleusercontent.com/p/AF1QipMruJHeqfKgmnCqIkclFkonjnPk5V_PI2fHn7yx=w224-h481-k-no"
            },
            {
                "about": "Dome",
                "link": "https://lh5.googleusercontent.com/p/AF1QipN2PylDM3B86Rs7y2UC55qsLBLwrcnfSxQDQssk=w639-h298-k-no"
            },
            {
                "about": "Street View & 360deg",
                "link": "https://streetviewpixels-pa.googleapis.com/v1/thumbnail?panoid=OT7z5iBKQIv7OkNDksG9UA&cb_client=maps_sv.tactile.gps&w=224&h=298&yaw=319.88715&pitch=0&thumbfov=100"
            }
        ],
        "link": "https://www.google.com/maps/place/Masjid+E+Tayyaba/data=!4m7!3m6!1s0x3a32c9a33d61e42d:0x67ab2dc79cc1b591!8m2!3d18.8626989!4d79.4737213!16s%2Fg%2F11g4h2ms8d!19sChIJLeRhPaPJMjoRkbXBnMctq2c?authuser=0&hl=en&rclk=1",
        "coordinates": {
            "latitude": 18.862698899999998,
            "longitude": 79.4737213
        }
    },
    {
        "name": "Masjid E Habeebiya",
        "main_category": "Mosque",
        "address": "QCPM+95P Masjid E Habeebiya, Vidyut Nagar, Brahmana Palli, Ramagundam, Telangana 505208",
        "detailed_address": {
            "ward": "Vidyut Nagar, Brahmana Palli",
            "street": "QCPM+95P",
            "city": "Ramagundam",
            "postal_code": "505208",
            "state": "Telangana",
            "country_code": "IN"
        },
        "images": [
            {
                "about": "All",
                "link": "https://lh5.googleusercontent.com/p/AF1QipPS2nX9ftW2-K50VtxBsmX5ExtTIxfJNvNVCEAt=w397-h298-k-no"
            }
        ],
        "link": "https://www.google.com/maps/place/Masjid+E+Habeebiya/data=!4m7!3m6!1s0x3a32cc7bd8566927:0x30838418011712c1!8m2!3d18.7859593!4d79.4329471!16s%2Fg%2F11b_2pkslx!19sChIJJ2lW2HvMMjoRwRIXARiEgzA?authuser=0&hl=en&rclk=1",
        "coordinates": {
            "latitude": 18.7859593,
            "longitude": 79.43294709999999
        }
    },
    {
        "name": "Madeena Masjid",
        "main_category": "Mosque",
        "address": "V6P3+8XJ Madeena Masjid, Unnamed Road, Lakshettipet, Utukur, Telangana 504215",
        "detailed_address": {
            "ward": null,
            "street": "V6P3+8XJ, Unnamed Road",
            "city": "Lakshettipet, Utukur",
            "postal_code": "504215",
            "state": "Telangana",
            "country_code": "IN"
        },
        "images": [
            {
                "about": "All",
                "link": "https://streetviewpixels-pa.googleapis.com/v1/thumbnail?panoid=gGh0N2l0YFnyBs5z-_-ZjA&cb_client=maps_sv.tactile.gps&w=224&h=298&yaw=249.1473&pitch=0&thumbfov=100"
            },
            {
                "about": "Street View & 360deg",
                "link": "https://streetviewpixels-pa.googleapis.com/v1/thumbnail?panoid=gGh0N2l0YFnyBs5z-_-ZjA&cb_client=maps_sv.tactile.gps&w=224&h=298&yaw=249.1473&pitch=0&thumbfov=100"
            }
        ],
        "link": "https://www.google.com/maps/place/Madeena+Masjid/data=!4m7!3m6!1s0x3bcd4808b8069611:0xa08757891f8dc24f!8m2!3d18.8858394!4d79.2049032!16s%2Fg%2F11h9rd_j48!19sChIJEZYGuAhIzTsRT8KNH4lXh6A?authuser=0&hl=en&rclk=1",
        "coordinates": {
            "latitude": 18.8858394,
            "longitude": 79.20490319999999
        }
    },
    {
        "name": "MUSLIMS GRAVE YARD",
        "main_category": "Mosque",
        "address": "QCGP+73J MUSLIMS GRAVE YARD, Brahmana Palli, Ramagundam, Telangana 505208",
        "detailed_address": {
            "ward": "Brahmana Palli",
            "street": "QCGP+73J",
            "city": "Ramagundam",
            "postal_code": "505208",
            "state": "Telangana",
            "country_code": "IN"
        },
        "images": [
            {
                "about": "All",
                "link": "https://lh5.googleusercontent.com/p/AF1QipOoOg05sjiezcq9VAMPpSKu2E1t649V1PNGBMuj=w224-h298-k-no"
            }
        ],
        "link": "https://www.google.com/maps/place/MUSLIMS+GRAVE+YARD/data=!4m7!3m6!1s0x3a32cc65c1bf093f:0x444526ba3785f40c!8m2!3d18.7757132!4d79.4351304!16s%2Fg%2F11gfd2byvh!19sChIJPwm_wWXMMjoRDPSFN7omRUQ?authuser=0&hl=en&rclk=1",
        "coordinates": {
            "latitude": 18.7757132,
            "longitude": 79.43513039999999
        }
    },
    {
        "name": "MASJID-E-SHAHEEN",
        "main_category": "Mosque",
        "address": "VCCX+6FH MASJID-E-SHAHEEN, Unnamed Road, Mancherial, Telangana 504208",
        "detailed_address": {
            "ward": null,
            "street": "VCCX+6FH, Unnamed Road",
            "city": "Mancherial",
            "postal_code": "504208",
            "state": "Telangana",
            "country_code": "IN"
        },
        "images": [
            {
                "about": "All",
                "link": "https://streetviewpixels-pa.googleapis.com/v1/thumbnail?panoid=Z1XUDinYZAJrdAJuGCcaFg&cb_client=maps_sv.tactile.gps&w=224&h=298&yaw=40.03003&pitch=0&thumbfov=100"
            },
            {
                "about": "Street View & 360deg",
                "link": "https://streetviewpixels-pa.googleapis.com/v1/thumbnail?panoid=Z1XUDinYZAJrdAJuGCcaFg&cb_client=maps_sv.tactile.gps&w=224&h=298&yaw=40.03003&pitch=0&thumbfov=100"
            }
        ],
        "link": "https://www.google.com/maps/place/MASJID-E-SHAHEEN/data=!4m7!3m6!1s0x3a32cb56c214794b:0xd2ade06bb92c76bd!8m2!3d18.8705651!4d79.4487429!16s%2Fg%2F11g07z4sts!19sChIJS3kUwlbLMjoRvXYsuWvgrdI?authuser=0&hl=en&rclk=1",
        "coordinates": {
            "latitude": 18.8705651,
            "longitude": 79.4487429
        }
    },
    {
        "name": "Masjid-E-Azam Kareem Auliya",
        "main_category": "Mosque",
        "address": "VCJM+P49 Masjid-E-Azam Kareem Auliya, Unnamed Road, Mancherial, Telangana 504208",
        "detailed_address": {
            "ward": null,
            "street": "VCJM+P49, Unnamed Road",
            "city": "Mancherial",
            "postal_code": "504208",
            "state": "Telangana",
            "country_code": "IN"
        },
        "images": [
            {
                "about": "All",
                "link": "https://lh5.googleusercontent.com/p/AF1QipPxfZQdupq1MCBNDFJuWzWmODK5T-8q0GnCjTo=w224-h398-k-no"
            }
        ],
        "link": "https://www.google.com/maps/place/Masjid-E-Azam+Kareem+Auliya/data=!4m7!3m6!1s0x3a32ca7913d90aa7:0x1c1fe168ba7a4fae!8m2!3d18.8817829!4d79.4328725!16s%2Fg%2F11hc_tjzf2!19sChIJpwrZE3nKMjoRrk96umjhHxw?authuser=0&hl=en&rclk=1",
        "coordinates": {
            "latitude": 18.881782899999997,
            "longitude": 79.4328725
        }
    },
    {
        "name": "Raza Masjid Bellampalli",
        "main_category": "Mosque",
        "address": "3FFQ+GVH Raza Masjid Bellampalli, Bellampalle, Telangana 504251",
        "detailed_address": {
            "ward": null,
            "street": "3FFQ+GVH",
            "city": "Bellampalle",
            "postal_code": "504251",
            "state": "Telangana",
            "country_code": "IN"
        },
        "images": [
            {
                "about": "All",
                "link": "https://lh5.googleusercontent.com/p/AF1QipOLa0_tSvswblXoiIumU9Ryn0ojGlb9jp0crEhu=w639-h298-k-no"
            },
            {
                "about": "Street View & 360deg",
                "link": "https://streetviewpixels-pa.googleapis.com/v1/thumbnail?panoid=51wp8pnHTKtZ8WSWx49d-w&cb_client=maps_sv.tactile.gps&w=224&h=298&yaw=62.33031&pitch=0&thumbfov=100"
            }
        ],
        "link": "https://www.google.com/maps/place/Raza+Masjid+Bellampalli/data=!4m7!3m6!1s0x3a32b1e100ce139b:0xb8c9205409aef47e!8m2!3d19.0738076!4d79.4897482!16s%2Fg%2F11csb2svwk!19sChIJmxPOAOGxMjoRfvSuCVQgybg?authuser=0&hl=en&rclk=1",
        "coordinates": {
            "latitude": 19.0738076,
            "longitude": 79.4897482
        }
    },
    {
        "name": "MASJID-E-KAUSAR",
        "main_category": "Mosque",
        "address": "QG75+QGH MASJID-E-KAUSAR, Power House Colony, Godavarikhani, Ramagundam, Telangana 505209",
        "detailed_address": {
            "ward": "Power House Colony, Godavarikhani",
            "street": "QG75+QGH",
            "city": "Ramagundam",
            "postal_code": "505209",
            "state": "Telangana",
            "country_code": "IN"
        },
        "images": [
            {
                "about": "All",
                "link": "https://lh5.googleusercontent.com/p/AF1QipPGWVR5328mVCFw9VuYmsv2KS5vd3_dhk3YB0gi=w529-h298-k-no"
            }
        ],
        "link": "https://www.google.com/maps/place/MASJID-E-KAUSAR/data=!4m7!3m6!1s0x3a32cee47112e58f:0x193a48c54adb5e5e!8m2!3d18.7644429!4d79.5088606!16s%2Fg%2F11d_w5k6z2!19sChIJj-USceTOMjoRXl7bSsVIOhk?authuser=0&hl=en&rclk=1",
        "coordinates": {
            "latitude": 18.7644429,
            "longitude": 79.50886059999999
        }
    },
    {
        "name": "Masjid-E-Zam Zam",
        "main_category": "Mosque",
        "address": "2FXM+WCV Masjid-E-Zam Zam, Bellampalle, Telangana 504251",
        "detailed_address": {
            "ward": null,
            "street": "2FXM+WCV",
            "city": "Bellampalle",
            "postal_code": "504251",
            "state": "Telangana",
            "country_code": "IN"
        },
        "images": [
            {
                "about": "All",
                "link": "https://lh5.googleusercontent.com/p/AF1QipO0gizcIF7tzFy5Jx1qwc9H9Fc0bHBXPIGwlCI=w397-h298-k-no"
            },
            {
                "about": "Street View & 360deg",
                "link": "https://streetviewpixels-pa.googleapis.com/v1/thumbnail?panoid=TJItv6EtekC3MkGqE8oCGg&cb_client=maps_sv.tactile.gps&w=224&h=298&yaw=288.52933&pitch=0&thumbfov=100"
            }
        ],
        "link": "https://www.google.com/maps/place/Masjid-E-Zam+Zam/data=!4m7!3m6!1s0x3a32b1925908d747:0xdc5f23a19654e152!8m2!3d19.0498658!4d79.4835516!16s%2Fg%2F11dxbp6v0v!19sChIJR9cIWZKxMjoRUuFUlqEjX9w?authuser=0&hl=en&rclk=1",
        "coordinates": {
            "latitude": 19.0498658,
            "longitude": 79.4835516
        }
    },
    {
        "name": "MADEENA MASJID",
        "main_category": "Mosque",
        "address": "VCQQ+GX9 MADEENA MASJID, Vikas Nagar, Mancherial, Telangana 504208",
        "detailed_address": {
            "ward": "Vikas Nagar",
            "street": "VCQQ+GX9",
            "city": "Mancherial",
            "postal_code": "504208",
            "state": "Telangana",
            "country_code": "IN"
        },
        "images": [],
        "link": "https://www.google.com/maps/place/MADEENA+MASJID/data=!4m7!3m6!1s0x3a32b5be457777e1:0xa94b12275a77ac85!8m2!3d18.8887758!4d79.4399999!16s%2Fg%2F11gh5l0d1z!19sChIJ4Xd3Rb61MjoRhax3WicSS6k?authuser=0&hl=en&rclk=1",
        "coordinates": {
            "latitude": 18.888775799999998,
            "longitude": 79.43999989999999
        }
    },
    {
        "name": "EIDGAH (MNCL)",
        "main_category": "Mosque",
        "address": "WC2J+85F EIDGAH (MNCL), Thimmapur, Mancherial, Telangana 504208",
        "detailed_address": {
            "ward": null,
            "street": "WC2J+85F",
            "city": "Thimmapur, Mancherial",
            "postal_code": "504208",
            "state": "Telangana",
            "country_code": "IN"
        },
        "images": [
            {
                "about": "All",
                "link": "https://lh5.googleusercontent.com/p/AF1QipOpuYtvKO_OuGPsEU3_TUSa6xJKrn5FuEVA2UJu=w478-h298-k-no"
            },
            {
                "about": "Street View & 360deg",
                "link": "https://streetviewpixels-pa.googleapis.com/v1/thumbnail?panoid=HKcTC7pE8yO-sQuvHxPCuA&cb_client=maps_sv.tactile.gps&w=224&h=298&yaw=93.281685&pitch=0&thumbfov=100"
            }
        ],
        "link": "https://www.google.com/maps/place/EIDGAH+%28MNCL%29/data=!4m7!3m6!1s0x3a32b59c7b13114f:0x5545818116bb1634!8m2!3d18.9008225!4d79.4304188!16s%2Fg%2F11cs6fdkyw!19sChIJTxETe5y1MjoRNBa7FoGBRVU?authuser=0&hl=en&rclk=1",
        "coordinates": {
            "latitude": 18.9008225,
            "longitude": 79.4304188
        }
    },
    {
        "name": "Masjid-e-hamd, Chandanapoor",
        "main_category": "Mosque",
        "address": "PHCM+H32 Masjid-e-hamd, Chandanapoor, Karimnagar, Telangana 505209",
        "detailed_address": {
            "ward": null,
            "street": "PHCM+H32",
            "city": "Karimnagar",
            "postal_code": "505209",
            "state": "Telangana",
            "country_code": "IN"
        },
        "images": [
            {
                "about": "All",
                "link": "https://streetviewpixels-pa.googleapis.com/v1/thumbnail?panoid=djKv5-HbtrNuw_LdiW3tvg&cb_client=maps_sv.tactile.gps&w=224&h=298&yaw=230.90862&pitch=0&thumbfov=100"
            },
            {
                "about": "Street View & 360deg",
                "link": "https://streetviewpixels-pa.googleapis.com/v1/thumbnail?panoid=djKv5-HbtrNuw_LdiW3tvg&cb_client=maps_sv.tactile.gps&w=224&h=298&yaw=230.90862&pitch=0&thumbfov=100"
            }
        ],
        "link": "https://www.google.com/maps/place/Masjid-e-hamd,+Chandanapoor/data=!4m7!3m6!1s0x3a32c5477f06e2ed:0x1c142c762723fe45!8m2!3d18.7213866!4d79.5826321!16s%2Fg%2F11d_bfc5h3!19sChIJ7eIGf0fFMjoRRf4jJ3YsFBw?authuser=0&hl=en&rclk=1",
        "coordinates": {
            "latitude": 18.7213866,
            "longitude": 79.5826321
        }
    },
    {
        "name": "Hazrath Baba Sylani Chilla",
        "main_category": "Mosque",
        "address": "QCPM+FF5 Hazrath Baba Sylani Chilla, Unnamed Road, Brahmana Palli, Ramagundam, Telangana 505208",
        "detailed_address": {
            "ward": "Brahmana Palli",
            "street": "QCPM+FF5, Unnamed Road",
            "city": "Ramagundam",
            "postal_code": "505208",
            "state": "Telangana",
            "country_code": "IN"
        },
        "images": [
            {
                "about": "All",
                "link": "https://lh5.googleusercontent.com/p/AF1QipMhIk_WGQLac1Ai0HsIYSenkwuRRCe9gr28mfOR=w224-h398-k-no"
            },
            {
                "about": "Videos",
                "link": "https://lh5.googleusercontent.com/p/AF1QipMqoylapk4q5xTkzLiyucm8SPj7duvBmHmvPxtt=w224-h398-k-no"
            }
        ],
        "link": "https://www.google.com/maps/place/Hazrath+Baba+Sylani+Chilla/data=!4m7!3m6!1s0x3a32cc7bd556bb6d:0x41949a296cc74698!8m2!3d18.7861396!4d79.4337404!16s%2Fg%2F11f126d886!19sChIJbbtW1XvMMjoRmEbHbCmalEE?authuser=0&hl=en&rclk=1",
        "coordinates": {
            "latitude": 18.7861396,
            "longitude": 79.43374039999999
        }
    },
    {
        "name": "Masjid A Mohammedia",
        "main_category": "Mosque",
        "address": "QCMW+V6F Masjid A Mohammedia, Housing Board Colony, Mustafa Nagar, Ramagundam, Telangana 500057",
        "detailed_address": {
            "ward": "Housing Board Colony, Mustafa Nagar",
            "street": "QCMW+V6F",
            "city": "Ramagundam",
            "postal_code": "500057",
            "state": "Telangana",
            "country_code": "IN"
        },
        "images": [
            {
                "about": "All",
                "link": "https://lh5.googleusercontent.com/p/AF1QipNdh0PdfjN387_JE-PtApEgybW8nmzV552zwxey=w397-h298-k-no"
            },
            {
                "about": "Street View & 360deg",
                "link": "https://streetviewpixels-pa.googleapis.com/v1/thumbnail?panoid=4iQZxSRCtKoXrZKPT4w1QQ&cb_client=maps_sv.tactile.gps&w=224&h=298&yaw=264.4069&pitch=0&thumbfov=100"
            }
        ],
        "link": "https://www.google.com/maps/place/Masjid+A+Mohammedia/data=!4m7!3m6!1s0x3a32cc730564ec59:0x9334a7025c9c8f9f!8m2!3d18.7846805!4d79.4455612!16s%2Fg%2F11f34457f1!19sChIJWexkBXPMMjoRn4-cXAKnNJM?authuser=0&hl=en&rclk=1",
        "coordinates": {
            "latitude": 18.7846805,
            "longitude": 79.4455612
        }
    },
    {
        "name": "Madina Masjid",
        "main_category": "Mosque",
        "address": "2FGJ+3MF Madina Masjid, Somagudem, Telangana 504251",
        "detailed_address": {
            "ward": null,
            "street": "2FGJ+3MF",
            "city": "Somagudem",
            "postal_code": "504251",
            "state": "Telangana",
            "country_code": "IN"
        },
        "images": [
            {
                "about": "All",
                "link": "https://lh5.googleusercontent.com/p/AF1QipO_RUki5uQRv3zl7Re7ph2q8HAswTu57WzDA24=w529-h298-k-no"
            },
            {
                "about": "Street View & 360deg",
                "link": "https://streetviewpixels-pa.googleapis.com/v1/thumbnail?panoid=5fYn3VBeBP42_GIsQrjDaA&cb_client=maps_sv.tactile.gps&w=224&h=298&yaw=251.60844&pitch=0&thumbfov=100"
            }
        ],
        "link": "https://www.google.com/maps/place/Madina+Masjid/data=!4m7!3m6!1s0x3a32b1777d58ca9f:0xbdf6e76e68a3c393!8m2!3d19.0251994!4d79.4816842!16s%2Fg%2F11g875wdpp!19sChIJn8pYfXexMjoRk8OjaG7n9r0?authuser=0&hl=en&rclk=1",
        "coordinates": {
            "latitude": 19.025199399999998,
            "longitude": 79.48168419999999
        }
    },
    {
        "name": "MASJID E KHAIRUNNISA",
        "main_category": "Mosque",
        "address": "MASJID E KHAIRUNNISA, Mancherial, Telangana 504302",
        "detailed_address": {
            "ward": null,
            "street": null,
            "city": "Mancherial",
            "postal_code": "504302",
            "state": "Telangana",
            "country_code": "IN"
        },
        "images": [
            {
                "about": "All",
                "link": "https://streetviewpixels-pa.googleapis.com/v1/thumbnail?panoid=PwdiKaTScb3jjLNQe4OBzg&cb_client=maps_sv.tactile.gps&w=224&h=298&yaw=258.73358&pitch=0&thumbfov=100"
            },
            {
                "about": "By owner",
                "link": "https://lh5.googleusercontent.com/p/AF1QipOlzego81O01vUXMaR0IkPnM0gY6_PTOYAubmYD=w224-h395-k-no"
            },
            {
                "about": "Street View & 360deg",
                "link": "https://streetviewpixels-pa.googleapis.com/v1/thumbnail?panoid=PwdiKaTScb3jjLNQe4OBzg&cb_client=maps_sv.tactile.gps&w=224&h=298&yaw=258.73358&pitch=0&thumbfov=100"
            }
        ],
        "link": "https://www.google.com/maps/place/MASJID+E+KHAIRUNNISA/data=!4m7!3m6!1s0x3a32cb4d1d8d163b:0x61ae25ddffab28b1!8m2!3d18.8658925!4d79.4523998!16s%2Fg%2F11ndzf94qz!19sChIJOxaNHU3LMjoRsSir_90lrmE?authuser=0&hl=en&rclk=1",
        "coordinates": {
            "latitude": 18.865892499999998,
            "longitude": 79.4523998
        }
    },
    {
        "name": "JAMA MASJID NASPUR",
        "main_category": "Mosque",
        "address": "RFW6+MVV JAMA MASJID NASPUR, Naspur, Mancherial, Telangana 504302",
        "detailed_address": {
            "ward": null,
            "street": "RFW6+MVV",
            "city": "Naspur, Mancherial",
            "postal_code": null,
            "state": "Telangana",
            "country_code": "IN"
        },
        "images": [
            {
                "about": "All",
                "link": "https://lh5.googleusercontent.com/p/AF1QipMkhlkxGCtEVqK60YE-lLdJihq_xDOgRXuwE8pU=w529-h298-k-no"
            },
            {
                "about": "Dome",
                "link": "https://lh5.googleusercontent.com/p/AF1QipM3W-LG_tsZO9a82f_x4AwVbk6deI5N95DUW6Sw=w529-h298-k-no"
            },
            {
                "about": "Street View & 360deg",
                "link": "https://streetviewpixels-pa.googleapis.com/v1/thumbnail?panoid=itapbyAMtq31NwnOnyD04w&cb_client=maps_sv.tactile.gps&w=224&h=298&yaw=250.84747&pitch=0&thumbfov=100"
            }
        ],
        "link": "https://www.google.com/maps/place/JAMA+MASJID+NASPUR/data=!4m7!3m6!1s0x3a32ca2e813ace9f:0x311a6126e0864141!8m2!3d18.846748!4d79.4621718!16s%2Fg%2F11f5dfn2_c!19sChIJn846gS7KMjoRQUGG4CZhGjE?authuser=0&hl=en&rclk=1",
        "coordinates": {
            "latitude": 18.846747999999998,
            "longitude": 79.4621718
        }
    },
    {
        "name": "MASJID-E-NOORAIN",
        "main_category": "Mosque",
        "address": "VCFQ+9FV MASJID-E-NOORAIN, Reddy Colony, Mancherial, Telangana 504208",
        "detailed_address": {
            "ward": "Reddy Colony",
            "street": "VCFQ+9FV",
            "city": "Mancherial",
            "postal_code": "504208",
            "state": "Telangana",
            "country_code": "IN"
        },
        "images": [
            {
                "about": "All",
                "link": "https://streetviewpixels-pa.googleapis.com/v1/thumbnail?panoid=jfQkvjRi73XUUiy2cFgU4Q&cb_client=maps_sv.tactile.gps&w=224&h=298&yaw=306.38293&pitch=0&thumbfov=100"
            },
            {
                "about": "Street View & 360deg",
                "link": "https://streetviewpixels-pa.googleapis.com/v1/thumbnail?panoid=jfQkvjRi73XUUiy2cFgU4Q&cb_client=maps_sv.tactile.gps&w=224&h=298&yaw=306.38293&pitch=0&thumbfov=100"
            }
        ],
        "link": "https://www.google.com/maps/place/MASJID-E-NOORAIN/data=!4m7!3m6!1s0x3a32cb27edba3829:0x47d4434a72563692!8m2!3d18.8734981!4d79.4386736!16s%2Fg%2F11ghnfl4km!19sChIJKTi67SfLMjoRkjZWckpD1Ec?authuser=0&hl=en&rclk=1",
        "coordinates": {
            "latitude": 18.8734981,
            "longitude": 79.4386736
        }
    },
    {
        "name": "Masjid E Salafia",
        "main_category": "Mosque",
        "address": "QG53+4R5 Masjid E Salafia, Godavarikhani, Ramagundam, Telangana 505211",
        "detailed_address": {
            "ward": "Godavarikhani",
            "street": "QG53+4R5",
            "city": "Ramagundam",
            "postal_code": "505211",
            "state": "Telangana",
            "country_code": "IN"
        },
        "images": [
            {
                "about": "All",
                "link": "https://streetviewpixels-pa.googleapis.com/v1/thumbnail?panoid=MO3uEoob1lNh_MbXEFFN3w&cb_client=maps_sv.tactile.gps&w=224&h=298&yaw=298.2475&pitch=0&thumbfov=100"
            },
            {
                "about": "Street View & 360deg",
                "link": "https://streetviewpixels-pa.googleapis.com/v1/thumbnail?panoid=MO3uEoob1lNh_MbXEFFN3w&cb_client=maps_sv.tactile.gps&w=224&h=298&yaw=298.2475&pitch=0&thumbfov=100"
            }
        ],
        "link": "https://www.google.com/maps/place/Masjid+E+Salafia/data=!4m7!3m6!1s0x3a32cefa7dae5bf7:0x5efdb220fc170eec!8m2!3d18.7577625!4d79.5046248!16s%2Fg%2F11g01v3r_8!19sChIJ91uuffrOMjoR7A4X_CCy_V4?authuser=0&hl=en&rclk=1",
        "coordinates": {
            "latitude": 18.7577625,
            "longitude": 79.5046248
        }
    },
    {
        "name": "Masjid",
        "main_category": "Mosque",
        "address": "PGMF+2Q8 Masjid, Godavarikhani, Ramagundam, Telangana 505214",
        "detailed_address": {
            "ward": "Godavarikhani",
            "street": "PGMF+2Q8",
            "city": "Ramagundam",
            "postal_code": "505214",
            "state": "Telangana",
            "country_code": "IN"
        },
        "images": [
            {
                "about": "All",
                "link": "https://lh5.googleusercontent.com/p/AF1QipNG5MFuCF-QxxcXZ5Ko3LKuD0tMWDfWgRGRX1iW=w529-h298-k-no"
            },
            {
                "about": "Street View & 360deg",
                "link": "https://streetviewpixels-pa.googleapis.com/v1/thumbnail?panoid=yxrRmDxn9k7yEnPIbjrR1Q&cb_client=maps_sv.tactile.gps&w=224&h=298&yaw=281.6124&pitch=0&thumbfov=100"
            }
        ],
        "link": "https://www.google.com/maps/place/Masjid/data=!4m7!3m6!1s0x3a32cfb73298eced:0xae3092612043c8fb!8m2!3d18.7325418!4d79.5244461!16s%2Fg%2F11f0_gn0bf!19sChIJ7eyYMrfPMjoR-8hDIGGSMK4?authuser=0&hl=en&rclk=1",
        "coordinates": {
            "latitude": 18.7325418,
            "longitude": 79.52444609999999
        }
    },
    {
        "name": "Masjid-e-rahmaniya",
        "main_category": "Mosque",
        "address": "RGGM+4P5 Masjid-e-rahmaniya, Indaram, Telangana 504216",
        "detailed_address": {
            "ward": null,
            "street": "RGGM+4P5",
            "city": "Indaram",
            "postal_code": null,
            "state": "Telangana",
            "country_code": "IN"
        },
        "images": [
            {
                "about": "All",
                "link": "https://lh5.googleusercontent.com/p/AF1QipPh6yA_DakXyJ-qgTz_G39VhNKiWa-Nb_BKnQkp=w224-h398-k-no"
            },
            {
                "about": "Street View & 360deg",
                "link": "https://streetviewpixels-pa.googleapis.com/v1/thumbnail?panoid=nRKQ57k9b8gfgMUGxjJT2Q&cb_client=maps_sv.tactile.gps&w=224&h=298&yaw=63.04521&pitch=0&thumbfov=100"
            },
            {
                "about": "Videos",
                "link": "https://lh5.googleusercontent.com/p/AF1QipOrIp3SSqKy06S_IfM_38p1FmKKjYNRE-4H6EqU=w224-h398-k-no"
            }
        ],
        "link": "https://www.google.com/maps/place/Masjid-e-rahmaniya/data=!4m7!3m6!1s0x3a32c8eba359f015:0x28a65bc22f56449e!8m2!3d18.8252519!4d79.5343653!16s%2Fg%2F11gdlwlz7k!19sChIJFfBZo-vIMjoRnkRWL8Jbpig?authuser=0&hl=en&rclk=1",
        "coordinates": {
            "latitude": 18.825251899999998,
            "longitude": 79.53436529999999
        }
    },
    {
        "name": "Masjid",
        "main_category": "Mosque",
        "address": "3F8M+FFQ Masjid, Bellampalle, Kannal Rural, Telangana 504251",
        "detailed_address": {
            "ward": null,
            "street": "3F8M+FFQ",
            "city": "Bellampalle, Kannal Rural",
            "postal_code": "504251",
            "state": "Telangana",
            "country_code": "IN"
        },
        "images": [
            {
                "about": "All",
                "link": "https://lh5.googleusercontent.com/p/AF1QipM8EtoRBLXf6nrQX0y-LiKhHHIZEbh9rPKCmFVx=w635-h298-k-no"
            },
            {
                "about": "Dome",
                "link": "https://lh5.googleusercontent.com/p/AF1QipMh3318roR0B4Uo4RCFbLsrILzGV1ZKg9LlYJEz=w224-h497-k-no"
            },
            {
                "about": "Videos",
                "link": "https://lh5.googleusercontent.com/p/AF1QipPOjRejffhIdJDrLjUKW3xtgPIp0vIkRpL7ppVR=w224-h398-k-no"
            },
            {
                "about": "Street View & 360deg",
                "link": "https://streetviewpixels-pa.googleapis.com/v1/thumbnail?panoid=dLirBwhbe0-zn0z48v6HnQ&cb_client=maps_sv.tactile.gps&w=224&h=298&yaw=184.43034&pitch=0&thumbfov=100"
            }
        ],
        "link": "https://www.google.com/maps/place/Masjid/data=!4m7!3m6!1s0x3a32b1b5f0822333:0xf2f1d40734fe9993!8m2!3d19.0662171!4d79.48373!16s%2Fg%2F11gl2hm2p0!19sChIJMyOC8LWxMjoRk5n-NAfU8fI?authuser=0&hl=en&rclk=1",
        "coordinates": {
            "latitude": 19.0662171,
            "longitude": 79.48373
        }
    },
    {
        "name": "Noori Masjid",
        "main_category": "Mosque",
        "address": "Noori Masjid, c.c.c, C.C.C Plant Rd, Gandhi nagar, Naspur, Mancherial, Telangana 504302",
        "detailed_address": {
            "ward": "Gandhi nagar",
            "street": "c.c.c, C.C.C Plant Rd",
            "city": "Naspur, Mancherial",
            "postal_code": "504302",
            "state": "Telangana",
            "country_code": "IN"
        },
        "images": [],
        "link": "https://www.google.com/maps/place/Noori+Masjid/data=!4m7!3m6!1s0x3a32c9eba6e4957f:0x841ba9258603bdb!8m2!3d18.8687021!4d79.4891449!16s%2Fg%2F11gbz9rzkv!19sChIJf5XkpuvJMjoR2ztgWJK6QQg?authuser=0&hl=en&rclk=1",
        "coordinates": {
            "latitude": 18.8687021,
            "longitude": 79.4891449
        }
    },
    {
        "name": "RK6 Market Perila Gundam",
        "main_category": "Mosque",
        "address": "VG95+P7M RK6 Market Perila Gundam, Srirampur Colony, Mancherial, Telangana 504303",
        "detailed_address": {
            "ward": "Srirampur Colony",
            "street": "VG95+P7M",
            "city": "Mancherial",
            "postal_code": "504303",
            "state": "Telangana",
            "country_code": "IN"
        },
        "images": [
            {
                "about": "All",
                "link": "https://streetviewpixels-pa.googleapis.com/v1/thumbnail?panoid=fmXtkv2lpFoLLngbHNrkgg&cb_client=maps_sv.tactile.gps&w=224&h=298&yaw=330.26193&pitch=0&thumbfov=100"
            },
            {
                "about": "Street View & 360deg",
                "link": "https://streetviewpixels-pa.googleapis.com/v1/thumbnail?panoid=fmXtkv2lpFoLLngbHNrkgg&cb_client=maps_sv.tactile.gps&w=224&h=298&yaw=330.26193&pitch=0&thumbfov=100"
            }
        ],
        "link": "https://www.google.com/maps/place/RK6+Market+Perila+Gundam/data=!4m7!3m6!1s0x3a32c95fb9fc0339:0x85e654cb128fe533!8m2!3d18.8697025!4d79.5074927!16s%2Fg%2F11rw_hh8g_!19sChIJOQP8uV_JMjoRM-WPEstU5oU?authuser=0&hl=en&rclk=1",
        "coordinates": {
            "latitude": 18.8697025,
            "longitude": 79.5074927
        }
    },
    {
        "name": "Masjid (Pedda Darmaram)",
        "main_category": "Mosque",
        "address": "2C5H+3JX Masjid (Pedda Darmaram), Chinnadharmaram Rd, Telangana 504207",
        "detailed_address": {
            "ward": null,
            "street": "2C5H+3JX, Chinnadharmaram Rd",
            "city": null,
            "postal_code": null,
            "state": "Telangana",
            "country_code": "IN"
        },
        "images": [
            {
                "about": "All",
                "link": "https://lh5.googleusercontent.com/p/AF1QipNzPiqJJAaXBp-ENfwIj_w7NJ8MGPfqi-UW_lfq=w529-h298-k-no"
            },
            {
                "about": "Street View & 360deg",
                "link": "https://streetviewpixels-pa.googleapis.com/v1/thumbnail?panoid=LlKx529z-hcDd-LCS8N8Kw&cb_client=maps_sv.tactile.gps&w=224&h=298&yaw=88.826584&pitch=0&thumbfov=100"
            }
        ],
        "link": "https://www.google.com/maps/place/Masjid+%28Pedda+Darmaram%29/data=!4m7!3m6!1s0x3a32b3099815f42f:0x72380b2e6077fd12!8m2!3d19.0077368!4d79.4291235!16s%2Fg%2F11hyt6yp81!19sChIJL_QVmAmzMjoREv13YC4LOHI?authuser=0&hl=en&rclk=1",
        "coordinates": {
            "latitude": 19.0077368,
            "longitude": 79.4291235
        }
    },
    {
        "name": "Mohammadia Masjid",
        "main_category": "Mosque",
        "address": "3F6M+7R7 Mohammadia Masjid, Bellampalle, Telangana 504251",
        "detailed_address": {
            "ward": null,
            "street": "3F6M+7R7",
            "city": "Bellampalle",
            "postal_code": "504251",
            "state": "Telangana",
            "country_code": "IN"
        },
        "images": [
            {
                "about": "All",
                "link": "https://streetviewpixels-pa.googleapis.com/v1/thumbnail?panoid=mdHwpLu5bFhSUCr4cRqfbg&cb_client=maps_sv.tactile.gps&w=224&h=298&yaw=92.34243&pitch=0&thumbfov=100"
            },
            {
                "about": "Street View & 360deg",
                "link": "https://streetviewpixels-pa.googleapis.com/v1/thumbnail?panoid=mdHwpLu5bFhSUCr4cRqfbg&cb_client=maps_sv.tactile.gps&w=224&h=298&yaw=92.34243&pitch=0&thumbfov=100"
            }
        ],
        "link": "https://www.google.com/maps/place/Mohammadia+Masjid/data=!4m7!3m6!1s0x3a32b1eef597bc9b:0xbae0d0995a888173!8m2!3d19.0606673!4d79.4845425!16s%2Fg%2F11c6q7dvyt!19sChIJm7yX9e6xMjoRc4GIWpnQ4Lo?authuser=0&hl=en&rclk=1",
        "coordinates": {
            "latitude": 19.0606673,
            "longitude": 79.4845425
        }
    },
    {
        "name": "JAMA MASJID",
        "main_category": "Mosque",
        "address": "WGW5+4WR JAMA MASJID, Unnamed Road, Sarangapalle, Telangana 504216",
        "detailed_address": {
            "ward": null,
            "street": "WGW5+4WR, Unnamed Road",
            "city": "Sarangapalle",
            "postal_code": "504216",
            "state": "Telangana",
            "country_code": "IN"
        },
        "images": [
            {
                "about": "All",
                "link": "https://streetviewpixels-pa.googleapis.com/v1/thumbnail?panoid=nJO3EeriHKI8d7uqo8M3-A&cb_client=maps_sv.tactile.gps&w=224&h=298&yaw=331.89154&pitch=0&thumbfov=100"
            },
            {
                "about": "Street View & 360deg",
                "link": "https://streetviewpixels-pa.googleapis.com/v1/thumbnail?panoid=nJO3EeriHKI8d7uqo8M3-A&cb_client=maps_sv.tactile.gps&w=224&h=298&yaw=331.89154&pitch=0&thumbfov=100"
            }
        ],
        "link": "https://www.google.com/maps/place/JAMA+MASJID/data=!4m7!3m6!1s0x3a32b7fbf26e2ebd:0xfbf87bf4b860e6ad!8m2!3d18.9453608!4d79.5097564!16s%2Fg%2F11h7dbkr5h!19sChIJvS5u8vu3MjoRreZguPR7-Ps?authuser=0&hl=en&rclk=1",
        "coordinates": {
            "latitude": 18.9453608,
            "longitude": 79.5097564
        }
    },
    {
        "name": "Masjede-E-Mohomadya",
        "main_category": "Mosque",
        "address": "5C2V+5PQ Masjede-E-Mohomadya, Tandur, Telangana 504272",
        "detailed_address": {
            "ward": null,
            "street": "5C2V+5PQ",
            "city": "Tandur",
            "postal_code": "504272",
            "state": "Telangana",
            "country_code": "IN"
        },
        "images": [
            {
                "about": "All",
                "link": "https://streetviewpixels-pa.googleapis.com/v1/thumbnail?panoid=5NiTuJX7IiDfHdJRVL2ZqQ&cb_client=maps_sv.tactile.gps&w=224&h=298&yaw=58.605145&pitch=0&thumbfov=100"
            },
            {
                "about": "Street View & 360deg",
                "link": "https://streetviewpixels-pa.googleapis.com/v1/thumbnail?panoid=5NiTuJX7IiDfHdJRVL2ZqQ&cb_client=maps_sv.tactile.gps&w=224&h=298&yaw=58.605145&pitch=0&thumbfov=100"
            }
        ],
        "link": "https://www.google.com/maps/place/Masjede-E-Mohomadya/data=!4m7!3m6!1s0x3a32ac6b88820c93:0x87ac92cc59e900f3!8m2!3d19.1504521!4d79.4443549!16s%2Fg%2F11c6rhccd4!19sChIJkwyCiGusMjoR8wDpWcySrIc?authuser=0&hl=en&rclk=1",
        "coordinates": {
            "latitude": 19.1504521,
            "longitude": 79.4443549
        }
    },
    {
        "name": "EIDGAH CCC",
        "main_category": "Mosque",
        "address": "VFCM+5XR EIDGAH CCC, C.C.C Plant Rd, Naspur, Mancherial, Telangana 504302",
        "detailed_address": {
            "ward": null,
            "street": "VFCM+5XR, C.C.C Plant Rd",
            "city": "Naspur, Mancherial",
            "postal_code": "504302",
            "state": "Telangana",
            "country_code": "IN"
        },
        "images": [
            {
                "about": "All",
                "link": "https://lh5.googleusercontent.com/p/AF1QipMY3_Iqg83cmzVDwv8-odfe-S7HJF1G8iD8NU6s=w397-h298-k-no"
            },
            {
                "about": "Street View & 360deg",
                "link": "https://streetviewpixels-pa.googleapis.com/v1/thumbnail?panoid=dXcMZVtDQX7Rw2tlEVm5pw&cb_client=maps_sv.tactile.gps&w=224&h=298&yaw=214.05513&pitch=0&thumbfov=100"
            }
        ],
        "link": "https://www.google.com/maps/place/EIDGAH+CCC/data=!4m7!3m6!1s0x3a32c9ec2e22eddf:0xc0ed524327c3f205!8m2!3d18.8704978!4d79.4848961!16s%2Fg%2F11fzfb_t27!19sChIJ3-0iLuzJMjoRBfLDJ0NS7cA?authuser=0&hl=en&rclk=1",
        "coordinates": {
            "latitude": 18.8704978,
            "longitude": 79.4848961
        }
    },
    {
        "name": "Eidgah Ground",
        "main_category": "Mosque",
        "address": "3F8M+MGM Eidgah Ground, Bellampalle, Kannal Rural, Telangana 504251",
        "detailed_address": {
            "ward": null,
            "street": "3F8M+MGM",
            "city": "Bellampalle, Kannal Rural",
            "postal_code": "504251",
            "state": "Telangana",
            "country_code": "IN"
        },
        "images": [
            {
                "about": "All",
                "link": "https://lh5.googleusercontent.com/p/AF1QipOED3qmJlI5dLXyj9gYcstZ6h2scgwCJlqDfPCo=w397-h298-k-no"
            },
            {
                "about": "Street View & 360deg",
                "link": "https://streetviewpixels-pa.googleapis.com/v1/thumbnail?panoid=gQfwAwy8xiF4UpmKBaMyqA&cb_client=maps_sv.tactile.gps&w=224&h=298&yaw=28.862545&pitch=0&thumbfov=100"
            }
        ],
        "link": "https://www.google.com/maps/place/Eidgah+Ground/data=!4m7!3m6!1s0x3a32b1e50e17c94d:0xa00380d0516ca7f3!8m2!3d19.0667161!4d79.4838002!16s%2Fg%2F11d_87j8tv!19sChIJTckXDuWxMjoR86dsUdCAA6A?authuser=0&hl=en&rclk=1",
        "coordinates": {
            "latitude": 19.0667161,
            "longitude": 79.48380019999999
        }
    },
    {
        "name": "Mosque",
        "main_category": "Mosque",
        "address": "Mosque, Devapur, Telangana 504218",
        "detailed_address": {
            "ward": null,
            "street": null,
            "city": "Devapur",
            "postal_code": null,
            "state": "Telangana",
            "country_code": "IN"
        },
        "images": [],
        "link": "https://www.google.com/maps/place/Mosque/data=!4m7!3m6!1s0x3bcd4d17c2ad90f3:0xab9c721020869a11!8m2!3d19.0355273!4d79.3571019!16s%2Fg%2F1tfzqcm7!19sChIJ85CtwhdNzTsREZqGIBBynKs?authuser=0&hl=en&rclk=1",
        "coordinates": {
            "latitude": 19.0355273,
            "longitude": 79.35710189999999
        }
    },
    {
        "name": "Masjid",
        "main_category": "Mosque",
        "address": "RHWQ+J4Q Masjid, behind M.R. OFFICE, Jaipur, Telangana 50421",
        "detailed_address": {
            "ward": null,
            "street": "RHWQ+J4Q, behind M.R. OFFICE",
            "city": "Jaipur",
            "postal_code": "50421",
            "state": "Telangana",
            "country_code": "IN"
        },
        "images": [
            {
                "about": "All",
                "link": "https://lh5.googleusercontent.com/p/AF1QipPMl06uACqjWlJzPsXhAa_Gen0VmKrNLzRfEjGJ=w529-h298-k-no"
            },
            {
                "about": "Street View & 360deg",
                "link": "https://streetviewpixels-pa.googleapis.com/v1/thumbnail?panoid=I4YHs6x9HufLzCOTr3IeAw&cb_client=maps_sv.tactile.gps&w=224&h=298&yaw=22.49179&pitch=0&thumbfov=100"
            },
            {
                "about": "Videos",
                "link": "https://lh5.googleusercontent.com/p/AF1QipOVgya81Ka7AHs-UARsTiGkxA4IyoQZ8aX3ALQr=w224-h398-k-no"
            }
        ],
        "link": "https://www.google.com/maps/place/Masjid/data=!4m7!3m6!1s0x3a32c724784a525d:0xd61958ed536f0986!8m2!3d18.8465869!4d79.5878703!16s%2Fg%2F11fr6w0qj5!19sChIJXVJKeCTHMjoRhglvU-1YGdY?authuser=0&hl=en&rclk=1",
        "coordinates": {
            "latitude": 18.8465869,
            "longitude": 79.58787029999999
        }
    },
    {
        "name": "Masjid-e-rehana Begum",
        "main_category": "Mosque",
        "address": "RCJ8+4PF Masjid-e-rehana Begum, Goilwada, Telangana 505514",
        "detailed_address": {
            "ward": null,
            "street": "RCJ8+4PF",
            "city": "Goilwada",
            "postal_code": "505514",
            "state": "Telangana",
            "country_code": "IN"
        },
        "images": [
            {
                "about": "All",
                "link": "https://lh5.googleusercontent.com/p/AF1QipN8YAa0LrJ7c5w6qORAad3_NLsrGxnINFlzJ8yV=w397-h298-k-no"
            },
            {
                "about": "Street View & 360deg",
                "link": "https://streetviewpixels-pa.googleapis.com/v1/thumbnail?panoid=-VIct-DlfQ0Ckz68d2aK7A&cb_client=maps_sv.tactile.gps&w=224&h=298&yaw=71.801735&pitch=0&thumbfov=100"
            }
        ],
        "link": "https://www.google.com/maps/place/Masjid-e-rehana+Begum/data=!4m7!3m6!1s0x3a32cbd3856b48f3:0x17ebe00566adfeb2!8m2!3d18.8303059!4d79.4168062!16s%2Fg%2F11f6nfp03j!19sChIJ80hrhdPLMjoRsv6tZgXg6xc?authuser=0&hl=en&rclk=1",
        "coordinates": {
            "latitude": 18.8303059,
            "longitude": 79.4168062
        }
    },
    {
        "name": "Jama Masjid",
        "main_category": "Mosque",
        "address": "XFWC+PP5 Jama Masjid, Burdagudem, Mandamarri, Telangana 504231",
        "detailed_address": {
            "ward": "Burdagudem",
            "street": "XFWC+PP5",
            "city": "Mandamarri",
            "postal_code": null,
            "state": "Telangana",
            "country_code": "IN"
        },
        "images": [
            {
                "about": "All",
                "link": "https://lh5.googleusercontent.com/p/AF1QipNJsD5-oRHL6ociFoZkrwA92KdMo3jmoa-qmIs=w529-h298-k-no"
            },
            {
                "about": "Videos",
                "link": "https://lh5.googleusercontent.com/p/AF1QipPrj3dOvNdB7xGt5GfZrTU5rjydDxKegp1s7mA=w224-h398-k-no"
            }
        ],
        "link": "https://www.google.com/maps/place/Jama+Masjid/data=!4m7!3m6!1s0x3a32b14f6d4b3e0d:0xce6d5abd3ef0fa8!8m2!3d18.9967614!4d79.4718532!16s%2Fg%2F11h1snvp46!19sChIJDT5LbU-xMjoRqA_v06vV5gw?authuser=0&hl=en&rclk=1",
        "coordinates": {
            "latitude": 18.9967614,
            "longitude": 79.4718532
        }
    },
    {
        "name": "Madina Masjid",
        "main_category": "Mosque",
        "address": "WFH8+MCG Madina Masjid, A-Zone, Ramakrishnapur, Telangana 504301",
        "detailed_address": {
            "ward": null,
            "street": "WFH8+MCG, A-Zone",
            "city": "Ramakrishnapur",
            "postal_code": "504301",
            "state": "Telangana",
            "country_code": "IN"
        },
        "images": [
            {
                "about": "All",
                "link": "https://streetviewpixels-pa.googleapis.com/v1/thumbnail?panoid=4YFFtyimZeQPA5k09C_vAg&cb_client=maps_sv.tactile.gps&w=224&h=298&yaw=205.23555&pitch=0&thumbfov=100"
            },
            {
                "about": "Street View & 360deg",
                "link": "https://streetviewpixels-pa.googleapis.com/v1/thumbnail?panoid=4YFFtyimZeQPA5k09C_vAg&cb_client=maps_sv.tactile.gps&w=224&h=298&yaw=205.23555&pitch=0&thumbfov=100"
            }
        ],
        "link": "https://www.google.com/maps/place/Madina+Masjid/data=!4m7!3m6!1s0x3a32b5d418c84c13:0xbc21949cc38e6a2!8m2!3d18.9291986!4d79.4660747!16s%2Fg%2F11c1s_28b6!19sChIJE0zIGNS1MjoRouY4zEkZwgs?authuser=0&hl=en&rclk=1",
        "coordinates": {
            "latitude": 18.9291986,
            "longitude": 79.4660747
        }
    },
    {
        "name": "Masjid E Meraj",
        "main_category": "Mosque",
        "address": "WFHG+HQ5 Masjid E Meraj, Rama Krishnapuram Rd, B Zone, Ramakrishnapur, Telangana 504301",
        "detailed_address": {
            "ward": "B Zone",
            "street": "WFHG+HQ5, Rama Krishnapuram Rd",
            "city": "Ramakrishnapur",
            "postal_code": "504301",
            "state": "Telangana",
            "country_code": "IN"
        },
        "images": [
            {
                "about": "All",
                "link": "https://streetviewpixels-pa.googleapis.com/v1/thumbnail?panoid=4o1VLs2boV6SbssOKErOsw&cb_client=maps_sv.tactile.gps&w=224&h=298&yaw=39.32104&pitch=0&thumbfov=100"
            },
            {
                "about": "Street View & 360deg",
                "link": "https://streetviewpixels-pa.googleapis.com/v1/thumbnail?panoid=4o1VLs2boV6SbssOKErOsw&cb_client=maps_sv.tactile.gps&w=224&h=298&yaw=39.32104&pitch=0&thumbfov=100"
            }
        ],
        "link": "https://www.google.com/maps/place/Masjid+E+Meraj/data=!4m7!3m6!1s0x3a32b67bf10b3e61:0xf5a4cd303f549393!8m2!3d18.928884!4d79.4769752!16s%2Fg%2F1262gb4_5!19sChIJYT4L8Xu2MjoRk5NUPzDNpPU?authuser=0&hl=en&rclk=1",
        "coordinates": {
            "latitude": 18.928884,
            "longitude": 79.4769752
        }
    },
    {
        "name": "Masjid",
        "main_category": "Mosque",
        "address": "V6MR+V66 Masjid, Ankathipally, Telangana 504215",
        "detailed_address": {
            "ward": null,
            "street": "V6MR+V66",
            "city": "Ankathipally",
            "postal_code": "504215",
            "state": "Telangana",
            "country_code": "IN"
        },
        "images": [
            {
                "about": "All",
                "link": "https://streetviewpixels-pa.googleapis.com/v1/thumbnail?panoid=TpL2ezeqpsdsaVsRSuPdzg&cb_client=maps_sv.tactile.gps&w=224&h=298&yaw=194.30045&pitch=0&thumbfov=100"
            },
            {
                "about": "Street View & 360deg",
                "link": "https://streetviewpixels-pa.googleapis.com/v1/thumbnail?panoid=TpL2ezeqpsdsaVsRSuPdzg&cb_client=maps_sv.tactile.gps&w=224&h=298&yaw=194.30045&pitch=0&thumbfov=100"
            }
        ],
        "link": "https://www.google.com/maps/place/Masjid/data=!4m7!3m6!1s0x3bcd49bdc216284d:0x350592a99ce08e14!8m2!3d18.8846738!4d79.2405227!16s%2Fg%2F11h2hhxpqs!19sChIJTSgWwr1JzTsRFI7gnKmSBTU?authuser=0&hl=en&rclk=1",
        "coordinates": {
            "latitude": 18.884673799999998,
            "longitude": 79.2405227
        }
    },
    {
        "name": "Jama masjid Rapalli",
        "main_category": "Mosque",
        "address": "V86F+95C Jama masjid Rapalli, Rapalli, Telangana 504209",
        "detailed_address": {
            "ward": null,
            "street": "V86F+95C",
            "city": "Rapalli",
            "postal_code": null,
            "state": "Telangana",
            "country_code": "IN"
        },
        "images": [
            {
                "about": "All",
                "link": "https://streetviewpixels-pa.googleapis.com/v1/thumbnail?panoid=A-xsXM6Zv8GI5-xWKsqPaA&cb_client=maps_sv.tactile.gps&w=224&h=298&yaw=275.2543&pitch=0&thumbfov=100"
            },
            {
                "about": "Street View & 360deg",
                "link": "https://streetviewpixels-pa.googleapis.com/v1/thumbnail?panoid=A-xsXM6Zv8GI5-xWKsqPaA&cb_client=maps_sv.tactile.gps&w=224&h=298&yaw=275.2543&pitch=0&thumbfov=100"
            }
        ],
        "link": "https://www.google.com/maps/place/Jama+masjid+Rapalli/data=!4m7!3m6!1s0x3bcd35a9ffe4bf57:0xce3045d1fdb31cb6!8m2!3d18.8609432!4d79.3228935!16s%2Fg%2F11llcjc3mt!19sChIJV7_k_6k1zTsRthyz_dFFMM4?authuser=0&hl=en&rclk=1",
        "coordinates": {
            "latitude": 18.860943199999998,
            "longitude": 79.32289349999999
        }
    },
    {
        "name": "Masjid-e-nazeeria",
        "main_category": "Mosque",
        "address": "RGHH+CFR Masjid-e-nazeeria, Nazeerpally, Indaram, Telangana 504216",
        "detailed_address": {
            "ward": "Nazeerpally",
            "street": "RGHH+CFR",
            "city": "Indaram",
            "postal_code": "504216",
            "state": "Telangana",
            "country_code": "IN"
        },
        "images": [
            {
                "about": "All",
                "link": "https://lh5.googleusercontent.com/p/AF1QipNTbqjhoCbBBFynsGgS5I-bV5xMzU5ak5DWi4an=w224-h298-k-no"
            },
            {
                "about": "Street View & 360deg",
                "link": "https://streetviewpixels-pa.googleapis.com/v1/thumbnail?panoid=3RMdOkXL5Rypvz1f9OVFZg&cb_client=maps_sv.tactile.gps&w=224&h=298&yaw=38.73534&pitch=0&thumbfov=100"
            },
            {
                "about": "Videos",
                "link": "https://lh5.googleusercontent.com/p/AF1QipN3svUuJ3mIeP6nff8b1Fy_QKktpDjEEX5nn5bt=w224-h398-k-no"
            }
        ],
        "link": "https://www.google.com/maps/place/Masjid-e-nazeeria/data=!4m7!3m6!1s0x3a32c9d64be9488d:0xe2f693fe24dfe4e4!8m2!3d18.8286241!4d79.5286379!16s%2Fg%2F11gkrlkw8g!19sChIJjUjpS9bJMjoR5OTfJP6T9uI?authuser=0&hl=en&rclk=1",
        "coordinates": {
            "latitude": 18.8286241,
            "longitude": 79.52863789999999
        }
    },
    {
        "name": "Masjid-e-Umar Ahle sunnat wal jamath Barelvi",
        "main_category": "Mosque",
        "address": "Masjid-e-Umar Ahle sunnat wal jamath Barelvi, 4-2-316/388, PK Ramaiah Colony, Jyothi Nagar, Ramagundam, Telangana 505208",
        "detailed_address": {
            "ward": "PK Ramaiah Colony, Jyothi Nagar",
            "street": "4-2-316/388",
            "city": "Ramagundam",
            "postal_code": "505208",
            "state": "Telangana",
            "country_code": "IN"
        },
        "images": [
            {
                "about": "All",
                "link": "https://lh5.googleusercontent.com/p/AF1QipM-5DR-TrOs0Ei41HVPzed0JOX7yo61nuZ8t6a_=w397-h298-k-no"
            }
        ],
        "link": "https://www.google.com/maps/place/Masjid-e-Umar+Ahle+sunnat+wal+jamath+Barelvi/data=!4m7!3m6!1s0x3a32cddcd6c86517:0x13ee44a75a732468!8m2!3d18.7762557!4d79.4689544!16s%2Fg%2F11pv0kqbpz!19sChIJF2XI1tzNMjoRaCRzWqdE7hM?authuser=0&hl=en&rclk=1",
        "coordinates": {
            "latitude": 18.7762557,
            "longitude": 79.4689544
        }
    },
    {
        "name": "Jama Mosque Devapur",
        "main_category": "Mosque",
        "address": "29R3+5CH Jama Mosque Devapur, Devapur, Telangana 504218",
        "detailed_address": {
            "ward": null,
            "street": "29R3+5CH",
            "city": "Devapur",
            "postal_code": "504218",
            "state": "Telangana",
            "country_code": "IN"
        },
        "images": [
            {
                "about": "All",
                "link": "https://lh5.googleusercontent.com/p/AF1QipNasVqxqJouIMc6LFaSP-8Q6RRdQW2P8S0ywUcU=w224-h298-k-no"
            }
        ],
        "link": "https://www.google.com/maps/place/Jama+Mosque+Devapur/data=!4m7!3m6!1s0x3bcd4d143d51615b:0xd161b4f792ad7f92!8m2!3d19.0404421!4d79.3536248!16s%2Fg%2F11hbvtzyrz!19sChIJW2FRPRRNzTsRkn-tkve0YdE?authuser=0&hl=en&rclk=1",
        "coordinates": {
            "latitude": 19.0404421,
            "longitude": 79.35362479999999
        }
    },
    {
        "name": "Makka Masjid Ahle-sunnat",
        "main_category": "Mosque",
        "address": "Makka Masjid Ahle-sunnat, 16-05-117,Thirumala, Ramesh Nagar, Godavarikhani, Ramagundam, Telangana 505209",
        "detailed_address": {
            "ward": "Godavarikhani",
            "street": "16-05-117,Thirumala, Ramesh Nagar",
            "city": "Ramagundam",
            "postal_code": "505209",
            "state": "Telangana",
            "country_code": "IN"
        },
        "images": [
            {
                "about": "All",
                "link": "https://lh5.googleusercontent.com/p/AF1QipO70zmt9HwcVWcz_uXVWkEFhHHUfgMW07YUmSUm=w224-h298-k-no"
            },
            {
                "about": "Street View & 360deg",
                "link": "https://streetviewpixels-pa.googleapis.com/v1/thumbnail?panoid=XrjV7N0IvOq8tAghZpoFxg&cb_client=maps_sv.tactile.gps&w=224&h=298&yaw=327.9977&pitch=0&thumbfov=100"
            }
        ],
        "link": "https://www.google.com/maps/place/Makka+Masjid+Ahle-sunnat/data=!4m7!3m6!1s0x3a32cfae1cfee40d:0x6272e18f38efbb4a!8m2!3d18.7448044!4d79.511275!16s%2Fg%2F11n8wp1rgw!19sChIJDeT-HK7PMjoRSrvvOI_hcmI?authuser=0&hl=en&rclk=1",
        "coordinates": {
            "latitude": 18.7448044,
            "longitude": 79.511275
        }
    },
    {
        "name": "Madarsa Darul Uloom & Masjid",
        "main_category": "Mosque",
        "address": "XFJ6+4P Madarsa Darul Uloom & Masjid, Mandamarri, Telangana 504231",
        "detailed_address": {
            "ward": null,
            "street": "XFJ6+4P",
            "city": "Mandamarri",
            "postal_code": null,
            "state": "Telangana",
            "country_code": "IN"
        },
        "images": [
            {
                "about": "All",
                "link": "https://lh5.googleusercontent.com/p/AF1QipN1B8FKJ9B3-E28qkw7QZjeRVlU1rlEEvRl8zWL=w529-h298-k-no"
            },
            {
                "about": "Street View & 360deg",
                "link": "https://streetviewpixels-pa.googleapis.com/v1/thumbnail?panoid=cRVBuq_JUhrHyra9jLJcaw&cb_client=maps_sv.tactile.gps&w=224&h=298&yaw=285.6949&pitch=0&thumbfov=100"
            }
        ],
        "link": "https://www.google.com/maps/place/Madarsa+Darul+Uloom+%26+Masjid/data=!4m7!3m6!1s0x3a32b511d5c57d83:0x823e10e1c224ad84!8m2!3d18.9803731!4d79.461813!16s%2Fg%2F11s1ssg6pz!19sChIJg33F1RG1MjoRhK0kwuEQPoI?authuser=0&hl=en&rclk=1",
        "coordinates": {
            "latitude": 18.980373099999998,
            "longitude": 79.46181299999999
        }
    },
    {
        "name": "Noori Masjid",
        "main_category": "Mosque",
        "address": "3F8M+CFJ Noori Masjid, Bellampalle, Kannal Rural, Telangana 504251",
        "detailed_address": {
            "ward": null,
            "street": "3F8M+CFJ",
            "city": "Bellampalle, Kannal Rural",
            "postal_code": "504251",
            "state": "Telangana",
            "country_code": "IN"
        },
        "images": [
            {
                "about": "All",
                "link": "https://lh5.googleusercontent.com/p/AF1QipM_mkMi2f-M131S-rKSFjwPYNwwBTOu6_Ezn_ho=w224-h298-k-no"
            },
            {
                "about": "Dome",
                "link": "https://lh5.googleusercontent.com/p/AF1QipM_mkMi2f-M131S-rKSFjwPYNwwBTOu6_Ezn_ho=w224-h298-k-no"
            }
        ],
        "link": "https://www.google.com/maps/place/Noori+Masjid/data=!4m7!3m6!1s0x3a32b184aa02b33f:0x94aeef8bbc03886b!8m2!3d19.0660901!4d79.4836267!16s%2Fg%2F11tmz9bq51!19sChIJP7MCqoSxMjoRa4gDvIvvrpQ?authuser=0&hl=en&rclk=1",
        "coordinates": {
            "latitude": 19.0660901,
            "longitude": 79.4836267
        }
    },
    {
        "name": "MADINA MASJID",
        "main_category": "Mosque",
        "address": "3F6J+VX8 MADINA MASJID, Bellampalle, Kannal Rural, Telangana 504251",
        "detailed_address": {
            "ward": null,
            "street": "3F6J+VX8",
            "city": "Bellampalle, Kannal Rural",
            "postal_code": "504251",
            "state": "Telangana",
            "country_code": "IN"
        },
        "images": [
            {
                "about": "All",
                "link": "https://streetviewpixels-pa.googleapis.com/v1/thumbnail?panoid=rNW2ZyNC9dyHEQpD8jmY5A&cb_client=maps_sv.tactile.gps&w=224&h=298&yaw=173.57703&pitch=0&thumbfov=100"
            },
            {
                "about": "Street View & 360deg",
                "link": "https://streetviewpixels-pa.googleapis.com/v1/thumbnail?panoid=rNW2ZyNC9dyHEQpD8jmY5A&cb_client=maps_sv.tactile.gps&w=224&h=298&yaw=173.57703&pitch=0&thumbfov=100"
            }
        ],
        "link": "https://www.google.com/maps/place/MADINA+MASJID/data=!4m7!3m6!1s0x3a32b1efce7442fd:0x32591dc6205d4f85!8m2!3d19.062165!4d79.482443!16s%2Fg%2F11g6mhtm8g!19sChIJ_UJ0zu-xMjoRhU9dIMYdWTI?authuser=0&hl=en&rclk=1",
        "coordinates": {
            "latitude": 19.062165,
            "longitude": 79.482443
        }
    },
    {
        "name": "Bilal Masjid",
        "main_category": "Mosque",
        "address": "Bilal Masjid, 239, Ramakrishnapur, Telangana 504301",
        "detailed_address": {
            "ward": null,
            "street": "239, Ramakrishnapur",
            "city": "Ramakrishnapur",
            "postal_code": "504301",
            "state": "Telangana",
            "country_code": "IN"
        },
        "images": [
            {
                "about": "All",
                "link": "https://streetviewpixels-pa.googleapis.com/v1/thumbnail?panoid=Pz6n9FIrvu28vbAT6Y5DEQ&cb_client=maps_sv.tactile.gps&w=224&h=298&yaw=342.03827&pitch=0&thumbfov=100"
            },
            {
                "about": "Street View & 360deg",
                "link": "https://streetviewpixels-pa.googleapis.com/v1/thumbnail?panoid=Pz6n9FIrvu28vbAT6Y5DEQ&cb_client=maps_sv.tactile.gps&w=224&h=298&yaw=342.03827&pitch=0&thumbfov=100"
            }
        ],
        "link": "https://www.google.com/maps/place/Bilal+Masjid/data=!4m7!3m6!1s0x3a32b42b770d68b1:0xeba45575d4f1ea69!8m2!3d18.9371057!4d79.4662879!16s%2Fg%2F1261y2qj1!19sChIJsWgNdyu0MjoRaerx1HVVpOs?authuser=0&hl=en&rclk=1",
        "coordinates": {
            "latitude": 18.9371057,
            "longitude": 79.4662879
        }
    },
    {
        "name": "Jama Masjid",
        "main_category": "Mosque",
        "address": "2CHM+5MG Jama Masjid, Muthyampalli, Kasipet, Telangana 504231",
        "detailed_address": {
            "ward": "Muthyampalli",
            "street": "2CHM+5MG",
            "city": "Kasipet",
            "postal_code": null,
            "state": "Telangana",
            "country_code": "IN"
        },
        "images": [],
        "link": "https://www.google.com/maps/place/Jama+Masjid/data=!4m7!3m6!1s0x3a32b252dc215675:0x846773db6ac334c7!8m2!3d19.0279442!4d79.4341921!16s%2Fg%2F11ggncg26w!19sChIJdVYh3FKyMjoRxzTDattzZ4Q?authuser=0&hl=en&rclk=1",
        "coordinates": {
            "latitude": 19.0279442,
            "longitude": 79.43419209999999
        }
    },
    {
        "name": "Old mosque, Qabrasthan",
        "main_category": "Mosque",
        "address": "2C4H+6RR Old mosque, Qabrasthan, Chinnadharmaram Rd, Telangana 504207",
        "detailed_address": {
            "ward": null,
            "street": "2C4H+6RR, Chinnadharmaram Rd",
            "city": null,
            "postal_code": "504207",
            "state": "Telangana",
            "country_code": "IN"
        },
        "images": [
            {
                "about": "All",
                "link": "https://lh5.googleusercontent.com/p/AF1QipPHxiXTwQ7p13FSVliU65LD_zjMAZOyz4EAt30A=w541-h298-k-no"
            },
            {
                "about": "Street View & 360deg",
                "link": "https://streetviewpixels-pa.googleapis.com/v1/thumbnail?panoid=IWyz5YafbgigRRyocTNsTg&cb_client=maps_sv.tactile.gps&w=224&h=298&yaw=194.34743&pitch=0&thumbfov=100"
            },
            {
                "about": "Videos",
                "link": "https://lh5.googleusercontent.com/p/AF1QipMUt9h9pVCqXvucmLEJreSPOy2OjZgu1zdm9fUu=w224-h407-k-no"
            }
        ],
        "link": "https://www.google.com/maps/place/Old+mosque,+Qabrasthan/data=!4m7!3m6!1s0x3a32b3a0bd78ad09:0xdc4121e4963c54c1!8m2!3d19.005623!4d79.429517!16s%2Fg%2F11px419zph!19sChIJCa14vaCzMjoRwVQ8luQhQdw?authuser=0&hl=en&rclk=1",
        "coordinates": {
            "latitude": 19.005623,
            "longitude": 79.42951699999999
        }
    },
    {
        "name": "Jama Masjid",
        "main_category": "Mosque",
        "address": "5C74+CR4 Jama Masjid, Madaram, Telangana 504220",
        "detailed_address": {
            "ward": null,
            "street": "5C74+CR4",
            "city": "Madaram",
            "postal_code": null,
            "state": "Telangana",
            "country_code": "IN"
        },
        "images": [
            {
                "about": "All",
                "link": "https://lh5.googleusercontent.com/p/AF1QipPNF90MM8Zzh-wPS_wXh78D1yjGt49y7uLIxdg=w529-h298-k-no"
            }
        ],
        "link": "https://www.google.com/maps/place/Jama+Masjid/data=!4m7!3m6!1s0x3a32ad7ae62b7df5:0xcdd8f1d2f05ef0ac!8m2!3d19.1635215!4d79.4070814!16s%2Fg%2F11g4dq6kvw!19sChIJ9X0r5nqtMjoRrPBe8NLx2M0?authuser=0&hl=en&rclk=1",
        "coordinates": {
            "latitude": 19.163521499999998,
            "longitude": 79.4070814
        }
    },
    {
        "name": "Masjid -E-Mahboobia",
        "main_category": "Mosque",
        "address": "Masjid -E-Mahboobia, Jangalapally, TTS Twp, Ramagundam, Telangana 505208",
        "detailed_address": {
            "ward": "TTS Township",
            "street": "Jangalapally",
            "city": "Ramagundam",
            "postal_code": "505208",
            "state": "Telangana",
            "country_code": "IN"
        },
        "images": [
            {
                "about": "All",
                "link": "https://lh5.googleusercontent.com/p/AF1QipMvJCCV8W5O_vvGhfnwqwhP3_8GBY9oZ_hKbSCA=w397-h298-k-no"
            },
            {
                "about": "Street View & 360deg",
                "link": "https://streetviewpixels-pa.googleapis.com/v1/thumbnail?panoid=k2uSvJAkYZE8YLvfZp0H8Q&cb_client=maps_sv.tactile.gps&w=224&h=298&yaw=210.36472&pitch=0&thumbfov=100"
            }
        ],
        "link": "https://www.google.com/maps/place/Masjid+-E-Mahboobia/data=!4m7!3m6!1s0x3a32cf53347c73bf:0x5d59322befab188b!8m2!3d18.7693942!4d79.481137!16s%2Fg%2F11tmrc4vwl!19sChIJv3N8NFPPMjoRixir7ysyWV0?authuser=0&hl=en&rclk=1",
        "coordinates": {
            "latitude": 18.7693942,
            "longitude": 79.48113699999999
        }
    },
    {
        "name": "Eid Gah",
        "main_category": "Mosque",
        "address": "Eid Gah, 91/6, Flood Colony, Naspur, Mancherial, Telangana 504302",
        "detailed_address": {
            "ward": "Flood Colony",
            "street": "91/6",
            "city": "Naspur, Mancherial",
            "postal_code": "504302",
            "state": "Telangana",
            "country_code": "IN"
        },
        "images": [],
        "link": "https://www.google.com/maps/place/Eid+Gah/data=!4m7!3m6!1s0x3a32c954c13ca8c9:0x9bbf13e306419306!8m2!3d18.8639623!4d79.4728178!16s%2Fg%2F11trwz7gfq!19sChIJyag8wVTJMjoRBpNBBuMTv5s?authuser=0&hl=en&rclk=1",
        "coordinates": {
            "latitude": 18.8639623,
            "longitude": 79.4728178
        }
    },
    {
        "name": "Khankha e mohammadi luxettipet",
        "main_category": "Mosque",
        "address": "V6G2+MFW Khankha e mohammadi luxettipet, Unnamed Road, Luxettipet, Telangana 504215",
        "detailed_address": {
            "ward": null,
            "street": "V6G2+MFW, Unnamed Road",
            "city": "Luxettipet",
            "postal_code": "504215",
            "state": "Telangana",
            "country_code": "IN"
        },
        "images": [],
        "link": "https://www.google.com/maps/place/Khankha+e+mohammadi+luxettipet/data=!4m7!3m6!1s0x3bcd494724f49b4d:0x987539901e1b05d2!8m2!3d18.8767471!4d79.2012099!16s%2Fg%2F11nt4bv2g0!19sChIJTZv0JEdJzTsR0gUbHpA5dZg?authuser=0&hl=en&rclk=1",
        "coordinates": {
            "latitude": 18.8767471,
            "longitude": 79.2012099
        }
    },
    {
        "name": "TURKA PALLI MASJID",
        "main_category": "Mosque",
        "address": "WGVC+43 TURKA PALLI MASJID, Turkapally, Telangana 504216",
        "detailed_address": {
            "ward": null,
            "street": "WGVC+43",
            "city": "Turkapally",
            "postal_code": null,
            "state": "Telangana",
            "country_code": "IN"
        },
        "images": [
            {
                "about": "All",
                "link": "https://lh5.googleusercontent.com/p/AF1QipO9vdGGfeueqQAFdj0I2d16kemj_N2iYFDHoS-b=w529-h298-k-no"
            },
            {
                "about": "Street View & 360deg",
                "link": "https://streetviewpixels-pa.googleapis.com/v1/thumbnail?panoid=99cuqAe-X6Ir078wfenYwQ&cb_client=maps_sv.tactile.gps&w=224&h=298&yaw=355.78735&pitch=0&thumbfov=100"
            }
        ],
        "link": "https://www.google.com/maps/place/TURKA+PALLI+MASJID/data=!4m7!3m6!1s0x3a32b76a9ee1c14f:0xb06a1d8ccc7a7491!8m2!3d18.9428903!4d79.5201303!16s%2Fg%2F11t2c1t56t!19sChIJT8Hhnmq3MjoRkXR6zIwdarA?authuser=0&hl=en&rclk=1",
        "coordinates": {
            "latitude": 18.9428903,
            "longitude": 79.52013029999999
        }
    },
    {
        "name": "Bellampally Dargah",
        "main_category": "Mosque",
        "address": "3F8V+MXR Bellampally Dargah, Shanthi khani, Bellampalle, Telangana 504251",
        "detailed_address": {
            "ward": "Shanthi khani",
            "street": "3F8V+MXR",
            "city": "Bellampalle",
            "postal_code": null,
            "state": "Telangana",
            "country_code": "IN"
        },
        "images": [
            {
                "about": "All",
                "link": "https://streetviewpixels-pa.googleapis.com/v1/thumbnail?panoid=nCyr1yAuV9J5Fai55V3rhA&cb_client=maps_sv.tactile.gps&w=224&h=298&yaw=289.80798&pitch=0&thumbfov=100"
            },
            {
                "about": "Street View & 360deg",
                "link": "https://streetviewpixels-pa.googleapis.com/v1/thumbnail?panoid=nCyr1yAuV9J5Fai55V3rhA&cb_client=maps_sv.tactile.gps&w=224&h=298&yaw=289.80798&pitch=0&thumbfov=100"
            }
        ],
        "link": "https://www.google.com/maps/place/Bellampally+Dargah/data=!4m7!3m6!1s0x3a32b1a9fdc32deb:0xde3cac4af84b6038!8m2!3d19.0667304!4d79.4948779!16s%2Fg%2F11kjgd810k!19sChIJ6y3D_amxMjoROGBL-EqsPN4?authuser=0&hl=en&rclk=1",
        "coordinates": {
            "latitude": 19.0667304,
            "longitude": 79.49487789999999
        }
    },
    {
        "name": "Masjid*e*Bilal",
        "main_category": "Mosque",
        "address": "WF37+P44 Masjid*e*Bilal, Mancherial, Telangana 504301",
        "detailed_address": {
            "ward": null,
            "street": "WF37+P44",
            "city": "Mancherial",
            "postal_code": "504301",
            "state": "Telangana",
            "country_code": "IN"
        },
        "images": [
            {
                "about": "All",
                "link": "https://streetviewpixels-pa.googleapis.com/v1/thumbnail?panoid=pN5LYATgnWq90w2hcRhWTQ&cb_client=maps_sv.tactile.gps&w=224&h=298&yaw=0.84927326&pitch=0&thumbfov=100"
            },
            {
                "about": "Street View & 360deg",
                "link": "https://streetviewpixels-pa.googleapis.com/v1/thumbnail?panoid=pN5LYATgnWq90w2hcRhWTQ&cb_client=maps_sv.tactile.gps&w=224&h=298&yaw=0.84927326&pitch=0&thumbfov=100"
            }
        ],
        "link": "https://www.google.com/maps/place/Masjid*e*Bilal/data=!4m7!3m6!1s0x3a32b532c64fb987:0x53849b45891c6c53!8m2!3d18.904606!4d79.4625825!16s%2Fg%2F11rcxc5zw0!19sChIJh7lPxjK1MjoRU2wciUWbhFM?authuser=0&hl=en&rclk=1",
        "coordinates": {
            "latitude": 18.904605999999998,
            "longitude": 79.4625825
        }
    },
    {
        "name": "MASJID-E .MOHAMMAD QAYYUM BHURHANODDIN",
        "main_category": "Mosque",
        "address": "VFJ3+6V9 MASJID-E .MOHAMMAD QAYYUM BHURHANODDIN, Gopalwada, Mancherial, Telangana 504302",
        "detailed_address": {
            "ward": "Gopalwada",
            "street": "VFJ3+6V9",
            "city": "Mancherial",
            "postal_code": "504302",
            "state": "Telangana",
            "country_code": "IN"
        },
        "images": [],
        "link": "https://www.google.com/maps/place/MASJID-E+.MOHAMMAD+QAYYUM+BHURHANODDIN/data=!4m7!3m6!1s0x3a32cb37fcaafae9:0xbdc711c22ddcd3f1!8m2!3d18.8805301!4d79.4547464!16s%2Fg%2F11jghxyc13!19sChIJ6fqq_DfLMjoR8dPcLcIRx70?authuser=0&hl=en&rclk=1",
        "coordinates": {
            "latitude": 18.880530099999998,
            "longitude": 79.45474639999999
        }
    },
    {
        "name": "MASJID-E-MOHAMMADIYA",
        "main_category": "Mosque",
        "address": "WC2J+837 MASJID-E-MOHAMMADIYA, Unnamed Road, Mancherial, Telangana 504208",
        "detailed_address": {
            "ward": null,
            "street": "WC2J+837, Unnamed Road",
            "city": "Mancherial",
            "postal_code": "504208",
            "state": "Telangana",
            "country_code": "IN"
        },
        "images": [
            {
                "about": "All",
                "link": "https://streetviewpixels-pa.googleapis.com/v1/thumbnail?panoid=HKcTC7pE8yO-sQuvHxPCuA&cb_client=maps_sv.tactile.gps&w=224&h=298&yaw=201.12111&pitch=0&thumbfov=100"
            },
            {
                "about": "Street View & 360deg",
                "link": "https://streetviewpixels-pa.googleapis.com/v1/thumbnail?panoid=HKcTC7pE8yO-sQuvHxPCuA&cb_client=maps_sv.tactile.gps&w=224&h=298&yaw=201.12111&pitch=0&thumbfov=100"
            }
        ],
        "link": "https://www.google.com/maps/place/MASJID-E-MOHAMMADIYA/data=!4m7!3m6!1s0x3a32b5f855f4d8b3:0x287c4d3bec085754!8m2!3d18.9007761!4d79.4301579!16s%2Fg%2F11f5v06jv7!19sChIJs9j0Vfi1MjoRVFcI7DtNfCg?authuser=0&hl=en&rclk=1",
        "coordinates": {
            "latitude": 18.900776099999998,
            "longitude": 79.4301579
        }
    },
    {
        "name": "MD SAIF MOHAMMAD",
        "main_category": "Mosque",
        "address": "3F6V+W8P MD SAIF MOHAMMAD, Bellampalle, Telangana 504251",
        "detailed_address": {
            "ward": null,
            "street": "3F6V+W8P",
            "city": "Bellampalle",
            "postal_code": "504251",
            "state": "Telangana",
            "country_code": "IN"
        },
        "images": [
            {
                "about": "All",
                "link": "https://lh5.googleusercontent.com/p/AF1QipNTlW2_Le66AkniPf2gvzSQ2v1WT61lkq88DG6J=w224-h485-k-no"
            }
        ],
        "link": "https://www.google.com/maps/place/MD+SAIF+MOHAMMAD/data=!4m7!3m6!1s0x3a32b14676d329eb:0xb29441492f001296!8m2!3d19.0623419!4d79.493338!16s%2Fg%2F11t1m34g2t!19sChIJ6ynTdkaxMjoRlhIAL0lBlLI?authuser=0&hl=en&rclk=1",
        "coordinates": {
            "latitude": 19.0623419,
            "longitude": 79.493338
        }
    },
    {
        "name": "MASJID - E- RAHMANIA",
        "main_category": "Mosque",
        "address": "MASJID - E- RAHMANIA, Unnamed Road, Ram nagar, Teachers Colony, Mancherial, Telangana 504208",
        "detailed_address": {
            "ward": "Ram nagar, Teachers Colony",
            "street": "Unnamed Road",
            "city": "Mancherial",
            "postal_code": "504208",
            "state": "Telangana",
            "country_code": "IN"
        },
        "images": [
            {
                "about": "All",
                "link": "https://streetviewpixels-pa.googleapis.com/v1/thumbnail?panoid=Rop2AwjRzapkMT2OPgSQNA&cb_client=maps_sv.tactile.gps&w=224&h=298&yaw=9.801736&pitch=0&thumbfov=100"
            },
            {
                "about": "Street View & 360deg",
                "link": "https://streetviewpixels-pa.googleapis.com/v1/thumbnail?panoid=Rop2AwjRzapkMT2OPgSQNA&cb_client=maps_sv.tactile.gps&w=224&h=298&yaw=9.801736&pitch=0&thumbfov=100"
            }
        ],
        "link": "https://www.google.com/maps/place/MASJID+-+E-+RAHMANIA/data=!4m7!3m6!1s0x3a32cb65eed92881:0x980ff0a870d468bf!8m2!3d18.8666919!4d79.4418169!16s%2Fg%2F11ry77cyq4!19sChIJgSjZ7mXLMjoRv2jUcKjwD5g?authuser=0&hl=en&rclk=1",
        "coordinates": {
            "latitude": 18.8666919,
            "longitude": 79.44181689999999
        }
    },
    {
        "name": "Mosque",
        "main_category": "Mosque",
        "address": "VFF8+G4 Mosque, Tilak Nagar, Mancherial, Telangana 504302",
        "detailed_address": {
            "ward": "Tilak Nagar",
            "street": "VFF8+G4",
            "city": "Mancherial",
            "postal_code": null,
            "state": "Telangana",
            "country_code": "IN"
        },
        "images": [
            {
                "about": "All",
                "link": "https://streetviewpixels-pa.googleapis.com/v1/thumbnail?panoid=X-s219UdRKNLMWQQjwOgFw&cb_client=maps_sv.tactile.gps&w=224&h=298&yaw=71.25457&pitch=0&thumbfov=100"
            },
            {
                "about": "Street View & 360deg",
                "link": "https://streetviewpixels-pa.googleapis.com/v1/thumbnail?panoid=X-s219UdRKNLMWQQjwOgFw&cb_client=maps_sv.tactile.gps&w=224&h=298&yaw=71.25457&pitch=0&thumbfov=100"
            }
        ],
        "link": "https://www.google.com/maps/place/Mosque/data=!4m7!3m6!1s0x3a32cbc3d04de8c7:0xe4e3c24f1875a200!8m2!3d18.8738898!4d79.4652723!16s%2Fg%2F11rnhxsq7g!19sChIJx-hN0MPLMjoRAKJ1GE_C4-Q?authuser=0&hl=en&rclk=1",
        "coordinates": {
            "latitude": 18.8738898,
            "longitude": 79.4652723
        }
    },
    {
        "name": "Masjid",
        "main_category": "Mosque",
        "address": "4MM9+WV9 Masjid, Muthapur, Ankannapet (D), Telangana 504219",
        "detailed_address": {
            "ward": null,
            "street": "4MM9+WV9",
            "city": "Muthapur, Ankannapet (D)",
            "postal_code": "504219",
            "state": "Telangana",
            "country_code": "IN"
        },
        "images": [
            {
                "about": "All",
                "link": "https://lh5.googleusercontent.com/p/AF1QipM02QX5EKNy7zrsnVk1XSSn2YWxGfg2ayRp59w0=w529-h298-k-no"
            }
        ],
        "link": "https://www.google.com/maps/place/Masjid/data=!4m7!3m6!1s0x3a32a383c3d1e915:0x888c114d84029fb4!8m2!3d19.1351053!4d79.6688521!16s%2Fg%2F11sk1p1k_7!19sChIJFenRw4OjMjoRtJ8ChE0RjIg?authuser=0&hl=en&rclk=1",
        "coordinates": {
            "latitude": 19.1351053,
            "longitude": 79.6688521
        }
    },
    {
        "name": "Madaram jamm",
        "main_category": "Mosque",
        "address": "Madaram jamm, Qno 4o8, near dispensary, Madaram, Telangana 504220",
        "detailed_address": {
            "ward": null,
            "street": "Qno 4o8, near dispensary",
            "city": "Madaram",
            "postal_code": "504220",
            "state": "Telangana",
            "country_code": "IN"
        },
        "images": [],
        "link": "https://www.google.com/maps/place/Madaram+jamm/data=!4m7!3m6!1s0x3a32aba9f3587947:0xc2520d4afb36d87d!8m2!3d19.1667082!4d79.4090189!16s%2Fg%2F11fszl8n44!19sChIJR3lY86mrMjoRfdg2-0oNUsI?authuser=0&hl=en&rclk=1",
        "coordinates": {
            "latitude": 19.1667082,
            "longitude": 79.40901889999999
        }
    },
    {
        "name": "MASJID E MEHRAJ NTR COLONY",
        "main_category": "Mosque",
        "address": "MASJID E MEHRAJ NTR COLONY, NTR Nagar, Mancherial, Telangana 504208",
        "detailed_address": {
            "ward": "NTR Nagar",
            "street": null,
            "city": "Mancherial",
            "postal_code": "504208",
            "state": "Telangana",
            "country_code": "IN"
        },
        "images": [
            {
                "about": "All",
                "link": "https://lh5.googleusercontent.com/p/AF1QipNIonLNXwG5yxQcI6Qz0ndrRYxKtmsxw7zy3x2J=w224-h298-k-no"
            }
        ],
        "link": "https://www.google.com/maps/place/MASJID+E+MEHRAJ+NTR+COLONY/data=!4m7!3m6!1s0x3a32cbc51c245f8f:0xf6785f73f7fdce32!8m2!3d18.8622587!4d79.4380173!16s%2Fg%2F11np3647yv!19sChIJj18kHMXLMjoRMs7993NfePY?authuser=0&hl=en&rclk=1",
        "coordinates": {
            "latitude": 18.862258699999998,
            "longitude": 79.4380173
        }
    },
    {
        "name": "jmaa mjid raaplli, haajipuur",
        "main_category": "Mosque",
        "address": "V86F+852 jmaa mjid raaplli, haajipuur, Rapalle Main Rd, Rapalli, Telangana 504209",
        "detailed_address": {
            "ward": null,
            "street": "V86F+852, Rapalle Main Rd",
            "city": "Rapalli",
            "postal_code": "504209",
            "state": "Telangana",
            "country_code": "IN"
        },
        "images": [
            {
                "about": "All",
                "link": "https://streetviewpixels-pa.googleapis.com/v1/thumbnail?panoid=vdNy0f1RYtxWliCp-8cJxg&cb_client=maps_sv.tactile.gps&w=224&h=298&yaw=275.45026&pitch=0&thumbfov=100"
            },
            {
                "about": "Street View & 360deg",
                "link": "https://streetviewpixels-pa.googleapis.com/v1/thumbnail?panoid=vdNy0f1RYtxWliCp-8cJxg&cb_client=maps_sv.tactile.gps&w=224&h=298&yaw=275.45026&pitch=0&thumbfov=100"
            }
        ],
        "link": "https://www.google.com/maps/place/%E0%B0%9C%E0%B0%AE%E0%B0%BE+%E0%B0%AE%E0%B0%9C%E0%B0%BF%E0%B0%A6%E0%B1%8D+%E0%B0%B0%E0%B0%BE%E0%B0%AA%E0%B0%B2%E0%B1%8D%E0%B0%B2%E0%B0%BF,+%E0%B0%B9%E0%B0%BE%E0%B0%9C%E0%B0%BF%E0%B0%AA%E0%B1%82%E0%B0%B0%E0%B1%8D/data=!4m7!3m6!1s0x3bcd359f468c1c01:0xa19743b844253c65!8m2!3d18.8607686!4d79.3228892!16s%2Fg%2F11n_12hnd0!19sChIJARyMRp81zTsRZTwlRLhDl6E?authuser=0&hl=en&rclk=1",
        "coordinates": {
            "latitude": 18.8607686,
            "longitude": 79.32288919999999
        }
    },
    {
        "name": "Masjid-e-mohammadiya",
        "main_category": "Mosque",
        "address": "RGFQ+M27 Masjid-e-mohammadiya, Indaram, Telangana 504216",
        "detailed_address": {
            "ward": null,
            "street": "RGFQ+M27",
            "city": "Indaram",
            "postal_code": "504216",
            "state": "Telangana",
            "country_code": "IN"
        },
        "images": [
            {
                "about": "All",
                "link": "https://lh5.googleusercontent.com/p/AF1QipOAUHOvaimDKuSttqiDqDQMf0H2-wkPevmqWu4j=w662-h298-k-no"
            },
            {
                "about": "Videos",
                "link": "https://lh5.googleusercontent.com/p/AF1QipPiRwD4f56ocJhY4wda5GxkOf3GxFoGmdv9dS5f=w541-h298-k-no"
            }
        ],
        "link": "https://www.google.com/maps/place/Masjid-e-mohammadiya/data=!4m7!3m6!1s0x3a32c974918f142f:0xd2bee67d7aad50ae!8m2!3d18.8241572!4d79.5375442!16s%2Fg%2F11fj8h8mmk!19sChIJLxSPkXTJMjoRrlCten3mvtI?authuser=0&hl=en&rclk=1",
        "coordinates": {
            "latitude": 18.8241572,
            "longitude": 79.5375442
        }
    },
    {
        "name": "masjid-E-habeebia",
        "main_category": "Mosque",
        "address": "VG55+97M masjid-E-habeebia, Srirampur Bus Stand Rd, RK 8 Colony, Srirampur Colony, Singapur, Mancherial, Telangana 504303",
        "detailed_address": {
            "ward": "RK 8 Colony, Srirampur Colony",
            "street": "VG55+97M, Srirampur Bus Stand Rd",
            "city": "Singapur, Mancherial",
            "postal_code": "504303",
            "state": "Telangana",
            "country_code": "IN"
        },
        "images": [],
        "link": "https://www.google.com/maps/place/masjid-E-habeebia/data=!4m7!3m6!1s0x3a32c9b10d0bcd0d:0x9ac37439be13846d!8m2!3d18.8584683!4d79.5081639!16s%2Fg%2F11c2l9c6q7!19sChIJDc0LDbHJMjoRbYQTvjl0w5o?authuser=0&hl=en&rclk=1",
        "coordinates": {
            "latitude": 18.8584683,
            "longitude": 79.5081639
        }
    },
    {
        "name": "Gandhinagar Eidgah",
        "main_category": "Mosque",
        "address": "VF8Q+VGM Gandhinagar Eidgah, Naspur, Mancherial, Telangana 504302",
        "detailed_address": {
            "ward": null,
            "street": "VF8Q+VGM",
            "city": "Naspur, Mancherial",
            "postal_code": "504302",
            "state": "Telangana",
            "country_code": "IN"
        },
        "images": [
            {
                "about": "All",
                "link": "https://streetviewpixels-pa.googleapis.com/v1/thumbnail?panoid=fMQjHSiBD7TApOHgIa8myQ&cb_client=maps_sv.tactile.gps&w=224&h=298&yaw=134.76692&pitch=0&thumbfov=100"
            },
            {
                "about": "Street View & 360deg",
                "link": "https://streetviewpixels-pa.googleapis.com/v1/thumbnail?panoid=fMQjHSiBD7TApOHgIa8myQ&cb_client=maps_sv.tactile.gps&w=224&h=298&yaw=134.76692&pitch=0&thumbfov=100"
            }
        ],
        "link": "https://www.google.com/maps/place/Gandhinagar+Eidgah/data=!4m7!3m6!1s0x3a32c92093a7ea91:0xf92e5d2264ee6944!8m2!3d18.8672076!4d79.4888034!16s%2Fg%2F11kgpd_qwf!19sChIJkeqnkyDJMjoRRGnuZCJdLvk?authuser=0&hl=en&rclk=1",
        "coordinates": {
            "latitude": 18.8672076,
            "longitude": 79.4888034
        }
    },
    {
        "name": "Nasar aminabhi masid",
        "main_category": "Mosque",
        "address": "39FQ+QH5 Nasar aminabhi masid, Dharmaraopet, Telangana 504231",
        "detailed_address": {
            "ward": null,
            "street": "39FQ+QH5",
            "city": "Dharmaraopet",
            "postal_code": null,
            "state": "Telangana",
            "country_code": "IN"
        },
        "images": [],
        "link": "https://www.google.com/maps/place/Nasar+aminabhi+masid/data=!4m7!3m6!1s0x3a32ade904d6e6c5:0x2e43291e9b8a9e71!8m2!3d19.0743892!4d79.3889896!16s%2Fg%2F11qg0mpk9h!19sChIJxebWBOmtMjoRcZ6Kmx4pQy4?authuser=0&hl=en&rclk=1",
        "coordinates": {
            "latitude": 19.0743892,
            "longitude": 79.3889896
        }
    },
    {
        "name": "Masjid",
        "main_category": "Place of worship",
        "address": "VF7H+76V Masjid, Atm line, Naspur Colony, Naspur, Telangana 504302",
        "detailed_address": {
            "ward": "Naspur Colony",
            "street": "VF7H+76V, Atm line",
            "city": "Naspur, Mancherial",
            "postal_code": "504302",
            "state": "Telangana",
            "country_code": "IN"
        },
        "images": [
            {
                "about": "All",
                "link": "https://streetviewpixels-pa.googleapis.com/v1/thumbnail?panoid=ZR2NqXB5uxu9GKeFwXHc6Q&cb_client=maps_sv.tactile.gps&w=224&h=298&yaw=268.77222&pitch=0&thumbfov=100"
            },
            {
                "about": "Street View & 360deg",
                "link": "https://streetviewpixels-pa.googleapis.com/v1/thumbnail?panoid=ZR2NqXB5uxu9GKeFwXHc6Q&cb_client=maps_sv.tactile.gps&w=224&h=298&yaw=268.77222&pitch=0&thumbfov=100"
            }
        ],
        "link": "https://www.google.com/maps/place/Masjid/data=!4m7!3m6!1s0x3a32c9e5b2f6610f:0xf3876f4fa52bcbac!8m2!3d18.8632353!4d79.4780346!16s%2Fg%2F11pfyr4y6c!19sChIJD2H2suXJMjoRrMsrpU9vh_M?authuser=0&hl=en&rclk=1",
        "coordinates": {
            "latitude": 18.8632353,
            "longitude": 79.4780346
        }
    },
    {
        "name": "Masjid e Noor",
        "main_category": "Mosque",
        "address": "Masjid e Noor, 2-63/3, Akbar Nagar, Kundanpalli, Ramagundam, Telangana 505208",
        "detailed_address": {
            "ward": "Akbar Nagar, Kundanpalli",
            "street": "2-63/3",
            "city": "Ramagundam",
            "postal_code": "505208",
            "state": "Telangana",
            "country_code": "IN"
        },
        "images": [
            {
                "about": "All",
                "link": "https://lh5.googleusercontent.com/p/AF1QipOsBi7j781zqPs81XmtwIupIbikhVSf6rTeFNMe=w530-h298-k-no"
            },
            {
                "about": "Street View & 360deg",
                "link": "https://streetviewpixels-pa.googleapis.com/v1/thumbnail?panoid=TgxyaLg7J5PZCC4aQiBvpA&cb_client=maps_sv.tactile.gps&w=224&h=298&yaw=319.95175&pitch=0&thumbfov=100"
            }
        ],
        "link": "https://www.google.com/maps/place/Masjid+e+Noor/data=!4m7!3m6!1s0x3a32cd1d62d77495:0x841ed3c2b10f6201!8m2!3d18.763756!4d79.4336758!16s%2Fg%2F11v64znr09!19sChIJlXTXYh3NMjoRAWIPscLTHoQ?authuser=0&hl=en&rclk=1",
        "coordinates": {
            "latitude": 18.763756,
            "longitude": 79.4336758
        }
    },
    {
        "name": "Masjid",
        "main_category": "Mosque",
        "address": "V7J4+GG5 Masjid, Telangana 504215",
        "detailed_address": {
            "ward": null,
            "street": "V7J4+GG5",
            "city": null,
            "postal_code": "504215",
            "state": "Telangana",
            "country_code": "IN"
        },
        "images": [
            {
                "about": "All",
                "link": "https://lh5.googleusercontent.com/p/AF1QipOcsNqRJUWKaj2mYrG46XlbWwcVrLuZAV-qX6M4=w224-h486-k-no"
            }
        ],
        "link": "https://www.google.com/maps/place/Masjid/data=!4m7!3m6!1s0x3bcd4949a9bf89a1:0xfedf2abfb93c1c36!8m2!3d18.8812544!4d79.2563521!16s%2Fg%2F11rw9wcgw5!19sChIJoYm_qUlJzTsRNhw8ub8q3_4?authuser=0&hl=en&rclk=1",
        "coordinates": {
            "latitude": 18.8812544,
            "longitude": 79.2563521
        }
    },
    {
        "name": "MASJID -E-HUDA",
        "main_category": "Mosque",
        "address": "V9C6+23C MASJID -E-HUDA, Gudipet, Telangana 504209",
        "detailed_address": {
            "ward": null,
            "street": "V9C6+23C",
            "city": "Gudipet",
            "postal_code": "504209",
            "state": "Telangana",
            "country_code": "IN"
        },
        "images": [],
        "link": "https://www.google.com/maps/place/MASJID+-E-HUDA/data=!4m7!3m6!1s0x3bcd356b38b7731f:0xc3294b0d95965bcf!8m2!3d18.8700652!4d79.3601319!16s%2Fg%2F11sstt55j6!19sChIJH3O3OGs1zTsRz1uWlQ1LKcM?authuser=0&hl=en&rclk=1",
        "coordinates": {
            "latitude": 18.8700652,
            "longitude": 79.3601319
        }
    },
    {
        "name": "Masjid",
        "main_category": "Mosque",
        "address": "XFGM+R8X Masjid, 2nd Zone, Mandamarri, Telangana 504251",
        "detailed_address": {
            "ward": "2nd Zone",
            "street": "XFGM+R8X",
            "city": "Mandamarri",
            "postal_code": "504251",
            "state": "Telangana",
            "country_code": "IN"
        },
        "images": [
            {
                "about": "All",
                "link": "https://streetviewpixels-pa.googleapis.com/v1/thumbnail?panoid=Y9I8XDdQyYdkbUHXWrcEnQ&cb_client=maps_sv.tactile.gps&w=224&h=298&yaw=329.41306&pitch=0&thumbfov=100"
            },
            {
                "about": "Street View & 360deg",
                "link": "https://streetviewpixels-pa.googleapis.com/v1/thumbnail?panoid=Y9I8XDdQyYdkbUHXWrcEnQ&cb_client=maps_sv.tactile.gps&w=224&h=298&yaw=329.41306&pitch=0&thumbfov=100"
            }
        ],
        "link": "https://www.google.com/maps/place/Masjid/data=!4m7!3m6!1s0x3a32b6b223feaaab:0x22a57634f474edc3!8m2!3d18.9771192!4d79.4833734!16s%2Fg%2F11sscsgn2t!19sChIJq6r-I7K2MjoRw-109DR2pSI?authuser=0&hl=en&rclk=1",
        "coordinates": {
            "latitude": 18.9771192,
            "longitude": 79.48337339999999
        }
    },
    {
        "name": "Qabarastan mandamarri",
        "main_category": "Mosque",
        "address": "XFPC+4XX Qabarastan mandamarri, Mandamarri, Telangana 504231",
        "detailed_address": {
            "ward": null,
            "street": "XFPC+4XX",
            "city": "Mandamarri",
            "postal_code": "504231",
            "state": "Telangana",
            "country_code": "IN"
        },
        "images": [],
        "link": "https://www.google.com/maps/place/Qabarastan+mandamarri/data=!4m7!3m6!1s0x3a32b1400bdebef9:0xf6087d82012c0d93!8m2!3d18.9853207!4d79.4723671!16s%2Fg%2F11t9pc4n35!19sChIJ-b7eC0CxMjoRkw0sAYJ9CPY?authuser=0&hl=en&rclk=1",
        "coordinates": {
            "latitude": 18.9853207,
            "longitude": 79.4723671
        }
    },
    {
        "name": "Masjid E Amera",
        "main_category": "Mosque",
        "address": "XFMM+59V Masjid E Amera, Mandamarri Market, Mandamarri, Telangana 504231",
        "detailed_address": {
            "ward": "Mandamarri Market",
            "street": "XFMM+59V",
            "city": "Mandamarri",
            "postal_code": "504231",
            "state": "Telangana",
            "country_code": "IN"
        },
        "images": [
            {
                "about": "All",
                "link": "https://streetviewpixels-pa.googleapis.com/v1/thumbnail?panoid=zQx1qSt-DU26WQyIeqV4Pw&cb_client=maps_sv.tactile.gps&w=224&h=298&yaw=121.45043&pitch=0&thumbfov=100"
            },
            {
                "about": "Street View & 360deg",
                "link": "https://streetviewpixels-pa.googleapis.com/v1/thumbnail?panoid=zQx1qSt-DU26WQyIeqV4Pw&cb_client=maps_sv.tactile.gps&w=224&h=298&yaw=121.45043&pitch=0&thumbfov=100"
            }
        ],
        "link": "https://www.google.com/maps/place/Masjid+E+Amera/data=!4m7!3m6!1s0x3a32b1d3d5e76493:0xb6c921baac7e3aee!8m2!3d18.982982!4d79.4834303!16s%2Fg%2F11fd7f9wgh!19sChIJk2Tn1dOxMjoR7jp-rLohybY?authuser=0&hl=en&rclk=1",
        "coordinates": {
            "latitude": 18.982982,
            "longitude": 79.4834303
        }
    },
    {
        "name": "Madina Masjid &Madarsa-e-Islamia",
        "main_category": "Mosque",
        "address": "WFFG+34M Madina Masjid &Madarsa-e-Islamia, B Zone, B.S.Nagar, Ramakrishnapur, Telangana 504301",
        "detailed_address": {
            "ward": "B Zone, B.S.Nagar",
            "street": "WFFG+34M",
            "city": "Ramakrishnapur",
            "postal_code": "504301",
            "state": "Telangana",
            "country_code": "IN"
        },
        "images": [],
        "link": "https://www.google.com/maps/place/Madina+Masjid+%26Madarsa-e-Islamia/data=!4m7!3m6!1s0x3a32b7a3affc7f61:0x74e632100146ab44!8m2!3d18.9227218!4d79.4753102!16s%2Fg%2F11h4z3ky9c!19sChIJYX_8r6O3MjoRRKtGARAy5nQ?authuser=0&hl=en&rclk=1",
        "coordinates": {
            "latitude": 18.922721799999998,
            "longitude": 79.4753102
        }
    },
    {
        "name": "msjd mHmdyh jm`t hl Hdyth mhmmdiiy msjid",
        "main_category": "Mosque",
        "address": "WFHG+GVW msjd mHmdyh jm`t hl Hdyth mhmmdiiy msjid, B Zone, Ramakrishnapur, Telangana 504301",
        "detailed_address": {
            "ward": "B Zone",
            "street": "WFHG+GVW",
            "city": "Ramakrishnapur",
            "postal_code": "504301",
            "state": "Telangana",
            "country_code": "IN"
        },
        "images": [
            {
                "about": "All",
                "link": "https://lh5.googleusercontent.com/p/AF1QipOh9h2PWUX_1BDgONPwYOkle5DEuyOdvHOiIClx=w529-h298-k-no"
            },
            {
                "about": "Dome",
                "link": "https://lh5.googleusercontent.com/p/AF1QipOh9h2PWUX_1BDgONPwYOkle5DEuyOdvHOiIClx=w529-h298-k-no"
            },
            {
                "about": "Street View & 360deg",
                "link": "https://streetviewpixels-pa.googleapis.com/v1/thumbnail?panoid=jCd2yToKSO01oo0gdXSTUg&cb_client=maps_sv.tactile.gps&w=224&h=298&yaw=20.17221&pitch=0&thumbfov=100"
            }
        ],
        "link": "https://www.google.com/maps/place/%D9%85%D8%B3%D8%AC%D8%AF+%D9%85%D8%AD%D9%85%D8%AF%D9%8A%D9%87+%D8%AC%D9%85%D8%A7%D8%B9%D8%AA+%D8%A7%D9%87%D9%84+%D8%AD%D8%AF%D9%8A%D8%AB+%E0%B0%AE%E0%B0%B9%E0%B0%AE%E0%B1%8D%E0%B0%AE%E0%B0%A6%E0%B1%80%E0%B0%AF+%E0%B0%AE%E0%B0%B8%E0%B1%8D%E0%B0%9C%E0%B0%BF%E0%B0%A6%E0%B1%8D%E2%80%AD/data=!4m7!3m6!1s0x3a32b67bf2528b55:0x7515e78bff2371af!8m2!3d18.928871!4d79.4772052!16s%2Fg%2F11g03qh721!19sChIJVYtS8nu2MjoRr3Ej_4vnFXU?authuser=0&hl=en&rclk=1",
        "coordinates": {
            "latitude": 18.928871,
            "longitude": 79.4772052
        }
    },
    {
        "name": "ThilakNagar Masidh",
        "main_category": "Mosque",
        "address": "WFQC+WF9 ThilakNagar Masidh, Ramakrishnapur, Telangana 504301",
        "detailed_address": {
            "ward": null,
            "street": "WFQC+WF9",
            "city": "Ramakrishnapur",
            "postal_code": "504301",
            "state": "Telangana",
            "country_code": "IN"
        },
        "images": [],
        "link": "https://www.google.com/maps/place/ThilakNagar+Masidh/data=!4m7!3m6!1s0x3a32b7544d87770f:0xe6cbb2a0378d5!8m2!3d18.9398846!4d79.4712895!16s%2Fg%2F11t505dglk!19sChIJD3eHTVS3MjoR1XgDKrtsDgA?authuser=0&hl=en&rclk=1",
        "coordinates": {
            "latitude": 18.9398846,
            "longitude": 79.4712895
        }
    },
    {
        "name": "Baba",
        "main_category": "Mosque",
        "address": "WFM6+5VH Baba, Shivaji Nagar, Kakatiya Colony, Ramakrishnapur, Telangana 504301",
        "detailed_address": {
            "ward": "Shivaji Nagar, Kakatiya Colony",
            "street": "WFM6+5VH",
            "city": "Ramakrishnapur",
            "postal_code": "504301",
            "state": "Telangana",
            "country_code": "IN"
        },
        "images": [
            {
                "about": "All",
                "link": "https://streetviewpixels-pa.googleapis.com/v1/thumbnail?panoid=9_UNre-hB1jsKL7VPmyOyw&cb_client=maps_sv.tactile.gps&w=224&h=298&yaw=135.58769&pitch=0&thumbfov=100"
            },
            {
                "about": "Street View & 360deg",
                "link": "https://streetviewpixels-pa.googleapis.com/v1/thumbnail?panoid=9_UNre-hB1jsKL7VPmyOyw&cb_client=maps_sv.tactile.gps&w=224&h=298&yaw=135.58769&pitch=0&thumbfov=100"
            }
        ],
        "link": "https://www.google.com/maps/place/Baba/data=!4m7!3m6!1s0x3a32b59edd9539e7:0x40d259f8646a776f!8m2!3d18.9344956!4d79.4618487!16s%2Fg%2F11snlmgpb_!19sChIJ5zmV3Z61MjoRb3dqZPhZ0kA?authuser=0&hl=en&rclk=1",
        "coordinates": {
            "latitude": 18.934495599999998,
            "longitude": 79.46184869999999
        }
    },
    {
        "name": "Noorani Masjid",
        "main_category": "Mosque",
        "address": "2F6H+RH Noorani Masjid, Somagudem, Telangana 504231",
        "detailed_address": {
            "ward": null,
            "street": "2F6H+RH",
            "city": "Somagudem",
            "postal_code": null,
            "state": "Telangana",
            "country_code": "IN"
        },
        "images": [
            {
                "about": "All",
                "link": "https://streetviewpixels-pa.googleapis.com/v1/thumbnail?panoid=KF96lh_L5qHoNRnv8xcLdw&cb_client=maps_sv.tactile.gps&w=224&h=298&yaw=108.281525&pitch=0&thumbfov=100"
            },
            {
                "about": "Dome",
                "link": "https://lh5.googleusercontent.com/p/AF1QipP6kzLwN5fHxVqdKqMfCb7GNPzV7pwbrh0aRkDI=w224-h298-k-no"
            },
            {
                "about": "Street View & 360deg",
                "link": "https://streetviewpixels-pa.googleapis.com/v1/thumbnail?panoid=KF96lh_L5qHoNRnv8xcLdw&cb_client=maps_sv.tactile.gps&w=224&h=298&yaw=108.281525&pitch=0&thumbfov=100"
            }
        ],
        "link": "https://www.google.com/maps/place/Noorani+Masjid/data=!4m7!3m6!1s0x3a32b15613f7eeab:0x9f42fd203b5fc5b8!8m2!3d19.0121284!4d79.4789273!16s%2Fg%2F11s_wnb94n!19sChIJq-73E1axMjoRuMVfOyD9Qp8?authuser=0&hl=en&rclk=1",
        "coordinates": {
            "latitude": 19.012128399999998,
            "longitude": 79.4789273
        }
    },
    {
        "name": "Pirila masid",
        "main_category": "Mosque",
        "address": "VG75+GQ5 Pirila masid, Mandamarri - Godavarikhani Rd, RK 8 Colony, Srirampur Colony, Singapur, Mancherial, Telangana 504303",
        "detailed_address": {
            "ward": "RK 8 Colony, Srirampur Colony",
            "street": "VG75+GQ5, Mandamarri - Godavarikhani Rd",
            "city": "Singapur, Mancherial",
            "postal_code": "504303",
            "state": "Telangana",
            "country_code": "IN"
        },
        "images": [
            {
                "about": "All",
                "link": "https://lh5.googleusercontent.com/p/AF1QipOa0-nImOr3Dm1cETTzv3fJ3Jg33KY0mzKsrODS=w529-h298-k-no"
            },
            {
                "about": "Street View & 360deg",
                "link": "https://streetviewpixels-pa.googleapis.com/v1/thumbnail?panoid=rsXRyo3ySBHjma7qdvtkIQ&cb_client=maps_sv.tactile.gps&w=224&h=298&yaw=301.268&pitch=0&thumbfov=100"
            },
            {
                "about": "Videos",
                "link": "https://lh5.googleusercontent.com/p/AF1QipNT_GnZdBmMO5_Sl09AbgOQh3Ux0G5moYQt4ctk=w224-h497-k-no"
            }
        ],
        "link": "https://www.google.com/maps/place/Pirila+masid/data=!4m7!3m6!1s0x3a32c9965732b525:0x6df658b5a96bf2c2!8m2!3d18.8637554!4d79.5094735!16s%2Fg%2F11h_6ff1ph!19sChIJJbUyV5bJMjoRwvJrqbVY9m0?authuser=0&hl=en&rclk=1",
        "coordinates": {
            "latitude": 18.8637554,
            "longitude": 79.5094735
        }
    },
    {
        "name": "Bilal masjid",
        "main_category": "Mosque",
        "address": "3FCR+JFF Bilal masjid, Bellampalle, Telangana 504251",
        "detailed_address": {
            "ward": null,
            "street": "3FCR+JFF",
            "city": "Bellampalle",
            "postal_code": "504251",
            "state": "Telangana",
            "country_code": "IN"
        },
        "images": [
            {
                "about": "All",
                "link": "https://streetviewpixels-pa.googleapis.com/v1/thumbnail?panoid=JUC_PBSRvWV_JRvADas-RQ&cb_client=maps_sv.tactile.gps&w=224&h=298&yaw=150.94923&pitch=0&thumbfov=100"
            },
            {
                "about": "Street View & 360deg",
                "link": "https://streetviewpixels-pa.googleapis.com/v1/thumbnail?panoid=JUC_PBSRvWV_JRvADas-RQ&cb_client=maps_sv.tactile.gps&w=224&h=298&yaw=150.94923&pitch=0&thumbfov=100"
            }
        ],
        "link": "https://www.google.com/maps/place/Bilal+masjid/data=!4m7!3m6!1s0x3a32b173bceb72cd:0x6207918c86c64f91!8m2!3d19.0715572!4d79.4911758!16s%2Fg%2F11f62g432g!19sChIJzXLrvHOxMjoRkU_GhoyRB2I?authuser=0&hl=en&rclk=1",
        "coordinates": {
            "latitude": 19.0715572,
            "longitude": 79.4911758
        }
    },
    {
        "name": "PIREELA MASEEDU",
        "main_category": "Mosque",
        "address": "WCPV+V33 PIREELA MASEEDU, Gandhari Mysamma Qilla Rd, Bokkalagutta, Telangana 504207",
        "detailed_address": {
            "ward": null,
            "street": "WCPV+V33, Gandhari Mysamma Qilla Rd",
            "city": "Bokkalagutta",
            "postal_code": "504207",
            "state": "Telangana",
            "country_code": "IN"
        },
        "images": [
            {
                "about": "All",
                "link": "https://streetviewpixels-pa.googleapis.com/v1/thumbnail?panoid=2QgSTYOCpJs88lseFhbaMA&cb_client=maps_sv.tactile.gps&w=224&h=298&yaw=236.17921&pitch=0&thumbfov=100"
            },
            {
                "about": "Street View & 360deg",
                "link": "https://streetviewpixels-pa.googleapis.com/v1/thumbnail?panoid=2QgSTYOCpJs88lseFhbaMA&cb_client=maps_sv.tactile.gps&w=224&h=298&yaw=236.17921&pitch=0&thumbfov=100"
            }
        ],
        "link": "https://www.google.com/maps/place/PIREELA+MASEEDU/data=!4m7!3m6!1s0x3a32b5fb88ae899b:0x3edf11b55b394673!8m2!3d18.93714!4d79.442663!16s%2Fg%2F11s3wv7jj1!19sChIJm4muiPu1MjoRc0Y5W7UR3z4?authuser=0&hl=en&rclk=1",
        "coordinates": {
            "latitude": 18.93714,
            "longitude": 79.442663
        }
    },
    {
        "name": "MAILARAM MASJID",
        "main_category": "Mosque",
        "address": "2JJX+GQH MAILARAM MASJID, Mailaram, Telangana 504219",
        "detailed_address": {
            "ward": null,
            "street": "2JJX+GQH",
            "city": "Mailaram",
            "postal_code": "504219",
            "state": "Telangana",
            "country_code": "IN"
        },
        "images": [
            {
                "about": "All",
                "link": "https://lh5.googleusercontent.com/p/AF1QipObL4XOm69JysBuFaru0-AeW6BJorr0reWKpXxB=w397-h298-k-no"
            }
        ],
        "link": "https://www.google.com/maps/place/MAILARAM+MASJID/data=!4m7!3m6!1s0x3a32bb5b926e6ac5:0x186727f39bcf1153!8m2!3d19.0313067!4d79.6494769!16s%2Fg%2F11s1781cc2!19sChIJxWpuklu7MjoRUxHPm_MnZxg?authuser=0&hl=en&rclk=1",
        "coordinates": {
            "latitude": 19.0313067,
            "longitude": 79.6494769
        }
    },
    {
        "name": "Gouse Paak Chillah Sherif Chowk",
        "main_category": "Mosque",
        "address": "VCGV+6CC Gouse Paak Chillah Sherif Chowk, Chintapandu Wada, Reddy Colony, Mancherial, Telangana 504208",
        "detailed_address": {
            "ward": "Chintapandu Wada, Reddy Colony",
            "street": "VCGV+6CC",
            "city": "Mancherial",
            "postal_code": "504208",
            "state": "Telangana",
            "country_code": "IN"
        },
        "images": [
            {
                "about": "All",
                "link": "https://streetviewpixels-pa.googleapis.com/v1/thumbnail?panoid=cbvfxGRpf_MdWJf4n9ukWA&cb_client=maps_sv.tactile.gps&w=224&h=298&yaw=174.84753&pitch=0&thumbfov=100"
            },
            {
                "about": "Street View & 360deg",
                "link": "https://streetviewpixels-pa.googleapis.com/v1/thumbnail?panoid=cbvfxGRpf_MdWJf4n9ukWA&cb_client=maps_sv.tactile.gps&w=224&h=298&yaw=174.84753&pitch=0&thumbfov=100"
            }
        ],
        "link": "https://www.google.com/maps/place/Gouse+Paak+Chillah+Sherif+Chowk/data=!4m7!3m6!1s0x3a32cb08c3b8ea41:0x502a4c898a114dd0!8m2!3d18.8755726!4d79.4435151!16s%2Fg%2F11t9pykf15!19sChIJQeq4wwjLMjoR0E0RiolMKlA?authuser=0&hl=en&rclk=1",
        "coordinates": {
            "latitude": 18.875572599999998,
            "longitude": 79.4435151
        }
    },
    {
        "name": "Hazrat Moula Ali Gouse Azam Dastagir Chilla Shareef",
        "main_category": "Mosque",
        "address": "Hazrat Moula Ali Gouse Azam Dastagir Chilla Shareef, Kothapally, Tandur, Kothapalle, Telangana 504272",
        "detailed_address": {
            "ward": null,
            "street": "Kothapally",
            "city": "Tandur, Kothapalle",
            "postal_code": "504272",
            "state": "Telangana",
            "country_code": "IN"
        },
        "images": [
            {
                "about": "All",
                "link": "https://lh5.googleusercontent.com/p/AF1QipOB3RjUyYCBQHEPnZMjUZXrc1bAYMo9sR4QOhXm=w224-h377-k-no"
            },
            {
                "about": "By owner",
                "link": "https://lh5.googleusercontent.com/p/AF1QipOB3RjUyYCBQHEPnZMjUZXrc1bAYMo9sR4QOhXm=w224-h377-k-no"
            }
        ],
        "link": "https://www.google.com/maps/place/Hazrat+Moula+Ali+Gouse+Azam+Dastagir+Chilla+Shareef/data=!4m7!3m6!1s0x3a32adca8b38aa6b:0xe8cd48f76d5f24fd!8m2!3d19.1648172!4d79.4409776!16s%2Fg%2F11l1fpg371!19sChIJa6o4i8qtMjoR_SRfbfdIzeg?authuser=0&hl=en&rclk=1",
        "coordinates": {
            "latitude": 19.164817199999998,
            "longitude": 79.4409776
        }
    },
    {
        "name": "Bandenawaz",
        "main_category": "Mosque",
        "address": "VFF4+57C Bandenawaz, Mancherial, Telangana 504302",
        "detailed_address": {
            "ward": null,
            "street": "VFF4+57C",
            "city": "Mancherial",
            "postal_code": null,
            "state": "Telangana",
            "country_code": "IN"
        },
        "images": [],
        "link": "https://www.google.com/maps/place/Bandenawaz/data=!4m7!3m6!1s0x3a32cb0ee4da2b3b:0xef4813e0ab1a4d92!8m2!3d18.8729491!4d79.4556449!16s%2Fg%2F11stwpkmk_!19sChIJOyva5A7LMjoRkk0aq-ATSO8?authuser=0&hl=en&rclk=1",
        "coordinates": {
            "latitude": 18.8729491,
            "longitude": 79.4556449
        }
    },
    {
        "name": "Masjid",
        "main_category": "Mosque",
        "address": "RC75+858 Masjid, Anthergoan, Telangana 505514",
        "detailed_address": {
            "ward": null,
            "street": "RC75+858",
            "city": "Anthergoan",
            "postal_code": "505514",
            "state": "Telangana",
            "country_code": "IN"
        },
        "images": [
            {
                "about": "All",
                "link": "https://lh5.googleusercontent.com/p/AF1QipPBh3Qh4PduOx003jH_0Vmw_KhFk50ZtCQmJpIQ=w397-h298-k-no"
            }
        ],
        "link": "https://www.google.com/maps/place/Masjid/data=!4m7!3m6!1s0x3a32cb7b685fbe5d:0x8d8cda67d239c2d8!8m2!3d18.8132863!4d79.407963!16s%2Fg%2F11q8s0z1lx!19sChIJXb5faHvLMjoR2MI50mfajI0?authuser=0&hl=en&rclk=1",
        "coordinates": {
            "latitude": 18.813286299999998,
            "longitude": 79.407963
        }
    },
    {
        "name": "Makhah Masjid",
        "main_category": "Mosque",
        "address": "PGV6+7PH Makhah Masjid, Godavarikhani, Ramagundam, Telangana 505211",
        "detailed_address": {
            "ward": "Godavarikhani",
            "street": "PGV6+7PH",
            "city": "Ramagundam",
            "postal_code": null,
            "state": "Telangana",
            "country_code": "IN"
        },
        "images": [
            {
                "about": "All",
                "link": "https://streetviewpixels-pa.googleapis.com/v1/thumbnail?panoid=84ZawQlwPQHUhDbfH_Nn0w&cb_client=maps_sv.tactile.gps&w=224&h=298&yaw=156.67783&pitch=0&thumbfov=100"
            },
            {
                "about": "Street View & 360deg",
                "link": "https://streetviewpixels-pa.googleapis.com/v1/thumbnail?panoid=84ZawQlwPQHUhDbfH_Nn0w&cb_client=maps_sv.tactile.gps&w=224&h=298&yaw=156.67783&pitch=0&thumbfov=100"
            }
        ],
        "link": "https://www.google.com/maps/place/Makhah+Masjid/data=!4m7!3m6!1s0x3a32cfba85f9cde5:0xd91651fb43562171!8m2!3d18.7431838!4d79.5118532!16s%2Fg%2F11kqdkbccm!19sChIJ5c35hbrPMjoRcSFWQ_tRFtk?authuser=0&hl=en&rclk=1",
        "coordinates": {
            "latitude": 18.7431838,
            "longitude": 79.51185319999999
        }
    },
    {
        "name": "Badi masjid",
        "main_category": "Mosque",
        "address": "V6M4+6G6 Badi masjid, Luxettipet, Utukur, Telangana 504215",
        "detailed_address": {
            "ward": null,
            "street": "V6M4+6G6",
            "city": "Luxettipet, Utukur",
            "postal_code": "504215",
            "state": "Telangana",
            "country_code": "IN"
        },
        "images": [
            {
                "about": "All",
                "link": "https://streetviewpixels-pa.googleapis.com/v1/thumbnail?panoid=2Fma5QjCQUEZ-Ww14r02Sg&cb_client=maps_sv.tactile.gps&w=224&h=298&yaw=145.20671&pitch=0&thumbfov=100"
            },
            {
                "about": "Street View & 360deg",
                "link": "https://streetviewpixels-pa.googleapis.com/v1/thumbnail?panoid=2Fma5QjCQUEZ-Ww14r02Sg&cb_client=maps_sv.tactile.gps&w=224&h=298&yaw=145.20671&pitch=0&thumbfov=100"
            }
        ],
        "link": "https://www.google.com/maps/place/Badi+masjid/data=!4m7!3m6!1s0x3bcd4983c8455595:0x967acd0ca59d0e65!8m2!3d18.8830416!4d79.2062597!16s%2Fg%2F11vf2g1rj5!19sChIJlVVFyINJzTsRZQ6dpQzNepY?authuser=0&hl=en&rclk=1",
        "coordinates": {
            "latitude": 18.8830416,
            "longitude": 79.20625969999999
        }
    },
    {
        "name": "Choti masjid",
        "main_category": "Mosque",
        "address": "5C2X+8M Choti masjid, Tandur, Telangana 504272",
        "detailed_address": {
            "ward": null,
            "street": "5C2X+8M",
            "city": "Tandur",
            "postal_code": null,
            "state": "Telangana",
            "country_code": "IN"
        },
        "images": [],
        "link": "https://www.google.com/maps/place/Choti+masjid/data=!4m7!3m6!1s0x3a32adad042446a3:0xd142992232766ce7!8m2!3d19.1507869!4d79.4491885!16s%2Fg%2F11sq8hn0w4!19sChIJo0YkBK2tMjoR52x2MiKZQtE?authuser=0&hl=en&rclk=1",
        "coordinates": {
            "latitude": 19.1507869,
            "longitude": 79.44918849999999
        }
    },
    {
        "name": "msiidu",
        "main_category": "Mosque",
        "address": "6HCR+XR2 msiidu, Wadal, Laxmipur, Telangana 504273",
        "detailed_address": {
            "ward": null,
            "street": "6HCR+XR2",
            "city": "Wadal, Laxmipur",
            "postal_code": "504273",
            "state": "Telangana",
            "country_code": "IN"
        },
        "images": [],
        "link": "https://www.google.com/maps/place/%E0%B0%AE%E0%B0%B8%E0%B1%80%E0%B0%A6%E0%B1%81/data=!4m7!3m6!1s0x3a32a736f95b27e3:0x8c80225113dd9a52!8m2!3d19.2223867!4d79.5920304!16s%2Fg%2F11nxcdr157!19sChIJ4ydb-TanMjoRUprdE1EigIw?authuser=0&hl=en&rclk=1",
        "coordinates": {
            "latitude": 19.222386699999998,
            "longitude": 79.5920304
        }
    }
]