[
    {
        "name": "Jamiya Masajid",
        "main_category": "Mosque",
        "address": "Jamiya Masajid, Basavana Bagewadi, Karnataka 586203",
        "detailed_address": {
            "ward": null,
            "street": null,
            "city": "Basavana Bagewadi",
            "postal_code": null,
            "state": "Karnataka",
            "country_code": "IN"
        },
        "images": [
            {
                "about": "All",
                "link": "https://lh5.googleusercontent.com/p/AF1QipOEvtKbwFELkpmTyMfNh5Ws5uB4yzYO7eI0moPd=w224-h398-k-no"
            },
            {
                "about": "Street View & 360deg",
                "link": "https://streetviewpixels-pa.googleapis.com/v1/thumbnail?panoid=4K9NC8ZNE9WDuqxWtoN-zw&cb_client=maps_sv.tactile.gps&w=224&h=298&yaw=315.27988&pitch=0&thumbfov=100"
            }
        ],
        "link": "https://www.google.com/maps/place/Jamiya+Masajid/data=!4m7!3m6!1s0x3bc7bbcb7116fae1:0xd060e58cc7233a00!8m2!3d16.5713879!4d75.9743964!16s%2Fg%2F11_rpltnp!19sChIJ4foWccu7xzsRADojx4zlYNA?authuser=0&hl=en&rclk=1",
        "coordinates": {
            "latitude": 16.571387899999998,
            "longitude": 75.9743964
        }
    },
    {
        "name": "Madina Masjid",
        "main_category": "Mosque",
        "address": "HXFF+RFQ Madina Masjid, Bijapur Rd, Basavana Bagewadi, Karnataka 586203",
        "detailed_address": {
            "ward": null,
            "street": "HXFF+RFQ, Bijapur Rd",
            "city": "Basavana Bagewadi",
            "postal_code": "586203",
            "state": "Karnataka",
            "country_code": "IN"
        },
        "images": [
            {
                "about": "All",
                "link": "https://lh5.googleusercontent.com/p/AF1QipM2xhmu6YgHjUwl76Ho_5V5lNoCqC7OnAwlXstu=w529-h298-k-no"
            },
            {
                "about": "Videos",
                "link": "https://lh5.googleusercontent.com/p/AF1QipPSALA_xByXbQCpQqWBxYiydKR61GjlDXiXOTvu=w224-h395-k-no"
            }
        ],
        "link": "https://www.google.com/maps/place/Madina+Masjid/data=!4m7!3m6!1s0x3bc7ba34eecdac49:0x8c7e190ba3c0d6d0!8m2!3d16.5745758!4d75.9737239!16s%2Fg%2F11c6qhpry9!19sChIJSazN7jS6xzsR0NbAowsZfow?authuser=0&hl=en&rclk=1",
        "coordinates": {
            "latitude": 16.574575799999998,
            "longitude": 75.9737239
        }
    },
    {
        "name": "Fatima Masjid",
        "main_category": "Mosque",
        "address": "HX87+V7X Fatima Masjid, Iqbal Nagar, Basavana Bagewadi, Karnataka 586203",
        "detailed_address": {
            "ward": "Iqbal Nagar",
            "street": "HX87+V7X",
            "city": "Basavana Bagewadi",
            "postal_code": "586203",
            "state": "Karnataka",
            "country_code": "IN"
        },
        "images": [
            {
                "about": "All",
                "link": "https://lh5.googleusercontent.com/p/AF1QipMJRw8hocm5Q3_lDu_Ef499resWbPTWDz0fCyos=w529-h298-k-no"
            },
            {
                "about": "Street View & 360deg",
                "link": "https://streetviewpixels-pa.googleapis.com/v1/thumbnail?panoid=ONVylHNg8nTMQTPS_YvAFA&cb_client=maps_sv.tactile.gps&w=224&h=298&yaw=342.9999&pitch=0&thumbfov=100"
            }
        ],
        "link": "https://www.google.com/maps/place/Fatima+Masjid/data=!4m7!3m6!1s0x3bc7bbb6aa72ca5f:0xbff18f0dfbe4a730!8m2!3d16.5672313!4d75.9632318!16s%2Fg%2F11c2y7z8yc!19sChIJX8pyqra7xzsRMKfk-w2P8b8?authuser=0&hl=en&rclk=1",
        "coordinates": {
            "latitude": 16.5672313,
            "longitude": 75.9632318
        }
    },
    {
        "name": "Minar Masjid",
        "main_category": "Mosque",
        "address": "HX87+PV9 Minar Masjid, Basavana Bagewadi, Karnataka 586203",
        "detailed_address": {
            "ward": null,
            "street": "HX87+PV9",
            "city": "Basavana Bagewadi",
            "postal_code": "586203",
            "state": "Karnataka",
            "country_code": "IN"
        },
        "images": [
            {
                "about": "All",
                "link": "https://lh5.googleusercontent.com/p/AF1QipPnUCfvtSqCdjPTAl_SMMPVxhaOY4K7_YSSvSkO=w224-h298-k-no"
            }
        ],
        "link": "https://www.google.com/maps/place/Minar+Masjid/data=!4m7!3m6!1s0x3bc7bba86e45783b:0xeaa4dcfbe0f13ba3!8m2!3d16.5667827!4d75.9647311!16s%2Fg%2F11g0h0zgj3!19sChIJO3hFbqi7xzsRozvx4PvcpOo?authuser=0&hl=en&rclk=1",
        "coordinates": {
            "latitude": 16.5667827,
            "longitude": 75.9647311
        }
    },
    {
        "name": "Masjid-e-aala",
        "main_category": "Mosque",
        "address": "HX7C+8RJ Masjid-e-aala, Basavana Bagewadi, Karnataka 586203",
        "detailed_address": {
            "ward": null,
            "street": "HX7C+8RJ",
            "city": "Basavana Bagewadi",
            "postal_code": "586203",
            "state": "Karnataka",
            "country_code": "IN"
        },
        "images": [
            {
                "about": "All",
                "link": "https://lh5.googleusercontent.com/p/AF1QipMXQK7ohKqySTVESg4u9wK98BqV6f4SKMNnb_fG=w397-h298-k-no"
            },
            {
                "about": "Street View & 360deg",
                "link": "https://streetviewpixels-pa.googleapis.com/v1/thumbnail?panoid=s_GzjM5REaXD0_exZcjrAg&cb_client=maps_sv.tactile.gps&w=224&h=298&yaw=203.42668&pitch=0&thumbfov=100"
            },
            {
                "about": "Videos",
                "link": "https://lh5.googleusercontent.com/p/AF1QipOqCIP7htzRtSjb0Mz08LTCRdPMP_I47XRj0GRH=w541-h298-k-no"
            }
        ],
        "link": "https://www.google.com/maps/place/Masjid-e-aala/data=!4m7!3m6!1s0x3bc7bbb3d272cb4b:0x4eed0a7a87231297!8m2!3d16.5633457!4d75.9720006!16s%2Fg%2F11rpc00wn4!19sChIJS8ty0rO7xzsRlxIjh3oK7U4?authuser=0&hl=en&rclk=1",
        "coordinates": {
            "latitude": 16.5633457,
            "longitude": 75.9720006
        }
    },
    {
        "name": "MASJIDE UMME KULSUM",
        "main_category": "Mosque",
        "address": "HX9G+64X MASJIDE UMME KULSUM, JAMIYA NAGAR, Basavana Bagewadi, Karnataka 586203",
        "detailed_address": {
            "ward": null,
            "street": "HX9G+64X, JAMIYA NAGAR",
            "city": "Basavana Bagewadi",
            "postal_code": null,
            "state": "Karnataka",
            "country_code": "IN"
        },
        "images": [
            {
                "about": "All",
                "link": "https://lh5.googleusercontent.com/p/AF1QipP4FqQyc8B6tX_33BlueqdWNN6R8cZlBKTJ25RL=w397-h298-k-no"
            }
        ],
        "link": "https://www.google.com/maps/place/MASJIDE+UMME+KULSUM/data=!4m7!3m6!1s0x3bc7bb8eb85fb771:0x9d0ce60298e416a2!8m2!3d16.5681108!4d75.9753516!16s%2Fg%2F11h7p8mb7d!19sChIJcbdfuI67xzsRohbkmALmDJ0?authuser=0&hl=en&rclk=1",
        "coordinates": {
            "latitude": 16.5681108,
            "longitude": 75.9753516
        }
    },
    {
        "name": "JAMIYA MASJID BASAVANA HATTHI-586203",
        "main_category": "Mosque",
        "address": "H2QC+2G9 JAMIYA MASJID BASAVANA HATTHI-586203, Basavana Bagewadi, Karibhanthnal, Karnataka 586203",
        "detailed_address": {
            "ward": null,
            "street": "H2QC+2G9",
            "city": "Basavana Bagewadi, Karibhanthnal",
            "postal_code": "586203",
            "state": "Karnataka",
            "country_code": "IN"
        },
        "images": [
            {
                "about": "All",
                "link": "https://lh5.googleusercontent.com/p/AF1QipNkKkj6ohhh1xxk7iA7LbUIqTBganQLQobCjQS1=w662-h298-k-no"
            }
        ],
        "link": "https://www.google.com/maps/place/JAMIYA+MASJID+BASAVANA+HATTHI-586203/data=!4m7!3m6!1s0x3bc7b99939301705:0xcc9fd8f5c5185ba9!8m2!3d16.5875419!4d76.0213499!16s%2Fg%2F11k6rbdhkp!19sChIJBRcwOZm5xzsRqVsYxfXYn8w?authuser=0&hl=en&rclk=1",
        "coordinates": {
            "latitude": 16.587541899999998,
            "longitude": 76.02134989999999
        }
    },
    {
        "name": "Maheboob Subhani Darga",
        "main_category": "Mosque",
        "address": "Maheboob Subhani Darga, Basavana Bagewa9900705591",
        "detailed_address": {
            "ward": null,
            "street": "Basavana Bagewa9900705591",
            "city": "Basavana Bagewadi",
            "postal_code": null,
            "state": "Karnataka",
            "country_code": "IN"
        },
        "images": [
            {
                "about": "All",
                "link": "https://lh5.googleusercontent.com/p/AF1QipMEVs3eT_qMyJeOxYl1W1o4ZIpQfTe6TeMp5r2r=w224-h298-k-no"
            }
        ],
        "link": "https://www.google.com/maps/place/Maheboob+Subhani+Darga/data=!4m7!3m6!1s0x3bc7bbcb0b453809:0xa21eab5743f5a161!8m2!3d16.5681108!4d75.9753516!16s%2Fg%2F11f401lqp1!19sChIJCThFC8u7xzsRYaH1Q1erHqI?authuser=0&hl=en&rclk=1",
        "coordinates": {
            "latitude": 16.5681108,
            "longitude": 75.9753516
        }
    },
    {
        "name": "Masjid e noore makkah",
        "main_category": "Mosque",
        "address": "HXHC+QP6 Masjid e noore makkah, Unnamed Road, Basavana Bagewadi, Karnataka 586203",
        "detailed_address": {
            "ward": null,
            "street": "HXHC+QP6, Unnamed Road",
            "city": "Basavana Bagewadi",
            "postal_code": "586203",
            "state": "Karnataka",
            "country_code": "IN"
        },
        "images": [],
        "link": "https://www.google.com/maps/place/Masjid+e+noore+makkah/data=!4m7!3m6!1s0x3bc7bbe355f68ed3:0x8621bc51f0c37705!8m2!3d16.5794223!4d75.9717612!16s%2Fg%2F11p55znckk!19sChIJ0472VeO7xzsRBXfD8FG8IYY?authuser=0&hl=en&rclk=1",
        "coordinates": {
            "latitude": 16.5794223,
            "longitude": 75.9717612
        }
    },
    {
        "name": "Noorani Masjid",
        "main_category": "Religious destination",
        "address": "HXFG+JFG Noorani Masjid, Basavana Bagewadi, Karnataka 586203",
        "detailed_address": {
            "ward": null,
            "street": "HXFG+JFG",
            "city": "Basavana Bagewadi",
            "postal_code": "586203",
            "state": "Karnataka",
            "country_code": "IN"
        },
        "images": [],
        "link": "https://www.google.com/maps/place/Noorani+Masjid/data=!4m7!3m6!1s0x3bc7bb822aa6dc05:0x7ffb84b9937069f0!8m2!3d16.5740733!4d75.9761976!16s%2Fg%2F11h0bkt2t5!19sChIJBdymKoK7xzsR8Glwk7mE-38?authuser=0&hl=en&rclk=1",
        "coordinates": {
            "latitude": 16.5740733,
            "longitude": 75.97619759999999
        }
    }
]