[
    {
        "name": "Jama Masjid",
        "main_category": "Mosque",
        "address": "9WF4+RQQ Jama Masjid, Jainoor, Telangana 504313",
        "detailed_address": {
            "ward": null,
            "street": "9WF4+RQQ",
            "city": "Jainoor",
            "postal_code": "504313",
            "state": "Telangana",
            "country_code": "IN"
        },
        "images": [],
        "link": "https://www.google.com/maps/place/Jama+Masjid/data=!4m7!3m6!1s0x3bd29a35900ac135:0x7391ef599ce08a2c!8m2!3d19.3745916!4d78.9069837!16s%2Fg%2F11f34m3m7b!19sChIJNcEKkDWa0jsRLIrgnFnvkXM?authuser=0&hl=en&rclk=1",
        "coordinates": {
            "latitude": 19.3745916,
            "longitude": 78.9069837
        }
    },
    {
        "name": "Masjid e Bilala",
        "main_category": "Mosque",
        "address": "Masjid e Bilala, Adilabad-Asifabad Rd, Jainoor, Telangana 504313",
        "detailed_address": {
            "ward": null,
            "street": "Adilabad-Asifabad Rd",
            "city": "Jainoor",
            "postal_code": "504313",
            "state": "Telangana",
            "country_code": "IN"
        },
        "images": [
            {
                "about": "All",
                "link": "https://lh5.googleusercontent.com/p/AF1QipPrT3QJ9RL-Bce0k5QY-aYY3DzEabo_HLhH0fys=w397-h298-k-no"
            },
            {
                "about": "By owner",
                "link": "https://lh5.googleusercontent.com/p/AF1QipN1YKm-SB7UnN3dLhzYBVnoGdFwOK4HsVBJ1o1d=w397-h298-k-no"
            },
            {
                "about": "Street View & 360deg",
                "link": "https://streetviewpixels-pa.googleapis.com/v1/thumbnail?panoid=oXi_1U0A8V0tvjzlrjwiCw&cb_client=maps_sv.tactile.gps&w=224&h=298&yaw=10.859192&pitch=0&thumbfov=100"
            }
        ],
        "link": "https://www.google.com/maps/place/Masjid+e+Bilala/data=!4m7!3m6!1s0x3bd29bb7204a9e0f:0x706dab2553f72b79!8m2!3d19.3750134!4d78.9120455!16s%2Fg%2F11f6qq3rwz!19sChIJD55KILeb0jsReSv3UyWrbXA?authuser=0&hl=en&rclk=1",
        "coordinates": {
            "latitude": 19.3750134,
            "longitude": 78.91204549999999
        }
    },
    {
        "name": "Jama Masjid",
        "main_category": "Mosque",
        "address": "Jama Masjid, Bus Station, Old, Utnur, Telangana 504311",
        "detailed_address": {
            "ward": "Sevadas Nagar",
            "street": "Bus Station, Old",
            "city": "Utnur",
            "postal_code": "504311",
            "state": "Telangana",
            "country_code": "IN"
        },
        "images": [
            {
                "about": "All",
                "link": "https://lh5.googleusercontent.com/p/AF1QipNgXmzFIiNb7KaR81NcbxAJRB6oTxPerNoIubTa=w224-h398-k-no"
            },
            {
                "about": "Street View & 360deg",
                "link": "https://streetviewpixels-pa.googleapis.com/v1/thumbnail?panoid=nj6ibS_16-ovKF3omhppBw&cb_client=maps_sv.tactile.gps&w=224&h=298&yaw=312.1434&pitch=0&thumbfov=100"
            }
        ],
        "link": "https://www.google.com/maps/place/Jama+Masjid/data=!4m7!3m6!1s0x3bd285b42543f7db:0xfbc9083caa3eda41!8m2!3d19.3679744!4d78.7738921!16s%2Fg%2F11c2p12cr7!19sChIJ2_dDJbSF0jsRQdo-qjwIyfs?authuser=0&hl=en&rclk=1",
        "coordinates": {
            "latitude": 19.367974399999998,
            "longitude": 78.7738921
        }
    },
    {
        "name": "Masjid-E-Noor",
        "main_category": "Mosque",
        "address": "9Q8G+JJX Masjid-E-Noor, Mominpura, Sevadas Nagar, Utnur, Telangana 504311",
        "detailed_address": {
            "ward": "Mominpura, Sevadas Nagar",
            "street": "9Q8G+JJX",
            "city": "Utnur",
            "postal_code": null,
            "state": "Telangana",
            "country_code": "IN"
        },
        "images": [
            {
                "about": "All",
                "link": "https://lh5.googleusercontent.com/p/AF1QipNajQqlfnJmgDhkLWN5j0qMRT74Wqxx1B-QTcM=w529-h298-k-no"
            }
        ],
        "link": "https://www.google.com/maps/place/Masjid-E-Noor/data=!4m7!3m6!1s0x3bd285b3f2afb185:0x2ec78038b9f918ae!8m2!3d19.3675545!4d78.7769558!16s%2Fg%2F1pp2tk8bd!19sChIJhbGv8rOF0jsRrhj5uTiAxy4?authuser=0&hl=en&rclk=1",
        "coordinates": {
            "latitude": 19.3675545,
            "longitude": 78.7769558
        }
    },
    {
        "name": "NOORANI JAMA MASJID",
        "main_category": "Mosque",
        "address": "NOORANI JAMA MASJID, Narnoor, Telangana 504311",
        "detailed_address": {
            "ward": null,
            "street": null,
            "city": "Narnoor",
            "postal_code": "504311",
            "state": "Telangana",
            "country_code": "IN"
        },
        "images": [
            {
                "about": "All",
                "link": "https://lh5.googleusercontent.com/p/AF1QipOiXfDy-GPPSsDtDVhLTyiCUQ1ZqshlCukN1InT=w224-h298-k-no"
            }
        ],
        "link": "https://www.google.com/maps/place/NOORANI+JAMA+MASJID/data=!4m7!3m6!1s0x3bd291faf32c3cc1:0x9b5e439f89b47085!8m2!3d19.4987577!4d78.8481544!16s%2Fg%2F11g9mh63k9!19sChIJwTws8_qR0jsRhXC0iZ9DXps?authuser=0&hl=en&rclk=1",
        "coordinates": {
            "latitude": 19.4987577,
            "longitude": 78.8481544
        }
    },
    {
        "name": "MASJID - E - WASIL",
        "main_category": "Mosque",
        "address": "9Q7C+W9C MASJID - E - WASIL, Utnur, Telangana 504311",
        "detailed_address": {
            "ward": null,
            "street": "9Q7C+W9C",
            "city": "Utnur",
            "postal_code": "504311",
            "state": "Telangana",
            "country_code": "IN"
        },
        "images": [
            {
                "about": "All",
                "link": "https://streetviewpixels-pa.googleapis.com/v1/thumbnail?panoid=fNt09RUbHhdpvJ5DR8frqw&cb_client=maps_sv.tactile.gps&w=224&h=298&yaw=153.74368&pitch=0&thumbfov=100"
            },
            {
                "about": "Street View & 360deg",
                "link": "https://streetviewpixels-pa.googleapis.com/v1/thumbnail?panoid=fNt09RUbHhdpvJ5DR8frqw&cb_client=maps_sv.tactile.gps&w=224&h=298&yaw=153.74368&pitch=0&thumbfov=100"
            }
        ],
        "link": "https://www.google.com/maps/place/MASJID+-+E+-+WASIL/data=!4m7!3m6!1s0x3bd285b568212b3b:0xd48a9da29da1160e!8m2!3d19.3648093!4d78.7708923!16s%2Fg%2F11g6q_z_ty!19sChIJOyshaLWF0jsRDhahnaKditQ?authuser=0&hl=en&rclk=1",
        "coordinates": {
            "latitude": 19.364809299999997,
            "longitude": 78.7708923
        }
    },
    {
        "name": "Masjid Mohammadia",
        "main_category": "Mosque",
        "address": "9QCG+VR7 Masjid Mohammadia, Utnoor Rd, Utnur, Telangana 504311",
        "detailed_address": {
            "ward": null,
            "street": "9QCG+VR7, Utnoor Rd",
            "city": "Utnur",
            "postal_code": "504311",
            "state": "Telangana",
            "country_code": "IN"
        },
        "images": [
            {
                "about": "All",
                "link": "https://streetviewpixels-pa.googleapis.com/v1/thumbnail?panoid=UTx5zHUs27dZJQMMQPMbhQ&cb_client=maps_sv.tactile.gps&w=224&h=298&yaw=140.78342&pitch=0&thumbfov=100"
            },
            {
                "about": "Street View & 360deg",
                "link": "https://streetviewpixels-pa.googleapis.com/v1/thumbnail?panoid=UTx5zHUs27dZJQMMQPMbhQ&cb_client=maps_sv.tactile.gps&w=224&h=298&yaw=140.78342&pitch=0&thumbfov=100"
            }
        ],
        "link": "https://www.google.com/maps/place/Masjid+Mohammadia/data=!4m7!3m6!1s0x3bd285b0dc0d26a7:0xf6fa3333ae2948b7!8m2!3d19.3721507!4d78.7770528!16s%2Fg%2F11c2p105cs!19sChIJpyYN3LCF0jsRt0gprjMz-vY?authuser=0&hl=en&rclk=1",
        "coordinates": {
            "latitude": 19.3721507,
            "longitude": 78.77705279999999
        }
    },
    {
        "name": "MASJID-E-AQSA",
        "main_category": "Mosque",
        "address": "9QCM+6FG MASJID-E-AQSA, Utnur, Telangana 504311",
        "detailed_address": {
            "ward": null,
            "street": "9QCM+6FG",
            "city": "Utnur",
            "postal_code": "504311",
            "state": "Telangana",
            "country_code": "IN"
        },
        "images": [
            {
                "about": "All",
                "link": "https://streetviewpixels-pa.googleapis.com/v1/thumbnail?panoid=IXgpgQlQerBMieYgcT3MTA&cb_client=maps_sv.tactile.gps&w=224&h=298&yaw=49.387844&pitch=0&thumbfov=100"
            },
            {
                "about": "Street View & 360deg",
                "link": "https://streetviewpixels-pa.googleapis.com/v1/thumbnail?panoid=IXgpgQlQerBMieYgcT3MTA&cb_client=maps_sv.tactile.gps&w=224&h=298&yaw=49.387844&pitch=0&thumbfov=100"
            },
            {
                "about": "Videos",
                "link": "https://lh5.googleusercontent.com/p/AF1QipNXZOmOS7xdqsOtOQPShgE-euof87yNF4cAGRyb=w529-h298-k-no"
            }
        ],
        "link": "https://www.google.com/maps/place/MASJID-E-AQSA/data=!4m7!3m6!1s0x3bd285ae68120e2d:0x511a2112271c67ab!8m2!3d19.3705709!4d78.7836997!16s%2Fg%2F11d_8_t86t!19sChIJLQ4SaK6F0jsRq2ccJxIhGlE?authuser=0&hl=en&rclk=1",
        "coordinates": {
            "latitude": 19.3705709,
            "longitude": 78.7836997
        }
    },
    {
        "name": "Madina Masjid",
        "main_category": "Mosque",
        "address": "FRXW+J8M Madina Masjid, Narnoor, Telangana 504311",
        "detailed_address": {
            "ward": null,
            "street": "FRXW+J8M",
            "city": "Narnoor",
            "postal_code": "504311",
            "state": "Telangana",
            "country_code": "IN"
        },
        "images": [],
        "link": "https://www.google.com/maps/place/Madina+Masjid/data=!4m7!3m6!1s0x3bd291fb09c29f61:0x3a9088300dabf574!8m2!3d19.4990794!4d78.8457857!16s%2Fg%2F11fy93lty3!19sChIJYZ_CCfuR0jsRdPWrDTCIkDo?authuser=0&hl=en&rclk=1",
        "coordinates": {
            "latitude": 19.4990794,
            "longitude": 78.8457857
        }
    },
    {
        "name": "Masjid e umar",
        "main_category": "Mosque",
        "address": "9W95+WC9 Masjid e umar, Jainoor, Telangana 504313",
        "detailed_address": {
            "ward": null,
            "street": "9W95+WC9",
            "city": "Jainoor",
            "postal_code": "504313",
            "state": "Telangana",
            "country_code": "IN"
        },
        "images": [
            {
                "about": "All",
                "link": "https://lh5.googleusercontent.com/p/AF1QipOhk43Dt8DWZ-qd8VCRH9KLa6-1vmaIrU-Gtbgb=w224-h398-k-no"
            },
            {
                "about": "Videos",
                "link": "https://lh5.googleusercontent.com/p/AF1QipP2VgtVhhKBGvocmZLYTj5XvXKopHNd17b5qI4D=w224-h407-k-no"
            }
        ],
        "link": "https://www.google.com/maps/place/Masjid+e+umar/data=!4m7!3m6!1s0x3bd29b093593e477:0xe65cd53a2848ead0!8m2!3d19.3700184!4d78.9089038!16s%2Fg%2F11t27x9_rj!19sChIJd-STNQmb0jsR0OpIKDrVXOY?authuser=0&hl=en&rclk=1",
        "coordinates": {
            "latitude": 19.3700184,
            "longitude": 78.90890379999999
        }
    },
    {
        "name": "Choti Masjid",
        "main_category": "Mosque",
        "address": "Choti Masjid, 1, Nirmal - Mancherial Rd, Jannaram, Telangana 504205",
        "detailed_address": {
            "ward": null,
            "street": "1, Nirmal - Mancherial Rd",
            "city": "Jannaram",
            "postal_code": "504205",
            "state": "Telangana",
            "country_code": "IN"
        },
        "images": [
            {
                "about": "All",
                "link": "https://streetviewpixels-pa.googleapis.com/v1/thumbnail?panoid=Idh00paMelYeBIsU85mM7w&cb_client=maps_sv.tactile.gps&w=224&h=298&yaw=214.03764&pitch=0&thumbfov=100"
            },
            {
                "about": "Street View & 360deg",
                "link": "https://streetviewpixels-pa.googleapis.com/v1/thumbnail?panoid=Idh00paMelYeBIsU85mM7w&cb_client=maps_sv.tactile.gps&w=224&h=298&yaw=214.03764&pitch=0&thumbfov=100"
            }
        ],
        "link": "https://www.google.com/maps/place/Choti+Masjid/data=!4m7!3m6!1s0x3bcd673e34ac2f77:0xc32f71faf30d7a5f!8m2!3d19.1184965!4d78.9931769!16s%2Fg%2F11bw5mbvt0!19sChIJdy-sND5nzTsRX3oN8_pxL8M?authuser=0&hl=en&rclk=1",
        "coordinates": {
            "latitude": 19.1184965,
            "longitude": 78.9931769
        }
    },
    {
        "name": "DARGAH HAZRATH SYED SADIQ PUNJABI R.A.",
        "main_category": "Mosque",
        "address": "9QFH+82V DARGAH HAZRATH SYED SADIQ PUNJABI R.A., Utnoor Rd, Utnur, Telangana 504311",
        "detailed_address": {
            "ward": null,
            "street": "9QFH+82V, Utnoor Rd",
            "city": "Utnur",
            "postal_code": null,
            "state": "Telangana",
            "country_code": "IN"
        },
        "images": [
            {
                "about": "All",
                "link": "https://streetviewpixels-pa.googleapis.com/v1/thumbnail?panoid=U__JQMLRSgnzV4oUYcj0-w&cb_client=maps_sv.tactile.gps&w=224&h=298&yaw=314.9625&pitch=0&thumbfov=100"
            },
            {
                "about": "Street View & 360deg",
                "link": "https://streetviewpixels-pa.googleapis.com/v1/thumbnail?panoid=U__JQMLRSgnzV4oUYcj0-w&cb_client=maps_sv.tactile.gps&w=224&h=298&yaw=314.9625&pitch=0&thumbfov=100"
            }
        ],
        "link": "https://www.google.com/maps/place/DARGAH+HAZRATH+SYED+SADIQ+PUNJABI+R.A./data=!4m7!3m6!1s0x3bd285e8982a5b59:0xa6f27cae7e3b2eb8!8m2!3d19.37336!4d78.7775539!16s%2Fg%2F11q3lkmfrb!19sChIJWVsqmOiF0jsRuC47fq588qY?authuser=0&hl=en&rclk=1",
        "coordinates": {
            "latitude": 19.373359999999998,
            "longitude": 78.7775539
        }
    },
    {
        "name": "Masjid-e-umarfarooq",
        "main_category": "Mosque",
        "address": "9QCH+PGP Masjid-e-umarfarooq, Rahmathpura, Utnur, Telangana 504311",
        "detailed_address": {
            "ward": "Rahmathpura",
            "street": "9QCH+PGP",
            "city": "Utnur",
            "postal_code": null,
            "state": "Telangana",
            "country_code": "IN"
        },
        "images": [
            {
                "about": "All",
                "link": "https://streetviewpixels-pa.googleapis.com/v1/thumbnail?panoid=20a8il2BU3LCzc2rlaxjAg&cb_client=maps_sv.tactile.gps&w=224&h=298&yaw=248.90999&pitch=0&thumbfov=100"
            },
            {
                "about": "Street View & 360deg",
                "link": "https://streetviewpixels-pa.googleapis.com/v1/thumbnail?panoid=20a8il2BU3LCzc2rlaxjAg&cb_client=maps_sv.tactile.gps&w=224&h=298&yaw=248.90999&pitch=0&thumbfov=100"
            }
        ],
        "link": "https://www.google.com/maps/place/Masjid-e-umarfarooq/data=!4m7!3m6!1s0x3bd2857a91093a6b:0x26c68fcbfbdadda6!8m2!3d19.3718367!4d78.7788405!16s%2Fg%2F11g1bbd1gd!19sChIJazoJkXqF0jsRpt3a-8uPxiY?authuser=0&hl=en&rclk=1",
        "coordinates": {
            "latitude": 19.3718367,
            "longitude": 78.7788405
        }
    },
    {
        "name": "Masjid",
        "main_category": "Mosque",
        "address": "CQ24+936 Masjid, X-Road, Nagapur, Telangana 504311",
        "detailed_address": {
            "ward": "X-Road",
            "street": "CQ24+936",
            "city": "Nagapur",
            "postal_code": "504311",
            "state": "Telangana",
            "country_code": "IN"
        },
        "images": [
            {
                "about": "All",
                "link": "https://lh5.googleusercontent.com/p/AF1QipP-HJ-SWwEPF0gg5wPLy1hw-bRGq38s_EaecECF=w224-h485-k-no"
            },
            {
                "about": "Street View & 360deg",
                "link": "https://streetviewpixels-pa.googleapis.com/v1/thumbnail?panoid=G4qocc19RwSyoA2hgClXMQ&cb_client=maps_sv.tactile.gps&w=224&h=298&yaw=58.483932&pitch=0&thumbfov=100"
            }
        ],
        "link": "https://www.google.com/maps/place/Masjid/data=!4m7!3m6!1s0x3bd28542302b9163:0x87197ab60c077a2c!8m2!3d19.4009106!4d78.7551464!16s%2Fg%2F11qnl8lv7j!19sChIJY5ErMEKF0jsRLHoHDLZ6GYc?authuser=0&hl=en&rclk=1",
        "coordinates": {
            "latitude": 19.4009106,
            "longitude": 78.7551464
        }
    },
    {
        "name": "BILALA MASJID",
        "main_category": "Mosque",
        "address": "9WF5+HJJ BILALA MASJID, Jainoor, Telangana 504313",
        "detailed_address": {
            "ward": null,
            "street": "9WF5+HJJ",
            "city": "Jainoor",
            "postal_code": "504313",
            "state": "Telangana",
            "country_code": "IN"
        },
        "images": [
            {
                "about": "All",
                "link": "https://lh5.googleusercontent.com/p/AF1QipN_PR4-OS9i6-PeL1j_gryG5-yWpH4rFAj4CuL9=w397-h298-k-no"
            }
        ],
        "link": "https://www.google.com/maps/place/BILALA+MASJID/data=!4m7!3m6!1s0x3bd29b2e07edb8d3:0xa2580038ac3fd778!8m2!3d19.3739522!4d78.9090191!16s%2Fg%2F11f77_fyxp!19sChIJ07jtBy6b0jsReNc_rDgAWKI?authuser=0&hl=en&rclk=1",
        "coordinates": {
            "latitude": 19.373952199999998,
            "longitude": 78.9090191
        }
    },
    {
        "name": "Abbubakar masjid",
        "main_category": "Mosque",
        "address": "9WG5+JJV Abbubakar masjid, Jainoor, Telangana 504313",
        "detailed_address": {
            "ward": null,
            "street": "9WG5+JJV",
            "city": "Jainoor",
            "postal_code": "504313",
            "state": "Telangana",
            "country_code": "IN"
        },
        "images": [],
        "link": "https://www.google.com/maps/place/Abbubakar+masjid/data=!4m7!3m6!1s0x3bd29bab25333f2b:0x3b3f437925c3c48c!8m2!3d19.3766247!4d78.909049!16s%2Fg%2F11rs2wxm5k!19sChIJKz8zJaub0jsRjMTDJXlDPzs?authuser=0&hl=en&rclk=1",
        "coordinates": {
            "latitude": 19.3766247,
            "longitude": 78.909049
        }
    },
    {
        "name": "Madina Masjid",
        "main_category": "Mosque",
        "address": "9Q7H+P3C Madina Masjid, Mominpura, Utnur, Telangana 504311",
        "detailed_address": {
            "ward": "Mominpura",
            "street": "9Q7H+P3C",
            "city": "Utnur",
            "postal_code": "504311",
            "state": "Telangana",
            "country_code": "IN"
        },
        "images": [
            {
                "about": "All",
                "link": "https://streetviewpixels-pa.googleapis.com/v1/thumbnail?panoid=_mtMQm8xAHvWJqn8OTUdKg&cb_client=maps_sv.tactile.gps&w=224&h=298&yaw=357.7412&pitch=0&thumbfov=100"
            },
            {
                "about": "Street View & 360deg",
                "link": "https://streetviewpixels-pa.googleapis.com/v1/thumbnail?panoid=_mtMQm8xAHvWJqn8OTUdKg&cb_client=maps_sv.tactile.gps&w=224&h=298&yaw=357.7412&pitch=0&thumbfov=100"
            }
        ],
        "link": "https://www.google.com/maps/place/Madina+Masjid/data=!4m7!3m6!1s0x3bd285b33e155555:0x13e010187828103f!8m2!3d19.3643116!4d78.777638!16s%2Fg%2F11txmzdqbx!19sChIJVVUVPrOF0jsRPxAoeBgQ4BM?authuser=0&hl=en&rclk=1",
        "coordinates": {
            "latitude": 19.3643116,
            "longitude": 78.777638
        }
    },
    {
        "name": "Jama-masjid",
        "main_category": "Mosque",
        "address": "8RG9+858 Jama-masjid, danthanpalli, Utnur, Danthanpalle, Telangana 504311",
        "detailed_address": {
            "ward": null,
            "street": "8RG9+858, danthanpalli",
            "city": "Utnur, Danthanpalle",
            "postal_code": "504311",
            "state": "Telangana",
            "country_code": "IN"
        },
        "images": [],
        "link": "https://www.google.com/maps/place/Jama-masjid/data=!4m7!3m6!1s0x3bd2854382fca6b1:0x7f6af6c9c5f66375!8m2!3d19.3257758!4d78.8177888!16s%2Fg%2F11t_m6qb3v!19sChIJsab8gkOF0jsRdWP2xcn2an8?authuser=0&hl=en&rclk=1",
        "coordinates": {
            "latitude": 19.3257758,
            "longitude": 78.8177888
        }
    },
    {
        "name": "Jama masjid",
        "main_category": "Mosque",
        "address": "9XX2+F85 Jama masjid, Unnamed Road, Daboli, Telangana 504313",
        "detailed_address": {
            "ward": null,
            "street": "9XX2+F85, Unnamed Road",
            "city": "Daboli",
            "postal_code": "504313",
            "state": "Telangana",
            "country_code": "IN"
        },
        "images": [],
        "link": "https://www.google.com/maps/place/Jama+masjid/data=!4m7!3m6!1s0x3bd29962bbeafef3:0x74b0832244550441!8m2!3d19.3986432!4d78.9508508!16s%2Fg%2F11h4v7zns2!19sChIJ8_7qu2KZ0jsRQQRVRCKDsHQ?authuser=0&hl=en&rclk=1",
        "coordinates": {
            "latitude": 19.3986432,
            "longitude": 78.9508508
        }
    }
]