[
    {
        "name": "Khalifa Wali Masjid",
        "main_category": "Mosque",
        "address": "75F6+58C Khalifa Wali Masjid, Aonla, Uttar Pradesh 243301",
        "detailed_address": {
            "ward": null,
            "street": "75F6+58C",
            "city": "Aonla",
            "postal_code": "243301",
            "state": "Uttar Pradesh",
            "country_code": "IN"
        },
        "images": [
            {
                "about": "All",
                "link": "https://streetviewpixels-pa.googleapis.com/v1/thumbnail?panoid=d2LJ8zL_gEUm2uO7mzlQBg&cb_client=maps_sv.tactile.gps&w=224&h=298&yaw=190.44254&pitch=0&thumbfov=100"
            },
            {
                "about": "Street View & 360deg",
                "link": "https://streetviewpixels-pa.googleapis.com/v1/thumbnail?panoid=d2LJ8zL_gEUm2uO7mzlQBg&cb_client=maps_sv.tactile.gps&w=224&h=298&yaw=190.44254&pitch=0&thumbfov=100"
            }
        ],
        "link": "https://www.google.com/maps/place/Khalifa+Wali+Masjid/data=!4m7!3m6!1s0x390ab2e480e99d67:0x867dd84d1da78137!8m2!3d28.2729252!4d79.1607508!16s%2Fg%2F11g_g__kr!19sChIJZ53pgOSyCjkRN4GnHU3YfYY?authuser=0&hl=en&rclk=1",
        "coordinates": {
            "latitude": 28.2729252,
            "longitude": 79.1607508
        }
    },
    {
        "name": "Bahar Shah Masjid near JAMALHOUSE",
        "main_category": "Mosque",
        "address": "Bahar Shah Masjid near JAMALHOUSE, JAMAL HOUSE, Teli Mohalla, Aonla, Uttar Pradesh 243301",
        "detailed_address": {
            "ward": null,
            "street": "JAMAL HOUSE, Teli Mohalla",
            "city": "Aonla",
            "postal_code": "243301",
            "state": "Uttar Pradesh",
            "country_code": "IN"
        },
        "images": [
            {
                "about": "All",
                "link": "https://lh5.googleusercontent.com/p/AF1QipMq0MKXq6sU46SV15n-ifR3ieSMb8qNlK_DheIN=w224-h298-k-no"
            },
            {
                "about": "Dome",
                "link": "https://lh5.googleusercontent.com/p/AF1QipM-GFvb-X2OJ7JB8U1tv3HXkTFwsmXTMjDLaZXQ=w224-h477-k-no"
            },
            {
                "about": "Street View & 360deg",
                "link": "https://streetviewpixels-pa.googleapis.com/v1/thumbnail?panoid=bfE4Wp_F8uEQcElNTQ4IqQ&cb_client=maps_sv.tactile.gps&w=224&h=298&yaw=271.85117&pitch=0&thumbfov=100"
            }
        ],
        "link": "https://www.google.com/maps/place/Bahar+Shah+Masjid+near+JAMALHOUSE/data=!4m7!3m6!1s0x390ab2efd0daa4db:0x7ff12f3dfeb3d5dd!8m2!3d28.2757782!4d79.1684484!16s%2Fg%2F11c3sprnsl!19sChIJ26Ta0O-yCjkR3dWz_j0v8X8?authuser=0&hl=en&rclk=1",
        "coordinates": {
            "latitude": 28.275778199999998,
            "longitude": 79.1684484
        }
    },
    {
        "name": "Purani Masjid",
        "main_category": "Mosque",
        "address": "75FC+QMW Purani Masjid, Aonla, Uttar Pradesh 243301",
        "detailed_address": {
            "ward": null,
            "street": "75FC+QMW",
            "city": "Aonla",
            "postal_code": "243301",
            "state": "Uttar Pradesh",
            "country_code": "IN"
        },
        "images": [
            {
                "about": "All",
                "link": "https://lh5.googleusercontent.com/p/AF1QipOvTyB-iKR8kIK137U6NjfAHRaHA9WjvTOSH4rq=w224-h361-k-no"
            },
            {
                "about": "Dome",
                "link": "https://lh5.googleusercontent.com/p/AF1QipOvTyB-iKR8kIK137U6NjfAHRaHA9WjvTOSH4rq=w224-h361-k-no"
            },
            {
                "about": "Videos",
                "link": "https://lh5.googleusercontent.com/p/AF1QipPCEJN3Oig7h20_Ejg16UB7GIfGDRhaZoQ1i0Ks=w224-h398-k-no"
            }
        ],
        "link": "https://www.google.com/maps/place/Purani+Masjid/data=!4m7!3m6!1s0x390ab2ee77c208cd:0x70e7dd41e6deccaa!8m2!3d28.2744985!4d79.1716982!16s%2Fg%2F11h0k3w9_!19sChIJzQjCd-6yCjkRqsze5kHd53A?authuser=0&hl=en&rclk=1",
        "coordinates": {
            "latitude": 28.2744985,
            "longitude": 79.1716982
        }
    },
    {
        "name": "Goudam Masjed",
        "main_category": "Mosque",
        "address": "75C9+PPQ Goudam Masjed, Aonla, Uttar Pradesh 243301",
        "detailed_address": {
            "ward": null,
            "street": "75C9+PPQ",
            "city": "Aonla",
            "postal_code": "243301",
            "state": "Uttar Pradesh",
            "country_code": "IN"
        },
        "images": [],
        "link": "https://www.google.com/maps/place/Goudam+Masjed/data=!4m7!3m6!1s0x390ab2eedc2e2aad:0x9cd498a6fbb2216e!8m2!3d28.2718386!4d79.169359!16s%2Fg%2F11bw5v67v6!19sChIJrSou3O6yCjkRbiGy-6aY1Jw?authuser=0&hl=en&rclk=1",
        "coordinates": {
            "latitude": 28.2718386,
            "longitude": 79.169359
        }
    },
    {
        "name": "Dargah",
        "main_category": "Mosque",
        "address": "7596+58J Dargah, Aonla, Uttar Pradesh 243301",
        "detailed_address": {
            "ward": null,
            "street": "7596+58J",
            "city": "Aonla",
            "postal_code": "243301",
            "state": "Uttar Pradesh",
            "country_code": "IN"
        },
        "images": [
            {
                "about": "All",
                "link": "https://lh5.googleusercontent.com/p/AF1QipNJvr0KoNkkBFYC08Kr4LZnwaW5Z0mYJb7snFU-=w224-h298-k-no"
            },
            {
                "about": "Street View & 360deg",
                "link": "https://streetviewpixels-pa.googleapis.com/v1/thumbnail?panoid=QHItYKfkY0v9t4uZh_01Kw&cb_client=maps_sv.tactile.gps&w=224&h=298&yaw=337.24222&pitch=0&thumbfov=100"
            },
            {
                "about": "Videos",
                "link": "https://lh5.googleusercontent.com/p/AF1QipOZwJq1BYlt81tscuXpi3ls78WoLk-CRR-cKE83=w224-h395-k-no"
            }
        ],
        "link": "https://www.google.com/maps/place/Dargah/data=!4m7!3m6!1s0x390ab3ab8dd923fb:0x3522123e843743cb!8m2!3d28.267974!4d79.1607642!16s%2Fg%2F11s0vbr8qw!19sChIJ-yPZjauzCjkRy0M3hD4SIjU?authuser=0&hl=en&rclk=1",
        "coordinates": {
            "latitude": 28.267974,
            "longitude": 79.1607642
        }
    },
    {
        "name": "Rai Wali Majid",
        "main_category": "Mosque",
        "address": "75C7+VQ7 Rai Wali Majid, Aonla, Uttar Pradesh 243301",
        "detailed_address": {
            "ward": null,
            "street": "75C7+VQ7",
            "city": "Aonla",
            "postal_code": "243301",
            "state": "Uttar Pradesh",
            "country_code": "IN"
        },
        "images": [
            {
                "about": "All",
                "link": "https://lh5.googleusercontent.com/p/AF1QipN5xg3pl4kEI0bb_yzuD2jCmt9Qa205z4gcivVE=w224-h398-k-no"
            },
            {
                "about": "Street View & 360deg",
                "link": "https://streetviewpixels-pa.googleapis.com/v1/thumbnail?panoid=bJmO651tvLpzN5g9W6JGFA&cb_client=maps_sv.tactile.gps&w=224&h=298&yaw=179.43538&pitch=0&thumbfov=100"
            }
        ],
        "link": "https://www.google.com/maps/place/Rai+Wali+Majid/data=!4m7!3m6!1s0x390ab37df15fff65:0x376e7b100b2ced0f!8m2!3d28.2721593!4d79.1644173!16s%2Fg%2F11fj4vntc1!19sChIJZf9f8X2zCjkRD-0sCxB7bjc?authuser=0&hl=en&rclk=1",
        "coordinates": {
            "latitude": 28.2721593,
            "longitude": 79.1644173
        }
    },
    {
        "name": "Jane Shah Wali Masjid",
        "main_category": "Mosque",
        "address": "75GF+WJ5 Jane Shah Wali Masjid, Nagaria Satan, Uttar Pradesh 243301",
        "detailed_address": {
            "ward": null,
            "street": "75GF+WJ5",
            "city": "Nagaria Satan",
            "postal_code": "243301",
            "state": "Uttar Pradesh",
            "country_code": "IN"
        },
        "images": [
            {
                "about": "All",
                "link": "https://streetviewpixels-pa.googleapis.com/v1/thumbnail?panoid=xh7x7B_b2gQ10aEnRVN25w&cb_client=maps_sv.tactile.gps&w=224&h=298&yaw=161.87225&pitch=0&thumbfov=100"
            },
            {
                "about": "Street View & 360deg",
                "link": "https://streetviewpixels-pa.googleapis.com/v1/thumbnail?panoid=xh7x7B_b2gQ10aEnRVN25w&cb_client=maps_sv.tactile.gps&w=224&h=298&yaw=161.87225&pitch=0&thumbfov=100"
            }
        ],
        "link": "https://www.google.com/maps/place/Jane+Shah+Wali+Masjid/data=!4m7!3m6!1s0x390ab2f27bb1b443:0x2ead81ed4e9292b1!8m2!3d28.2772524!4d79.1741085!16s%2Fg%2F11fzb1nk3c!19sChIJQ7Sxe_KyCjkRsZKSTu2BrS4?authuser=0&hl=en&rclk=1",
        "coordinates": {
            "latitude": 28.2772524,
            "longitude": 79.1741085
        }
    },
    {
        "name": "Quraishiyan masjid",
        "main_category": "Mosque",
        "address": "75C7+WVR Quraishiyan masjid, Mohalla Qureshiyan ganj, Tripolia, Aonla, Uttar Pradesh 243301",
        "detailed_address": {
            "ward": "Tripolia",
            "street": "75C7+WVR, Mohalla Qureshiyan ganj",
            "city": "Aonla",
            "postal_code": "243301",
            "state": "Uttar Pradesh",
            "country_code": "IN"
        },
        "images": [
            {
                "about": "All",
                "link": "https://lh5.googleusercontent.com/p/AF1QipMojUN1Jy_kNhp-1sLTiHBhXBH2Miz1gZ8lTw5k=w224-h497-k-no"
            },
            {
                "about": "Street View & 360deg",
                "link": "https://streetviewpixels-pa.googleapis.com/v1/thumbnail?panoid=189nRvxxPZm2h88HIgUbIA&cb_client=maps_sv.tactile.gps&w=224&h=298&yaw=163.51845&pitch=0&thumbfov=100"
            }
        ],
        "link": "https://www.google.com/maps/place/Quraishiyan+masjid/data=!4m7!3m6!1s0x390ab3bf4f497f8d:0xc3acf768a7f70074!8m2!3d28.272358!4d79.1646283!16s%2Fg%2F11j_vnwd34!19sChIJjX9JT7-zCjkRdAD3p2j3rMM?authuser=0&hl=en&rclk=1",
        "coordinates": {
            "latitude": 28.272357999999997,
            "longitude": 79.16462829999999
        }
    },
    {
        "name": "Anwar sahab ki Mazaar aur Masjid",
        "main_category": "Mosque",
        "address": "74FX+XV Anwar sahab ki Mazaar aur Masjid, Aonla, Uttar Pradesh 243301",
        "detailed_address": {
            "ward": null,
            "street": "74FX+XV",
            "city": "Aonla",
            "postal_code": null,
            "state": "Uttar Pradesh",
            "country_code": "IN"
        },
        "images": [
            {
                "about": "All",
                "link": "https://streetviewpixels-pa.googleapis.com/v1/thumbnail?panoid=KJR9VfPo9QYK7fiqcxdjIw&cb_client=maps_sv.tactile.gps&w=224&h=298&yaw=24.000463&pitch=0&thumbfov=100"
            },
            {
                "about": "Street View & 360deg",
                "link": "https://streetviewpixels-pa.googleapis.com/v1/thumbnail?panoid=KJR9VfPo9QYK7fiqcxdjIw&cb_client=maps_sv.tactile.gps&w=224&h=298&yaw=24.000463&pitch=0&thumbfov=100"
            }
        ],
        "link": "https://www.google.com/maps/place/Anwar+sahab+ki+Mazaar+aur+Masjid/data=!4m7!3m6!1s0x390ab391f42f8fcf:0x5d9c944fdb3448ef!8m2!3d28.2749948!4d79.1496227!16s%2Fg%2F11rybjrhjv!19sChIJz48v9JGzCjkR70g020-UnF0?authuser=0&hl=en&rclk=1",
        "coordinates": {
            "latitude": 28.274994799999998,
            "longitude": 79.1496227
        }
    },
    {
        "name": "Dargah",
        "main_category": "Mosque",
        "address": "75C7+55W Dargah, Kachcha Katra Rd, Aonla, Uttar Pradesh 243301",
        "detailed_address": {
            "ward": null,
            "street": "75C7+55W, Kachcha Katra Rd",
            "city": "Aonla",
            "postal_code": "243301",
            "state": "Uttar Pradesh",
            "country_code": "IN"
        },
        "images": [
            {
                "about": "All",
                "link": "https://streetviewpixels-pa.googleapis.com/v1/thumbnail?panoid=wLaXdmOhq7ytE0NtjgQUJw&cb_client=maps_sv.tactile.gps&w=224&h=298&yaw=108.87828&pitch=0&thumbfov=100"
            },
            {
                "about": "Street View & 360deg",
                "link": "https://streetviewpixels-pa.googleapis.com/v1/thumbnail?panoid=wLaXdmOhq7ytE0NtjgQUJw&cb_client=maps_sv.tactile.gps&w=224&h=298&yaw=108.87828&pitch=0&thumbfov=100"
            }
        ],
        "link": "https://www.google.com/maps/place/Dargah/data=!4m7!3m6!1s0x390ab36a61290aff:0xddb4161abd26e2db!8m2!3d28.2704767!4d79.1629625!16s%2Fg%2F11r_xlrjt9!19sChIJ_wopYWqzCjkR2-ImvRoWtN0?authuser=0&hl=en&rclk=1",
        "coordinates": {
            "latitude": 28.2704767,
            "longitude": 79.16296249999999
        }
    },
    {
        "name": "Masjid Syedan",
        "main_category": "Mosque",
        "address": "75F6+7XH Masjid Syedan, Aonla, Uttar Pradesh 243301",
        "detailed_address": {
            "ward": null,
            "street": "75F6+7XH",
            "city": "Aonla",
            "postal_code": "243301",
            "state": "Uttar Pradesh",
            "country_code": "IN"
        },
        "images": [
            {
                "about": "All",
                "link": "https://lh5.googleusercontent.com/p/AF1QipNFAunrEipIsymX4yF3tuI1W74wRKdrgR-gkG9u=w224-h298-k-no"
            }
        ],
        "link": "https://www.google.com/maps/place/Masjid+Syedan/data=!4m7!3m6!1s0x390ab2e4f7161231:0x37a7890b39dc1886!8m2!3d28.273185!4d79.1624996!16s%2Fg%2F11ckqv06vk!19sChIJMRIW9-SyCjkRhhjcOQuJpzc?authuser=0&hl=en&rclk=1",
        "coordinates": {
            "latitude": 28.273184999999998,
            "longitude": 79.16249959999999
        }
    },
    {
        "name": "Maqbara",
        "main_category": "Mosque",
        "address": "75C3+H5M Maqbara, Unnamed Road, Aonla, Uttar Pradesh 243301",
        "detailed_address": {
            "ward": null,
            "street": "75C3+H5M, Unnamed Road",
            "city": "Aonla",
            "postal_code": "243301",
            "state": "Uttar Pradesh",
            "country_code": "IN"
        },
        "images": [
            {
                "about": "All",
                "link": "https://lh5.googleusercontent.com/p/AF1QipO_W3hAhjmrGf12zX6fmnN1_scVmfCvKoMpUHFc=w398-h298-k-no"
            },
            {
                "about": "Dome",
                "link": "https://lh5.googleusercontent.com/p/AF1QipO_W3hAhjmrGf12zX6fmnN1_scVmfCvKoMpUHFc=w398-h298-k-no"
            }
        ],
        "link": "https://www.google.com/maps/place/Maqbara/data=!4m7!3m6!1s0x390ab31dbabfffff:0x5db753c014eecb1d!8m2!3d28.2713639!4d79.1528249!16s%2Fg%2F11txmzf2th!19sChIJ__-_uh2zCjkRHcvuFMBTt10?authuser=0&hl=en&rclk=1",
        "coordinates": {
            "latitude": 28.271363899999997,
            "longitude": 79.1528249
        }
    },
    {
        "name": "anupura masjid",
        "main_category": "Mosque",
        "address": "75H9+692 anupura masjid, Aonla, Uttar Pradesh 243301",
        "detailed_address": {
            "ward": null,
            "street": "75H9+692",
            "city": "Aonla",
            "postal_code": "243301",
            "state": "Uttar Pradesh",
            "country_code": "IN"
        },
        "images": [],
        "link": "https://www.google.com/maps/place/anupura+masjid/data=!4m7!3m6!1s0x390ab2f048e8ffff:0x7ba86d737e04cb6!8m2!3d28.2780085!4d79.1683782!16s%2Fg%2F11sscs7w_s!19sChIJ___oSPCyCjkRtkzgN9eGugc?authuser=0&hl=en&rclk=1",
        "coordinates": {
            "latitude": 28.2780085,
            "longitude": 79.16837819999999
        }
    },
    {
        "name": "Raza Masjid nalapar aonla Bareilly",
        "main_category": "Mosque",
        "address": "75J9+Q6X Raza Masjid nalapar aonla Bareilly, Nalapur, Aonla, Uttar Pradesh 243301",
        "detailed_address": {
            "ward": "Nalapur",
            "street": "75J9+Q6X",
            "city": "Aonla",
            "postal_code": "243301",
            "state": "Uttar Pradesh",
            "country_code": "IN"
        },
        "images": [
            {
                "about": "All",
                "link": "https://streetviewpixels-pa.googleapis.com/v1/thumbnail?panoid=QeX2LbBrqNoXTnGKdB9UCw&cb_client=maps_sv.tactile.gps&w=224&h=298&yaw=313.4536&pitch=0&thumbfov=100"
            },
            {
                "about": "Street View & 360deg",
                "link": "https://streetviewpixels-pa.googleapis.com/v1/thumbnail?panoid=QeX2LbBrqNoXTnGKdB9UCw&cb_client=maps_sv.tactile.gps&w=224&h=298&yaw=313.4536&pitch=0&thumbfov=100"
            }
        ],
        "link": "https://www.google.com/maps/place/Raza+Masjid+nalapar+aonla+Bareilly/data=!4m7!3m6!1s0x390ab3490995b8d9:0xf5a26510a1c31130!8m2!3d28.2819797!4d79.1680957!16s%2Fg%2F11s5fwg9wf!19sChIJ2biVCUmzCjkRMBHDoRBlovU?authuser=0&hl=en&rclk=1",
        "coordinates": {
            "latitude": 28.281979699999997,
            "longitude": 79.1680957
        }
    },
    {
        "name": "masjid",
        "main_category": "Mosque",
        "address": "75FF+JF4 masjid, Aonla, Uttar Pradesh 243301",
        "detailed_address": {
            "ward": null,
            "street": "75FF+JF4",
            "city": "Aonla",
            "postal_code": "243301",
            "state": "Uttar Pradesh",
            "country_code": "IN"
        },
        "images": [
            {
                "about": "All",
                "link": "https://streetviewpixels-pa.googleapis.com/v1/thumbnail?panoid=xid8MHXQylKA0OsjJARn0w&cb_client=maps_sv.tactile.gps&w=224&h=298&yaw=82.11668&pitch=0&thumbfov=100"
            },
            {
                "about": "Street View & 360deg",
                "link": "https://streetviewpixels-pa.googleapis.com/v1/thumbnail?panoid=xid8MHXQylKA0OsjJARn0w&cb_client=maps_sv.tactile.gps&w=224&h=298&yaw=82.11668&pitch=0&thumbfov=100"
            }
        ],
        "link": "https://www.google.com/maps/place/masjid/data=!4m7!3m6!1s0x390ab2edb3040001:0x2f1d0a4e2dbd5e76!8m2!3d28.2740009!4d79.1737016!16s%2Fg%2F11txmz9ylq!19sChIJAQAEs-2yCjkRdl69LU4KHS8?authuser=0&hl=en&rclk=1",
        "coordinates": {
            "latitude": 28.274000899999997,
            "longitude": 79.1737016
        }
    },
    {
        "name": "Rai Wali Masjid",
        "main_category": "Mosque",
        "address": "7596+X55 Rai Wali Masjid, Aonla, Uttar Pradesh 243301",
        "detailed_address": {
            "ward": null,
            "street": "7596+X55",
            "city": "Aonla",
            "postal_code": "243301",
            "state": "Uttar Pradesh",
            "country_code": "IN"
        },
        "images": [
            {
                "about": "All",
                "link": "https://streetviewpixels-pa.googleapis.com/v1/thumbnail?panoid=00DszATdxFnQTWwJmHkLtQ&cb_client=maps_sv.tactile.gps&w=224&h=298&yaw=316.19357&pitch=0&thumbfov=100"
            },
            {
                "about": "Street View & 360deg",
                "link": "https://streetviewpixels-pa.googleapis.com/v1/thumbnail?panoid=00DszATdxFnQTWwJmHkLtQ&cb_client=maps_sv.tactile.gps&w=224&h=298&yaw=316.19357&pitch=0&thumbfov=100"
            }
        ],
        "link": "https://www.google.com/maps/place/Rai+Wali+Masjid/data=!4m7!3m6!1s0x390ab3f878597d33:0x3238d88c3308f1ec!8m2!3d28.2698986!4d79.1604924!16s%2Fg%2F11fj5c69qy!19sChIJM31ZePizCjkR7PEIM4zYODI?authuser=0&hl=en&rclk=1",
        "coordinates": {
            "latitude": 28.269898599999998,
            "longitude": 79.1604924
        }
    },
    {
        "name": "Tilburji Masjid tlbrjy msjd",
        "main_category": "Mosque",
        "address": "75HC+5C5 Tilburji Masjid tlbrjy msjd, Bara Burjhi Masjid, Aonla, Uttar Pradesh 243301",
        "detailed_address": {
            "ward": null,
            "street": "75HC+5C5 Bara Burjhi Masjid",
            "city": "Aonla",
            "postal_code": "243301",
            "state": "Uttar Pradesh",
            "country_code": "IN"
        },
        "images": [
            {
                "about": "All",
                "link": "https://streetviewpixels-pa.googleapis.com/v1/thumbnail?panoid=h4bC1Xna-yQby5qjaA4e6g&cb_client=maps_sv.tactile.gps&w=224&h=298&yaw=167.86655&pitch=0&thumbfov=100"
            },
            {
                "about": "Street View & 360deg",
                "link": "https://streetviewpixels-pa.googleapis.com/v1/thumbnail?panoid=h4bC1Xna-yQby5qjaA4e6g&cb_client=maps_sv.tactile.gps&w=224&h=298&yaw=167.86655&pitch=0&thumbfov=100"
            }
        ],
        "link": "https://www.google.com/maps/place/Tilburji+Masjid+%D8%AA%D9%84%D8%A8%D8%B1%D8%AC%DB%8C+%D9%85%D8%B3%D8%AC%D8%AF%E2%80%AD/data=!4m7!3m6!1s0x390ab3e248447cab:0xaf6fa8ecfe26f1c4!8m2!3d28.2780756!4d79.1705159!16s%2Fg%2F11t9cy95mf!19sChIJq3xESOKzCjkRxPEm_uyob68?authuser=0&hl=en&rclk=1",
        "coordinates": {
            "latitude": 28.278075599999998,
            "longitude": 79.1705159
        }
    },
    {
        "name": "Sunheri masjid (kheda)",
        "main_category": "Mosque",
        "address": "75G5+279 Sunheri masjid (kheda), Aonla, Uttar Pradesh 243301",
        "detailed_address": {
            "ward": null,
            "street": "75G5+279",
            "city": "Aonla",
            "postal_code": "243301",
            "state": "Uttar Pradesh",
            "country_code": "IN"
        },
        "images": [
            {
                "about": "All",
                "link": "https://streetviewpixels-pa.googleapis.com/v1/thumbnail?panoid=vkIU63QobPcCsmxSZ9lRag&cb_client=maps_sv.tactile.gps&w=224&h=298&yaw=31.979261&pitch=0&thumbfov=100"
            },
            {
                "about": "Street View & 360deg",
                "link": "https://streetviewpixels-pa.googleapis.com/v1/thumbnail?panoid=vkIU63QobPcCsmxSZ9lRag&cb_client=maps_sv.tactile.gps&w=224&h=298&yaw=31.979261&pitch=0&thumbfov=100"
            }
        ],
        "link": "https://www.google.com/maps/place/Sunheri+masjid+%28kheda%29/data=!4m7!3m6!1s0x390ab3061cc28009:0x5476eaa1006b448b!8m2!3d28.2750485!4d79.1582407!16s%2Fg%2F11ttbfyzg2!19sChIJCYDCHAazCjkRi0RrAKHqdlQ?authuser=0&hl=en&rclk=1",
        "coordinates": {
            "latitude": 28.2750485,
            "longitude": 79.1582407
        }
    },
    {
        "name": "Aonla Eidgah Masjid",
        "main_category": "Mosque",
        "address": "74CX+G9V Aonla Eidgah Masjid, Aonla, Uttar Pradesh 243301",
        "detailed_address": {
            "ward": null,
            "street": "74CX+G9V",
            "city": "Aonla",
            "postal_code": "243301",
            "state": "Uttar Pradesh",
            "country_code": "IN"
        },
        "images": [
            {
                "about": "All",
                "link": "https://streetviewpixels-pa.googleapis.com/v1/thumbnail?panoid=SuYpwCUdYuazqn0a9NbIsA&cb_client=maps_sv.tactile.gps&w=224&h=298&yaw=297.24973&pitch=0&thumbfov=100"
            },
            {
                "about": "Street View & 360deg",
                "link": "https://streetviewpixels-pa.googleapis.com/v1/thumbnail?panoid=SuYpwCUdYuazqn0a9NbIsA&cb_client=maps_sv.tactile.gps&w=224&h=298&yaw=297.24973&pitch=0&thumbfov=100"
            }
        ],
        "link": "https://www.google.com/maps/place/Aonla+Eidgah+Masjid/data=!4m7!3m6!1s0x390ab31b9b155555:0x17e8fe6596755cf!8m2!3d28.2713722!4d79.1484153!16s%2Fg%2F11txmzksfz!19sChIJVVUVmxuzCjkRz1VnWeaPfgE?authuser=0&hl=en&rclk=1",
        "coordinates": {
            "latitude": 28.2713722,
            "longitude": 79.1484153
        }
    },
    {
        "name": "Aspatal Wali Masjid",
        "main_category": "Mosque",
        "address": "75F9+788 Aspatal Wali Masjid, Aonla, Uttar Pradesh 243301",
        "detailed_address": {
            "ward": null,
            "street": "75F9+788",
            "city": "Aonla",
            "postal_code": "243301",
            "state": "Uttar Pradesh",
            "country_code": "IN"
        },
        "images": [
            {
                "about": "All",
                "link": "https://streetviewpixels-pa.googleapis.com/v1/thumbnail?panoid=jgLUStYn1vMPy31XJUeLrg&cb_client=maps_sv.tactile.gps&w=224&h=298&yaw=255.98671&pitch=0&thumbfov=100"
            },
            {
                "about": "Street View & 360deg",
                "link": "https://streetviewpixels-pa.googleapis.com/v1/thumbnail?panoid=jgLUStYn1vMPy31XJUeLrg&cb_client=maps_sv.tactile.gps&w=224&h=298&yaw=255.98671&pitch=0&thumbfov=100"
            }
        ],
        "link": "https://www.google.com/maps/place/Aspatal+Wali+Masjid/data=!4m7!3m6!1s0x390ab2ef063eaaab:0xc44af5039c0ae5df!8m2!3d28.2731657!4d79.1683231!16s%2Fg%2F11txmzn38g!19sChIJq6o-Bu-yCjkR3-UKnAP1SsQ?authuser=0&hl=en&rclk=1",
        "coordinates": {
            "latitude": 28.2731657,
            "longitude": 79.1683231
        }
    },
    {
        "name": "Aonla Station Masjid",
        "main_category": "Mosque",
        "address": "75RF+X2G Aonla Station Masjid, Nagaria Satan, Uttar Pradesh 243301",
        "detailed_address": {
            "ward": null,
            "street": "75RF+X2G",
            "city": "Nagaria Satan",
            "postal_code": "243301",
            "state": "Uttar Pradesh",
            "country_code": "IN"
        },
        "images": [],
        "link": "https://www.google.com/maps/place/Aonla+Station+Masjid/data=!4m7!3m6!1s0x390ab25ec7bfffff:0xaecd22d3ed445510!8m2!3d28.2924296!4d79.1725775!16s%2Fg%2F11sscsb35l!19sChIJ__-_x16yCjkREFVE7dMiza4?authuser=0&hl=en&rclk=1",
        "coordinates": {
            "latitude": 28.2924296,
            "longitude": 79.1725775
        }
    },
    {
        "name": "Hauz Wali Masjid HwD wly msjd",
        "main_category": "Mosque",
        "address": "75GC+C85 Hauz Wali Masjid HwD wly msjd, masjid, near hauz walk, Aonla, Uttar Pradesh 243301",
        "detailed_address": {
            "ward": null,
            "street": "75GC+C85 masjid, near hauz walk",
            "city": "Aonla",
            "postal_code": "243301",
            "state": "Uttar Pradesh",
            "country_code": "IN"
        },
        "images": [
            {
                "about": "All",
                "link": "https://streetviewpixels-pa.googleapis.com/v1/thumbnail?panoid=5hmnKt9PbE8DPbvWjb4ocg&cb_client=maps_sv.tactile.gps&w=224&h=298&yaw=161.99124&pitch=0&thumbfov=100"
            },
            {
                "about": "Street View & 360deg",
                "link": "https://streetviewpixels-pa.googleapis.com/v1/thumbnail?panoid=5hmnKt9PbE8DPbvWjb4ocg&cb_client=maps_sv.tactile.gps&w=224&h=298&yaw=161.99124&pitch=0&thumbfov=100"
            }
        ],
        "link": "https://www.google.com/maps/place/Hauz+Wali+Masjid+%D8%AD%D9%88%D8%B6+%D9%88%D8%A7%D9%84%DB%8C+%D9%85%D8%B3%D8%AC%D8%AF%E2%80%AD/data=!4m7!3m6!1s0x390ab38bb3bfbd91:0xa2378205f5b57bd9!8m2!3d28.2760073!4d79.1708195!16s%2Fg%2F11t7tmyn93!19sChIJkb2_s4uzCjkR2Xu19QWCN6I?authuser=0&hl=en&rclk=1",
        "coordinates": {
            "latitude": 28.2760073,
            "longitude": 79.1708195
        }
    },
    {
        "name": "godam wali masjid",
        "main_category": "Mosque",
        "address": "75F9+4QP godam wali masjid, Aonla, Uttar Pradesh 243301",
        "detailed_address": {
            "ward": null,
            "street": "75F9+4QP",
            "city": "Aonla",
            "postal_code": "243301",
            "state": "Uttar Pradesh",
            "country_code": "IN"
        },
        "images": [
            {
                "about": "All",
                "link": "https://streetviewpixels-pa.googleapis.com/v1/thumbnail?panoid=0MRx8_5T1ZEnS9g_IsYFFQ&cb_client=maps_sv.tactile.gps&w=224&h=298&yaw=353.76395&pitch=0&thumbfov=100"
            },
            {
                "about": "Street View & 360deg",
                "link": "https://streetviewpixels-pa.googleapis.com/v1/thumbnail?panoid=0MRx8_5T1ZEnS9g_IsYFFQ&cb_client=maps_sv.tactile.gps&w=224&h=298&yaw=353.76395&pitch=0&thumbfov=100"
            }
        ],
        "link": "https://www.google.com/maps/place/godam+wali+masjid/data=!4m7!3m6!1s0x390ab2eefb250001:0x874fc0e2c8b8950d!8m2!3d28.272839!4d79.1694583!16s%2Fg%2F11txmz7v82!19sChIJAQAl--6yCjkRDZW4yOLAT4c?authuser=0&hl=en&rclk=1",
        "coordinates": {
            "latitude": 28.272838999999998,
            "longitude": 79.1694583
        }
    },
    {
        "name": "thanewali masjid",
        "main_category": "Mosque",
        "address": "75G8+X8J thanewali masjid, Aonla, Uttar Pradesh 243301",
        "detailed_address": {
            "ward": null,
            "street": "75G8+X8J",
            "city": "Aonla",
            "postal_code": "243301",
            "state": "Uttar Pradesh",
            "country_code": "IN"
        },
        "images": [
            {
                "about": "All",
                "link": "https://streetviewpixels-pa.googleapis.com/v1/thumbnail?panoid=P70IwSEUrt9XFj4yVD7cQA&cb_client=maps_sv.tactile.gps&w=224&h=298&yaw=295.66043&pitch=0&thumbfov=100"
            },
            {
                "about": "Street View & 360deg",
                "link": "https://streetviewpixels-pa.googleapis.com/v1/thumbnail?panoid=P70IwSEUrt9XFj4yVD7cQA&cb_client=maps_sv.tactile.gps&w=224&h=298&yaw=295.66043&pitch=0&thumbfov=100"
            }
        ],
        "link": "https://www.google.com/maps/place/thanewali+masjid/data=!4m7!3m6!1s0x390ab2faa21bffff:0x2ec55f0c9252e01b!8m2!3d28.2774729!4d79.1657659!16s%2Fg%2F11sscs6qyt!19sChIJ__8bovqyCjkRG-BSkgxfxS4?authuser=0&hl=en&rclk=1",
        "coordinates": {
            "latitude": 28.2774729,
            "longitude": 79.1657659
        }
    },
    {
        "name": "Azhari masjid",
        "main_category": "Mosque",
        "address": "75J9+Q6X Azhari masjid, Nalapur, Aonla, Uttar Pradesh 243301",
        "detailed_address": {
            "ward": "Nalapur",
            "street": "75J9+Q6X",
            "city": "Aonla",
            "postal_code": "243301",
            "state": "Uttar Pradesh",
            "country_code": "IN"
        },
        "images": [
            {
                "about": "All",
                "link": "https://lh5.googleusercontent.com/p/AF1QipOF6HHGhPklyMamalRr_RAvsoZZAWLk4HGQSL3L=w224-h398-k-no"
            },
            {
                "about": "Street View & 360deg",
                "link": "https://streetviewpixels-pa.googleapis.com/v1/thumbnail?panoid=QeX2LbBrqNoXTnGKdB9UCw&cb_client=maps_sv.tactile.gps&w=224&h=298&yaw=316.5933&pitch=0&thumbfov=100"
            }
        ],
        "link": "https://www.google.com/maps/place/Azhari+masjid/data=!4m7!3m6!1s0x390ab3e3431a1355:0x7beb7eb1828a49aa!8m2!3d28.2819892!4d79.1680962!16s%2Fg%2F11kr831y8z!19sChIJVRMaQ-OzCjkRqkmKgrF-63s?authuser=0&hl=en&rclk=1",
        "coordinates": {
            "latitude": 28.281989199999998,
            "longitude": 79.1680962
        }
    },
    {
        "name": "Bara Burjhi Masjid",
        "main_category": "Mosque",
        "address": "75HC+5C5 Bara Burjhi Masjid, Aonla, Uttar Pradesh 243301",
        "detailed_address": {
            "ward": null,
            "street": "75HC+5C5",
            "city": "Aonla",
            "postal_code": "243301",
            "state": "Uttar Pradesh",
            "country_code": "IN"
        },
        "images": [
            {
                "about": "All",
                "link": "https://streetviewpixels-pa.googleapis.com/v1/thumbnail?panoid=coVz4WDDp51Cbr_jyF1MSw&cb_client=maps_sv.tactile.gps&w=224&h=298&yaw=175.88019&pitch=0&thumbfov=100"
            },
            {
                "about": "Street View & 360deg",
                "link": "https://streetviewpixels-pa.googleapis.com/v1/thumbnail?panoid=coVz4WDDp51Cbr_jyF1MSw&cb_client=maps_sv.tactile.gps&w=224&h=298&yaw=175.88019&pitch=0&thumbfov=100"
            }
        ],
        "link": "https://www.google.com/maps/place/Bara+Burjhi+Masjid/data=!4m7!3m6!1s0x390ab2f1f2c00001:0xd52cafa77609d050!8m2!3d28.2778815!4d79.1711667!16s%2Fg%2F11txmzccyc!19sChIJAQDA8vGyCjkRUNAJdqevLNU?authuser=0&hl=en&rclk=1",
        "coordinates": {
            "latitude": 28.2778815,
            "longitude": 79.1711667
        }
    },
    {
        "name": "katre Ki Masjid",
        "main_category": "Mosque",
        "address": "75F3+857 katre Ki Masjid, Aonla, Uttar Pradesh 243301",
        "detailed_address": {
            "ward": null,
            "street": "75F3+857",
            "city": "Aonla",
            "postal_code": "243301",
            "state": "Uttar Pradesh",
            "country_code": "IN"
        },
        "images": [
            {
                "about": "All",
                "link": "https://streetviewpixels-pa.googleapis.com/v1/thumbnail?panoid=ge8zgBLwyFHFUx4SHY42jQ&cb_client=maps_sv.tactile.gps&w=224&h=298&yaw=207.3383&pitch=0&thumbfov=100"
            },
            {
                "about": "Street View & 360deg",
                "link": "https://streetviewpixels-pa.googleapis.com/v1/thumbnail?panoid=ge8zgBLwyFHFUx4SHY42jQ&cb_client=maps_sv.tactile.gps&w=224&h=298&yaw=207.3383&pitch=0&thumbfov=100"
            }
        ],
        "link": "https://www.google.com/maps/place/katre+Ki+Masjid/data=!4m7!3m6!1s0x390ab31d16d15555:0x2541bc5df96b3bec!8m2!3d28.27329!4d79.1529352!16s%2Fg%2F11txmzdyt3!19sChIJVVXRFh2zCjkR7Dtr-V28QSU?authuser=0&hl=en&rclk=1",
        "coordinates": {
            "latitude": 28.27329,
            "longitude": 79.1529352
        }
    },
    {
        "name": "bajaria masjid",
        "main_category": "Mosque",
        "address": "75FC+G6P bajaria masjid, Aonla, Uttar Pradesh 243301",
        "detailed_address": {
            "ward": null,
            "street": "75FC+G6P",
            "city": "Aonla",
            "postal_code": "243301",
            "state": "Uttar Pradesh",
            "country_code": "IN"
        },
        "images": [],
        "link": "https://www.google.com/maps/place/bajaria+masjid/data=!4m7!3m6!1s0x390ab2ee611c0001:0x4401f87b4ef35695!8m2!3d28.2738414!4d79.1705715!16s%2Fg%2F11txmzjsl6!19sChIJAQAcYe6yCjkRlVbzTnv4AUQ?authuser=0&hl=en&rclk=1",
        "coordinates": {
            "latitude": 28.2738414,
            "longitude": 79.1705715
        }
    },
    {
        "name": "Bahar Shah Masjid Mo Naseer Manjil",
        "main_category": "Home goods store",
        "address": "75G9+49M Bahar Shah Masjid Mo Naseer Manjil, Unnamed Road, Aonla, Uttar Pradesh 243301",
        "detailed_address": {
            "ward": null,
            "street": "75G9+49M, Unnamed Road",
            "city": "Aonla",
            "postal_code": "243301",
            "state": "Uttar Pradesh",
            "country_code": "IN"
        },
        "images": [
            {
                "about": "All",
                "link": "https://streetviewpixels-pa.googleapis.com/v1/thumbnail?panoid=vIWwVEyuk4lQ8tXgdhfmJg&cb_client=maps_sv.tactile.gps&w=224&h=298&yaw=142.71243&pitch=0&thumbfov=100"
            },
            {
                "about": "Street View & 360deg",
                "link": "https://streetviewpixels-pa.googleapis.com/v1/thumbnail?panoid=vIWwVEyuk4lQ8tXgdhfmJg&cb_client=maps_sv.tactile.gps&w=224&h=298&yaw=142.71243&pitch=0&thumbfov=100"
            }
        ],
        "link": "https://www.google.com/maps/place/Bahar+Shah+Masjid+Mo+Naseer+Manjil/data=!4m7!3m6!1s0x390ab36b8d02afc3:0xedd21c42d55aab69!8m2!3d28.2753308!4d79.1684149!16s%2Fg%2F11h6f6m0_5!19sChIJw68CjWuzCjkRaata1UIc0u0?authuser=0&hl=en&rclk=1",
        "coordinates": {
            "latitude": 28.2753308,
            "longitude": 79.1684149
        }
    }
]