[
    {
        "name": "Gousia Masjid",
        "main_category": "Mosque",
        "address": "JVJR+F58 Gousia Masjid, gousia masjid, Siruguppa, Karnataka 583121",
        "detailed_address": {
            "ward": null,
            "street": "JVJR+F58, gousia masjid",
            "city": "Siruguppa",
            "postal_code": "583121",
            "state": "Karnataka",
            "country_code": "IN"
        },
        "images": [
            {
                "about": "All",
                "link": "https://lh5.googleusercontent.com/p/AF1QipMcjKmq8c5wT-EpF17RsgLa3m0rN0iHsFYPYk4C=w238-h298-k-no"
            },
            {
                "about": "Street View & 360deg",
                "link": "https://streetviewpixels-pa.googleapis.com/v1/thumbnail?panoid=eaP4S-bHtXsHRr4s-HPcPw&cb_client=maps_sv.tactile.gps&w=224&h=298&yaw=69.6253&pitch=0&thumbfov=100"
            },
            {
                "about": "Videos",
                "link": "https://lh5.googleusercontent.com/p/AF1QipOHqNvVp3sJyPrcwL7Q9m70t2P1zf8zaXuUS3Y=w529-h298-k-no"
            }
        ],
        "link": "https://www.google.com/maps/place/Gousia+Masjid/data=!4m7!3m6!1s0x3bb7bc5cb6d50933:0xf40d5ddb82212b23!8m2!3d15.6311685!4d76.8904447!16s%2Fg%2F11c1tcsv42!19sChIJMwnVtly8tzsRIyshgttdDfQ?authuser=0&hl=en&rclk=1",
        "coordinates": {
            "latitude": 15.6311685,
            "longitude": 76.8904447
        }
    },
    {
        "name": "Haji Masjid(Sunni)",
        "main_category": "Mosque",
        "address": "JVQR+X44 Haji Masjid(Sunni), Siruguppa, Karnataka 583121",
        "detailed_address": {
            "ward": null,
            "street": "JVQR+X44",
            "city": "Siruguppa",
            "postal_code": "583121",
            "state": "Karnataka",
            "country_code": "IN"
        },
        "images": [
            {
                "about": "All",
                "link": "https://lh5.googleusercontent.com/p/AF1QipNg1kNbS-LvzflBZRT6NVR8vffDQGkwWDTHk61J=w397-h298-k-no"
            },
            {
                "about": "Videos",
                "link": "https://lh5.googleusercontent.com/p/AF1QipNNwcXqGl1rcfWZgFaFQ96p5iPYoKBmFRPeBytL=w224-h459-k-no"
            }
        ],
        "link": "https://www.google.com/maps/place/Haji+Masjid%28Sunni%29/data=!4m7!3m6!1s0x3bb7bc41243a9af9:0x970b39c0b0b3face!8m2!3d15.6398881!4d76.8903177!16s%2Fg%2F11c4bh9h0g!19sChIJ-Zo6JEG8tzsRzvqzsMA5C5c?authuser=0&hl=en&rclk=1",
        "coordinates": {
            "latitude": 15.639888099999999,
            "longitude": 76.8903177
        }
    },
    {
        "name": "Sunni Jamiya Masjid",
        "main_category": "Mosque",
        "address": "JVRQ+FQW Sunni Jamiya Masjid, Siruguppa, Karnataka 583121",
        "detailed_address": {
            "ward": null,
            "street": "JVRQ+FQW",
            "city": "Siruguppa",
            "postal_code": "583121",
            "state": "Karnataka",
            "country_code": "IN"
        },
        "images": [
            {
                "about": "All",
                "link": "https://lh5.googleusercontent.com/p/AF1QipNAasGdRT_rIQg3V1qKDxXXwjIvBQnUDNvBRVAz=w224-h398-k-no"
            },
            {
                "about": "Dome",
                "link": "https://lh5.googleusercontent.com/p/AF1QipNZfrA7xwSJLeeWfdTBAvxjvH6PtV9QRCWh69BI=w432-h298-k-no"
            },
            {
                "about": "Street View & 360deg",
                "link": "https://streetviewpixels-pa.googleapis.com/v1/thumbnail?panoid=SBYaPCKadFYHXFELVrDnfg&cb_client=maps_sv.tactile.gps&w=224&h=298&yaw=101.63537&pitch=0&thumbfov=100"
            }
        ],
        "link": "https://www.google.com/maps/place/Sunni+Jamiya+Masjid/data=!4m7!3m6!1s0x3bb7bc40ccb86a35:0xa3c15d73fbc6b4ce!8m2!3d15.6412389!4d76.8894425!16s%2Fg%2F11g725553p!19sChIJNWq4zEC8tzsRzrTG-3NdwaM?authuser=0&hl=en&rclk=1",
        "coordinates": {
            "latitude": 15.6412389,
            "longitude": 76.8894425
        }
    },
    {
        "name": "Vallur Masjid",
        "main_category": "Mosque",
        "address": "JVRR+H6V Vallur Masjid, Siruguppa, Karnataka 583121",
        "detailed_address": {
            "ward": null,
            "street": "JVRR+H6V",
            "city": "Siruguppa",
            "postal_code": "583121",
            "state": "Karnataka",
            "country_code": "IN"
        },
        "images": [
            {
                "about": "All",
                "link": "https://lh5.googleusercontent.com/p/AF1QipO6FWy64tbO-OrIuJNTeoe852aaND4u5_y4PL7c=w224-h298-k-no"
            },
            {
                "about": "Dome",
                "link": "https://lh5.googleusercontent.com/p/AF1QipO2dChPFqqZYhOj-R0Dj2fegzN4GHofeGRm1k6Z=w397-h298-k-no"
            },
            {
                "about": "Street View & 360deg",
                "link": "https://streetviewpixels-pa.googleapis.com/v1/thumbnail?panoid=gWykaXIGMlddN8b25c4Y6g&cb_client=maps_sv.tactile.gps&w=224&h=298&yaw=112.89917&pitch=0&thumbfov=100"
            }
        ],
        "link": "https://www.google.com/maps/place/Vallur+Masjid/data=!4m7!3m6!1s0x3bb7bc40c1f2dddd:0x87b2179234975966!8m2!3d15.6414959!4d76.8905573!16s%2Fg%2F11gbxdhzwq!19sChIJ3d3ywUC8tzsRZlmXNJIXsoc?authuser=0&hl=en&rclk=1",
        "coordinates": {
            "latitude": 15.641495899999999,
            "longitude": 76.8905573
        }
    },
    {
        "name": "Sowdagar Masjid",
        "main_category": "Mosque",
        "address": "Sowdagar Masjid, sowdagar masjid, sowdagar mohalla, Siruguppa, Karnataka 583121",
        "detailed_address": {
            "ward": "sowdagar mohalla",
            "street": "sowdagar masjid",
            "city": "Siruguppa",
            "postal_code": "583121",
            "state": "Karnataka",
            "country_code": "IN"
        },
        "images": [
            {
                "about": "All",
                "link": "https://lh5.googleusercontent.com/p/AF1QipMm0iHthyOAnMaQPjCvTSAPDqowhlVhoZ9L3K4b=w288-h298-k-no"
            },
            {
                "about": "Street View & 360deg",
                "link": "https://streetviewpixels-pa.googleapis.com/v1/thumbnail?panoid=S8B062ApjcdkgU25vDguSQ&cb_client=maps_sv.tactile.gps&w=224&h=298&yaw=247.1692&pitch=0&thumbfov=100"
            }
        ],
        "link": "https://www.google.com/maps/place/Sowdagar+Masjid/data=!4m7!3m6!1s0x3bb7bc46cc6c47c1:0x4433d0f635cd69cc!8m2!3d15.6392094!4d76.889137!16s%2Fg%2F11bcf0zp7r!19sChIJwUdszEa8tzsRzGnNNfbQM0Q?authuser=0&hl=en&rclk=1",
        "coordinates": {
            "latitude": 15.639209399999999,
            "longitude": 76.88913699999999
        }
    },
    {
        "name": "Masjid E Nizamia",
        "main_category": "Mosque",
        "address": "JVPW+VRG Masjid E Nizamia, Siruguppa, Karnataka 583121",
        "detailed_address": {
            "ward": null,
            "street": "JVPW+VRG",
            "city": "Siruguppa",
            "postal_code": "583121",
            "state": "Karnataka",
            "country_code": "IN"
        },
        "images": [
            {
                "about": "All",
                "link": "https://lh5.googleusercontent.com/p/AF1QipO5wTbH-Vh6lRPwQ6c6LyyhBoonazSkdd1ps3tv=w397-h298-k-no"
            },
            {
                "about": "Dome",
                "link": "https://lh5.googleusercontent.com/p/AF1QipO5wTbH-Vh6lRPwQ6c6LyyhBoonazSkdd1ps3tv=w397-h298-k-no"
            }
        ],
        "link": "https://www.google.com/maps/place/Masjid+E+Nizamia/data=!4m7!3m6!1s0x3bb7bc698e30a63d:0x3098cd8d77fd7be5!8m2!3d15.6371811!4d76.8970925!16s%2Fg%2F11g8175n9g!19sChIJPaYwjmm8tzsR5Xv9d43NmDA?authuser=0&hl=en&rclk=1",
        "coordinates": {
            "latitude": 15.6371811,
            "longitude": 76.8970925
        }
    },
    {
        "name": "Madrasa E Madina and Masjid (Ahle Hadees)",
        "main_category": "Mosque",
        "address": "JVVP+6CX Madrasa E Madina and Masjid (Ahle Hadees), Dasanur Rd, Siruguppa, Karnataka 583121",
        "detailed_address": {
            "ward": null,
            "street": "JVVP+6CX, Dasanur Rd",
            "city": "Siruguppa",
            "postal_code": "583121",
            "state": "Karnataka",
            "country_code": "IN"
        },
        "images": [
            {
                "about": "All",
                "link": "https://lh5.googleusercontent.com/p/AF1QipMAvt_NUH2RiQRsKouZqMnjfaSZOjcSdlDzlBOr=w541-h298-k-no"
            },
            {
                "about": "Street View & 360deg",
                "link": "https://streetviewpixels-pa.googleapis.com/v1/thumbnail?panoid=DSiYrmokf12WOjfkfPBTww&cb_client=maps_sv.tactile.gps&w=224&h=298&yaw=162.33647&pitch=0&thumbfov=100"
            }
        ],
        "link": "https://www.google.com/maps/place/Madrasa+E+Madina+and+Masjid+%28Ahle+Hadees%29/data=!4m7!3m6!1s0x3bb7bd3651dfe2b1:0x9e4e78d9e307c1b5!8m2!3d15.6431198!4d76.8861022!16s%2Fg%2F11jnqpg3hb!19sChIJseLfUTa9tzsRtcEH49l4Tp4?authuser=0&hl=en&rclk=1",
        "coordinates": {
            "latitude": 15.6431198,
            "longitude": 76.8861022
        }
    },
    {
        "name": "Sunni Bibi Hazara Masjid",
        "main_category": "Mosque",
        "address": "Sunni Bibi Hazara Masjid, 10th ward, near Khadar sa Maula Dargah, Siruguppa, Karnataka 583121",
        "detailed_address": {
            "ward": null,
            "street": "10th ward, near Khadar sa Maula Dargah",
            "city": "Siruguppa",
            "postal_code": "583121",
            "state": "Karnataka",
            "country_code": "IN"
        },
        "images": [
            {
                "about": "All",
                "link": "https://lh5.googleusercontent.com/p/AF1QipNwxuMNuAvQLVFI3VD0ls1JHI0VjGakPeGFJz1c=w529-h298-k-no"
            }
        ],
        "link": "https://www.google.com/maps/place/Sunni+Bibi+Hazara+Masjid/data=!4m7!3m6!1s0x3bb7bd12c251f7bd:0xd33c01f11612c9a9!8m2!3d15.6343499!4d76.8893942!16s%2Fg%2F11h7fnmy9m!19sChIJvfdRwhK9tzsRqckSFvEBPNM?authuser=0&hl=en&rclk=1",
        "coordinates": {
            "latitude": 15.6343499,
            "longitude": 76.8893942
        }
    },
    {
        "name": "Masjid E Muhammadia",
        "main_category": "Mosque",
        "address": "JVFR+MVQ Masjid E Muhammadia, Siruguppa, Karnataka 583121",
        "detailed_address": {
            "ward": null,
            "street": "JVFR+MVQ",
            "city": "Siruguppa",
            "postal_code": "583121",
            "state": "Karnataka",
            "country_code": "IN"
        },
        "images": [],
        "link": "https://www.google.com/maps/place/Masjid+E+Muhammadia/data=!4m7!3m6!1s0x3bb7bc5ef61d6275:0x1138482a4b0283c8!8m2!3d15.6242069!4d76.8922306!16s%2Fg%2F11c3174nqq!19sChIJdWId9l68tzsRyIMCSypIOBE?authuser=0&hl=en&rclk=1",
        "coordinates": {
            "latitude": 15.624206899999999,
            "longitude": 76.89223059999999
        }
    },
    {
        "name": "Madina Masjid (Markaz)",
        "main_category": "Mosque",
        "address": "26th ward, Madina Masjid (Markaz), behind police station, Siruguppa, Karnataka 583121",
        "detailed_address": {
            "ward": null,
            "street": "26th ward, behind police station",
            "city": "Siruguppa",
            "postal_code": "583121",
            "state": "Karnataka",
            "country_code": "IN"
        },
        "images": [
            {
                "about": "All",
                "link": "https://lh5.googleusercontent.com/p/AF1QipO6KN3QlxtB8Ym-KQ9ixWscGezufM8nClesThWB=w528-h298-k-no"
            }
        ],
        "link": "https://www.google.com/maps/place/Madina+Masjid+%28Markaz%29/data=!4m7!3m6!1s0x3bb7bd2144606aa9:0x71f784b72e9a2fab!8m2!3d15.6374307!4d76.8934017!16s%2Fg%2F11ssdqtvxg!19sChIJqWpgRCG9tzsRqy-aLreE93E?authuser=0&hl=en&rclk=1",
        "coordinates": {
            "latitude": 15.6374307,
            "longitude": 76.8934017
        }
    },
    {
        "name": "Laadkhan Masjid Sunni Siruguppa",
        "main_category": "Mosque",
        "address": "JVPR+GMP Laadkhan Masjid Sunni Siruguppa, Siruguppa, Karnataka 583121",
        "detailed_address": {
            "ward": null,
            "street": "JVPR+GMP",
            "city": "Siruguppa",
            "postal_code": null,
            "state": "Karnataka",
            "country_code": "IN"
        },
        "images": [
            {
                "about": "All",
                "link": "https://lh5.googleusercontent.com/p/AF1QipMDNc4uw9J_u23bnM4VyoZ-iWETvp9NwMqd9g80=w397-h298-k-no"
            },
            {
                "about": "Street View & 360deg",
                "link": "https://streetviewpixels-pa.googleapis.com/v1/thumbnail?panoid=lqe3QeP99V0jy5PbdnaTxQ&cb_client=maps_sv.tactile.gps&w=224&h=298&yaw=309.83295&pitch=0&thumbfov=100"
            },
            {
                "about": "Videos",
                "link": "https://lh5.googleusercontent.com/p/AF1QipMJpXoidXJtuB2hp7ywKru6R3HvnfYLR0jm3Gzi=w224-h398-k-no"
            }
        ],
        "link": "https://www.google.com/maps/place/Laadkhan+Masjid+Sunni+Siruguppa/data=!4m7!3m6!1s0x3bb7bd04fd6f0eff:0xedd59189353a852f!8m2!3d15.6363357!4d76.8916921!16s%2Fg%2F11h443rfb4!19sChIJ_w5v_QS9tzsRL4U6NYmR1e0?authuser=0&hl=en&rclk=1",
        "coordinates": {
            "latitude": 15.6363357,
            "longitude": 76.8916921
        }
    },
    {
        "name": "Masjid -E- Madeena Mosque",
        "main_category": "Religious organization",
        "address": "Masjid -E- Madeena Mosque, Old city, Siruguppa, Karnataka 583121",
        "detailed_address": {
            "ward": "Old city",
            "street": null,
            "city": "Siruguppa",
            "postal_code": "583121",
            "state": "Karnataka",
            "country_code": "IN"
        },
        "images": [
            {
                "about": "All",
                "link": "https://streetviewpixels-pa.googleapis.com/v1/thumbnail?panoid=3MyENRge7qVuB4xNmpIqlA&cb_client=maps_sv.tactile.gps&w=224&h=298&yaw=174.5076&pitch=0&thumbfov=100"
            },
            {
                "about": "Street View & 360deg",
                "link": "https://streetviewpixels-pa.googleapis.com/v1/thumbnail?panoid=3MyENRge7qVuB4xNmpIqlA&cb_client=maps_sv.tactile.gps&w=224&h=298&yaw=174.5076&pitch=0&thumbfov=100"
            }
        ],
        "link": "https://www.google.com/maps/place/Masjid+-E-+Madeena+Mosque/data=!4m7!3m6!1s0x3bb7bdc88a159355:0xae908727d3d5bdbf!8m2!3d15.6431623!4d76.8861066!16s%2Fg%2F11t7h_jjpz!19sChIJVZMVisi9tzsRv73V0yeHkK4?authuser=0&hl=en&rclk=1",
        "coordinates": {
            "latitude": 15.643162299999998,
            "longitude": 76.88610659999999
        }
    },
    {
        "name": "Akbari masjid",
        "main_category": "Mosque",
        "address": "JVFX+MGM Akbari masjid, Siruguppa, Karnataka 583121",
        "detailed_address": {
            "ward": null,
            "street": "JVFX+MGM",
            "city": "Siruguppa",
            "postal_code": "583121",
            "state": "Karnataka",
            "country_code": "IN"
        },
        "images": [
            {
                "about": "All",
                "link": "https://lh5.googleusercontent.com/p/AF1QipP8t_fdl-UK-x6twNAIRxFztK4gtO6lTPrhnTDI=w529-h298-k-no"
            },
            {
                "about": "Street View & 360deg",
                "link": "https://streetviewpixels-pa.googleapis.com/v1/thumbnail?panoid=3b2J2iSIqi0-CNug0xuKYg&cb_client=maps_sv.tactile.gps&w=224&h=298&yaw=55.28385&pitch=0&thumbfov=100"
            }
        ],
        "link": "https://www.google.com/maps/place/Akbari+masjid/data=!4m7!3m6!1s0x3bb7bd6a3d6e187d:0x708400e4370495be!8m2!3d15.6242179!4d76.8987843!16s%2Fg%2F11lkz7cd26!19sChIJfRhuPWq9tzsRvpUEN-QAhHA?authuser=0&hl=en&rclk=1",
        "coordinates": {
            "latitude": 15.6242179,
            "longitude": 76.8987843
        }
    },
    {
        "name": "Masjid",
        "main_category": "Place of worship",
        "address": "Masjid, Siruguppa, Karnataka 583121",
        "detailed_address": {
            "ward": null,
            "street": null,
            "city": "Siruguppa",
            "postal_code": null,
            "state": "Karnataka",
            "country_code": "IN"
        },
        "images": [
            {
                "about": "All",
                "link": "https://lh5.googleusercontent.com/p/AF1QipME7o6cdIVLvtH7xKHgWBQLgq1R4KBc8BMOhKlj=w330-h298-k-no"
            }
        ],
        "link": "https://www.google.com/maps/place/Masjid/data=!4m7!3m6!1s0x3bb7bc4226ac9871:0xe6a96e4ea80f62d7!8m2!3d15.6372744!4d76.893348!16s%2Fg%2F1vpfg_f8!19sChIJcZisJkK8tzsR12IPqE5uqeY?authuser=0&hl=en&rclk=1",
        "coordinates": {
            "latitude": 15.637274399999999,
            "longitude": 76.893348
        }
    },
    {
        "name": "Masjid e imam e Azam",
        "main_category": "Mosque",
        "address": "JVXW+R6F Masjid e imam e Azam, SH 19, Siruguppa, Karnataka 583121",
        "detailed_address": {
            "ward": null,
            "street": "JVXW+R6F, SH 19",
            "city": "Siruguppa",
            "postal_code": "583121",
            "state": "Karnataka",
            "country_code": "IN"
        },
        "images": [
            {
                "about": "All",
                "link": "https://streetviewpixels-pa.googleapis.com/v1/thumbnail?panoid=puvF5y2bqH-y6tVrUMRG3A&cb_client=maps_sv.tactile.gps&w=224&h=298&yaw=304.53027&pitch=0&thumbfov=100"
            },
            {
                "about": "Street View & 360deg",
                "link": "https://streetviewpixels-pa.googleapis.com/v1/thumbnail?panoid=puvF5y2bqH-y6tVrUMRG3A&cb_client=maps_sv.tactile.gps&w=224&h=298&yaw=304.53027&pitch=0&thumbfov=100"
            }
        ],
        "link": "https://www.google.com/maps/place/Masjid+e+imam+e+Azam/data=!4m7!3m6!1s0x3bb7bd6996fa993f:0x44eb71ef1c9e7892!8m2!3d15.6495682!4d76.8955427!16s%2Fg%2F11k06n43xl!19sChIJP5n6lmm9tzsRknieHO9x60Q?authuser=0&hl=en&rclk=1",
        "coordinates": {
            "latitude": 15.6495682,
            "longitude": 76.8955427
        }
    },
    {
        "name": "Jamia Masjid",
        "main_category": "Mosque",
        "address": "JVPR+FH4 Jamia Masjid, Bellary-Gulbarga Rd, Siruguppa, Karnataka 583121",
        "detailed_address": {
            "ward": null,
            "street": "JVPR+FH4, Bellary-Gulbarga Rd",
            "city": "Siruguppa",
            "postal_code": "583121",
            "state": "Karnataka",
            "country_code": "IN"
        },
        "images": [
            {
                "about": "All",
                "link": "https://streetviewpixels-pa.googleapis.com/v1/thumbnail?panoid=eWktA3xoeLlr0tE4wcI2Pg&cb_client=maps_sv.tactile.gps&w=224&h=298&yaw=293.05493&pitch=0&thumbfov=100"
            },
            {
                "about": "Street View & 360deg",
                "link": "https://streetviewpixels-pa.googleapis.com/v1/thumbnail?panoid=eWktA3xoeLlr0tE4wcI2Pg&cb_client=maps_sv.tactile.gps&w=224&h=298&yaw=293.05493&pitch=0&thumbfov=100"
            }
        ],
        "link": "https://www.google.com/maps/place/Jamia+Masjid/data=!4m7!3m6!1s0x3bb7bc43c7bfffff:0xf34ce326a07afd83!8m2!3d15.636148!4d76.8914623!16s%2Fg%2F11txmz95g7!19sChIJ__-_x0O8tzsRg_16oCbjTPM?authuser=0&hl=en&rclk=1",
        "coordinates": {
            "latitude": 15.636147999999999,
            "longitude": 76.8914623
        }
    },
    {
        "name": "Vallur Masjid Sirguppa",
        "main_category": "Mosque",
        "address": "JW92+26G Vallur Masjid Sirguppa, Unnamed Road, Siruguppa, Karnataka 583121",
        "detailed_address": {
            "ward": null,
            "street": "JW92+26G, Unnamed Road",
            "city": "Siruguppa",
            "postal_code": "583121",
            "state": "Karnataka",
            "country_code": "IN"
        },
        "images": [
            {
                "about": "All",
                "link": "https://lh5.googleusercontent.com/p/AF1QipOLd05BXTEuVm9aMSKNsExCJPUbCcHtXivd3gZA=w417-h298-k-no"
            },
            {
                "about": "Dome",
                "link": "https://lh5.googleusercontent.com/p/AF1QipOLd05BXTEuVm9aMSKNsExCJPUbCcHtXivd3gZA=w417-h298-k-no"
            }
        ],
        "link": "https://www.google.com/maps/place/Vallur+Masjid+Sirguppa/data=!4m7!3m6!1s0x3bb7bc8bd6b17e3f:0x6b07a11dc06f830c!8m2!3d15.6175694!4d76.9005722!16s%2Fg%2F11dftjms8r!19sChIJP36x1ou8tzsRDINvwB2hB2s?authuser=0&hl=en&rclk=1",
        "coordinates": {
            "latitude": 15.617569399999999,
            "longitude": 76.9005722
        }
    },
    {
        "name": "Masjid E Muhammadia",
        "main_category": "Mosque",
        "address": "JW92+26G Masjid E Muhammadia, Siruguppa, Karnataka 583121",
        "detailed_address": {
            "ward": null,
            "street": "JW92+26G",
            "city": "Siruguppa",
            "postal_code": "583121",
            "state": "Karnataka",
            "country_code": "IN"
        },
        "images": [],
        "link": "https://www.google.com/maps/place/Masjid+E+Muhammadia/data=!4m7!3m6!1s0x3bb7bc8bd6b17e3f:0xd5fe11e249492d84!8m2!3d15.6175694!4d76.9005722!16s%2Fg%2F11c6cwxbrd!19sChIJP36x1ou8tzsRhC1JSeIR_tU?authuser=0&hl=en&rclk=1",
        "coordinates": {
            "latitude": 15.617569399999999,
            "longitude": 76.9005722
        }
    },
    {
        "name": "K BELAGAL JAMA MASJID",
        "main_category": "Mosque",
        "address": "JW92+264 K BELAGAL JAMA MASJID, k belgal, Siruguppa, Karnataka 583121",
        "detailed_address": {
            "ward": "k belgal",
            "street": "JW92+264",
            "city": "Siruguppa",
            "postal_code": "583121",
            "state": "Karnataka",
            "country_code": "IN"
        },
        "images": [],
        "link": "https://www.google.com/maps/place/K+BELAGAL+JAMA+MASJID/data=!4m7!3m6!1s0x3bb7bd8d284b44af:0x44737056e2cf8e22!8m2!3d15.6175625!4d76.9005625!16s%2Fg%2F11v0s_y79d!19sChIJr0RLKI29tzsRIo7P4lZwc0Q?authuser=0&hl=en&rclk=1",
        "coordinates": {
            "latitude": 15.6175625,
            "longitude": 76.90056249999999
        }
    },
    {
        "name": "Musab uddin",
        "main_category": "Mosque",
        "address": "JVQV+2RW Musab uddin, Siruguppa, Karnataka 583121",
        "detailed_address": {
            "ward": null,
            "street": "JVQV+2RW",
            "city": "Siruguppa",
            "postal_code": "583121",
            "state": "Karnataka",
            "country_code": "IN"
        },
        "images": [
            {
                "about": "All",
                "link": "https://lh5.googleusercontent.com/p/AF1QipPXwlheEk-iYqNB0DkqNAv2Nkmx6eEvSKK-xMtB=w224-h497-k-no"
            }
        ],
        "link": "https://www.google.com/maps/place/Musab+uddin/data=!4m7!3m6!1s0x3bb7bda38fc34c97:0xc32fab07370e07a8!8m2!3d15.6376102!4d76.894591!16s%2Fg%2F11rhst2syp!19sChIJl0zDj6O9tzsRqAcONwerL8M?authuser=0&hl=en&rclk=1",
        "coordinates": {
            "latitude": 15.6376102,
            "longitude": 76.89459099999999
        }
    }
]