[
    {
        "name": "Bilaal Masjid",
        "main_category": "Mosque",
        "address": "P7C6+3C9 Bilaal Masjid, PS Nagar, Markapur, Andhra Pradesh 523316",
        "detailed_address": {
            "ward": "PS Nagar",
            "street": "P7C6+3C9",
            "city": "Markapur",
            "postal_code": "523316",
            "state": "Andhra Pradesh",
            "country_code": "IN"
        },
        "images": [
            {
                "about": "All",
                "link": "https://streetviewpixels-pa.googleapis.com/v1/thumbnail?panoid=r1DWB1AJWoq6auhagd-Vzw&cb_client=maps_sv.tactile.gps&w=224&h=298&yaw=252.19498&pitch=0&thumbfov=100"
            },
            {
                "about": "Street View & 360deg",
                "link": "https://streetviewpixels-pa.googleapis.com/v1/thumbnail?panoid=r1DWB1AJWoq6auhagd-Vzw&cb_client=maps_sv.tactile.gps&w=224&h=298&yaw=252.19498&pitch=0&thumbfov=100"
            }
        ],
        "link": "https://www.google.com/maps/place/Bilaal+Masjid/data=!4m7!3m6!1s0x3bb531c4132bb8ef:0xe06647a3129c4256!8m2!3d15.720151!4d79.2611167!16s%2Fg%2F11dyml6kyl!19sChIJ77grE8QxtTsRVkKcEqNHZuA?authuser=0&hl=en&rclk=1",
        "coordinates": {
            "latitude": 15.720151,
            "longitude": 79.2611167
        }
    },
    {
        "name": "Madina Masjid",
        "main_category": "Mosque",
        "address": "Madina Masjid, Mohammad nagar power office, Srinagar Colony, Markapur, Andhra Pradesh 523316",
        "detailed_address": {
            "ward": "Srinagar Colony",
            "street": "Mohammad nagar power office",
            "city": "Markapur",
            "postal_code": "523316",
            "state": "Andhra Pradesh",
            "country_code": "IN"
        },
        "images": [
            {
                "about": "All",
                "link": "https://lh5.googleusercontent.com/p/AF1QipNIbFOrwtOeRFJY7CsMdv8yl1HZTEvfhgBPdovc=w238-h298-k-no"
            },
            {
                "about": "Videos",
                "link": "https://lh5.googleusercontent.com/p/AF1QipP4ApBt4vPdRJtU_trp9LPPmwnx9aV-bgQV6NnC=w224-h398-k-no"
            }
        ],
        "link": "https://www.google.com/maps/place/Madina+Masjid/data=!4m7!3m6!1s0x3bb531bf41ef3a57:0x711383db82a861ea!8m2!3d15.7285711!4d79.2633668!16s%2Fg%2F11csqgx_z2!19sChIJVzrvQb8xtTsR6mGogtuDE3E?authuser=0&hl=en&rclk=1",
        "coordinates": {
            "latitude": 15.7285711,
            "longitude": 79.2633668
        }
    },
    {
        "name": "jumma masjid markaz",
        "main_category": "Mosque",
        "address": "P7PC+V38 jumma masjid markaz, Markapur, Andhra Pradesh 523316",
        "detailed_address": {
            "ward": "Markapur",
            "street": "P7PC+V38",
            "city": "Markapur",
            "postal_code": "523316",
            "state": "Andhra Pradesh",
            "country_code": "IN"
        },
        "images": [
            {
                "about": "All",
                "link": "https://lh5.googleusercontent.com/p/AF1QipPR9uhX1clo_Xi7IPx0iRBaB-uixGxC99GoXPJ5=w661-h298-k-no"
            },
            {
                "about": "Street View & 360deg",
                "link": "https://streetviewpixels-pa.googleapis.com/v1/thumbnail?panoid=eNGN3MQ8YtM02N27BScTzA&cb_client=maps_sv.tactile.gps&w=224&h=298&yaw=58.621876&pitch=0&thumbfov=100"
            },
            {
                "about": "Videos",
                "link": "https://lh5.googleusercontent.com/p/AF1QipMfStXcGx6hdqmVwcM0ivWem8X9oSmiy-frtgCJ=w224-h407-k-no"
            }
        ],
        "link": "https://www.google.com/maps/place/jumma+masjid+markaz/data=!4m7!3m6!1s0x3bb53197a8bc5f07:0x37a02681a83d5f0!8m2!3d15.7371624!4d79.2702054!16s%2Fg%2F11fylvgd92!19sChIJB1-8qJcxtTsR8NWDGmgCegM?authuser=0&hl=en&rclk=1",
        "coordinates": {
            "latitude": 15.737162399999999,
            "longitude": 79.2702054
        }
    },
    {
        "name": "Meena Masjid",
        "main_category": "Mosque",
        "address": "P7W9+3V4 Meena Masjid, Markapur, Andhra Pradesh 523316",
        "detailed_address": {
            "ward": "Markapur",
            "street": "P7W9+3V4",
            "city": "Markapur",
            "postal_code": "523316",
            "state": "Andhra Pradesh",
            "country_code": "IN"
        },
        "images": [
            {
                "about": "All",
                "link": "https://lh5.googleusercontent.com/p/AF1QipOC8LWPSh5Xzff2xtH5AOsCAMtpz9U9J31X9zw9=w529-h298-k-no"
            }
        ],
        "link": "https://www.google.com/maps/place/Meena+Masjid/data=!4m7!3m6!1s0x3bb53198cd358a33:0xf1db0ff79543c214!8m2!3d15.7451383!4d79.2696921!16s%2Fg%2F11f1rcdf33!19sChIJM4o1zZgxtTsRFMJDlfcP2_E?authuser=0&hl=en&rclk=1",
        "coordinates": {
            "latitude": 15.745138299999999,
            "longitude": 79.2696921
        }
    },
    {
        "name": "MAKKA MASJID",
        "main_category": "Mosque",
        "address": "Ward No, MAKKA MASJID, 10, Vijaya Theatre Rd, Jn Colony, Markapur, Andhra Pradesh 523316",
        "detailed_address": {
            "ward": "Jn Colony, Markapur",
            "street": "Ward No, 10, Vijaya Theatre Rd",
            "city": "Markapur",
            "postal_code": "523316",
            "state": "Andhra Pradesh",
            "country_code": "IN"
        },
        "images": [
            {
                "about": "All",
                "link": "https://lh5.googleusercontent.com/p/AF1QipNO1o7PSU3vFH1BNsDPhql4pG01H0-n6wFSXjSb=w529-h298-k-no"
            }
        ],
        "link": "https://www.google.com/maps/place/MAKKA+MASJID/data=!4m7!3m6!1s0x3bb53198fbef6149:0x7cbe00ce4779cbb2!8m2!3d15.7426867!4d79.2700736!16s%2Fg%2F11gd38yp9y!19sChIJSWHv-5gxtTsRsst5R84Avnw?authuser=0&hl=en&rclk=1",
        "coordinates": {
            "latitude": 15.7426867,
            "longitude": 79.2700736
        }
    },
    {
        "name": "Masjid Auto Nagar Alnabhi",
        "main_category": "Mosque",
        "address": "Q77F+JC6 Masjid Auto Nagar Alnabhi, Auto Nagar, Darimadugu, Auto Nagar, Andhra Pradesh 523329",
        "detailed_address": {
            "ward": "Auto Nagar, Darimadugu",
            "street": "Q77F+JC6",
            "city": "Auto Nagar",
            "postal_code": null,
            "state": "Andhra Pradesh",
            "country_code": "IN"
        },
        "images": [
            {
                "about": "All",
                "link": "https://lh5.googleusercontent.com/p/AF1QipNOAwg3Mvb9ysyyvmZXgLuvCLqlVPHXefmtNU84=w397-h298-k-no"
            },
            {
                "about": "Street View & 360deg",
                "link": "https://streetviewpixels-pa.googleapis.com/v1/thumbnail?panoid=LMEahm_r8iAkFqY6f6WQkQ&cb_client=maps_sv.tactile.gps&w=224&h=298&yaw=287.4746&pitch=0&thumbfov=100"
            },
            {
                "about": "Videos",
                "link": "https://lh5.googleusercontent.com/p/AF1QipN_TRSiYbZ0bC3jcpKsH1fRxbH9SzM99lKaGJw=w224-h398-k-no"
            }
        ],
        "link": "https://www.google.com/maps/place/Masjid+Auto+Nagar+Alnabhi/data=!4m7!3m6!1s0x3bb5316e0b16d24f:0xed88df166dbaf251!8m2!3d15.7640482!4d79.273523!16s%2Fg%2F11f4pc8xs2!19sChIJT9IWC24xtTsRUfK6bRbfiO0?authuser=0&hl=en&rclk=1",
        "coordinates": {
            "latitude": 15.7640482,
            "longitude": 79.273523
        }
    },
    {
        "name": "ayesha Masjid",
        "main_category": "Mosque",
        "address": "P7V8+VQ5 ayesha Masjid, Markapur, Andhra Pradesh 523316",
        "detailed_address": {
            "ward": "Markapur",
            "street": "P7V8+VQ5",
            "city": "Markapur",
            "postal_code": "523316",
            "state": "Andhra Pradesh",
            "country_code": "IN"
        },
        "images": [
            {
                "about": "All",
                "link": "https://lh5.googleusercontent.com/p/AF1QipPYm1SQp41X_YmxWDb7A3QFpHJwrklzQRsQnrMs=w529-h298-k-no"
            }
        ],
        "link": "https://www.google.com/maps/place/ayesha+Masjid/data=!4m7!3m6!1s0x3bb531a204bb350d:0xd1aef54a0f1093dd!8m2!3d15.7446345!4d79.2669838!16s%2Fg%2F11c6076y6_!19sChIJDTW7BKIxtTsR3ZMQD0r1rtE?authuser=0&hl=en&rclk=1",
        "coordinates": {
            "latitude": 15.7446345,
            "longitude": 79.26698379999999
        }
    },
    {
        "name": "Arfath Masid Markapuram",
        "main_category": "Mosque",
        "address": "P7X9+9R4 Arfath Masid Markapuram, Jawahar Nagar Colony, Markapur, Andhra Pradesh 523316",
        "detailed_address": {
            "ward": "Jawahar Nagar Colony",
            "street": "P7X9+9R4",
            "city": "Markapur",
            "postal_code": "523316",
            "state": "Andhra Pradesh",
            "country_code": "IN"
        },
        "images": [
            {
                "about": "All",
                "link": "https://lh5.googleusercontent.com/p/AF1QipOFYNumOClzx68PJOmoN0asoXHPYLKG3XoOoWOG=w224-h497-k-no"
            },
            {
                "about": "Videos",
                "link": "https://lh5.googleusercontent.com/p/AF1QipMLRXO3_V7P27VxXc5ss8CgU7j26AJycUXP70n_=w224-h398-k-no"
            }
        ],
        "link": "https://www.google.com/maps/place/Arfath+Masid+Markapuram/data=!4m7!3m6!1s0x3bb5319fa684659d:0xe69d0aff60c6f56a!8m2!3d15.7483785!4d79.2695741!16s%2Fg%2F11gbxbdtvc!19sChIJnWWEpp8xtTsRavXGYP8KneY?authuser=0&hl=en&rclk=1",
        "coordinates": {
            "latitude": 15.7483785,
            "longitude": 79.2695741
        }
    },
    {
        "name": "Kousar Masjid",
        "main_category": "Mosque",
        "address": "P7C8+H52 Kousar Masjid, PS Nagar, Markapur, Andhra Pradesh 523316",
        "detailed_address": {
            "ward": "PS Nagar",
            "street": "P7C8+H52",
            "city": "Markapur",
            "postal_code": "523316",
            "state": "Andhra Pradesh",
            "country_code": "IN"
        },
        "images": [
            {
                "about": "All",
                "link": "https://lh5.googleusercontent.com/p/AF1QipMb5sqhzm0HhMlD5Y72D-83iW-I2Wx3Od-XyW5L=w397-h298-k-no"
            },
            {
                "about": "Street View & 360deg",
                "link": "https://lh5.googleusercontent.com/p/AF1QipOONhAaLfZDJxNQE4FCG3Bcqo3tyPwIgyPhNK-R=w224-h298-k-no-pi0-ya270-ro-0-fo100"
            },
            {
                "about": "Videos",
                "link": "https://lh5.googleusercontent.com/p/AF1QipOIlfiH-_OJk8TPoJRV_1JOqDPeoEHG64WtHNrZ=w224-h398-k-no"
            }
        ],
        "link": "https://www.google.com/maps/place/Kousar+Masjid/data=!4m7!3m6!1s0x3bb531c22f278ca7:0x4a42c46de101ad2!8m2!3d15.7213874!4d79.2653817!16s%2Fg%2F11gdzng2qd!19sChIJp4wnL8IxtTsR0hoQ3kYspAQ?authuser=0&hl=en&rclk=1",
        "coordinates": {
            "latitude": 15.7213874,
            "longitude": 79.26538169999999
        }
    },
    {
        "name": "Masjid E Quba",
        "main_category": "Mosque",
        "address": "Q7V5+V66 Masjid E Quba, Markapur Mandal, Vijayawada Road, Devaraju Gattu, Andhra Pradesh 523320",
        "detailed_address": {
            "ward": null,
            "street": "Q7V5+V66, Markapur Mandal, Vijayawada Road",
            "city": "Devaraju Gattu, Idupur",
            "postal_code": "523320",
            "state": "Andhra Pradesh",
            "country_code": "IN"
        },
        "images": [
            {
                "about": "All",
                "link": "https://lh5.googleusercontent.com/p/AF1QipOPOYssN5xVAEzMWKCKl3Dm6ppegthv4TTAZBQx=w529-h298-k-no"
            },
            {
                "about": "Street View & 360deg",
                "link": "https://streetviewpixels-pa.googleapis.com/v1/thumbnail?panoid=16r6dVvyPdpKhi02OgrwxA&cb_client=maps_sv.tactile.gps&w=224&h=298&yaw=132.88022&pitch=0&thumbfov=100"
            }
        ],
        "link": "https://www.google.com/maps/place/Masjid+E+Quba/data=!4m7!3m6!1s0x3bb53132edae1a31:0x32c18f0be09157bf!8m2!3d15.7946677!4d79.2580191!16s%2Fg%2F11gfcxchw6!19sChIJMRqu7TIxtTsRv1eR4AuPwTI?authuser=0&hl=en&rclk=1",
        "coordinates": {
            "latitude": 15.7946677,
            "longitude": 79.2580191
        }
    },
    {
        "name": "Choti Masjid",
        "main_category": "Mosque",
        "address": "P7PF+M7R Choti Masjid, Markapur, Andhra Pradesh 523316",
        "detailed_address": {
            "ward": "Markapur",
            "street": "P7PF+M7R",
            "city": "Markapur",
            "postal_code": "523316",
            "state": "Andhra Pradesh",
            "country_code": "IN"
        },
        "images": [
            {
                "about": "All",
                "link": "https://lh5.googleusercontent.com/p/AF1QipM_bhLtDcALj6ImgayvjwevqbP5r_aBdayWJlBK=w596-h298-k-no"
            },
            {
                "about": "Street View & 360deg",
                "link": "https://streetviewpixels-pa.googleapis.com/v1/thumbnail?panoid=DhqBOPUfshHOy9e2V3M0bw&cb_client=maps_sv.tactile.gps&w=224&h=298&yaw=36.34614&pitch=0&thumbfov=100"
            }
        ],
        "link": "https://www.google.com/maps/place/Choti+Masjid/data=!4m7!3m6!1s0x3bb531972b1c4801:0x904c8e32fe4a0b61!8m2!3d15.7367332!4d79.2731431!16s%2Fg%2F11hbpyzqjj!19sChIJAUgcK5cxtTsRYQtK_jKOTJA?authuser=0&hl=en&rclk=1",
        "coordinates": {
            "latitude": 15.7367332,
            "longitude": 79.2731431
        }
    },
    {
        "name": "Maszid",
        "main_category": "Mosque",
        "address": "Q754+5GQ Maszid, Pedda Nagulavaram,, Markapur, Andhra Pradesh",
        "detailed_address": {
            "ward": null,
            "street": "Q754+5GQ, Pedda Nagulavaram,",
            "city": "Markapur",
            "postal_code": null,
            "state": "Andhra Pradesh",
            "country_code": "IN"
        },
        "images": [
            {
                "about": "All",
                "link": "https://lh5.googleusercontent.com/p/AF1QipNpSkj5E-BwtDrz9aBayGDhruSrDnwaRH00Gxpj=w529-h298-k-no"
            },
            {
                "about": "Street View & 360deg",
                "link": "https://streetviewpixels-pa.googleapis.com/v1/thumbnail?panoid=XG8hYitXrnJFfNDPZji_4Q&cb_client=maps_sv.tactile.gps&w=224&h=298&yaw=91.1629&pitch=0&thumbfov=100"
            }
        ],
        "link": "https://www.google.com/maps/place/Maszid/data=!4m7!3m6!1s0x3bb5310589e76181:0x379ad163628cac82!8m2!3d15.7579713!4d79.2563627!16s%2Fg%2F11c2pgt_kt!19sChIJgWHniQUxtTsRgqyMYmPRmjc?authuser=0&hl=en&rclk=1",
        "coordinates": {
            "latitude": 15.7579713,
            "longitude": 79.2563627
        }
    },
    {
        "name": "Jamie masjid",
        "main_category": "Mosque",
        "address": "P7QC+WXF Jamie masjid, Gorlla gadda, Markapur, Andhra Pradesh 523316",
        "detailed_address": {
            "ward": "Gorlla gadda",
            "street": "P7QC+WXF",
            "city": "Markapur",
            "postal_code": "523316",
            "state": "Andhra Pradesh",
            "country_code": "IN"
        },
        "images": [
            {
                "about": "All",
                "link": "https://streetviewpixels-pa.googleapis.com/v1/thumbnail?panoid=w5LS_iFbHiFsjspl80HuNw&cb_client=maps_sv.tactile.gps&w=224&h=298&yaw=169.33488&pitch=0&thumbfov=100"
            },
            {
                "about": "Street View & 360deg",
                "link": "https://streetviewpixels-pa.googleapis.com/v1/thumbnail?panoid=w5LS_iFbHiFsjspl80HuNw&cb_client=maps_sv.tactile.gps&w=224&h=298&yaw=169.33488&pitch=0&thumbfov=100"
            }
        ],
        "link": "https://www.google.com/maps/place/Jamie+masjid/data=!4m7!3m6!1s0x3bb53199e37646ad:0x7b92a5aaca7247df!8m2!3d15.7398015!4d79.2724299!16s%2Fg%2F11c5_45vx6!19sChIJrUZ245kxtTsR30dyyqqlkns?authuser=0&hl=en&rclk=1",
        "coordinates": {
            "latitude": 15.739801499999999,
            "longitude": 79.27242989999999
        }
    },
    {
        "name": "Masjid-a ANSAAR",
        "main_category": "Mosque",
        "address": "P7XG+3HX Masjid-a ANSAAR, Svkp college Road, Jawahar Nagar Colony, Markapur, Andhra Pradesh 523316",
        "detailed_address": {
            "ward": "Jawahar Nagar Colony",
            "street": "P7XG+3HX, Svkp college Road",
            "city": "Markapur",
            "postal_code": "523316",
            "state": "Andhra Pradesh",
            "country_code": "IN"
        },
        "images": [
            {
                "about": "All",
                "link": "https://lh5.googleusercontent.com/p/AF1QipMvsy6i5JwiFI8dtr0wLBuHO0naAEiHlJFnLVhB=w397-h298-k-no"
            }
        ],
        "link": "https://www.google.com/maps/place/Masjid-a+ANSAAR/data=!4m7!3m6!1s0x3bb5318d002d747b:0x4d7c2a41a7be5c5e!8m2!3d15.747726!4d79.27647!16s%2Fg%2F11ffv1j_27!19sChIJe3QtAI0xtTsRXly-p0EqfE0?authuser=0&hl=en&rclk=1",
        "coordinates": {
            "latitude": 15.747726,
            "longitude": 79.27647
        }
    },
    {
        "name": "Nonrani masjid",
        "main_category": "Religious institution",
        "address": "Q79H+7V5 Nonrani masjid, Darimadugu, Andhra Pradesh 523320",
        "detailed_address": {
            "ward": null,
            "street": "Q79H+7V5",
            "city": "Darimadugu",
            "postal_code": null,
            "state": "Andhra Pradesh",
            "country_code": "IN"
        },
        "images": [
            {
                "about": "All",
                "link": "https://lh5.googleusercontent.com/p/AF1QipOxvge35kk6eiZVn2vq8pCwkwe4rK0qXSC-8wv6=w529-h298-k-no"
            }
        ],
        "link": "https://www.google.com/maps/place/Nonrani+masjid/data=!4m7!3m6!1s0x3bb53187fafd61dd:0x6c273d43dd354aad!8m2!3d15.7681269!4d79.2797209!16s%2Fg%2F11h7_m87g6!19sChIJ3WH9-ocxtTsRrUo13UM9J2w?authuser=0&hl=en&rclk=1",
        "coordinates": {
            "latitude": 15.768126899999999,
            "longitude": 79.2797209
        }
    },
    {
        "name": "MASJID- E- ABUBAKAR SIDDIQ",
        "main_category": "Mosque",
        "address": "P7G8+GPM MASJID- E- ABUBAKAR SIDDIQ, Unnamed Road, Vidya Nagar, Markapur, Andhra Pradesh 523316",
        "detailed_address": {
            "ward": "Vidya Nagar",
            "street": "P7G8+GPM, Unnamed Road",
            "city": "Markapur",
            "postal_code": "523316",
            "state": "Andhra Pradesh",
            "country_code": "IN"
        },
        "images": [],
        "link": "https://www.google.com/maps/place/MASJID-+E-+ABUBAKAR+SIDDIQ/data=!4m7!3m6!1s0x3bb5317c92dffbd1:0xc60845236378c845!8m2!3d15.7263309!4d79.2667914!16s%2Fg%2F11frslvr9n!19sChIJ0fvfknwxtTsRRch4YyNFCMY?authuser=0&hl=en&rclk=1",
        "coordinates": {
            "latitude": 15.726330899999999,
            "longitude": 79.2667914
        }
    },
    {
        "name": "Masjid-e-Gaffariya",
        "main_category": "Mosque",
        "address": "P7CR+8R Masjid-e-Gaffariya, Markapur, Andhra Pradesh 523316",
        "detailed_address": {
            "ward": null,
            "street": "P7CR+8R",
            "city": "Markapur",
            "postal_code": null,
            "state": "Andhra Pradesh",
            "country_code": "IN"
        },
        "images": [
            {
                "about": "All",
                "link": "https://lh5.googleusercontent.com/p/AF1QipPdcx3BQDEwk5i5z51Uvf9SHIjRRv9oVmOjYjL0=w224-h398-k-no"
            }
        ],
        "link": "https://www.google.com/maps/place/Masjid-e-Gaffariya/data=!4m7!3m6!1s0x3bb53384160cc65f:0x43a9be6065106d42!8m2!3d15.7208349!4d79.2920633!16s%2Fg%2F11tbwyltqf!19sChIJX8YMFoQztTsRQm0QZWC-qUM?authuser=0&hl=en&rclk=1",
        "coordinates": {
            "latitude": 15.7208349,
            "longitude": 79.2920633
        }
    },
    {
        "name": "Raziya Sulthana Majid (Khabarsthan Mazid),Markapur",
        "main_category": "Mosque",
        "address": "P7Q7+44X Raziya Sulthana Majid (Khabarsthan Mazid),Markapur, Beside Khabarsthan, Cumbum Road, dt, Markapur, Andhra Pradesh 523316",
        "detailed_address": {
            "ward": "Shivaji Nagar",
            "street": "P7Q7+44X, Beside Khabarsthan, Cumbum Road, dt",
            "city": "Markapur",
            "postal_code": "523316",
            "state": "Andhra Pradesh",
            "country_code": "IN"
        },
        "images": [
            {
                "about": "All",
                "link": "https://lh5.googleusercontent.com/p/AF1QipOZwqwH6S7cIObua81iOf7_IQDBHMklqxdwYy_b=w224-h484-k-no"
            }
        ],
        "link": "https://www.google.com/maps/place/Raziya+Sulthana+Majid+%28Khabarsthan+Mazid%29,Markapur/data=!4m7!3m6!1s0x3bb53101d60664eb:0xe542580610f53c81!8m2!3d15.737852!4d79.2628709!16s%2Fg%2F11t0rd1130!19sChIJ62QG1gExtTsRgTz1EAZYQuU?authuser=0&hl=en&rclk=1",
        "coordinates": {
            "latitude": 15.737852,
            "longitude": 79.2628709
        }
    },
    {
        "name": "A1 Global masjid",
        "main_category": "Mosque",
        "address": "Q7F9+MWP A1 Global masjid, Unnamed Road, Idupur, Andhra Pradesh 523329",
        "detailed_address": {
            "ward": null,
            "street": "Q7F9+MWP, Unnamed Road",
            "city": "Idupur",
            "postal_code": "523329",
            "state": "Andhra Pradesh",
            "country_code": "IN"
        },
        "images": [],
        "link": "https://www.google.com/maps/place/A1+Global+masjid/data=!4m7!3m6!1s0x3bb531900800a64f:0xe70e185b9e7d3f8!8m2!3d15.7742033!4d79.2698337!16s%2Fg%2F11mwjg6cnj!19sChIJT6YACJAxtTsR-NPnuYXhcA4?authuser=0&hl=en&rclk=1",
        "coordinates": {
            "latitude": 15.7742033,
            "longitude": 79.26983369999999
        }
    },
    {
        "name": "Masjid e Abuzar R, A,",
        "main_category": "Mosque",
        "address": "P7QC+284 Masjid e Abuzar R, A,, Markapur, Andhra Pradesh 523316",
        "detailed_address": {
            "ward": "Markapur",
            "street": "P7QC+284",
            "city": "Markapur",
            "postal_code": "523316",
            "state": "Andhra Pradesh",
            "country_code": "IN"
        },
        "images": [],
        "link": "https://www.google.com/maps/place/Masjid+e+Abuzar+R,+A,/data=!4m7!3m6!1s0x3bb531353f9841d5:0xb5a50ccd26d4c5e7!8m2!3d15.7375213!4d79.2708126!16s%2Fg%2F11m246m6_d!19sChIJ1UGYPzUxtTsR58XUJs0MpbU?authuser=0&hl=en&rclk=1",
        "coordinates": {
            "latitude": 15.7375213,
            "longitude": 79.2708126
        }
    },
    {
        "name": "MASJID ISLAMPET",
        "main_category": "Mosque",
        "address": "P7P8+PRX MASJID ISLAMPET, Ganesh Nagar, Markapur, Andhra Pradesh 523316",
        "detailed_address": {
            "ward": "Ganesh Nagar",
            "street": "P7P8+PRX",
            "city": "Markapur",
            "postal_code": "523316",
            "state": "Andhra Pradesh",
            "country_code": "IN"
        },
        "images": [
            {
                "about": "All",
                "link": "https://lh5.googleusercontent.com/p/AF1QipMHR5IwJozIHA7FyATxhn1hkcIhqPBNtfKtQtpF=w529-h298-k-no"
            },
            {
                "about": "Street View & 360deg",
                "link": "https://streetviewpixels-pa.googleapis.com/v1/thumbnail?panoid=K9GJpzocT8r_BLVyLvTIkw&cb_client=maps_sv.tactile.gps&w=224&h=298&yaw=201.65463&pitch=0&thumbfov=100"
            }
        ],
        "link": "https://www.google.com/maps/place/MASJID+ISLAMPET/data=!4m7!3m6!1s0x3bb5319ffe018d15:0x292198e96daccad7!8m2!3d15.7368554!4d79.2671124!16s%2Fg%2F11l3616h48!19sChIJFY0B_p8xtTsR18qsbemYISk?authuser=0&hl=en&rclk=1",
        "coordinates": {
            "latitude": 15.7368554,
            "longitude": 79.2671124
        }
    },
    {
        "name": "MASJID NOORANI",
        "main_category": "Mosque",
        "address": "MASJID NOORANI, Police Quarters Area, 1/144 D, Vidya Nagar, Markapur, Andhra Pradesh 523316",
        "detailed_address": {
            "ward": "Vidya Nagar",
            "street": "Police Quarters Area, 1/144 D",
            "city": "Markapur",
            "postal_code": "523316",
            "state": "Andhra Pradesh",
            "country_code": "IN"
        },
        "images": [
            {
                "about": "All",
                "link": "https://lh5.googleusercontent.com/p/AF1QipPsnAslzjMkbCGeBTArAyro8ahnGnnuYB7D8Imx=w224-h398-k-no"
            },
            {
                "about": "Latest",
                "link": "https://lh5.googleusercontent.com/p/AF1QipNnNYSm1QgsM4rSyre_BzFu8VixRgAu5SUOkLtb=w224-h398-k-no"
            }
        ],
        "link": "https://www.google.com/maps/place/MASJID+NOORANI/data=!4m7!3m6!1s0x3bb5315c317d3f71:0x928b62cdd8f3394a!8m2!3d15.7328048!4d79.2702255!16s%2Fg%2F11l360g7vz!19sChIJcT99MVwxtTsRSjnz2M1ii5I?authuser=0&hl=en&rclk=1",
        "coordinates": {
            "latitude": 15.732804799999998,
            "longitude": 79.2702255
        }
    },
    {
        "name": "Darimadugu masjid",
        "main_category": "Mosque",
        "address": "Q79H+FC4 Darimadugu masjid, Darimadugu - Cumbampadu Rd, Markapur, Idupur, Andhra Pradesh 523320",
        "detailed_address": {
            "ward": null,
            "street": "Q79H+FC4, Darimadugu - Cumbampadu Rd",
            "city": "Markapur, Idupur",
            "postal_code": null,
            "state": "Andhra Pradesh",
            "country_code": "IN"
        },
        "images": [
            {
                "about": "All",
                "link": "https://lh5.googleusercontent.com/p/AF1QipP14KKHYofJfR0DkcEeqEZb9UomQtwNjpLCb_da=w529-h298-k-no"
            },
            {
                "about": "Latest",
                "link": "https://lh5.googleusercontent.com/p/AF1QipMaJzM2WywA40m4Haks7udTdUx2i9CGnHsZOuXq=w297-h298-k-no"
            },
            {
                "about": "Dome",
                "link": "https://lh5.googleusercontent.com/p/AF1QipP14KKHYofJfR0DkcEeqEZb9UomQtwNjpLCb_da=w529-h298-k-no"
            }
        ],
        "link": "https://www.google.com/maps/place/Darimadugu+masjid/data=!4m7!3m6!1s0x3bb53197a19dce6d:0xcdcafc0a04f6177!8m2!3d15.7686473!4d79.2785672!16s%2Fg%2F11vcs9d4xq!19sChIJbc6doZcxtTsRd2FPoMCv3Aw?authuser=0&hl=en&rclk=1",
        "coordinates": {
            "latitude": 15.7686473,
            "longitude": 79.2785672
        }
    },
    {
        "name": "Al-Momin-Kabrestan",
        "main_category": "Mosque",
        "address": "P7Q6+2XR Al-Momin-Kabrestan, Shivaji Nagar, Markapur, Andhra Pradesh 523316",
        "detailed_address": {
            "ward": "Shivaji Nagar",
            "street": "P7Q6+2XR",
            "city": "Markapur",
            "postal_code": "523316",
            "state": "Andhra Pradesh",
            "country_code": "IN"
        },
        "images": [],
        "link": "https://www.google.com/maps/place/Al-Momin-Kabrestan/data=!4m7!3m6!1s0x3bb531376a88ea71:0x89819fed4b858d8f!8m2!3d15.737621!4d79.2624022!16s%2Fg%2F11mvglk8wk!19sChIJceqIajcxtTsRj42FS-2fgYk?authuser=0&hl=en&rclk=1",
        "coordinates": {
            "latitude": 15.737620999999999,
            "longitude": 79.2624022
        }
    },
    {
        "name": "Colony Masjid",
        "main_category": "Mosque",
        "address": "Q77G+3P5 Colony Masjid, Auto Nagar, Andhra Pradesh 523329",
        "detailed_address": {
            "ward": null,
            "street": "Q77G+3P5",
            "city": "Auto Nagar",
            "postal_code": "523329",
            "state": "Andhra Pradesh",
            "country_code": "IN"
        },
        "images": [],
        "link": "https://www.google.com/maps/place/Colony+Masjid/data=!4m7!3m6!1s0x3bb5318e9294b1ef:0x79e2f0a34e27b960!8m2!3d15.7626317!4d79.2768571!16s%2Fg%2F11tfdj4qkh!19sChIJ77GUko4xtTsRYLknTqPw4nk?authuser=0&hl=en&rclk=1",
        "coordinates": {
            "latitude": 15.7626317,
            "longitude": 79.2768571
        }
    },
    {
        "name": "Arfath masjid",
        "main_category": "Event planner",
        "address": "Arfath masjid, Ganesh Nagar, Markapur, Andhra Pradesh 523316",
        "detailed_address": {
            "ward": "Ganesh Nagar",
            "street": "Arfath masjid",
            "city": "Markapur",
            "postal_code": null,
            "state": "Andhra Pradesh",
            "country_code": "IN"
        },
        "images": [
            {
                "about": "All",
                "link": "https://streetviewpixels-pa.googleapis.com/v1/thumbnail?panoid=MKvucvT99sWU7eFApXBTQQ&cb_client=maps_sv.tactile.gps&w=224&h=298&yaw=305.71158&pitch=0&thumbfov=100"
            },
            {
                "about": "Street View & 360deg",
                "link": "https://streetviewpixels-pa.googleapis.com/v1/thumbnail?panoid=MKvucvT99sWU7eFApXBTQQ&cb_client=maps_sv.tactile.gps&w=224&h=298&yaw=305.71158&pitch=0&thumbfov=100"
            }
        ],
        "link": "https://www.google.com/maps/place/Arfath+masjid/data=!4m7!3m6!1s0x3bb5319ed416318f:0x7dc5ae0f8e9e0a87!8m2!3d15.7361758!4d79.2690898!16s%2Fg%2F11tf6pylvg!19sChIJjzEW1J4xtTsRhwqejg-uxX0?authuser=0&hl=en&rclk=1",
        "coordinates": {
            "latitude": 15.7361758,
            "longitude": 79.2690898
        }
    }
]