[
    {
        "name": "Razaa Jama Maszid",
        "main_category": "Mosque",
        "address": "J25G+FCX Razaa Jama Maszid, Block A, Bharat Vihar, Kakrola, Delhi, 110078",
        "detailed_address": {
            "ward": "Block A, Bharat Vihar, Kakrola",
            "street": "J25G+FCX",
            "city": "Delhi",
            "postal_code": "110078",
            "state": "Delhi",
            "country_code": "IN"
        },
        "images": [
            {
                "about": "All",
                "link": "https://lh5.googleusercontent.com/p/AF1QipOKA_UEfg_zasLfLBAm3be5MTLt9lC7FaLfdN5Z=w397-h298-k-no"
            },
            {
                "about": "Street View & 360deg",
                "link": "https://streetviewpixels-pa.googleapis.com/v1/thumbnail?panoid=q7imdjnU2zOopAstPI446w&cb_client=maps_sv.tactile.gps&w=224&h=298&yaw=229.55396&pitch=0&thumbfov=100"
            }
        ],
        "link": "https://www.google.com/maps/place/Razaa+Jama+Maszid/data=!4m7!3m6!1s0x390d054c425f6e01:0x613dccf8819f2c00!8m2!3d28.6087288!4d77.0261155!16s%2Fg%2F11c57m3802!19sChIJAW5fQkwFDTkRACyfgfjMPWE?authuser=0&hl=en&rclk=1",
        "coordinates": {
            "latitude": 28.608728799999998,
            "longitude": 77.0261155
        }
    },
    {
        "name": "Sunni Shahi Masjid",
        "main_category": "Mosque",
        "address": "Sunni Shahi Masjid, Attar Ln, Khwaja Gharib Nawaz Colony, Ojhar, Maharashtra 422206",
        "detailed_address": {
            "ward": "Khwaja Gharib Nawaz Colony",
            "street": "Attar Ln",
            "city": "Ojhar",
            "postal_code": "422206",
            "state": "Maharashtra",
            "country_code": "IN"
        },
        "images": [
            {
                "about": "All",
                "link": "https://lh5.googleusercontent.com/p/AF1QipP0pFrCtloXCnNZAm60Zavm2a3pfux7En894JMB=w224-h298-k-no"
            },
            {
                "about": "Dome",
                "link": "https://lh5.googleusercontent.com/p/AF1QipMqgYz3taAn93z8kMZ51b7khhyEovdbjgXWWl68=w224-h298-k-no"
            },
            {
                "about": "By owner",
                "link": "https://lh5.googleusercontent.com/p/AF1QipP0pFrCtloXCnNZAm60Zavm2a3pfux7En894JMB=w224-h298-k-no"
            },
            {
                "about": "Street View & 360deg",
                "link": "https://streetviewpixels-pa.googleapis.com/v1/thumbnail?panoid=2wdkFz7lXQRPQTN-tIcckg&cb_client=maps_sv.tactile.gps&w=224&h=298&yaw=31.995731&pitch=0&thumbfov=100"
            }
        ],
        "link": "https://www.google.com/maps/place/Sunni+Shahi+Masjid/data=!4m7!3m6!1s0x3bddc38f59321255:0x81f0c72203a57c9d!8m2!3d20.0948576!4d73.9289759!16s%2Fg%2F1ttdlfz5!19sChIJVRIyWY_D3TsRnXylAyLH8IE?authuser=0&hl=en&rclk=1",
        "coordinates": {
            "latitude": 20.094857599999997,
            "longitude": 73.9289759
        }
    },
    {
        "name": "Aqsha Masjid",
        "main_category": "Mosque",
        "address": "6X6Q+4W2 Aqsha Masjid, Raheri, Haryana 122103",
        "detailed_address": {
            "ward": null,
            "street": "6X6Q+4W2",
            "city": "Raheri",
            "postal_code": "122103",
            "state": "Haryana",
            "country_code": "IN"
        },
        "images": [
            {
                "about": "All",
                "link": "https://lh5.googleusercontent.com/p/AF1QipPvM-0djREzu5X_hztX_x1dFSkd96-PDVS6sl-W=w397-h298-k-no"
            }
        ],
        "link": "https://www.google.com/maps/place/Aqsha+Masjid/data=!4m7!3m6!1s0x390d303fc96dc523:0x7de38ec6173f5970!8m2!3d28.2102553!4d76.9897513!16s%2Fg%2F11gfdspw5h!19sChIJI8VtyT8wDTkRcFk_F8aO430?authuser=0&hl=en&rclk=1",
        "coordinates": {
            "latitude": 28.2102553,
            "longitude": 76.9897513
        }
    },
    {
        "name": "Masjid e umar",
        "main_category": "Mosque",
        "address": "M386+XJC Masjid e umar, Peer Baba Rd, Block C, Kamruddin Nagar, Delhi, 110041",
        "detailed_address": {
            "ward": "Block C, Kamruddin Nagar",
            "street": "M386+XJC, Peer Baba Rd",
            "city": "Delhi",
            "postal_code": "110041",
            "state": "Delhi",
            "country_code": "IN"
        },
        "images": [
            {
                "about": "All",
                "link": "https://streetviewpixels-pa.googleapis.com/v1/thumbnail?panoid=qaPFLh3RUUhGp0rbvjxW1Q&cb_client=maps_sv.tactile.gps&w=224&h=298&yaw=357.83536&pitch=0&thumbfov=100"
            },
            {
                "about": "Street View & 360deg",
                "link": "https://streetviewpixels-pa.googleapis.com/v1/thumbnail?panoid=qaPFLh3RUUhGp0rbvjxW1Q&cb_client=maps_sv.tactile.gps&w=224&h=298&yaw=357.83536&pitch=0&thumbfov=100"
            }
        ],
        "link": "https://www.google.com/maps/place/Masjid+e+umar/data=!4m7!3m6!1s0x390d05173408e429:0xa967bf9a5ce35560!8m2!3d28.6674328!4d77.0615213!16s%2Fg%2F11jsztfkmf!19sChIJKeQINBcFDTkRYFXjXJq_Z6k?authuser=0&hl=en&rclk=1",
        "coordinates": {
            "latitude": 28.6674328,
            "longitude": 77.0615213
        }
    },
    {
        "name": "Madina Masjid",
        "main_category": "Mosque",
        "address": "R6C8+2WR Madina Masjid, Ozar, Madhya Pradesh 451449",
        "detailed_address": {
            "ward": null,
            "street": "R6C8+2WR",
            "city": "Ozar",
            "postal_code": "451449",
            "state": "Madhya Pradesh",
            "country_code": "IN"
        },
        "images": [],
        "link": "https://www.google.com/maps/place/Madina+Masjid/data=!4m7!3m6!1s0x3bd8a4443d8c851b:0x1c5d791854ffa42f!8m2!3d21.8201037!4d75.2172508!16s%2Fg%2F11g9vts_jm!19sChIJG4WMPUSk2DsRL6T_VBh5XRw?authuser=0&hl=en&rclk=1",
        "coordinates": {
            "latitude": 21.8201037,
            "longitude": 75.2172508
        }
    },
    {
        "name": "iilhaami msjid",
        "main_category": "Mosque",
        "address": "3rd B, iilhaami msjid, 216, Mansa Mandir Road No. 30, near Khan Builder, Block Y, Kirari Suleman Nagar Village, Sultanpuri, New Delhi, Delhi, 110086",
        "detailed_address": {
            "ward": "Block Y, Kirari Suleman Nagar Village, Sultanpuri",
            "street": "3rd B, 216, Mansa Mandir Road No. 30, near Khan Builder",
            "city": "New Delhi, Delhi",
            "postal_code": "110086",
            "state": "Delhi",
            "country_code": "IN"
        },
        "images": [
            {
                "about": "All",
                "link": "https://streetviewpixels-pa.googleapis.com/v1/thumbnail?panoid=JqjbEWXEJAfnGtf8CBQLRQ&cb_client=maps_sv.tactile.gps&w=224&h=298&yaw=34.943684&pitch=0&thumbfov=100"
            },
            {
                "about": "Street View & 360deg",
                "link": "https://streetviewpixels-pa.googleapis.com/v1/thumbnail?panoid=JqjbEWXEJAfnGtf8CBQLRQ&cb_client=maps_sv.tactile.gps&w=224&h=298&yaw=34.943684&pitch=0&thumbfov=100"
            }
        ],
        "link": "https://www.google.com/maps/place/%E0%A4%88%E0%A4%B2%E0%A4%B9%E0%A4%BE%E0%A4%AE%E0%A4%BF+%E0%A4%AE%E0%A4%B8%E0%A5%8D%E0%A4%9C%E0%A4%BF%E0%A4%A6/data=!4m7!3m6!1s0x390d050883950109:0x5a59585660de2d19!8m2!3d28.6979831!4d77.0513459!16s%2Fg%2F11rn7c569l!19sChIJCQGVgwgFDTkRGS3eYFZYWVo?authuser=0&hl=en&rclk=1",
        "coordinates": {
            "latitude": 28.6979831,
            "longitude": 77.0513459
        }
    },
    {
        "name": "Ozar Jama Masjid",
        "main_category": "Mosque",
        "address": "PJMP+M9H Ozar Jama Masjid, Ozar, Maharashtra 416705",
        "detailed_address": {
            "ward": null,
            "street": "PJMP+M9H",
            "city": "Ozar",
            "postal_code": "416705",
            "state": "Maharashtra",
            "country_code": "IN"
        },
        "images": [
            {
                "about": "All",
                "link": "https://lh5.googleusercontent.com/p/AF1QipPIV4P8VmmN27ZDI0aNieHe_PhbCxZBT-VFGP0=w397-h298-k-no"
            }
        ],
        "link": "https://www.google.com/maps/place/Ozar+Jama+Masjid/data=!4m7!3m6!1s0x3bc1d10f279f578b:0xe108d462a0421012!8m2!3d16.7341796!4d73.6359968!16s%2Fg%2F11fpjn2sxf!19sChIJi1efJw_RwTsREhBCoGLUCOE?authuser=0&hl=en&rclk=1",
        "coordinates": {
            "latitude": 16.7341796,
            "longitude": 73.6359968
        }
    },
    {
        "name": "Ozar Masjid",
        "main_category": "Mosque",
        "address": "PJMR+8P8 Ozar Masjid, Ozar, Kolwankhadi, Maharashtra 416705",
        "detailed_address": {
            "ward": null,
            "street": "PJMR+8P8",
            "city": "Ozar, Kolwankhadi",
            "postal_code": "416705",
            "state": "Maharashtra",
            "country_code": "IN"
        },
        "images": [],
        "link": "https://www.google.com/maps/place/Ozar+Masjid/data=!4m7!3m6!1s0x3bc1d1cef35b0493:0x3a24f7c5671c3da3!8m2!3d16.7332957!4d73.6418311!16s%2Fg%2F11h_bx524c!19sChIJkwRb887RwTsRoz0cZ8X3JDo?authuser=0&hl=en&rclk=1",
        "coordinates": {
            "latitude": 16.7332957,
            "longitude": 73.64183109999999
        }
    },
    {
        "name": "Masjid",
        "main_category": "Mosque",
        "address": "Masjid, L385, Block L, JJ Colony No 3, Nangloi, New Delhi, Delhi, 110041",
        "detailed_address": {
            "ward": "Block L, JJ Colony No 3, Nangloi",
            "street": "L385",
            "city": "New Delhi, Delhi",
            "postal_code": "110041",
            "state": "Delhi",
            "country_code": "IN"
        },
        "images": [],
        "link": "https://www.google.com/maps/place/Masjid/data=!4m7!3m6!1s0x390d0530462f99ad:0xf47aa8290ce093fa!8m2!3d28.6842352!4d77.0742041!16s%2Fg%2F11smtj7p27!19sChIJrZkvRjAFDTkR-pPgDCmoevQ?authuser=0&hl=en&rclk=1",
        "coordinates": {
            "latitude": 28.6842352,
            "longitude": 77.0742041
        }
    },
    {
        "name": "Jaama Masjid Ozar",
        "main_category": "Mosque",
        "address": "Jaama Masjid Ozar, Muslimwadi Ozar, Sai Nagar, Rajapur, Maharashtra 416702",
        "detailed_address": {
            "ward": "Sai Nagar",
            "street": "Muslimwadi Ozar",
            "city": "Rajapur",
            "postal_code": null,
            "state": "Maharashtra",
            "country_code": "IN"
        },
        "images": [
            {
                "about": "All",
                "link": "https://lh5.googleusercontent.com/p/AF1QipOxuPT0kFrcgmxhfvOF9rzxqJW6nZZU1JN2R4ZZ=w629-h298-k-no"
            }
        ],
        "link": "https://www.google.com/maps/place/Jaama+Masjid+Ozar/data=!4m7!3m6!1s0x3bc1d5e47d49164f:0x91475a4d4d2d120!8m2!3d16.6571252!4d73.5211286!16s%2Fg%2F11h8kw1_8y!19sChIJTxZJfeTVwTsRINHS1KR1FAk?authuser=0&hl=en&rclk=1",
        "coordinates": {
            "latitude": 16.6571252,
            "longitude": 73.5211286
        }
    },
    {
        "name": "Haji Razmal aksha Masjid",
        "main_category": "Mosque",
        "address": "6X6Q+5V2 Haji Razmal aksha Masjid, Unnamed Road, Raheri, Haryana 122103",
        "detailed_address": {
            "ward": null,
            "street": "6X6Q+5V2, Unnamed Road",
            "city": "Raheri",
            "postal_code": "122103",
            "state": "Haryana",
            "country_code": "IN"
        },
        "images": [],
        "link": "https://www.google.com/maps/place/Haji+Razmal+aksha+Masjid/data=!4m7!3m6!1s0x390d318c4c3360ff:0xd3d8d809e0dc6a9d!8m2!3d28.2103828!4d76.9896316!16s%2Fg%2F11n8wq4w0m!19sChIJ_2AzTIwxDTkRnWrc4AnY2NM?authuser=0&hl=en&rclk=1",
        "coordinates": {
            "latitude": 28.210382799999998,
            "longitude": 76.9896316
        }
    }
]