[
    {
        "name": "Madina Masjid",
        "main_category": "Mosque",
        "address": "Madina Masjid, 207, Ramsahay Marg, Prakash Nagar Colony, Nagda, Madhya Pradesh 456335",
        "detailed_address": {
            "ward": "Prakash Nagar Colony",
            "street": "207, Ramsahay Marg",
            "city": "Nagda",
            "postal_code": "456335",
            "state": "Madhya Pradesh",
            "country_code": "IN"
        },
        "images": [
            {
                "about": "All",
                "link": "https://lh5.googleusercontent.com/p/AF1QipNauF5HFy47b8LzePRbslZLztcBkE1WVurKwQXf=w224-h398-k-no"
            },
            {
                "about": "Videos",
                "link": "https://lh5.googleusercontent.com/p/AF1QipMOSffjXPnQ-M5Ux6kI-UBRpBIUqSKXjwiY34Ch=w224-h398-k-no"
            }
        ],
        "link": "https://www.google.com/maps/place/Madina+Masjid/data=!4m7!3m6!1s0x396475f6e51bc8a5:0x307f27e5dc8e4c48!8m2!3d23.4552474!4d75.4193711!16s%2Fg%2F11bwp230bh!19sChIJpcgb5fZ1ZDkRSEyO3OUnfzA?authuser=0&hl=en&rclk=1",
        "coordinates": {
            "latitude": 23.455247399999998,
            "longitude": 75.41937109999999
        }
    },
    {
        "name": "Jama Masjid",
        "main_category": "Mosque",
        "address": "Jama Masjid, Mirchi bazar, Janmejay Marg, Kilkipura Juna, Nagda, Madhya Pradesh 456335",
        "detailed_address": {
            "ward": "Kilkipura Juna",
            "street": "Mirchi bazar, Janmejay Marg",
            "city": "Nagda",
            "postal_code": "456335",
            "state": "Madhya Pradesh",
            "country_code": "IN"
        },
        "images": [
            {
                "about": "All",
                "link": "https://lh5.googleusercontent.com/p/AF1QipOVjAs6lK-MdogMv6v7DeSsmPs8MmydEg8JAeHy=w224-h497-k-no"
            },
            {
                "about": "Dome",
                "link": "https://lh5.googleusercontent.com/p/AF1QipN8U9QxvwoNPZnXoGsYOpxGxqvi3AX15uFl_sjI=w224-h407-k-no"
            },
            {
                "about": "Videos",
                "link": "https://lh5.googleusercontent.com/p/AF1QipOjK6l9unYjcwxkJUrvHU2OMFWnQa372DpCqQsC=w224-h398-k-no"
            }
        ],
        "link": "https://www.google.com/maps/place/Jama+Masjid/data=!4m7!3m6!1s0x396475f31ac6c027:0x6a1046578fcde1d7!8m2!3d23.4590262!4d75.4133012!16s%2Fg%2F11c56b7g5_!19sChIJJ8DGGvN1ZDkR1-HNj1dGEGo?authuser=0&hl=en&rclk=1",
        "coordinates": {
            "latitude": 23.4590262,
            "longitude": 75.41330119999999
        }
    },
    {
        "name": "Eidgah Masjid",
        "main_category": "Mosque",
        "address": "FC65+PPH Eidgah Masjid, Ramsahay Marg, Chambal Sagar colony, Nagda, Madhya Pradesh 456335",
        "detailed_address": {
            "ward": "Chambal Sagar colony",
            "street": "FC65+PPH, Ramsahay Marg",
            "city": "Nagda",
            "postal_code": "456335",
            "state": "Madhya Pradesh",
            "country_code": "IN"
        },
        "images": [
            {
                "about": "All",
                "link": "https://lh5.googleusercontent.com/p/AF1QipMZoLItCOvJtajGLGW2Cfy3he7WIvpbZl1EYXA3=w397-h298-k-no"
            },
            {
                "about": "Dome",
                "link": "https://lh5.googleusercontent.com/p/AF1QipPqtspE7n1yLSjq9lx-wFtP6KnZm1Kexn0PZa6I=w224-h298-k-no"
            }
        ],
        "link": "https://www.google.com/maps/place/Eidgah+Masjid/data=!4m7!3m6!1s0x396475966bbce87b:0x9613ef508a8e2!8m2!3d23.4618005!4d75.4093657!16s%2Fg%2F11l1v15dgr!19sChIJe-i8a5Z1ZDkR4qgI9T5hCQA?authuser=0&hl=en&rclk=1",
        "coordinates": {
            "latitude": 23.4618005,
            "longitude": 75.4093657
        }
    },
    {
        "name": "Hussaini Imaam Bada",
        "main_category": "Mosque",
        "address": "FC66+96P Hussaini Imaam Bada, Chambal Sagar colony, Nagda, Madhya Pradesh 456335",
        "detailed_address": {
            "ward": "Chambal Sagar colony",
            "street": "FC66+96P",
            "city": "Nagda",
            "postal_code": "456335",
            "state": "Madhya Pradesh",
            "country_code": "IN"
        },
        "images": [
            {
                "about": "All",
                "link": "https://lh5.googleusercontent.com/p/AF1QipOi5VXMVbs2_6jKESARKBjZe_2KtnyJPeN1DASJ=w224-h473-k-no"
            },
            {
                "about": "Videos",
                "link": "https://lh5.googleusercontent.com/p/AF1QipMQ704DIBkT1S5lDLC0zQG--m7JHQPUWNSYdPcL=w529-h298-k-no"
            }
        ],
        "link": "https://www.google.com/maps/place/Hussaini+Imaam+Bada/data=!4m7!3m6!1s0x3964758d4845e1e9:0x178c2fd9e4be856d!8m2!3d23.4609538!4d75.4105715!16s%2Fg%2F11gbxc14k8!19sChIJ6eFFSI11ZDkRbYW-5NkvjBc?authuser=0&hl=en&rclk=1",
        "coordinates": {
            "latitude": 23.4609538,
            "longitude": 75.4105715
        }
    },
    {
        "name": "Gulshan E Islam Masjid",
        "main_category": "Mosque",
        "address": "FC4F+332 Gulshan E Islam Masjid, Dayanand Colony, Nagda, Madhya Pradesh 456335",
        "detailed_address": {
            "ward": "Dayanand Colony",
            "street": "FC4F+332",
            "city": "Nagda",
            "postal_code": "456335",
            "state": "Madhya Pradesh",
            "country_code": "IN"
        },
        "images": [
            {
                "about": "All",
                "link": "https://lh5.googleusercontent.com/p/AF1QipOD9i0lSbb4_Eoi4qApce8zHn8aO2d3Wewc7UTJ=w224-h298-k-no"
            },
            {
                "about": "Videos",
                "link": "https://lh5.googleusercontent.com/p/AF1QipMEQmDs6at4u2VyrJPuqQq9CyPZD8UPaQd5QcCC=w224-h398-k-no"
            }
        ],
        "link": "https://www.google.com/maps/place/Gulshan+E+Islam+Masjid/data=!4m7!3m6!1s0x396475f77db59be1:0xb386d8feec1585d1!8m2!3d23.4551375!4d75.4226364!16s%2Fg%2F11fzf2hbtv!19sChIJ4Zu1ffd1ZDkR0YUV7P7YhrM?authuser=0&hl=en&rclk=1",
        "coordinates": {
            "latitude": 23.4551375,
            "longitude": 75.4226364
        }
    },
    {
        "name": "Masjid E Shahida",
        "main_category": "Mosque",
        "address": "FC45+2WR Masjid E Shahida, Unnamed Road, Ponds Colony, Nagda, Madhya Pradesh 456335",
        "detailed_address": {
            "ward": "Ponds Colony",
            "street": "FC45+2WR, Unnamed Road",
            "city": "Nagda",
            "postal_code": "456335",
            "state": "Madhya Pradesh",
            "country_code": "IN"
        },
        "images": [
            {
                "about": "All",
                "link": "https://lh5.googleusercontent.com/p/AF1QipMoSFR_vfSNx7CQiPSFzKJQz9m5wD2Uk3CGl_Cv=w397-h298-k-no"
            }
        ],
        "link": "https://www.google.com/maps/place/Masjid+E+Shahida/data=!4m7!3m6!1s0x3964758b40337bb5:0x6719701b76f19dc5!8m2!3d23.4551233!4d75.4097737!16s%2Fg%2F11ggb3sgcv!19sChIJtXszQIt1ZDkRxZ3xdhtwGWc?authuser=0&hl=en&rclk=1",
        "coordinates": {
            "latitude": 23.4551233,
            "longitude": 75.4097737
        }
    },
    {
        "name": "Chetanpura Masjid",
        "main_category": "Mosque",
        "address": "FC66+RXW Chetanpura Masjid, Chambal Sagar colony, Nagda, Madhya Pradesh 456335",
        "detailed_address": {
            "ward": "Chambal Sagar colony",
            "street": "FC66+RXW",
            "city": "Nagda",
            "postal_code": "456335",
            "state": "Madhya Pradesh",
            "country_code": "IN"
        },
        "images": [
            {
                "about": "All",
                "link": "https://lh5.googleusercontent.com/p/AF1QipOUlZ0E5mpfUtUt_eInXv7PTnqcmgAIFAQdcAa-=w529-h298-k-no"
            }
        ],
        "link": "https://www.google.com/maps/place/Chetanpura+Masjid/data=!4m7!3m6!1s0x396475f2a22b09e1:0x1dce235793bfaae2!8m2!3d23.4621182!4d75.4124451!16s%2Fg%2F11df61jzc7!19sChIJ4QkrovJ1ZDkR4qq_k1cjzh0?authuser=0&hl=en&rclk=1",
        "coordinates": {
            "latitude": 23.4621182,
            "longitude": 75.4124451
        }
    },
    {
        "name": "Gousiya Masjid",
        "main_category": "Mosque",
        "address": "FC54+M62 Gousiya Masjid, Chambal Sagar colony, Nagda, Madhya Pradesh 456335",
        "detailed_address": {
            "ward": "Chambal Sagar colony",
            "street": "FC54+M62",
            "city": "Nagda",
            "postal_code": "456335",
            "state": "Madhya Pradesh",
            "country_code": "IN"
        },
        "images": [
            {
                "about": "All",
                "link": "https://lh5.googleusercontent.com/p/AF1QipNuUZsHDvEFjMNPEGOH2OQiFUYwMWFHsiLwhGqJ=w224-h398-k-no"
            },
            {
                "about": "Videos",
                "link": "https://lh5.googleusercontent.com/p/AF1QipNuUZsHDvEFjMNPEGOH2OQiFUYwMWFHsiLwhGqJ=w224-h398-k-no"
            }
        ],
        "link": "https://www.google.com/maps/place/Gousiya+Masjid/data=!4m7!3m6!1s0x3964758dd6ce5709:0x790a3b1efd5edf53!8m2!3d23.4591433!4d75.4055218!16s%2Fg%2F11fy5jg466!19sChIJCVfO1o11ZDkRU99e_R47Cnk?authuser=0&hl=en&rclk=1",
        "coordinates": {
            "latitude": 23.459143299999997,
            "longitude": 75.4055218
        }
    },
    {
        "name": "Noorani Masjid",
        "main_category": "Mosque",
        "address": "Noorani Masjid, 567, Chambal Sagar colony, Nagda, Madhya Pradesh 456335",
        "detailed_address": {
            "ward": "Chambal Sagar colony",
            "street": "567",
            "city": "Nagda",
            "postal_code": "456335",
            "state": "Madhya Pradesh",
            "country_code": "IN"
        },
        "images": [
            {
                "about": "All",
                "link": "https://lh5.googleusercontent.com/p/AF1QipPDT7JdpUWDvLoYpJwXJoOgA0c4PdksNoyhoHDL=w224-h398-k-no"
            },
            {
                "about": "Dome",
                "link": "https://lh5.googleusercontent.com/p/AF1QipOHpOPXsqp11MNTviPer2uoUp6nHfGmPEVKFL7q=w224-h298-k-no"
            },
            {
                "about": "Videos",
                "link": "https://lh5.googleusercontent.com/p/AF1QipO7DJHekHH0Eikv95uxQR30p5VAhkNcFFhUKn7B=w224-h398-k-no"
            }
        ],
        "link": "https://www.google.com/maps/place/Noorani+Masjid/data=!4m7!3m6!1s0x3964758cdaf69615:0x1960830a5f655684!8m2!3d23.4588024!4d75.4103182!16s%2Fg%2F11fylj2mvb!19sChIJFZb22ox1ZDkRhFZlXwqDYBk?authuser=0&hl=en&rclk=1",
        "coordinates": {
            "latitude": 23.4588024,
            "longitude": 75.41031819999999
        }
    },
    {
        "name": "Shahi Jama Masjid",
        "main_category": "Mosque",
        "address": "W26V+GC2 Shahi Jama Masjid, Nagda, Madhya Pradesh 455111",
        "detailed_address": {
            "ward": null,
            "street": "W26V+GC2",
            "city": "Nagda",
            "postal_code": "455111",
            "state": "Madhya Pradesh",
            "country_code": "IN"
        },
        "images": [
            {
                "about": "All",
                "link": "https://lh5.googleusercontent.com/p/AF1QipO7DZskjEPwhFyySp3_zbgCbS11klV1p7RtkOpU=w613-h298-k-no"
            },
            {
                "about": "Street View & 360deg",
                "link": "https://streetviewpixels-pa.googleapis.com/v1/thumbnail?panoid=Iwa_O8RWjEZnx3GRxWMNvA&cb_client=maps_sv.tactile.gps&w=224&h=298&yaw=116.43922&pitch=0&thumbfov=100"
            },
            {
                "about": "Videos",
                "link": "https://lh5.googleusercontent.com/p/AF1QipPcAUQLj9c7lcc5IYP3eqBeqe2xO1Cy8fe6AIs=w541-h298-k-no"
            }
        ],
        "link": "https://www.google.com/maps/place/Shahi+Jama+Masjid/data=!4m7!3m6!1s0x3963196a62fe9255:0x2638267524814f6f!8m2!3d22.911258!4d76.043512!16s%2Fg%2F11gmyvmf7p!19sChIJVZL-YmoZYzkRb0-BJHUmOCY?authuser=0&hl=en&rclk=1",
        "coordinates": {
            "latitude": 22.911258,
            "longitude": 76.04351199999999
        }
    },
    {
        "name": "Muhammadi Masjid",
        "main_category": "Mosque",
        "address": "FC36+9WP Muhammadi Masjid, Ponds Colony, Nagda, Madhya Pradesh 456335",
        "detailed_address": {
            "ward": "Ponds Colony",
            "street": "FC36+9WP",
            "city": "Nagda",
            "postal_code": "456335",
            "state": "Madhya Pradesh",
            "country_code": "IN"
        },
        "images": [
            {
                "about": "All",
                "link": "https://lh5.googleusercontent.com/p/AF1QipM-pvgvXpPR6-Fb0-JJHH_Slw7rAei98JZWWmMJ=w397-h298-k-no"
            }
        ],
        "link": "https://www.google.com/maps/place/Muhammadi+Masjid/data=!4m7!3m6!1s0x3964754ea02113b5:0x39cd7901c2c53fb9!8m2!3d23.4534647!4d75.4123149!16s%2Fg%2F11g_yj_875!19sChIJtRMhoE51ZDkRuT_FwgF5zTk?authuser=0&hl=en&rclk=1",
        "coordinates": {
            "latitude": 23.453464699999998,
            "longitude": 75.4123149
        }
    },
    {
        "name": "Jama Masjid Nagda",
        "main_category": "Mosque",
        "address": "Q7QH+G4C Jama Masjid Nagda, Mahindpur, Nagda, Madhya Pradesh 454001",
        "detailed_address": {
            "ward": "Mahindpur",
            "street": "Q7QH+G4C",
            "city": "Nagda",
            "postal_code": "454001",
            "state": "Madhya Pradesh",
            "country_code": "IN"
        },
        "images": [
            {
                "about": "All",
                "link": "https://lh5.googleusercontent.com/p/AF1QipPZz_kwPhD-CDr-LUYSE1XvLC7KT4ymgLSrgOx2=w224-h298-k-no"
            },
            {
                "about": "Street View & 360deg",
                "link": "https://streetviewpixels-pa.googleapis.com/v1/thumbnail?panoid=BBmGhl-cNOFpnQ4W4GwZkw&cb_client=maps_sv.tactile.gps&w=224&h=298&yaw=169.82188&pitch=0&thumbfov=100"
            }
        ],
        "link": "https://www.google.com/maps/place/Jama+Masjid+Nagda/data=!4m7!3m6!1s0x3963c9a6dfa5324f:0xd7446496c577d57!8m2!3d22.7888149!4d75.2777726!16s%2Fg%2F11h51ynx_z!19sChIJTzKl36bJYzkRV31XbElGdA0?authuser=0&hl=en&rclk=1",
        "coordinates": {
            "latitude": 22.7888149,
            "longitude": 75.27777259999999
        }
    },
    {
        "name": "Shahi Mohammedi Masjid",
        "main_category": "Mosque",
        "address": "W26V+4RP Shahi Mohammedi Masjid, Nagda, Madhya Pradesh 455111",
        "detailed_address": {
            "ward": null,
            "street": "W26V+4RP",
            "city": "Nagda",
            "postal_code": "455111",
            "state": "Madhya Pradesh",
            "country_code": "IN"
        },
        "images": [
            {
                "about": "All",
                "link": "https://streetviewpixels-pa.googleapis.com/v1/thumbnail?panoid=uu6uBK5_CIDxwc1stxlPyQ&cb_client=maps_sv.tactile.gps&w=224&h=298&yaw=221.47624&pitch=0&thumbfov=100"
            },
            {
                "about": "Street View & 360deg",
                "link": "https://streetviewpixels-pa.googleapis.com/v1/thumbnail?panoid=uu6uBK5_CIDxwc1stxlPyQ&cb_client=maps_sv.tactile.gps&w=224&h=298&yaw=221.47624&pitch=0&thumbfov=100"
            }
        ],
        "link": "https://www.google.com/maps/place/Shahi+Mohammedi+Masjid/data=!4m7!3m6!1s0x3963190186d40de5:0x3368eca1a9019b7a!8m2!3d22.9103498!4d76.044566!16s%2Fg%2F11gmyvngjq!19sChIJ5Q3UhgEZYzkRepsBqaHsaDM?authuser=0&hl=en&rclk=1",
        "coordinates": {
            "latitude": 22.9103498,
            "longitude": 76.044566
        }
    },
    {
        "name": "Afzal Masjid",
        "main_category": "Mosque",
        "address": "FC74+6WF Afzal Masjid, Nagda Rd, Chambal Sagar colony, Khachrod, Nagda, Madhya Pradesh 456224",
        "detailed_address": {
            "ward": "Chambal Sagar colony",
            "street": "FC74+6WF, Nagda Rd",
            "city": "Khachrod, Nagda",
            "postal_code": "456224",
            "state": "Madhya Pradesh",
            "country_code": "IN"
        },
        "images": [
            {
                "about": "All",
                "link": "https://lh5.googleusercontent.com/p/AF1QipNJtV63wA3g-DRNhzhW2Lge4wdjT-Ihb4TbSq4d=w224-h407-k-no"
            },
            {
                "about": "Videos",
                "link": "https://lh5.googleusercontent.com/p/AF1QipNJtV63wA3g-DRNhzhW2Lge4wdjT-Ihb4TbSq4d=w224-h407-k-no"
            }
        ],
        "link": "https://www.google.com/maps/place/Afzal+Masjid/data=!4m7!3m6!1s0x396475926eca6595:0x794688bda3b29000!8m2!3d23.4630524!4d75.4072978!16s%2Fg%2F11gdg67jhm!19sChIJlWXKbpJ1ZDkRAJCyo72IRnk?authuser=0&hl=en&rclk=1",
        "coordinates": {
            "latitude": 23.4630524,
            "longitude": 75.4072978
        }
    },
    {
        "name": "Madeena Masjid",
        "main_category": "Mosque",
        "address": "Madeena Masjid, Sunwanimahankal Rd, Nagda, Madhya Pradesh 455111",
        "detailed_address": {
            "ward": null,
            "street": "Sunwanimahankal Rd",
            "city": "Nagda",
            "postal_code": "455111",
            "state": "Madhya Pradesh",
            "country_code": "IN"
        },
        "images": [
            {
                "about": "All",
                "link": "https://lh5.googleusercontent.com/p/AF1QipOsPu5x-L7Qd4tl9ClTShZ6QE3V4647WfcFqYVe=w298-h298-k-no"
            },
            {
                "about": "Street View & 360deg",
                "link": "https://streetviewpixels-pa.googleapis.com/v1/thumbnail?panoid=9I_AZMSPjK44Q4Ty2GbEdA&cb_client=maps_sv.tactile.gps&w=224&h=298&yaw=339.04257&pitch=0&thumbfov=100"
            },
            {
                "about": "Videos",
                "link": "https://lh5.googleusercontent.com/p/AF1QipOErn6OPoJlO8YTYyrkzrwRIoSKHl5p_fkXzhXs=w224-h407-k-no"
            }
        ],
        "link": "https://www.google.com/maps/place/Madeena+Masjid/data=!4m7!3m6!1s0x396319aeb6c34aed:0xf1b61ef700cda55e!8m2!3d22.9078263!4d76.0450096!16s%2Fg%2F11f25xvs9c!19sChIJ7UrDtq4ZYzkRXqXNAPcetvE?authuser=0&hl=en&rclk=1",
        "coordinates": {
            "latitude": 22.9078263,
            "longitude": 76.0450096
        }
    },
    {
        "name": "Nagda Basti Masjid",
        "main_category": "Mosque",
        "address": "Nagda Basti Masjid, Muslim Tola, Nagda, Jharkhand 828305",
        "detailed_address": {
            "ward": "Muslim Tola",
            "street": null,
            "city": "Nagda",
            "postal_code": "828305",
            "state": "Jharkhand",
            "country_code": "IN"
        },
        "images": [
            {
                "about": "All",
                "link": "https://lh5.googleusercontent.com/p/AF1QipNfalJXenCVBYZ0MJuwRjZzoRtJ-1CnWUQyl7Lg=w397-h298-k-no"
            },
            {
                "about": "By owner",
                "link": "https://lh5.googleusercontent.com/p/AF1QipM6IpaB9OESgLwNxhJwD4OIdeC7gPFBrKyByQHU=w397-h298-k-no"
            },
            {
                "about": "Videos",
                "link": "https://lh5.googleusercontent.com/p/AF1QipPeZr0l7y0xKMqxe-uODqcaXWlctknCdX5UXCyS=w224-h522-k-no"
            }
        ],
        "link": "https://www.google.com/maps/place/Nagda+Basti+Masjid/data=!4m7!3m6!1s0x39f41fe911dc666f:0xc5dbd40704329865!8m2!3d23.7202865!4d86.2445045!16s%2Fg%2F11fcsz30jq!19sChIJb2bcEekf9DkRZZgyBAfU28U?authuser=0&hl=en&rclk=1",
        "coordinates": {
            "latitude": 23.7202865,
            "longitude": 86.24450449999999
        }
    },
    {
        "name": "Masjid",
        "main_category": "Mosque",
        "address": "FC3H+65H Masjid, Unnamed Road, Prakash Nagar Colony, Nagda, Madhya Pradesh 456331",
        "detailed_address": {
            "ward": "Prakash Nagar Colony",
            "street": "FC3H+65H, Unnamed Road",
            "city": "Nagda",
            "postal_code": "456331",
            "state": "Madhya Pradesh",
            "country_code": "IN"
        },
        "images": [],
        "link": "https://www.google.com/maps/place/Masjid/data=!4m7!3m6!1s0x396475f8ba48214d:0x37674371fd16a354!8m2!3d23.4530663!4d75.4279718!16s%2Fg%2F11gc__tpyp!19sChIJTSFIuvh1ZDkRVKMW_XFDZzc?authuser=0&hl=en&rclk=1",
        "coordinates": {
            "latitude": 23.4530663,
            "longitude": 75.4279718
        }
    },
    {
        "name": "Sunni Shane Mohammadi masjid or madarsa",
        "main_category": "Mosque",
        "address": "FC6C+93C Sunni Shane Mohammadi masjid or madarsa, Kilkipura Juna, Nagda, Madhya Pradesh 456335",
        "detailed_address": {
            "ward": "Kilkipura Juna",
            "street": "FC6C+93C",
            "city": "Nagda",
            "postal_code": "456335",
            "state": "Madhya Pradesh",
            "country_code": "IN"
        },
        "images": [
            {
                "about": "All",
                "link": "https://lh5.googleusercontent.com/p/AF1QipO5FFM-jYB_Adz25FR5gJvmR5XPghpX4Prbx0lF=w224-h398-k-no"
            }
        ],
        "link": "https://www.google.com/maps/place/Sunni+Shane+Mohammadi+masjid+or+madarsa/data=!4m7!3m6!1s0x396475343a21e01b:0xe3e0cb1603475e75!8m2!3d23.4609308!4d75.4201513!16s%2Fg%2F11stwpxnsq!19sChIJG-AhOjR1ZDkRdV5HAxbL4OM?authuser=0&hl=en&rclk=1",
        "coordinates": {
            "latitude": 23.4609308,
            "longitude": 75.4201513
        }
    }
]