[
    {
        "name": "Hazrat Misri Shah Baba Dargah",
        "main_category": "Mosque",
        "address": "FW4Q+QFF Hazrat Misri Shah Baba Dargah, Patur, Maharashtra 444501",
        "detailed_address": {
            "ward": null,
            "street": "FW4Q+QFF",
            "city": "Patur",
            "postal_code": "444501",
            "state": "Maharashtra",
            "country_code": "IN"
        },
        "images": [
            {
                "about": "All",
                "link": "https://lh5.googleusercontent.com/p/AF1QipOtQxOoah9kEYTFFojHz1fKks5DS96XPb5qdnCr=w224-h398-k-no"
            },
            {
                "about": "Dome",
                "link": "https://lh5.googleusercontent.com/p/AF1QipNAR98b4gifPI57s7kYzBhE5s-DDR1qDuISpRiE=w224-h298-k-no"
            },
            {
                "about": "Videos",
                "link": "https://lh5.googleusercontent.com/p/AF1QipOQLw4I-n_zXKgna8WzXE7yCqJ-_Vkfe1IU7CCe=w224-h398-k-no"
            },
            {
                "about": "Street View & 360deg",
                "link": "https://lh5.googleusercontent.com/p/AF1QipNMzUQS0vuKy5K4R5hNHh-cTd4ZSHY2E8Q1aqRJ=w224-h298-k-no-pi-0-ya100.99999-ro-0-fo100"
            }
        ],
        "link": "https://www.google.com/maps/place/Hazrat+Misri+Shah+Baba+Dargah/data=!4m7!3m6!1s0x3bd0cedfab48ebf1:0xd0a57d93b4afcfdf!8m2!3d20.4569346!4d76.9386647!16s%2Fg%2F11ddxfmwg2!19sChIJ8etIq9_O0DsR38-vtJN9pdA?authuser=0&hl=en&rclk=1",
        "coordinates": {
            "latitude": 20.4569346,
            "longitude": 76.93866469999999
        }
    },
    {
        "name": "Markaz Masjid",
        "main_category": "Mosque",
        "address": "FW5Q+GF6 Markaz Masjid, Patur, Maharashtra 444501",
        "detailed_address": {
            "ward": null,
            "street": "FW5Q+GF6",
            "city": "Patur",
            "postal_code": "444501",
            "state": "Maharashtra",
            "country_code": "IN"
        },
        "images": [
            {
                "about": "All",
                "link": "https://lh5.googleusercontent.com/p/AF1QipMfdjgfzMGPy88tErOnMHjBkw1ughmkzni3PBoX=w224-h298-k-no"
            },
            {
                "about": "Videos",
                "link": "https://lh5.googleusercontent.com/p/AF1QipMSvG06D-PYaAj0OaW4LK-L2Qju2AtR7LxsGyZb=w224-h398-k-no"
            }
        ],
        "link": "https://www.google.com/maps/place/Markaz+Masjid/data=!4m7!3m6!1s0x3bd0cede61614a5d:0xff49b57bfd0d18a2!8m2!3d20.4587754!4d76.9386318!16s%2Fg%2F11c2y587gk!19sChIJXUphYd7O0DsRohgN_Xu1Sf8?authuser=0&hl=en&rclk=1",
        "coordinates": {
            "latitude": 20.4587754,
            "longitude": 76.9386318
        }
    },
    {
        "name": "chmn msjd Chaman Masjid",
        "main_category": "Mosque",
        "address": "FW5M+XQX chmn msjd Chaman Masjid, Patur, Maharashtra 444501",
        "detailed_address": {
            "ward": null,
            "street": "FW5M+XQX",
            "city": "Patur",
            "postal_code": "444501",
            "state": "Maharashtra",
            "country_code": "IN"
        },
        "images": [
            {
                "about": "All",
                "link": "https://lh5.googleusercontent.com/p/AF1QipMy55Ux9vrfIg1UKBH3FUAFn69BglKm9X69IBLu=w529-h298-k-no"
            }
        ],
        "link": "https://www.google.com/maps/place/%DA%86%D9%85%D9%86+%D9%85%D8%B3%D8%AC%D8%AF+Chaman+Masjid%E2%80%AD/data=!4m7!3m6!1s0x3bd0cedbe46a7a49:0xd997468073be8f5f!8m2!3d20.4599914!4d76.9344898!16s%2Fg%2F11c5xt4gkh!19sChIJSXpq5NvO0DsRX4--c4BGl9k?authuser=0&hl=en&rclk=1",
        "coordinates": {
            "latitude": 20.4599914,
            "longitude": 76.9344898
        }
    },
    {
        "name": "bjjhyr msjd Bijjhira Masjid",
        "main_category": "Mosque",
        "address": "FW5M+CRV bjjhyr msjd Bijjhira Masjid, Patur, Maharashtra 444501",
        "detailed_address": {
            "ward": null,
            "street": "FW5M+CRV",
            "city": "Patur",
            "postal_code": "444501",
            "state": "Maharashtra",
            "country_code": "IN"
        },
        "images": [
            {
                "about": "All",
                "link": "https://lh5.googleusercontent.com/p/AF1QipMoLdmyZaXdA-vQ563weYXNwo5ukmxSUq7Qk3UO=w397-h298-k-no"
            }
        ],
        "link": "https://www.google.com/maps/place/%D8%A8%D8%AC%D8%AC%DA%BE%DB%8C%D8%B1%D8%A7+%D9%85%D8%B3%D8%AC%D8%AF+Bijjhira+Masjid%E2%80%AD/data=!4m7!3m6!1s0x3bd0ced945b1aefb:0x249e4b49b3e164db!8m2!3d20.4586212!4d76.9345363!16s%2Fg%2F11cnbg3mbj!19sChIJ-66xRdnO0DsR22Ths0lLniQ?authuser=0&hl=en&rclk=1",
        "coordinates": {
            "latitude": 20.4586212,
            "longitude": 76.93453629999999
        }
    },
    {
        "name": "Masjid-e-Abrar",
        "main_category": "Mosque",
        "address": "FW6R+3HQ Masjid-e-Abrar, Abrar Colony, Patur, Maharashtra 444501",
        "detailed_address": {
            "ward": "Abrar Colony",
            "street": "FW6R+3HQ",
            "city": "Patur",
            "postal_code": "444501",
            "state": "Maharashtra",
            "country_code": "IN"
        },
        "images": [
            {
                "about": "All",
                "link": "https://lh5.googleusercontent.com/p/AF1QipPnLmAX_5oCpJ0htUyISfTBUH03UrkQ9mlYD7tC=w224-h298-k-no"
            }
        ],
        "link": "https://www.google.com/maps/place/Masjid-e-Abrar/data=!4m7!3m6!1s0x3bd0cee754e7e5b3:0xc648245a7044de79!8m2!3d20.460205!4d76.941483!16s%2Fg%2F11byymn4yz!19sChIJs-XnVOfO0DsRed5EcFokSMY?authuser=0&hl=en&rclk=1",
        "coordinates": {
            "latitude": 20.460205,
            "longitude": 76.94148299999999
        }
    },
    {
        "name": "Jame Masjid",
        "main_category": "Historical landmark",
        "address": "FW5P+RVG Jame Masjid, Patur, Maharashtra 444501",
        "detailed_address": {
            "ward": null,
            "street": "FW5P+RVG",
            "city": "Patur",
            "postal_code": "444501",
            "state": "Maharashtra",
            "country_code": "IN"
        },
        "images": [
            {
                "about": "All",
                "link": "https://lh5.googleusercontent.com/p/AF1QipMdwwoIdbmkyUytMK_DYINMRgO_uByNQFO-aLWf=w224-h395-k-no"
            },
            {
                "about": "Videos",
                "link": "https://lh5.googleusercontent.com/p/AF1QipMdwwoIdbmkyUytMK_DYINMRgO_uByNQFO-aLWf=w224-h395-k-no"
            }
        ],
        "link": "https://www.google.com/maps/place/Jame+Masjid/data=!4m7!3m6!1s0x3bd0cede9e9b244b:0x8366ebcf9a70c855!8m2!3d20.4595642!4d76.9372032!16s%2Fg%2F11hd56lsgf!19sChIJSySbnt7O0DsRVchwms_rZoM?authuser=0&hl=en&rclk=1",
        "coordinates": {
            "latitude": 20.4595642,
            "longitude": 76.9372032
        }
    },
    {
        "name": "Mubarak Masjid",
        "main_category": "Mosque",
        "address": "FW5Q+84X Mubarak Masjid, Patur, Maharashtra 444501",
        "detailed_address": {
            "ward": null,
            "street": "FW5Q+84X",
            "city": "Patur",
            "postal_code": "444501",
            "state": "Maharashtra",
            "country_code": "IN"
        },
        "images": [],
        "link": "https://www.google.com/maps/place/Mubarak+Masjid/data=!4m7!3m6!1s0x3bd0cede8cd6585b:0xe52a481a94d9a304!8m2!3d20.4583598!4d76.9378595!16s%2Fg%2F11b7ztt2n0!19sChIJW1jWjN7O0DsRBKPZlBpIKuU?authuser=0&hl=en&rclk=1",
        "coordinates": {
            "latitude": 20.4583598,
            "longitude": 76.9378595
        }
    },
    {
        "name": "msjdi Gfr Masjid E Gaffar",
        "main_category": "Mosque",
        "address": "FW7M+MVR msjdi Gfr Masjid E Gaffar, Jamiya nagar Jamdar polat, Patur",
        "detailed_address": {
            "ward": null,
            "street": "FW7M+MVR, Jamiya nagar Jamdar polat",
            "city": "Patur, Bagayat Patur",
            "postal_code": null,
            "state": "Maharashtra",
            "country_code": "IN"
        },
        "images": [
            {
                "about": "All",
                "link": "https://lh5.googleusercontent.com/p/AF1QipPX5vCMWfRFZqMctcbA5Q5kKOrJGvFGYbqT8f3l=w298-h298-k-no"
            },
            {
                "about": "Dome",
                "link": "https://lh5.googleusercontent.com/p/AF1QipPX5vCMWfRFZqMctcbA5Q5kKOrJGvFGYbqT8f3l=w298-h298-k-no"
            },
            {
                "about": "Videos",
                "link": "https://lh5.googleusercontent.com/p/AF1QipMNExHErrQS2XT--XC401uHZ_Z5-21vzm7dkd4h=w238-h298-k-no"
            }
        ],
        "link": "https://www.google.com/maps/place/%D9%85%D8%B3%D8%AC%D8%AF%D9%90+%D8%BA%D9%81%D8%A7%D8%B1+Masjid+E+Gaffar%E2%80%AD/data=!4m7!3m6!1s0x3bd0cf3084b43a31:0x2d356dea0dfcd9ab!8m2!3d20.464229!4d76.934641!16s%2Fg%2F11fn0t_v1v!19sChIJMTq0hDDP0DsRq9n8DeptNS0?authuser=0&hl=en&rclk=1",
        "coordinates": {
            "latitude": 20.464229,
            "longitude": 76.934641
        }
    },
    {
        "name": "Momin masjid",
        "main_category": "Museum",
        "address": "FW7M+7RX Momin masjid, Bagayat Patur, Maharashtra 444501",
        "detailed_address": {
            "ward": null,
            "street": "FW7M+7RX",
            "city": "Bagayat Patur",
            "postal_code": "444501",
            "state": "Maharashtra",
            "country_code": "IN"
        },
        "images": [],
        "link": "https://www.google.com/maps/place/Momin+masjid/data=!4m7!3m6!1s0x3bd0cfc64ebd2d49:0x952a9a73ad928cd1!8m2!3d20.4632413!4d76.9346226!16s%2Fg%2F11gpncmxv_!19sChIJSS29TsbP0DsR0YySrXOaKpU?authuser=0&hl=en&rclk=1",
        "coordinates": {
            "latitude": 20.4632413,
            "longitude": 76.9346226
        }
    },
    {
        "name": "Jama Masjid",
        "main_category": "Mosque",
        "address": "FW5Q+QFC Jama Masjid, Patur, Maharashtra 444501",
        "detailed_address": {
            "ward": null,
            "street": "FW5Q+QFC",
            "city": "Patur",
            "postal_code": "444501",
            "state": "Maharashtra",
            "country_code": "IN"
        },
        "images": [],
        "link": "https://www.google.com/maps/place/Jama+Masjid/data=!4m7!3m6!1s0x3bd0cede7c6c97e7:0xe578557e6ff4a159!8m2!3d20.4594392!4d76.9386409!16s%2Fg%2F11f3f5y_1f!19sChIJ55dsfN7O0DsRWaH0b35VeOU?authuser=0&hl=en&rclk=1",
        "coordinates": {
            "latitude": 20.4594392,
            "longitude": 76.9386409
        }
    },
    {
        "name": "aayshaa msjid",
        "main_category": "Mosque",
        "address": "FW5R+7M9 aayshaa msjid, Patur, Maharashtra 444501",
        "detailed_address": {
            "ward": null,
            "street": "FW5R+7M9",
            "city": "Patur",
            "postal_code": "444501",
            "state": "Maharashtra",
            "country_code": "IN"
        },
        "images": [
            {
                "about": "All",
                "link": "https://lh5.googleusercontent.com/p/AF1QipNUtGJphymK761KVTRRfZaII_CGFzKOMzZ3p1Ur=w224-h298-k-no"
            },
            {
                "about": "Dome",
                "link": "https://lh5.googleusercontent.com/p/AF1QipP7nwxv1Sw1-fzsRpVsqgpjCXAOyAdhMM4SNsOt=w224-h298-k-no"
            }
        ],
        "link": "https://www.google.com/maps/place/%E0%A4%86%E0%A4%AF%E0%A4%B6%E0%A4%BE+%E0%A4%AE%E0%A4%B8%E0%A5%8D%E0%A4%9C%E0%A4%BF%E0%A4%A6/data=!4m7!3m6!1s0x3bd0cf316d182b99:0x874a810704cc534f!8m2!3d20.458155!4d76.9417288!16s%2Fg%2F11h_4s756r!19sChIJmSsYbTHP0DsRT1PMBAeBSoc?authuser=0&hl=en&rclk=1",
        "coordinates": {
            "latitude": 20.458154999999998,
            "longitude": 76.94172879999999
        }
    },
    {
        "name": "Aqsa Masjid",
        "main_category": "Mosque",
        "address": "FW3Q+WWR Aqsa Masjid, Patur, Maharashtra 444501",
        "detailed_address": {
            "ward": null,
            "street": "FW3Q+WWR",
            "city": "Patur",
            "postal_code": "444501",
            "state": "Maharashtra",
            "country_code": "IN"
        },
        "images": [
            {
                "about": "All",
                "link": "https://lh5.googleusercontent.com/p/AF1QipP-Dvrd1IRldq64nF85OE4llOe-diMGAIwsB7uO=w224-h397-k-no"
            }
        ],
        "link": "https://www.google.com/maps/place/Aqsa+Masjid/data=!4m7!3m6!1s0x3bd0cedfed561533:0xa9f5990ae768c53b!8m2!3d20.4548504!4d76.9397811!16s%2Fg%2F11bwf72xvk!19sChIJMxVW7d_O0DsRO8Vo5wqZ9ak?authuser=0&hl=en&rclk=1",
        "coordinates": {
            "latitude": 20.454850399999998,
            "longitude": 76.93978109999999
        }
    },
    {
        "name": "RAHEMANIYA MASJID",
        "main_category": "Mosque",
        "address": "FW7P+CGC RAHEMANIYA MASJID, Patur, Maharashtra 444501",
        "detailed_address": {
            "ward": null,
            "street": "FW7P+CGC",
            "city": "Patur",
            "postal_code": "444501",
            "state": "Maharashtra",
            "country_code": "IN"
        },
        "images": [
            {
                "about": "All",
                "link": "https://lh5.googleusercontent.com/p/AF1QipPpZGsH-FOYsyATY2ffWtsLP_bEZ6voaRR4WteV=w529-h298-k-no"
            }
        ],
        "link": "https://www.google.com/maps/place/RAHEMANIYA+MASJID/data=!4m7!3m6!1s0x3bd0cedc90f2c5f1:0xd8fbe81e72bd7c56!8m2!3d20.463559!4d76.9362503!16s%2Fg%2F11hbt_shy0!19sChIJ8cXykNzO0DsRVny9ch7o-9g?authuser=0&hl=en&rclk=1",
        "coordinates": {
            "latitude": 20.463559,
            "longitude": 76.9362503
        }
    },
    {
        "name": "Momin Pura Masjid",
        "main_category": "Mosque",
        "address": "FW5P+Q43 Momin Pura Masjid, Patur, Maharashtra 444501",
        "detailed_address": {
            "ward": null,
            "street": "FW5P+Q43",
            "city": "Patur",
            "postal_code": "444501",
            "state": "Maharashtra",
            "country_code": "IN"
        },
        "images": [],
        "link": "https://www.google.com/maps/place/Momin+Pura+Masjid/data=!4m7!3m6!1s0x3bd0ced9545c6449:0xf1f8e8a3239b851f!8m2!3d20.459384!4d76.935286!16s%2Fg%2F11d_78jcmg!19sChIJSWRcVNnO0DsRH4WbI6Po-PE?authuser=0&hl=en&rclk=1",
        "coordinates": {
            "latitude": 20.459384,
            "longitude": 76.93528599999999
        }
    },
    {
        "name": "Masjid E Asefa",
        "main_category": "Mosque",
        "address": "FW4R+4RR Masjid E Asefa, Patur, Maharashtra 444501",
        "detailed_address": {
            "ward": null,
            "street": "FW4R+4RR",
            "city": "Patur",
            "postal_code": "444501",
            "state": "Maharashtra",
            "country_code": "IN"
        },
        "images": [
            {
                "about": "All",
                "link": "https://lh5.googleusercontent.com/p/AF1QipOa5idHZt7HPh0dlR4C01B8PXlQu4_vPSj7TOFK=w529-h298-k-no"
            }
        ],
        "link": "https://www.google.com/maps/place/Masjid+E+Asefa/data=!4m7!3m6!1s0x3bd0cf2a44fca6f1:0x3e7badd1e714fd80!8m2!3d20.4553642!4d76.9420143!16s%2Fg%2F11gxmg4xxz!19sChIJ8ab8RCrP0DsRgP0U59Gtez4?authuser=0&hl=en&rclk=1",
        "coordinates": {
            "latitude": 20.455364199999998,
            "longitude": 76.9420143
        }
    },
    {
        "name": "msjdi Gwthyh MASJID-E-GOUSIYA",
        "main_category": "Mosque",
        "address": "msjdi Gwthyh MASJID-E-GOUSIYA, Patur, Maharashtra 444501",
        "detailed_address": {
            "ward": null,
            "street": null,
            "city": "Patur",
            "postal_code": "444501",
            "state": "Maharashtra",
            "country_code": "IN"
        },
        "images": [
            {
                "about": "All",
                "link": "https://lh5.googleusercontent.com/p/AF1QipPpPD-xnp1uShYj4fmTx7IQvQfeQkVGdBeXOKg=w224-h398-k-no"
            },
            {
                "about": "By owner",
                "link": "https://lh5.googleusercontent.com/p/AF1QipPpPD-xnp1uShYj4fmTx7IQvQfeQkVGdBeXOKg=w224-h398-k-no"
            }
        ],
        "link": "https://www.google.com/maps/place/%D9%85%D8%B3%D8%AC%D8%AF%D9%90+%D8%BA%D9%88%D8%AB%DB%8C%DB%81+MASJID-E-GOUSIYA%E2%80%AD/data=!4m7!3m6!1s0x3bd0cf684fe8b8c3:0x613acbe1edb8e05e!8m2!3d20.4578911!4d76.9307446!16s%2Fg%2F11hzqg4nwq!19sChIJw7joT2jP0DsRXuC47eHLOmE?authuser=0&hl=en&rclk=1",
        "coordinates": {
            "latitude": 20.457891099999998,
            "longitude": 76.9307446
        }
    },
    {
        "name": "Masjide alfalah",
        "main_category": "Mosque",
        "address": "FW5V+QQH Masjide alfalah, Patur, Maharashtra 444501",
        "detailed_address": {
            "ward": null,
            "street": "FW5V+QQH",
            "city": "Patur",
            "postal_code": "444501",
            "state": "Maharashtra",
            "country_code": "IN"
        },
        "images": [],
        "link": "https://www.google.com/maps/place/Masjide+alfalah/data=!4m7!3m6!1s0x3bd0cf2015023e09:0x6aae14ad3c204d98!8m2!3d20.4594332!4d76.9444894!16s%2Fg%2F11ptrbg6p0!19sChIJCT4CFSDP0DsRmE0gPK0Urmo?authuser=0&hl=en&rclk=1",
        "coordinates": {
            "latitude": 20.4594332,
            "longitude": 76.9444894
        }
    },
    {
        "name": "Mohammadiya masjid",
        "main_category": "Mosque",
        "address": "FW4J+QJJ Mohammadiya masjid, Patur, Maharashtra 444501",
        "detailed_address": {
            "ward": null,
            "street": "FW4J+QJJ",
            "city": "Patur",
            "postal_code": null,
            "state": "Maharashtra",
            "country_code": "IN"
        },
        "images": [],
        "link": "https://www.google.com/maps/place/Mohammadiya+masjid/data=!4m7!3m6!1s0x3bd0cff2e23e6519:0xfb183cf1241b8079!8m2!3d20.4569695!4d76.9315008!16s%2Fg%2F11k9k0bvqw!19sChIJGWU-4vLP0DsReYAbJPE8GPs?authuser=0&hl=en&rclk=1",
        "coordinates": {
            "latitude": 20.4569695,
            "longitude": 76.9315008
        }
    },
    {
        "name": "Masjid e Ahmad",
        "main_category": "Place of worship",
        "address": "FW7Q+497 Masjid e Ahmad, Patur, Maharashtra 444501",
        "detailed_address": {
            "ward": null,
            "street": "FW7Q+497",
            "city": "Patur",
            "postal_code": "444501",
            "state": "Maharashtra",
            "country_code": "IN"
        },
        "images": [
            {
                "about": "All",
                "link": "https://lh5.googleusercontent.com/p/AF1QipP5fpboQ3HlkgPZczmUQw2mZURc06MBO4rqPpfC=w224-h398-k-no"
            }
        ],
        "link": "https://www.google.com/maps/place/Masjid+e+Ahmad/data=!4m7!3m6!1s0x3bd0cfacb404826d:0xaaaed8bf1fcc8bf5!8m2!3d20.4627893!4d76.9384072!16s%2Fg%2F11ssfyt766!19sChIJbYIEtKzP0DsR9YvMH7_Yrqo?authuser=0&hl=en&rclk=1",
        "coordinates": {
            "latitude": 20.4627893,
            "longitude": 76.9384072
        }
    },
    {
        "name": "Mohammad aabid",
        "main_category": "Apartment building",
        "address": "Mohammad aabid, Patur, Maharashtra 444501",
        "detailed_address": {
            "ward": null,
            "street": null,
            "city": "Patur",
            "postal_code": "444501",
            "state": "Maharashtra",
            "country_code": "IN"
        },
        "images": [],
        "link": "https://www.google.com/maps/place/Mohammad+aabid/data=!4m7!3m6!1s0x3bd0cf8076797cb7:0x7be75420916533cd!8m2!3d20.4620602!4d76.9386093!16s%2Fg%2F11nmc_23yf!19sChIJt3x5doDP0DsRzTNlkSBU53s?authuser=0&hl=en&rclk=1",
        "coordinates": {
            "latitude": 20.4620602,
            "longitude": 76.9386093
        }
    }
]