[
    {
        "name": "Jamia Masjid",
        "main_category": "Mosque",
        "address": "5G5C+QM6 Jamia Masjid, Gaulipur, Lingsugur, Karnataka 584122",
        "detailed_address": {
            "ward": "Gaulipur",
            "street": "5G5C+QM6",
            "city": "Lingsugur",
            "postal_code": "584122",
            "state": "Karnataka",
            "country_code": "IN"
        },
        "images": [
            {
                "about": "All",
                "link": "https://lh5.googleusercontent.com/p/AF1QipMok8t0wDdDIFI4SKIu5u-aPyUuw-X6JemACGUm=w662-h298-k-no"
            },
            {
                "about": "Street View & 360deg",
                "link": "https://streetviewpixels-pa.googleapis.com/v1/thumbnail?panoid=vhfyDCum27uAVd_GZSTVgA&cb_client=maps_sv.tactile.gps&w=224&h=298&yaw=9.978037&pitch=0&thumbfov=100"
            },
            {
                "about": "Videos",
                "link": "https://lh5.googleusercontent.com/p/AF1QipO3tq2NKPJaWqYrfAgjQJM8H1QtvJi-J-vp-p4l=w529-h298-k-no"
            }
        ],
        "link": "https://www.google.com/maps/place/Jamia+Masjid/data=!4m7!3m6!1s0x3bc8010dbd1c2bab:0x716703dd2129dc2a!8m2!3d16.1594011!4d76.5216544!16s%2Fg%2F11bxgnhrxh!19sChIJqyscvQ0ByDsRKtwpId0DZ3E?authuser=0&hl=en&rclk=1",
        "coordinates": {
            "latitude": 16.1594011,
            "longitude": 76.5216544
        }
    },
    {
        "name": "Fatima Masjid",
        "main_category": "Mosque",
        "address": "5G6C+83G Fatima Masjid, Lingsugur, Karnataka 584122",
        "detailed_address": {
            "ward": null,
            "street": "5G6C+83G",
            "city": "Lingsugur",
            "postal_code": "584122",
            "state": "Karnataka",
            "country_code": "IN"
        },
        "images": [
            {
                "about": "All",
                "link": "https://lh5.googleusercontent.com/p/AF1QipPxsmE3pZtBgC6aOv2VpCUxU2NMyFh5qxOivbhv=w224-h395-k-no"
            },
            {
                "about": "Street View & 360deg",
                "link": "https://streetviewpixels-pa.googleapis.com/v1/thumbnail?panoid=2vX1AEIrm1pZ3b6WVFWfTA&cb_client=maps_sv.tactile.gps&w=224&h=298&yaw=42.46824&pitch=0&thumbfov=100"
            },
            {
                "about": "Videos",
                "link": "https://lh5.googleusercontent.com/p/AF1QipNJzGY7gXS2XDA6iq83dsYytOTnKICCTaOJgnG8=w224-h395-k-no"
            }
        ],
        "link": "https://www.google.com/maps/place/Fatima+Masjid/data=!4m7!3m6!1s0x3bc8010d95e73d2d:0x7511656233bfd9ab!8m2!3d16.1608087!4d76.5202012!16s%2Fg%2F1261n8r66!19sChIJLT3nlQ0ByDsRq9m_M2JlEXU?authuser=0&hl=en&rclk=1",
        "coordinates": {
            "latitude": 16.1608087,
            "longitude": 76.5202012
        }
    },
    {
        "name": "Masjid-e-aliya",
        "main_category": "Mosque",
        "address": "5G9G+8X7 Masjid-e-aliya, SH 19, Lingsugur, Yalagaladinni, Karnataka 584122",
        "detailed_address": {
            "ward": null,
            "street": "5G9G+8X7, SH 19",
            "city": "Lingsugur, Yalagaladinni",
            "postal_code": "584122",
            "state": "Karnataka",
            "country_code": "IN"
        },
        "images": [
            {
                "about": "All",
                "link": "https://lh5.googleusercontent.com/p/AF1QipN0n7_mIhaX48O6CfxGp4y5jSzdNG3pFppRyH9H=w529-h298-k-no"
            },
            {
                "about": "Street View & 360deg",
                "link": "https://streetviewpixels-pa.googleapis.com/v1/thumbnail?panoid=NK76aOVkQit4ylYAycFIaw&cb_client=maps_sv.tactile.gps&w=224&h=298&yaw=298.07874&pitch=0&thumbfov=100"
            }
        ],
        "link": "https://www.google.com/maps/place/Masjid-e-aliya/data=!4m7!3m6!1s0x3bc8016b6b0aed09:0xe0dd90c689a0d93d!8m2!3d16.1682981!4d76.5274147!16s%2Fg%2F1hhkrkzvr!19sChIJCe0Ka2sByDsRPdmgicaQ3eA?authuser=0&hl=en&rclk=1",
        "coordinates": {
            "latitude": 16.168298099999998,
            "longitude": 76.5274147
        }
    },
    {
        "name": "MASJID -E- UMAR BIN(Noorani masjid)",
        "main_category": "Mosque",
        "address": "MASJID -E- UMAR BIN(Noorani masjid), near New court, Azad Nagar, Lingsugur, Karnataka 584122",
        "detailed_address": {
            "ward": "Azad Nagar",
            "street": "near New court",
            "city": "Lingsugur",
            "postal_code": "584122",
            "state": "Karnataka",
            "country_code": "IN"
        },
        "images": [
            {
                "about": "All",
                "link": "https://streetviewpixels-pa.googleapis.com/v1/thumbnail?panoid=L9voY9YleBriXyoyuhpiaA&cb_client=maps_sv.tactile.gps&w=224&h=298&yaw=195.61452&pitch=0&thumbfov=100"
            },
            {
                "about": "Street View & 360deg",
                "link": "https://streetviewpixels-pa.googleapis.com/v1/thumbnail?panoid=L9voY9YleBriXyoyuhpiaA&cb_client=maps_sv.tactile.gps&w=224&h=298&yaw=195.61452&pitch=0&thumbfov=100"
            }
        ],
        "link": "https://www.google.com/maps/place/MASJID+-E-+UMAR+BIN%28Noorani+masjid%29/data=!4m7!3m6!1s0x3bc81c9b83537a91:0x424939404606009!8m2!3d16.1550404!4d76.5199195!16s%2Fg%2F11b66dwrh0!19sChIJkXpTg5scyDsRCWBgBJSTJAQ?authuser=0&hl=en&rclk=1",
        "coordinates": {
            "latitude": 16.1550404,
            "longitude": 76.5199195
        }
    },
    {
        "name": "Masjid e Rahmaniya",
        "main_category": "Mosque",
        "address": "5G5H+43M Masjid e Rahmaniya, Shiva Nagara, Lingsugur, Karnataka 584122",
        "detailed_address": {
            "ward": "Shiva Nagara",
            "street": "5G5H+43M",
            "city": "Lingsugur",
            "postal_code": "584122",
            "state": "Karnataka",
            "country_code": "IN"
        },
        "images": [
            {
                "about": "All",
                "link": "https://lh5.googleusercontent.com/p/AF1QipM5x1Vb0-AjcBQ8B4hWWeaqpM_8g8VS-x8EK4s_=w224-h298-k-no"
            },
            {
                "about": "Street View & 360deg",
                "link": "https://streetviewpixels-pa.googleapis.com/v1/thumbnail?panoid=nEeU5bETjWpiVbH1pqohGg&cb_client=maps_sv.tactile.gps&w=224&h=298&yaw=79.94961&pitch=0&thumbfov=100"
            }
        ],
        "link": "https://www.google.com/maps/place/Masjid+e+Rahmaniya/data=!4m7!3m6!1s0x3bc8017313d8f017:0x552976d1163472a7!8m2!3d16.1578402!4d76.5276852!16s%2Fg%2F1v9l96tp!19sChIJF_DYE3MByDsRp3I0FtF2KVU?authuser=0&hl=en&rclk=1",
        "coordinates": {
            "latitude": 16.1578402,
            "longitude": 76.5276852
        }
    },
    {
        "name": "Masjid -E- Tauheed Ahle Hadees",
        "main_category": "Mosque",
        "address": "5G5F+FRC Masjid -E- Tauheed Ahle Hadees, Lingsugur, Karnataka 584122",
        "detailed_address": {
            "ward": null,
            "street": "5G5F+FRC",
            "city": "Lingsugur",
            "postal_code": "584122",
            "state": "Karnataka",
            "country_code": "IN"
        },
        "images": [
            {
                "about": "All",
                "link": "https://lh5.googleusercontent.com/p/AF1QipNLL1oDgJIo9AOWW-Zu2mgfVP4LeC0FopdFyon9=w645-h298-k-no"
            }
        ],
        "link": "https://www.google.com/maps/place/Masjid+-E-+Tauheed+Ahle+Hadees/data=!4m7!3m6!1s0x3bc801636340e767:0x1c72ad4da7b8d783!8m2!3d16.1586942!4d76.5245306!16s%2Fg%2F11gxtbfcjx!19sChIJZ-dAY2MByDsRg9e4p02tchw?authuser=0&hl=en&rclk=1",
        "coordinates": {
            "latitude": 16.1586942,
            "longitude": 76.52453059999999
        }
    },
    {
        "name": "Masjid e mohammadia (JIH)",
        "main_category": "Mosque",
        "address": "5G59+WPX Masjid e mohammadia (JIH), Unnamed Road, Gaulipur, Lingsugur, Karnataka 584122",
        "detailed_address": {
            "ward": "Gaulipur",
            "street": "5G59+WPX, Unnamed Road",
            "city": "Lingsugur",
            "postal_code": "584122",
            "state": "Karnataka",
            "country_code": "IN"
        },
        "images": [
            {
                "about": "All",
                "link": "https://lh5.googleusercontent.com/p/AF1QipPVWd4EJTpRWzFyUkfCAmLvlohh_eP2pTqyqJx8=w397-h298-k-no"
            },
            {
                "about": "Street View & 360deg",
                "link": "https://streetviewpixels-pa.googleapis.com/v1/thumbnail?panoid=6TRuqie40krn8UDXAWG6Rg&cb_client=maps_sv.tactile.gps&w=224&h=298&yaw=336.37265&pitch=0&thumbfov=100"
            }
        ],
        "link": "https://www.google.com/maps/place/Masjid+e+mohammadia+%28JIH%29/data=!4m7!3m6!1s0x3bc8015448475c21:0xdb200e66257a6ff2!8m2!3d16.159863!4d76.5193728!16s%2Fg%2F11qrtmk__n!19sChIJIVxHSFQByDsR8m96JWYOINs?authuser=0&hl=en&rclk=1",
        "coordinates": {
            "latitude": 16.159862999999998,
            "longitude": 76.5193728
        }
    },
    {
        "name": "Masjid- E-sahaba",
        "main_category": "Mosque",
        "address": "5G79+3PJ Masjid- E-sahaba, Lingsugur, Karnataka 584122",
        "detailed_address": {
            "ward": null,
            "street": "5G79+3PJ",
            "city": "Lingsugur",
            "postal_code": "584122",
            "state": "Karnataka",
            "country_code": "IN"
        },
        "images": [],
        "link": "https://www.google.com/maps/place/Masjid-+E-sahaba/data=!4m7!3m6!1s0x3bc80107b6116db3:0xddbccaf4e4fc52a8!8m2!3d16.1627115!4d76.5192705!16s%2Fg%2F11p00ddx8c!19sChIJs20RtgcByDsRqFL85PTKvN0?authuser=0&hl=en&rclk=1",
        "coordinates": {
            "latitude": 16.1627115,
            "longitude": 76.51927049999999
        }
    },
    {
        "name": "Noorani Masjid, Kasba Lingsugur",
        "main_category": "Mosque",
        "address": "4GCF+689 Noorani Masjid, Kasba Lingsugur, Kasba, Lingsugur Rural, Karnataka 584122",
        "detailed_address": {
            "ward": "Kasba",
            "street": "4GCF+689",
            "city": "Lingsugur Rural",
            "postal_code": "584122",
            "state": "Karnataka",
            "country_code": "IN"
        },
        "images": [
            {
                "about": "All",
                "link": "https://streetviewpixels-pa.googleapis.com/v1/thumbnail?panoid=K-bfMm1aDeTGeH837fZtOg&cb_client=maps_sv.tactile.gps&w=224&h=298&yaw=245.02083&pitch=0&thumbfov=100"
            },
            {
                "about": "Street View & 360deg",
                "link": "https://streetviewpixels-pa.googleapis.com/v1/thumbnail?panoid=K-bfMm1aDeTGeH837fZtOg&cb_client=maps_sv.tactile.gps&w=224&h=298&yaw=245.02083&pitch=0&thumbfov=100"
            }
        ],
        "link": "https://www.google.com/maps/place/Noorani+Masjid,+Kasba+Lingsugur/data=!4m7!3m6!1s0x3bc801a920eca6ff:0xb0d5767013e5c87f!8m2!3d16.1205445!4d76.5233529!16s%2Fg%2F11qzxbyg5q!19sChIJ_6bsIKkByDsRf8jlE3B21bA?authuser=0&hl=en&rclk=1",
        "coordinates": {
            "latitude": 16.120544499999998,
            "longitude": 76.52335289999999
        }
    },
    {
        "name": "Madina Masjid",
        "main_category": "Mosque",
        "address": "5G68+5QQ Madina Masjid, Gaulipur, Lingsugur, Karnataka 584122",
        "detailed_address": {
            "ward": "Gaulipur",
            "street": "5G68+5QQ",
            "city": "Lingsugur",
            "postal_code": "584122",
            "state": "Karnataka",
            "country_code": "IN"
        },
        "images": [
            {
                "about": "All",
                "link": "https://streetviewpixels-pa.googleapis.com/v1/thumbnail?panoid=mObxX5DwjU5y3TSCcqRI6w&cb_client=maps_sv.tactile.gps&w=224&h=298&yaw=192.79178&pitch=0&thumbfov=100"
            },
            {
                "about": "Street View & 360deg",
                "link": "https://streetviewpixels-pa.googleapis.com/v1/thumbnail?panoid=mObxX5DwjU5y3TSCcqRI6w&cb_client=maps_sv.tactile.gps&w=224&h=298&yaw=192.79178&pitch=0&thumbfov=100"
            }
        ],
        "link": "https://www.google.com/maps/place/Madina+Masjid/data=!4m7!3m6!1s0x3bc801bb989a9767:0x2a420bf72b8944fc!8m2!3d16.1604519!4d76.5169862!16s%2Fg%2F11j79x69_b!19sChIJZ5eamLsByDsR_ESJK_cLQio?authuser=0&hl=en&rclk=1",
        "coordinates": {
            "latitude": 16.160451899999998,
            "longitude": 76.51698619999999
        }
    }
]