[
    {
        "name": "Tehri Dam",
        "main_category": "Tourist attraction",
        "address": "Tehri Dam, Chokhala, Uttarakhand",
        "detailed_address": {
            "ward": null,
            "street": "Tehri Dam",
            "city": "Chokhala",
            "postal_code": null,
            "state": "Uttarakhand",
            "country_code": "IN"
        },
        "images": [
            {
                "about": "All",
                "link": "https://lh5.googleusercontent.com/p/AF1QipNQ7Ry9393__EoRmw9e8cuEDiead6ae3Zp_ZJF4=w397-h298-k-no"
            },
            {
                "about": "Latest",
                "link": "https://lh5.googleusercontent.com/p/AF1QipNKEy6obxdZBgYJ0PaX_rJxPJl7D7ogbRM9RXf2=w224-h398-k-no"
            },
            {
                "about": "Videos",
                "link": "https://lh5.googleusercontent.com/p/AF1QipPDtGn7YY-VQP9sjiVJpr3KZCkryTaGSA7ZBh_H=w529-h298-k-no"
            },
            {
                "about": "Mountain",
                "link": "https://lh5.googleusercontent.com/p/AF1QipNlbNTMblsNA3qMH2jdzmg7fQZenmPK50LFNDqU=w238-h298-k-no"
            },
            {
                "about": "By owner",
                "link": "https://lh5.googleusercontent.com/p/AF1QipOtwuN3lkKDlLJF76mFIAGuRTwiFLCy_1-HlBsQ=w397-h298-k-no"
            },
            {
                "about": "Street View & 360deg",
                "link": "https://lh5.googleusercontent.com/p/AF1QipMfLFec3C_UFu5YgmVJFDo1x-niFosQxb_CGuWK=w224-h298-k-no-pi-20-ya2.9999833-ro-0-fo100"
            }
        ],
        "link": "https://www.google.com/maps/place/Tehri+Dam/data=!4m7!3m6!1s0x3908e36a24655f13:0xb86bc78063ecd220!8m2!3d30.3777734!4d78.480273!16zL20vMDUwYjJr!19sChIJE19lJGrjCDkRINLsY4DHa7g?authuser=0&hl=en&rclk=1",
        "coordinates": {
            "latitude": 30.3777734,
            "longitude": 78.480273
        }
    },
    {
        "name": "Tedhipulia Jama Masjid",
        "main_category": "Mosque",
        "address": "Tedhipulia Jama Masjid, MDR, 77C, Lucknow - Sitapur Rd, Aliganj, Lucknow, Uttar Pradesh 226024",
        "detailed_address": {
            "ward": "Tehri Puliya, Aliganj",
            "street": "MDR, 77C, Lucknow - Sitapur Rd",
            "city": "Lucknow",
            "postal_code": "226024",
            "state": "Uttar Pradesh",
            "country_code": "IN"
        },
        "images": [
            {
                "about": "All",
                "link": "https://lh5.googleusercontent.com/p/AF1QipOh7YYeBDCHoH0NLimXtxZQdIWeGMe0rqX4tU9T=w224-h298-k-no"
            },
            {
                "about": "Street View & 360deg",
                "link": "https://streetviewpixels-pa.googleapis.com/v1/thumbnail?panoid=LtjHcRFAbSvro_OuGAOgAQ&cb_client=maps_sv.tactile.gps&w=224&h=298&yaw=230.36598&pitch=0&thumbfov=100"
            },
            {
                "about": "Videos",
                "link": "https://lh5.googleusercontent.com/p/AF1QipMZ5S2MHKKE_gVfET64pwqJv4RE3-L9pRN3Op_w=w529-h298-k-no"
            }
        ],
        "link": "https://www.google.com/maps/place/Tedhipulia+Jama+Masjid/data=!4m7!3m6!1s0x399957b8455fdfa7:0xf1a7513e3c634a8!8m2!3d26.9089012!4d80.9558267!16s%2Fg%2F1tct73p_!19sChIJp99fRbhXmTkRqDTG4xN1Gg8?authuser=0&hl=en&rclk=1",
        "coordinates": {
            "latitude": 26.9089012,
            "longitude": 80.9558267
        }
    },
    {
        "name": "Tehri Dam",
        "main_category": "Tourist attraction",
        "address": "9CFJ+GXX Tehri Dam, New Tehri, Uttarakhand 249001",
        "detailed_address": {
            "ward": null,
            "street": "9CFJ+GXX",
            "city": "New Tehri",
            "postal_code": null,
            "state": "Uttarakhand",
            "country_code": "IN"
        },
        "images": [
            {
                "about": "All",
                "link": "https://lh5.googleusercontent.com/p/AF1QipPLMel51-7ixKmm_MhxXkvSFYvV33SlDt-Jp0pi=w397-h298-k-no"
            },
            {
                "about": "Latest",
                "link": "https://lh5.googleusercontent.com/p/AF1QipPpsfl0gDwEzdNjBsWn350CHnQazKgWdtbaiZB5=w224-h298-k-no"
            },
            {
                "about": "Videos",
                "link": "https://lh5.googleusercontent.com/p/AF1QipNnq_5Vm3prCW89cMX3Xgv-VBYnLLLNeCx9vfDN=w224-h398-k-no"
            },
            {
                "about": "Mountain",
                "link": "https://lh5.googleusercontent.com/p/AF1QipN4ORdN2S_IQHBNeluOpRBQUmIpriHdJQ5zEJ3c=w224-h298-k-no"
            }
        ],
        "link": "https://www.google.com/maps/place/Tehri+Dam/data=!4m7!3m6!1s0x39091d2eba5db0d1:0xbba5b7ddc6990b9e!8m2!3d30.3738609!4d78.4324809!16s%2Fg%2F11s762fz30!19sChIJ0bBdui4dCTkRnguZxt23pbs?authuser=0&hl=en&rclk=1",
        "coordinates": {
            "latitude": 30.3738609,
            "longitude": 78.4324809
        }
    },
    {
        "name": "Noori Masjid",
        "main_category": "Mosque",
        "address": "7RJP+28C Noori Masjid, Manpur Bisalpur, Tehri, Uttar Pradesh 262201",
        "detailed_address": {
            "ward": null,
            "street": "7RJP+28C",
            "city": "Manpur Bisalpur, Tehri",
            "postal_code": "262201",
            "state": "Uttar Pradesh",
            "country_code": "IN"
        },
        "images": [],
        "link": "https://www.google.com/maps/place/Noori+Masjid/data=!4m7!3m6!1s0x399f894d8f896a25:0x3d5c94b5f55712c8!8m2!3d28.2801322!4d79.8379467!16s%2Fg%2F11tmkv3z0m!19sChIJJWqJj02JnzkRyBJX9bWUXD0?authuser=0&hl=en&rclk=1",
        "coordinates": {
            "latitude": 28.280132199999997,
            "longitude": 79.8379467
        }
    },
    {
        "name": "Takiye wali masjid",
        "main_category": "Mosque",
        "address": "WQQ4+769 Takiye wali masjid, Sirchandi, Uttarakhand 247661",
        "detailed_address": {
            "ward": null,
            "street": "WQQ4+769",
            "city": "Sirchandi",
            "postal_code": "247661",
            "state": "Uttarakhand",
            "country_code": "IN"
        },
        "images": [],
        "link": "https://www.google.com/maps/place/Takiye+wali+masjid/data=!4m7!3m6!1s0x390eb72c7c76b33d:0xb742acc47520b2e8!8m2!3d29.9381463!4d77.7555412!16s%2Fg%2F11y1z5nk35!19sChIJPbN2fCy3DjkR6LIgdcSsQrc?authuser=0&hl=en&rclk=1",
        "coordinates": {
            "latitude": 29.9381463,
            "longitude": 77.7555412
        }
    },
    {
        "name": "Suri mata mandir Tehri",
        "main_category": "Hindu temple",
        "address": "9CHH+43W Suri mata mandir Tehri, Baurari, New Tehri, Uttarakhand 249001",
        "detailed_address": {
            "ward": "Baurari",
            "street": "9CHH+43W",
            "city": "New Tehri",
            "postal_code": "249001",
            "state": "Uttarakhand",
            "country_code": "IN"
        },
        "images": [],
        "link": "https://www.google.com/maps/place/Suri+mata+mandir+Tehri/data=!4m7!3m6!1s0x39091d804513e295:0x4f5a0f0c7b98772e!8m2!3d30.3778703!4d78.4277007!16s%2Fg%2F11dz5chgf7!19sChIJleITRYAdCTkRLneYewwPWk8?authuser=0&hl=en&rclk=1",
        "coordinates": {
            "latitude": 30.377870299999998,
            "longitude": 78.4277007
        }
    },
    {
        "name": "Mohd Yameen Clothes",
        "main_category": "Clothing store",
        "address": "Mohd Yameen Clothes, 1 Tehri, near by Masjid, Bilaspur, Uttar Pradesh 244921",
        "detailed_address": {
            "ward": null,
            "street": "1 Tehri, near by Masjid",
            "city": "Bilaspur, Nawab Nagar",
            "postal_code": "244921",
            "state": "Uttar Pradesh",
            "country_code": "IN"
        },
        "images": [],
        "link": "https://www.google.com/maps/place/Mohd+Yameen+Clothes/data=!4m7!3m6!1s0x390a9d34d0ae155b:0xafc3457d029bc16f!8m2!3d28.7927821!4d79.3116697!16s%2Fg%2F11vlsh_5ck!19sChIJWxWu0DSdCjkRb8GbAn1Fw68?authuser=0&hl=en&rclk=1",
        "coordinates": {
            "latitude": 28.7927821,
            "longitude": 79.3116697
        }
    },
    {
        "name": "Khand Khaala",
        "main_category": "Fast food restaurant",
        "address": "9FQ8+JG3 Khand Khaala, Tehri Dam Rd, Tehri, Uttarakhand 249001",
        "detailed_address": {
            "ward": null,
            "street": "9FQ8+JG3, Tehri Dam Rd",
            "city": "Tehri",
            "postal_code": "249001",
            "state": "Uttarakhand",
            "country_code": "IN"
        },
        "images": [],
        "link": "https://www.google.com/maps/place/Khand+Khaala/data=!4m7!3m6!1s0x3908e39e7dcf78e5:0xeb00e830e7184d69!8m2!3d30.389016!4d78.4662987!16s%2Fg%2F11r711hd69!19sChIJ5XjPfZ7jCDkRaU0Y5zDoAOs?authuser=0&hl=en&rclk=1",
        "coordinates": {
            "latitude": 30.389015999999998,
            "longitude": 78.4662987
        }
    },
    {
        "name": "ND masjid",
        "main_category": "Mosque",
        "address": "89WV+5VR ND masjid, Uttarakhand Tehri gharwal Chamba jadipani, Chamba",
        "detailed_address": {
            "ward": null,
            "street": "89WV+5VR, Uttarakhand Tehri gharwal Chamba jadipani",
            "city": "Chamba",
            "postal_code": null,
            "state": "Uttarakhand",
            "country_code": "IN"
        },
        "images": [
            {
                "about": "All",
                "link": "https://streetviewpixels-pa.googleapis.com/v1/thumbnail?panoid=Zj7H6z-T-Dq-Z2DToQFyTQ&cb_client=maps_sv.tactile.gps&w=224&h=298&yaw=337.50208&pitch=0&thumbfov=100"
            },
            {
                "about": "Street View & 360deg",
                "link": "https://streetviewpixels-pa.googleapis.com/v1/thumbnail?panoid=Zj7H6z-T-Dq-Z2DToQFyTQ&cb_client=maps_sv.tactile.gps&w=224&h=298&yaw=337.50208&pitch=0&thumbfov=100"
            }
        ],
        "link": "https://www.google.com/maps/place/ND+masjid/data=!4m7!3m6!1s0x39091d0063202d2f:0x59fa9bbc658579d1!8m2!3d30.3454803!4d78.394656!16s%2Fg%2F11vlz_8vlg!19sChIJLy0gYwAdCTkR0XmFZbyb-lk?authuser=0&hl=en&rclk=1",
        "coordinates": {
            "latitude": 30.3454803,
            "longitude": 78.394656
        }
    },
    {
        "name": "Jama Maszid Dangi",
        "main_category": "Mosque",
        "address": "C2CJ+88R Jama Maszid Dangi, Dangi, Uttarakhand 246421",
        "detailed_address": {
            "ward": null,
            "street": "C2CJ+88R",
            "city": "Dangi",
            "postal_code": "246421",
            "state": "Uttarakhand",
            "country_code": "IN"
        },
        "images": [
            {
                "about": "All",
                "link": "https://lh5.googleusercontent.com/p/AF1QipNFMfacZaXicBHSPfGwnrdlVrCFOWidV2X8c_Br=w224-h298-k-no"
            },
            {
                "about": "Street View & 360deg",
                "link": "https://streetviewpixels-pa.googleapis.com/v1/thumbnail?panoid=axjf2GASGJjgjLEhJcJSNw&cb_client=maps_sv.tactile.gps&w=224&h=298&yaw=276.14224&pitch=0&thumbfov=100"
            }
        ],
        "link": "https://www.google.com/maps/place/Jama+Maszid+Dangi/data=!4m7!3m6!1s0x3909cbaadec4bf45:0x70ee3d771ba5202f!8m2!3d30.420828!4d79.030407!16s%2Fg%2F11svyt46kl!19sChIJRb_E3qrLCTkRLyClG3c97nA?authuser=0&hl=en&rclk=1",
        "coordinates": {
            "latitude": 30.420828,
            "longitude": 79.030407
        }
    }
]