[
    {
        "name": "Hasan Gouri Masjid",
        "main_category": "Mosque",
        "address": "3VWW+86W Hasan Gouri Masjid, Guwalda, Rajasthan 301411",
        "detailed_address": {
            "ward": null,
            "street": "3VWW+86W",
            "city": "Guwalda",
            "postal_code": null,
            "state": "Rajasthan",
            "country_code": "IN"
        },
        "images": [
            {
                "about": "All",
                "link": "https://lh5.googleusercontent.com/p/AF1QipP1JtfKrhvokgLau5Ml17_2D4rlGJMx8lPm3mVm=w397-h298-k-no"
            },
            {
                "about": "Videos",
                "link": "https://lh5.googleusercontent.com/p/AF1QipN-eUd32Z2hBSEqaX82385IuB0JcZlk9CehL77h=w224-h398-k-no"
            }
        ],
        "link": "https://www.google.com/maps/place/Hasan+Gouri+Masjid/data=!4m7!3m6!1s0x390d3467820818e1:0x4b552f09b0820565!8m2!3d28.0958671!4d76.8955653!16s%2Fg%2F11gf3t4gr2!19sChIJ4RgIgmc0DTkRZQWCsAkvVUs?authuser=0&hl=en&rclk=1",
        "coordinates": {
            "latitude": 28.0958671,
            "longitude": 76.8955653
        }
    },
    {
        "name": "HAJI WALI MASJID",
        "main_category": "Mosque",
        "address": "HAJI WALI MASJID, Ghasera, Haryana 122103",
        "detailed_address": {
            "ward": null,
            "street": null,
            "city": "Ghasera",
            "postal_code": "122103",
            "state": "Haryana",
            "country_code": "IN"
        },
        "images": [],
        "link": "https://www.google.com/maps/place/HAJI+WALI+MASJID/data=!4m7!3m6!1s0x390d2d37a097eb09:0x9645be1f690971b1!8m2!3d28.1282928!4d77.073101!16s%2Fg%2F11r1gpc6gg!19sChIJCeuXoDctDTkRsXEJaR--RZY?authuser=0&hl=en&rclk=1",
        "coordinates": {
            "latitude": 28.128292799999997,
            "longitude": 77.073101
        }
    },
    {
        "name": "Bhagat Singh Chowk - Dharuhera",
        "main_category": "Historical landmark",
        "address": "Bhagat Singh Chowk - Dharuhera, NH 8, near bestech city mall, Dharuhera, Haryana 123106",
        "detailed_address": {
            "ward": null,
            "street": "NH 8, near bestech city mall",
            "city": "Dharuhera",
            "postal_code": "123106",
            "state": "Haryana",
            "country_code": "IN"
        },
        "images": [
            {
                "about": "All",
                "link": "https://lh5.googleusercontent.com/p/AF1QipPDtle4NRpPkQhjnfBgwOCxGMzn5R1t9NBWjVs7=w224-h397-k-no"
            },
            {
                "about": "Public space",
                "link": "https://lh5.googleusercontent.com/p/AF1QipNJlkaa5nYcmy40VmlkLlthO4VPKx7lJl-WLr3c=w528-h298-k-no"
            },
            {
                "about": "Street View & 360deg",
                "link": "https://streetviewpixels-pa.googleapis.com/v1/thumbnail?panoid=wBLsKQMj46go4Ub-G2uZKQ&cb_client=maps_sv.tactile.gps&w=224&h=298&yaw=23.130512&pitch=0&thumbfov=100"
            }
        ],
        "link": "https://www.google.com/maps/place/Bhagat+Singh+Chowk+-+Dharuhera/data=!4m7!3m6!1s0x390d49b547cf4881:0x8cbf1f35cce8ba68!8m2!3d28.2056606!4d76.7914639!16s%2Fg%2F11nns2vsq5!19sChIJgUjPR7VJDTkRaLrozDUfv4w?authuser=0&hl=en&rclk=1",
        "coordinates": {
            "latitude": 28.205660599999998,
            "longitude": 76.7914639
        }
    },
    {
        "name": "Town Park",
        "main_category": "Park",
        "address": "6Q5Q+5WJ Town Park, Dharuhera, Haryana 123106",
        "detailed_address": {
            "ward": null,
            "street": "6Q5Q+5WJ",
            "city": "Dharuhera",
            "postal_code": "123106",
            "state": "Haryana",
            "country_code": "IN"
        },
        "images": [
            {
                "about": "All",
                "link": "https://lh5.googleusercontent.com/p/AF1QipMTv4FfxYIE0OcGb6dGva4iJoudZvSq97RgOfNb=w224-h298-k-no"
            },
            {
                "about": "Street View & 360deg",
                "link": "https://lh5.googleusercontent.com/p/AF1QipObTkxUsB4VtKvU-98R2Fnlzue80xPzL11xNZPT=w224-h298-k-no-pi-20-ya106.99999-ro-0-fo100"
            },
            {
                "about": "Videos",
                "link": "https://lh5.googleusercontent.com/p/AF1QipNnfH7xMF62KUbpAIuI8JdnsujzlWnP7YvpXXUy=w529-h298-k-no"
            }
        ],
        "link": "https://www.google.com/maps/place/Town+Park/data=!4m7!3m6!1s0x390d487a3d419955:0x841b981c8e674096!8m2!3d28.2079693!4d76.7897602!16s%2Fg%2F1hm24p9y9!19sChIJVZlBPXpIDTkRlkBnjhyYG4Q?authuser=0&hl=en&rclk=1",
        "coordinates": {
            "latitude": 28.2079693,
            "longitude": 76.7897602
        }
    },
    {
        "name": "Jama Masjid Pataudi Chowk",
        "main_category": "Mosque",
        "address": "8QFG+PJ5 Jama Masjid Pataudi Chowk, Sher Shah Suri Rd, Pataudi, Haryana 122503",
        "detailed_address": {
            "ward": null,
            "street": "8QFG+PJ5, Sher Shah Suri Rd",
            "city": "Pataudi",
            "postal_code": "122503",
            "state": "Haryana",
            "country_code": "IN"
        },
        "images": [
            {
                "about": "All",
                "link": "https://lh5.googleusercontent.com/p/AF1QipMxV-oRV4Vp3qy8gBc5uugHUQEIXzk5lzkIMDCB=w224-h335-k-no"
            },
            {
                "about": "Street View & 360deg",
                "link": "https://streetviewpixels-pa.googleapis.com/v1/thumbnail?panoid=MhlxnP3m34OUmSWvFws_UQ&cb_client=maps_sv.tactile.gps&w=224&h=298&yaw=229.70184&pitch=0&thumbfov=100"
            },
            {
                "about": "Videos",
                "link": "https://lh5.googleusercontent.com/p/AF1QipPthlaZ8YbyUKNsWm3j90b15ZuDfWenwTElzIJX=w224-h407-k-no"
            }
        ],
        "link": "https://www.google.com/maps/place/Jama+Masjid+Pataudi+Chowk/data=!4m7!3m6!1s0x390d41fdca3a5b95:0xe39b3af209efcb72!8m2!3d28.3242511!4d76.7766043!16s%2Fg%2F11k5vzg5w3!19sChIJlVs6yv1BDTkRcsvvCfI6m-M?authuser=0&hl=en&rclk=1",
        "coordinates": {
            "latitude": 28.324251099999998,
            "longitude": 76.7766043
        }
    },
    {
        "name": "Jama Masjid",
        "main_category": "Mosque",
        "address": "6J29+948 Jama Masjid, Kayasthwara Mohalla, Rewari, Kanmajra, Haryana 123401",
        "detailed_address": {
            "ward": "Kayasthwara Mohalla",
            "street": "6J29+948",
            "city": "Rewari, Kanmajra",
            "postal_code": "123401",
            "state": "Haryana",
            "country_code": "IN"
        },
        "images": [
            {
                "about": "All",
                "link": "https://lh5.googleusercontent.com/p/AF1QipMzyC85lAABpgcBDkO0RjLDK1ZrvGg_dqGIBaDv=w224-h298-k-no"
            },
            {
                "about": "Street View & 360deg",
                "link": "https://streetviewpixels-pa.googleapis.com/v1/thumbnail?panoid=4Eqx4gb_xGJ9UEsrTwtWQQ&cb_client=maps_sv.tactile.gps&w=224&h=298&yaw=11.686058&pitch=0&thumbfov=100"
            }
        ],
        "link": "https://www.google.com/maps/place/Jama+Masjid/data=!4m7!3m6!1s0x390d5a9f79665751:0x8f45f817913a0c5a!8m2!3d28.2009209!4d76.6178169!16s%2Fg%2F11h0_z_pg!19sChIJUVdmeZ9aDTkRWgw6kRf4RY8?authuser=0&hl=en&rclk=1",
        "coordinates": {
            "latitude": 28.2009209,
            "longitude": 76.6178169
        }
    },
    {
        "name": "Madni Jama Masjid",
        "main_category": "Mosque",
        "address": "6V5P+34J Madni Jama Masjid, Khori Kalan, Haryana 122015",
        "detailed_address": {
            "ward": null,
            "street": "6V5P+34J",
            "city": "Khori Kalan",
            "postal_code": "122015",
            "state": "Haryana",
            "country_code": "IN"
        },
        "images": [
            {
                "about": "All",
                "link": "https://lh5.googleusercontent.com/p/AF1QipO6HoFTsm8lJrXpaBvesq-FoiXgyQekcOlFJOxZ=w298-h298-k-no"
            },
            {
                "about": "Street View & 360deg",
                "link": "https://streetviewpixels-pa.googleapis.com/v1/thumbnail?panoid=c_TGt_zYdNn31qpqwOPjMA&cb_client=maps_sv.tactile.gps&w=224&h=298&yaw=337.38333&pitch=0&thumbfov=100"
            },
            {
                "about": "Videos",
                "link": "https://lh5.googleusercontent.com/p/AF1QipPrwPZwSI9ScpMSnBoBjvsPVpBVn-Nr-KgUP9qO=w224-h398-k-no"
            }
        ],
        "link": "https://www.google.com/maps/place/Madni+Jama+Masjid/data=!4m7!3m6!1s0x390d376e6d9e6c15:0x2d85391f7c435653!8m2!3d28.207719!4d76.8852533!16s%2Fg%2F11c20d2f_n!19sChIJFWyebW43DTkRU1ZDfB85hS0?authuser=0&hl=en&rclk=1",
        "coordinates": {
            "latitude": 28.207718999999997,
            "longitude": 76.8852533
        }
    },
    {
        "name": "Jama Masjid",
        "main_category": "Mosque",
        "address": "6V88+2HP Jama Masjid, Bhiwadi, Rajasthan 301019",
        "detailed_address": {
            "ward": null,
            "street": "6V88+2HP",
            "city": "Bhiwadi",
            "postal_code": "301019",
            "state": "Rajasthan",
            "country_code": "IN"
        },
        "images": [
            {
                "about": "All",
                "link": "https://lh5.googleusercontent.com/p/AF1QipOu5DRJ49jpkkwQ0Rqu-THbEymIpIbgXV0EjC6a=w397-h298-k-no"
            },
            {
                "about": "Street View & 360deg",
                "link": "https://streetviewpixels-pa.googleapis.com/v1/thumbnail?panoid=YXkayRspD0SK0JWm5GoJVw&cb_client=maps_sv.tactile.gps&w=224&h=298&yaw=112.44874&pitch=0&thumbfov=100"
            }
        ],
        "link": "https://www.google.com/maps/place/Jama+Masjid/data=!4m7!3m6!1s0x390d37838aceeaff:0xc7820228e8a39e81!8m2!3d28.2150914!4d76.8664496!16s%2Fg%2F11gbx9x0cz!19sChIJ_-rOioM3DTkRgZ6j6CgCgsc?authuser=0&hl=en&rclk=1",
        "coordinates": {
            "latitude": 28.2150914,
            "longitude": 76.8664496
        }
    },
    {
        "name": "Masjid Galpur",
        "main_category": "Mosque",
        "address": "3R5M+QPR Masjid Galpur, gailpur front of, Alwar - Bhiwadi Rd, Tijara, Rajasthan 301707",
        "detailed_address": {
            "ward": null,
            "street": "3R5M+QPR, gailpur front of, Alwar - Bhiwadi Rd",
            "city": "Tijara, Gelpur",
            "postal_code": "301707",
            "state": "Rajasthan",
            "country_code": "IN"
        },
        "images": [
            {
                "about": "All",
                "link": "https://lh5.googleusercontent.com/p/AF1QipMo8O9lCLpOgDYGOIisDrTTSsHNEb63V81qtgl_=w589-h298-k-no"
            }
        ],
        "link": "https://www.google.com/maps/place/Masjid+Galpur/data=!4m7!3m6!1s0x390d35671fe48725:0xc108195667084f80!8m2!3d28.0594969!4d76.8342577!16s%2Fg%2F11gf9fw65b!19sChIJJYfkH2c1DTkRgE8IZ1YZCME?authuser=0&hl=en&rclk=1",
        "coordinates": {
            "latitude": 28.0594969,
            "longitude": 76.8342577
        }
    },
    {
        "name": "Masjid Abu Bakar msjd bwbkhr",
        "main_category": "Mosque",
        "address": "6X76+QMV Masjid Abu Bakar msjd bwbkhr, sarpanch market sohna rod baypaas, Tauru, Haryana 122105",
        "detailed_address": {
            "ward": null,
            "street": "6X76+QMV, sarpanch market sohna rod baypaas",
            "city": "Tauru, Taorurural",
            "postal_code": "122105",
            "state": "Haryana",
            "country_code": "IN"
        },
        "images": [
            {
                "about": "All",
                "link": "https://lh5.googleusercontent.com/p/AF1QipMJox6qwet88axuuHkYF2smTkLuE0VfC57UHhMC=w224-h398-k-no"
            },
            {
                "about": "Street View & 360deg",
                "link": "https://streetviewpixels-pa.googleapis.com/v1/thumbnail?panoid=Ff5QF-QsOHwqwg6JqVfEtw&cb_client=maps_sv.tactile.gps&w=224&h=298&yaw=100.993&pitch=0&thumbfov=100"
            },
            {
                "about": "Videos",
                "link": "https://lh5.googleusercontent.com/p/AF1QipNOwS-0I10mvtnzbTZQDHlrVsHC3kNjYaCSTrPD=w224-h398-k-no"
            }
        ],
        "link": "https://www.google.com/maps/place/Masjid+Abu+Bakar+%D9%85%D8%B3%D8%AC%D8%AF+%D8%A7%D8%A8%D9%88%D8%A8%DA%A9%D8%B1%E2%80%AD/data=!4m7!3m6!1s0x390d3089811e40e9:0x6537ba34315fcd62!8m2!3d28.2144766!4d76.9616797!16s%2Fg%2F11f4l9kkln!19sChIJ6UAegYkwDTkRYs1fMTS6N2U?authuser=0&hl=en&rclk=1",
        "coordinates": {
            "latitude": 28.214476599999998,
            "longitude": 76.96167969999999
        }
    },
    {
        "name": "mrkjii msjid kheddii",
        "main_category": "Mosque",
        "address": "5W76+HCM mrkjii msjid kheddii, Kheri, Rajasthan 301018",
        "detailed_address": {
            "ward": null,
            "street": "5W76+HCM",
            "city": "Kheri",
            "postal_code": null,
            "state": "Rajasthan",
            "country_code": "IN"
        },
        "images": [
            {
                "about": "All",
                "link": "https://lh5.googleusercontent.com/p/AF1QipOG9WwmvaDY3LSlr1eG_ULwLw9C4Dhg18_U21kr=w224-h395-k-no"
            },
            {
                "about": "Videos",
                "link": "https://lh5.googleusercontent.com/p/AF1QipOG9WwmvaDY3LSlr1eG_ULwLw9C4Dhg18_U21kr=w224-h395-k-no"
            }
        ],
        "link": "https://www.google.com/maps/place/%E0%A4%AE%E0%A4%B0%E0%A4%95%E0%A4%9C%E0%A5%80+%E0%A4%AE%E0%A4%B8%E0%A5%8D%E0%A4%9C%E0%A4%BF%E0%A4%A6+%E0%A4%96%E0%A5%87%E0%A4%A1%E0%A5%80/data=!4m7!3m6!1s0x390d36ceb64a7cb1:0x601f07093e79f0a7!8m2!3d28.1639552!4d76.9110528!16s%2Fg%2F11hctyzfw8!19sChIJsXxKts42DTkRp_B5PgkHH2A?authuser=0&hl=en&rclk=1",
        "coordinates": {
            "latitude": 28.1639552,
            "longitude": 76.9110528
        }
    },
    {
        "name": "jama masjid karenda",
        "main_category": "Mosque",
        "address": "5V9W+5PG jama masjid karenda, Karenda, Rajasthan 301018",
        "detailed_address": {
            "ward": null,
            "street": "5V9W+5PG",
            "city": "Karenda",
            "postal_code": null,
            "state": "Rajasthan",
            "country_code": "IN"
        },
        "images": [],
        "link": "https://www.google.com/maps/place/jama+masjid+karenda/data=!4m7!3m6!1s0x390d36dd3493f3f5:0x37358cb0ed0f0688!8m2!3d28.1679304!4d76.8968333!16s%2Fg%2F11f5237zwx!19sChIJ9fOTNN02DTkRiAYP7bCMNTc?authuser=0&hl=en&rclk=1",
        "coordinates": {
            "latitude": 28.1679304,
            "longitude": 76.8968333
        }
    },
    {
        "name": "Dhaka Basti Masjid",
        "main_category": "Mosque",
        "address": "5JRC+PGV Dhaka Basti Masjid, Rajeev Nagar, krishna Nagar, Rewari, Haryana 123401",
        "detailed_address": {
            "ward": "Rajeev Nagar, krishna Nagar",
            "street": "5JRC+PGV",
            "city": "Rewari",
            "postal_code": "123401",
            "state": "Haryana",
            "country_code": "IN"
        },
        "images": [
            {
                "about": "All",
                "link": "https://lh5.googleusercontent.com/p/AF1QipNOPAjikCyRjz68Y1p6-pOl_O3cSXDlmkz2Cpi3=w397-h298-k-no"
            },
            {
                "about": "Street View & 360deg",
                "link": "https://streetviewpixels-pa.googleapis.com/v1/thumbnail?panoid=j67gahYVuVxuwR6jmYbD0w&cb_client=maps_sv.tactile.gps&w=224&h=298&yaw=285.72153&pitch=0&thumbfov=100"
            }
        ],
        "link": "https://www.google.com/maps/place/Dhaka+Basti+Masjid/data=!4m7!3m6!1s0x390d500c9486d085:0xf39f260c28ea5228!8m2!3d28.1918701!4d76.6212863!16s%2Fg%2F11f2w5j6wq!19sChIJhdCGlAxQDTkRKFLqKAwmn_M?authuser=0&hl=en&rclk=1",
        "coordinates": {
            "latitude": 28.1918701,
            "longitude": 76.6212863
        }
    },
    {
        "name": "Jama Masjid Guwalda",
        "main_category": "Mosque",
        "address": "4V6V+3GG Jama Masjid Guwalda, Guwalda, Rajasthan 301707",
        "detailed_address": {
            "ward": null,
            "street": "4V6V+3GG",
            "city": "Guwalda",
            "postal_code": "301707",
            "state": "Rajasthan",
            "country_code": "IN"
        },
        "images": [
            {
                "about": "All",
                "link": "https://lh5.googleusercontent.com/p/AF1QipMimOW6j2vYi7hTOqecM8_9bgFxdGTUKtzXxRCE=w224-h298-k-no"
            },
            {
                "about": "Videos",
                "link": "https://lh5.googleusercontent.com/p/AF1QipMQar4ofoc7P_0ryEgunJ-kAXFtP6fW6Vdal2rU=w224-h398-k-no"
            }
        ],
        "link": "https://www.google.com/maps/place/Jama+Masjid+Guwalda/data=!4m7!3m6!1s0x390d3446aaaaaaa9:0x6fd826dd23dae888!8m2!3d28.1101824!4d76.8938403!16s%2Fg%2F11fxdy1bfp!19sChIJqaqqqkY0DTkRiOjaI90m2G8?authuser=0&hl=en&rclk=1",
        "coordinates": {
            "latitude": 28.1101824,
            "longitude": 76.8938403
        }
    },
    {
        "name": "Jama Masjid",
        "main_category": "Mosque",
        "address": "7XHF+J86 Jama Masjid, Mohammadpur Ahir, Haryana 122105",
        "detailed_address": {
            "ward": null,
            "street": "7XHF+J86",
            "city": "Mohammadpur Ahir",
            "postal_code": "122105",
            "state": "Haryana",
            "country_code": "IN"
        },
        "images": [
            {
                "about": "All",
                "link": "https://streetviewpixels-pa.googleapis.com/v1/thumbnail?panoid=SGdWSOxwDwGsALt9GSOoaA&cb_client=maps_sv.tactile.gps&w=224&h=298&yaw=357.15912&pitch=0&thumbfov=100"
            },
            {
                "about": "Street View & 360deg",
                "link": "https://streetviewpixels-pa.googleapis.com/v1/thumbnail?panoid=SGdWSOxwDwGsALt9GSOoaA&cb_client=maps_sv.tactile.gps&w=224&h=298&yaw=357.15912&pitch=0&thumbfov=100"
            }
        ],
        "link": "https://www.google.com/maps/place/Jama+Masjid/data=!4m7!3m6!1s0x390d3b028699b707:0xac33367e0033dbb2!8m2!3d28.2790473!4d76.9732685!16s%2Fg%2F11c1szbrd8!19sChIJB7eZhgI7DTkRstszAH42M6w?authuser=0&hl=en&rclk=1",
        "coordinates": {
            "latitude": 28.2790473,
            "longitude": 76.9732685
        }
    },
    {
        "name": "Jama Masjid",
        "main_category": "Mosque",
        "address": "7V3H+MJ5 Jama Masjid, Utoon, Haryana 122015",
        "detailed_address": {
            "ward": null,
            "street": "7V3H+MJ5",
            "city": "Utoon",
            "postal_code": "122015",
            "state": "Haryana",
            "country_code": "IN"
        },
        "images": [
            {
                "about": "All",
                "link": "https://lh5.googleusercontent.com/p/AF1QipNH2TzVHYc3tuldNhNU3YFvkie7-zRgZgLKdKly=w397-h298-k-no"
            },
            {
                "about": "Videos",
                "link": "https://lh5.googleusercontent.com/p/AF1QipN6o-Ra8iI6V-rpYZODUcTd-Vb1AP8581jeIVr_=w224-h398-k-no"
            }
        ],
        "link": "https://www.google.com/maps/place/Jama+Masjid/data=!4m7!3m6!1s0x390d39b16e9dc317:0xe0338f4798f598c4!8m2!3d28.2541391!4d76.8790972!16s%2Fg%2F11hbn368zx!19sChIJF8OdbrE5DTkRxJj1mEePM-A?authuser=0&hl=en&rclk=1",
        "coordinates": {
            "latitude": 28.2541391,
            "longitude": 76.87909719999999
        }
    },
    {
        "name": "raza jama masjed",
        "main_category": "Mosque",
        "address": "5VXC+QR6 raza jama masjed, RIICO Industrial Area, Bhiwadi, Rajasthan 301019",
        "detailed_address": {
            "ward": "RIICO Industrial Area",
            "street": "5VXC+QR6",
            "city": "Bhiwadi",
            "postal_code": "301019",
            "state": "Rajasthan",
            "country_code": "IN"
        },
        "images": [
            {
                "about": "All",
                "link": "https://lh5.googleusercontent.com/p/AF1QipPvgwFfwECiBVdOFnEJ5nfPDuKrY6JqzJNlx37p=w447-h298-k-no"
            },
            {
                "about": "Street View & 360deg",
                "link": "https://streetviewpixels-pa.googleapis.com/v1/thumbnail?panoid=wC6OUGJNGRo7vKRGFgTKiA&cb_client=maps_sv.tactile.gps&w=224&h=298&yaw=0.47029892&pitch=0&thumbfov=100"
            },
            {
                "about": "Videos",
                "link": "https://lh5.googleusercontent.com/p/AF1QipNNK4U8fG4jjADi6c9pG_QrcqQCITAQAhsBbEyD=w224-h398-k-no"
            }
        ],
        "link": "https://www.google.com/maps/place/raza+jama+masjed/data=!4m7!3m6!1s0x390d37a0076be8b1:0x178a1afa2e72c660!8m2!3d28.1994019!4d76.8720255!16s%2Fg%2F11hbg9wb3k!19sChIJsehrB6A3DTkRYMZyLvoaihc?authuser=0&hl=en&rclk=1",
        "coordinates": {
            "latitude": 28.199401899999998,
            "longitude": 76.87202549999999
        }
    },
    {
        "name": "Eidgah Masjid Dhulawat",
        "main_category": "Mosque",
        "address": "6265+Q7H Eidgah Masjid Dhulawat, Dhulawat, Haryana 122103",
        "detailed_address": {
            "ward": null,
            "street": "6265+Q7H",
            "city": "Dhulawat",
            "postal_code": "122103",
            "state": "Haryana",
            "country_code": "IN"
        },
        "images": [
            {
                "about": "All",
                "link": "https://lh5.googleusercontent.com/p/AF1QipM1hVHujWTgV9FcRbhx6XbJU1L_x6Jg7CHT6e5D=w529-h298-k-no"
            },
            {
                "about": "Videos",
                "link": "https://lh5.googleusercontent.com/p/AF1QipM1hVHujWTgV9FcRbhx6XbJU1L_x6Jg7CHT6e5D=w529-h298-k-no"
            }
        ],
        "link": "https://www.google.com/maps/place/Eidgah+Masjid+Dhulawat/data=!4m7!3m6!1s0x390d31b74a94e075:0x457531365d6eeaae!8m2!3d28.2119416!4d77.0082209!16s%2Fg%2F11h00k797c!19sChIJdeCUSrcxDTkRrupuXTYxdUU?authuser=0&hl=en&rclk=1",
        "coordinates": {
            "latitude": 28.2119416,
            "longitude": 77.0082209
        }
    },
    {
        "name": "Aqsha Masjid",
        "main_category": "Mosque",
        "address": "6X6Q+4W2 Aqsha Masjid, Raheri, Haryana 122103",
        "detailed_address": {
            "ward": null,
            "street": "6X6Q+4W2",
            "city": "Raheri",
            "postal_code": "122103",
            "state": "Haryana",
            "country_code": "IN"
        },
        "images": [
            {
                "about": "All",
                "link": "https://lh5.googleusercontent.com/p/AF1QipPvM-0djREzu5X_hztX_x1dFSkd96-PDVS6sl-W=w397-h298-k-no"
            }
        ],
        "link": "https://www.google.com/maps/place/Aqsha+Masjid/data=!4m7!3m6!1s0x390d303fc96dc523:0x7de38ec6173f5970!8m2!3d28.2102553!4d76.9897513!16s%2Fg%2F11gfdspw5h!19sChIJI8VtyT8wDTkRcFk_F8aO430?authuser=0&hl=en&rclk=1",
        "coordinates": {
            "latitude": 28.2102553,
            "longitude": 76.9897513
        }
    },
    {
        "name": "Masjid Ayesha",
        "main_category": "Mosque",
        "address": "4VP2+6Q2 Masjid Ayesha, Unnamed Road, Khatiwas, Rajasthan 301707",
        "detailed_address": {
            "ward": null,
            "street": "4VP2+6Q2, Unnamed Road",
            "city": "Khatiwas",
            "postal_code": "301707",
            "state": "Rajasthan",
            "country_code": "IN"
        },
        "images": [
            {
                "about": "All",
                "link": "https://streetviewpixels-pa.googleapis.com/v1/thumbnail?panoid=QJMce5cEbRqwkQ29QlXQzg&cb_client=maps_sv.tactile.gps&w=224&h=298&yaw=28.100365&pitch=0&thumbfov=100"
            },
            {
                "about": "Street View & 360deg",
                "link": "https://streetviewpixels-pa.googleapis.com/v1/thumbnail?panoid=QJMce5cEbRqwkQ29QlXQzg&cb_client=maps_sv.tactile.gps&w=224&h=298&yaw=28.100365&pitch=0&thumbfov=100"
            }
        ],
        "link": "https://www.google.com/maps/place/Masjid+Ayesha/data=!4m7!3m6!1s0x390d37026827fb65:0xe89809109bdab680!8m2!3d28.1355236!4d76.8518852!16s%2Fg%2F11h0ykcrk8!19sChIJZfsnaAI3DTkRgLbamxAJmOg?authuser=0&hl=en&rclk=1",
        "coordinates": {
            "latitude": 28.1355236,
            "longitude": 76.8518852
        }
    },
    {
        "name": "Islampur Masjid",
        "main_category": "Mosque",
        "address": "4XJG+89P Islampur Masjid, Sonkh, Haryana 122107",
        "detailed_address": {
            "ward": null,
            "street": "4XJG+89P",
            "city": "Sonkh",
            "postal_code": "122107",
            "state": "Haryana",
            "country_code": "IN"
        },
        "images": [
            {
                "about": "All",
                "link": "https://lh5.googleusercontent.com/p/AF1QipNMrh3INEmuhGT1ANayGTbOC1KjWgXlQCVx4U9b=w224-h298-k-no"
            }
        ],
        "link": "https://www.google.com/maps/place/Islampur+Masjid/data=!4m7!3m6!1s0x390d32255fd0ede9:0x65fed293eed28b8b!8m2!3d28.1308327!4d76.9759648!16s%2Fg%2F11gdddykb2!19sChIJ6e3QXyUyDTkRi4vS7pPS_mU?authuser=0&hl=en&rclk=1",
        "coordinates": {
            "latitude": 28.1308327,
            "longitude": 76.9759648
        }
    },
    {
        "name": "Jaama Masjid",
        "main_category": "Mosque",
        "address": "5RC8+4G2 Jaama Masjid, Udaipur, Rajasthan 301018",
        "detailed_address": {
            "ward": null,
            "street": "5RC8+4G2",
            "city": "Udaipur",
            "postal_code": "301018",
            "state": "Rajasthan",
            "country_code": "IN"
        },
        "images": [
            {
                "about": "All",
                "link": "https://lh5.googleusercontent.com/p/AF1QipObDVuF11939o7ww8F7Y4gdoEpjJffjsN8a8omU=w224-h298-k-no"
            },
            {
                "about": "Street View & 360deg",
                "link": "https://streetviewpixels-pa.googleapis.com/v1/thumbnail?panoid=6VZjAuZ5qj6z-p0ddxenjQ&cb_client=maps_sv.tactile.gps&w=224&h=298&yaw=96.564095&pitch=0&thumbfov=100"
            }
        ],
        "link": "https://www.google.com/maps/place/Jaama+Masjid/data=!4m7!3m6!1s0x390d49d2c3cee6a9:0x3532684b69dd4498!8m2!3d28.170259!4d76.8162561!16s%2Fg%2F11gf62chw9!19sChIJqebOw9JJDTkRmETdaUtoMjU?authuser=0&hl=en&rclk=1",
        "coordinates": {
            "latitude": 28.170258999999998,
            "longitude": 76.81625609999999
        }
    },
    {
        "name": "Juma Masjid Pathradi Ind. Area",
        "main_category": "Mosque",
        "address": "4VGJ+H2J Juma Masjid Pathradi Ind. Area, Khohri Kalan, Rajasthan 301707",
        "detailed_address": {
            "ward": null,
            "street": "4VGJ+H2J",
            "city": "Khohri Kalan",
            "postal_code": "301707",
            "state": "Rajasthan",
            "country_code": "IN"
        },
        "images": [
            {
                "about": "All",
                "link": "https://lh5.googleusercontent.com/p/AF1QipMlsqFAjFuV2gcUxVcNZkFtrGNuDKdD75ejzljl=w224-h298-k-no"
            },
            {
                "about": "Street View & 360deg",
                "link": "https://streetviewpixels-pa.googleapis.com/v1/thumbnail?panoid=9c4ev_9fLvxpX9nuEZeEew&cb_client=maps_sv.tactile.gps&w=224&h=298&yaw=249.84644&pitch=0&thumbfov=100"
            },
            {
                "about": "Videos",
                "link": "https://lh5.googleusercontent.com/p/AF1QipO_D8sG0tEtLVAzwKVUzzOur6nI1ryku_-RC2C2=w224-h398-k-no"
            }
        ],
        "link": "https://www.google.com/maps/place/Juma+Masjid+Pathradi+Ind.+Area/data=!4m7!3m6!1s0x390d34292e2f7f5d:0x3b6468ecd698ce48!8m2!3d28.1264647!4d76.8800089!16s%2Fg%2F11dfwfddjg!19sChIJXX8vLik0DTkRSM6Y1uxoZDs?authuser=0&hl=en&rclk=1",
        "coordinates": {
            "latitude": 28.1264647,
            "longitude": 76.88000889999999
        }
    },
    {
        "name": "Madina masjid Nibhaheri",
        "main_category": "Mosque",
        "address": "3VJH+QPP Madina masjid Nibhaheri, Nibaheri, Rajasthan 301411",
        "detailed_address": {
            "ward": null,
            "street": "3VJH+QPP",
            "city": "Nibaheri",
            "postal_code": null,
            "state": "Rajasthan",
            "country_code": "IN"
        },
        "images": [
            {
                "about": "All",
                "link": "https://lh5.googleusercontent.com/p/AF1QipNKHyfI7Kt-4ZdJO6fqO1_IPMrjn-l-yZFyKF7K=w224-h298-k-no"
            },
            {
                "about": "Videos",
                "link": "https://lh5.googleusercontent.com/p/AF1QipMe7rcU_ASzm-XHsYqyL_Bn_g9Mz4_etYCtTy1I=w224-h395-k-no"
            }
        ],
        "link": "https://www.google.com/maps/place/Madina+masjid+Nibhaheri/data=!4m7!3m6!1s0x390d354cd3724eb9:0x57f377cc3632c079!8m2!3d28.0819701!4d76.8793332!16s%2Fg%2F11hh3kwdkq!19sChIJuU5y00w1DTkRecAyNsx381c?authuser=0&hl=en&rclk=1",
        "coordinates": {
            "latitude": 28.0819701,
            "longitude": 76.87933319999999
        }
    },
    {
        "name": "Jama Masjid",
        "main_category": "Mosque",
        "address": "4VW3+PQ6 Jama Masjid, Jhiwana, Rajasthan 301707",
        "detailed_address": {
            "ward": null,
            "street": "4VW3+PQ6",
            "city": "Jhiwana",
            "postal_code": "301707",
            "state": "Rajasthan",
            "country_code": "IN"
        },
        "images": [
            {
                "about": "All",
                "link": "https://lh5.googleusercontent.com/p/AF1QipMcp_qu7SZOgxPjEqO_d1DP_pCoVwN9kBB2EDQ=w224-h398-k-no"
            },
            {
                "about": "Videos",
                "link": "https://lh5.googleusercontent.com/p/AF1QipMr3_QdxRn7xkiYFJ-YmYMHFO1JmpMNcCEd20S9=w224-h398-k-no"
            }
        ],
        "link": "https://www.google.com/maps/place/Jama+Masjid/data=!4m7!3m6!1s0x390d366bf9574d03:0x77ae712d1e974729!8m2!3d28.1467977!4d76.8543971!16s%2Fg%2F11f3mbfr4y!19sChIJA01X-Ws2DTkRKUeXHi1xrnc?authuser=0&hl=en&rclk=1",
        "coordinates": {
            "latitude": 28.1467977,
            "longitude": 76.8543971
        }
    },
    {
        "name": "Kheda Salafi Masjid",
        "main_category": "Mosque",
        "address": "33QX+JMP Kheda Salafi Masjid, Bainsi, Haryana 122107",
        "detailed_address": {
            "ward": null,
            "street": "33QX+JMP",
            "city": "Bainsi",
            "postal_code": "122107",
            "state": "Haryana",
            "country_code": "IN"
        },
        "images": [
            {
                "about": "All",
                "link": "https://lh5.googleusercontent.com/p/AF1QipPWCtvJTDJNStCsiuavOujvmF8nwPyQlGlek2of=w397-h298-k-no"
            }
        ],
        "link": "https://www.google.com/maps/place/Kheda+Salafi+Masjid/data=!4m7!3m6!1s0x390d2d6d2b504c07:0xdbbab25cfdcd6c9e!8m2!3d28.0890796!4d77.0992023!16s%2Fg%2F11f730xkxf!19sChIJB0xQK20tDTkRnmzN_Vyyuts?authuser=0&hl=en&rclk=1",
        "coordinates": {
            "latitude": 28.089079599999998,
            "longitude": 77.0992023
        }
    },
    {
        "name": "jama masjid nurani jm` msjd nwrny",
        "main_category": "Mosque",
        "address": "5WV8+9PC jama masjid nurani jm` msjd nwrny, taoro, Gurnawat, Haryana",
        "detailed_address": {
            "ward": null,
            "street": "5WV8+9PC, taoro",
            "city": "Gurnawat",
            "postal_code": null,
            "state": "Haryana",
            "country_code": "IN"
        },
        "images": [
            {
                "about": "All",
                "link": "https://lh5.googleusercontent.com/p/AF1QipPwCTeVrcXyOimUt_jZRbEulf_l1VPUA4fdyvSL=w224-h398-k-no"
            },
            {
                "about": "Street View & 360deg",
                "link": "https://streetviewpixels-pa.googleapis.com/v1/thumbnail?panoid=vVeb1bJgiws514PArBNxJw&cb_client=maps_sv.tactile.gps&w=224&h=298&yaw=355.3069&pitch=0&thumbfov=100"
            },
            {
                "about": "Videos",
                "link": "https://lh5.googleusercontent.com/p/AF1QipNYZDIJEaITWAFuRBSan94So4Kjnq7LONBWpGc6=w224-h398-k-no"
            }
        ],
        "link": "https://www.google.com/maps/place/jama+masjid+nurani+%D8%AC%D8%A7%D9%85%D8%B9+%D9%85%D8%B3%D8%AC%D8%AF+%D9%86%D9%88%D8%B1%D8%A7%D9%86%DB%8C%E2%80%AD/data=!4m7!3m6!1s0x390d37329809b9e3:0x71b6eddbb1167e64!8m2!3d28.1934293!4d76.916771!16s%2Fg%2F11f4m9z0jf!19sChIJ47kJmDI3DTkRZH4WsdvttnE?authuser=0&hl=en&rclk=1",
        "coordinates": {
            "latitude": 28.1934293,
            "longitude": 76.916771
        }
    },
    {
        "name": "haajii shhiid vaalii msjid",
        "main_category": "Mosque",
        "address": "5XCG+R3F haajii shhiid vaalii msjid, Chharora, Haryana 122103",
        "detailed_address": {
            "ward": null,
            "street": "5XCG+R3F",
            "city": "Chharora",
            "postal_code": "122103",
            "state": "Haryana",
            "country_code": "IN"
        },
        "images": [
            {
                "about": "All",
                "link": "https://lh5.googleusercontent.com/p/AF1QipPcCXF_LVAz6dIoos0tg0Bvx-Ewo120oT66Qd4E=w224-h298-k-no"
            }
        ],
        "link": "https://www.google.com/maps/place/%E0%A4%B9%E0%A4%BE%E0%A4%9C%E0%A5%80+%E0%A4%B6%E0%A4%B9%E0%A5%80%E0%A4%A6+%E0%A4%B5%E0%A4%BE%E0%A4%B2%E0%A5%80+%E0%A4%AE%E0%A4%B8%E0%A5%8D%E0%A4%9C%E0%A4%BF%E0%A4%A6/data=!4m7!3m6!1s0x390d31a4d0be9209:0x3e6b664ccaacf167!8m2!3d28.1720696!4d76.9751793!16s%2Fg%2F11gbxd0_h6!19sChIJCZK-0KQxDTkRZ_Gsykxmaz4?authuser=0&hl=en&rclk=1",
        "coordinates": {
            "latitude": 28.1720696,
            "longitude": 76.9751793
        }
    },
    {
        "name": "Eid Gah Masjid",
        "main_category": "Mosque",
        "address": "W46F+6JC Eid Gah Masjid, Ter, Haryana 122508",
        "detailed_address": {
            "ward": null,
            "street": "W46F+6JC",
            "city": "Ter",
            "postal_code": "122508",
            "state": "Haryana",
            "country_code": "IN"
        },
        "images": [],
        "link": "https://www.google.com/maps/place/Eid+Gah+Masjid/data=!4m7!3m6!1s0x3972d73da01868e5:0xb92d8893abf34be3!8m2!3d27.9105655!4d77.1240301!16s%2Fg%2F11f2xn4mzn!19sChIJ5WgYoD3XcjkR40vzq5OILbk?authuser=0&hl=en&rclk=1",
        "coordinates": {
            "latitude": 27.910565499999997,
            "longitude": 77.1240301
        }
    },
    {
        "name": "Madina Masjid Aakera on Road",
        "main_category": "Mosque",
        "address": "2286+9FC Madina Masjid Aakera on Road, Akera, Haryana 122108",
        "detailed_address": {
            "ward": null,
            "street": "2286+9FC",
            "city": "Akera",
            "postal_code": null,
            "state": "Haryana",
            "country_code": "IN"
        },
        "images": [
            {
                "about": "All",
                "link": "https://lh5.googleusercontent.com/p/AF1QipP3O0l8Bf3ldZpvSnFJic3isb4X_itt4e8_21ln=w298-h298-k-no"
            },
            {
                "about": "Street View & 360deg",
                "link": "https://streetviewpixels-pa.googleapis.com/v1/thumbnail?panoid=ydUJ0fUnvRkBQmxPuvMvNQ&cb_client=maps_sv.tactile.gps&w=224&h=298&yaw=236.41658&pitch=0&thumbfov=100"
            },
            {
                "about": "Videos",
                "link": "https://lh5.googleusercontent.com/p/AF1QipM5Pbl1dmD6PvKdk27VzuAIvwIn4fFo-eOkHsrB=w224-h398-k-no"
            }
        ],
        "link": "https://www.google.com/maps/place/Madina+Masjid+Aakera+on+Road/data=!4m7!3m6!1s0x3972d3cab0a82619:0xb47bf630c1c41922!8m2!3d28.0159316!4d77.01114!16s%2Fg%2F11fl8_d_cw!19sChIJGSaosMrTcjkRIhnEwTD2e7Q?authuser=0&hl=en&rclk=1",
        "coordinates": {
            "latitude": 28.0159316,
            "longitude": 77.01114
        }
    },
    {
        "name": "Madina Markaz Masjid Dhulawat (Mod Vali)",
        "main_category": "Mosque",
        "address": "6264+948 Madina Markaz Masjid Dhulawat (Mod Vali), Dhulawat, Haryana 122103",
        "detailed_address": {
            "ward": null,
            "street": "6264+948",
            "city": "Dhulawat",
            "postal_code": "122103",
            "state": "Haryana",
            "country_code": "IN"
        },
        "images": [
            {
                "about": "All",
                "link": "https://lh5.googleusercontent.com/p/AF1QipPZ-alDpNcplGq_G_KmBNPn2t36xx0auqdJrRBQ=w224-h298-k-no"
            },
            {
                "about": "Street View & 360deg",
                "link": "https://streetviewpixels-pa.googleapis.com/v1/thumbnail?panoid=pXWeTQ59z9Jz3iJZ_6-1qg&cb_client=maps_sv.tactile.gps&w=224&h=298&yaw=267.18912&pitch=0&thumbfov=100"
            },
            {
                "about": "Videos",
                "link": "https://lh5.googleusercontent.com/p/AF1QipOqkoLSGgC8ejaX7E9LIWGqMv4KqoQml3dLxMFH=w224-h398-k-no"
            }
        ],
        "link": "https://www.google.com/maps/place/Madina+Markaz+Masjid+Dhulawat+%28Mod+Vali%29/data=!4m7!3m6!1s0x390d31be998a04c7:0xb73540685c0c72f!8m2!3d28.2109044!4d77.0053397!16s%2Fg%2F11ff0w559f!19sChIJxwSKmb4xDTkRL8fAhQZUcws?authuser=0&hl=en&rclk=1",
        "coordinates": {
            "latitude": 28.2109044,
            "longitude": 77.0053397
        }
    },
    {
        "name": "Masjid Johad Wali",
        "main_category": "Mosque",
        "address": "5VF2+CR3 Masjid Johad Wali, Godhan, Rajasthan 301019",
        "detailed_address": {
            "ward": null,
            "street": "5VF2+CR3",
            "city": "Godhan",
            "postal_code": null,
            "state": "Rajasthan",
            "country_code": "IN"
        },
        "images": [
            {
                "about": "All",
                "link": "https://lh5.googleusercontent.com/p/AF1QipNtWQrjT-T-DR1qjWV_GLfFKX6umtHHsvulIXmb=w224-h398-k-no"
            },
            {
                "about": "Dome",
                "link": "https://lh5.googleusercontent.com/p/AF1QipNqiSomUGYvSDtPFMefZB_Cg5Ivtv-geSKx7z4E=w224-h497-k-no"
            }
        ],
        "link": "https://www.google.com/maps/place/Masjid+Johad+Wali/data=!4m7!3m6!1s0x390d37445fa92815:0xfd935e9b8954c32c!8m2!3d28.1735001!4d76.8520531!16s%2Fg%2F11kvpmpf74!19sChIJFSipX0Q3DTkRLMNUiZtek_0?authuser=0&hl=en&rclk=1",
        "coordinates": {
            "latitude": 28.1735001,
            "longitude": 76.85205309999999
        }
    },
    {
        "name": "Jaama Masjid",
        "main_category": "Mosque",
        "address": "X2MF+2GV Jaama Masjid, Gandoori, Haryana 122108",
        "detailed_address": {
            "ward": null,
            "street": "X2MF+2GV",
            "city": "Gandoori",
            "postal_code": "122108",
            "state": "Haryana",
            "country_code": "IN"
        },
        "images": [
            {
                "about": "All",
                "link": "https://lh5.googleusercontent.com/p/AF1QipMVRTtLXLaqMsVTt17bR85TV_8EEk83J4G9UfBC=w240-h298-k-no"
            },
            {
                "about": "Videos",
                "link": "https://lh5.googleusercontent.com/p/AF1QipN5T0eDBVUwZLXQbfywNxYCamUq1U1i9URXk920=w331-h298-k-no"
            }
        ],
        "link": "https://www.google.com/maps/place/Jaama+Masjid/data=!4m7!3m6!1s0x3972d3d5a6ae8c23:0x1284fb36a93c075d!8m2!3d27.9826217!4d77.0238054!16s%2Fg%2F11fkgqdc01!19sChIJI4yuptXTcjkRXQc8qTb7hBI?authuser=0&hl=en&rclk=1",
        "coordinates": {
            "latitude": 27.9826217,
            "longitude": 77.0238054
        }
    },
    {
        "name": "Eidgaah masjid",
        "main_category": "Mosque",
        "address": "6V4Q+WVR Eidgaah masjid, Haryana 122015",
        "detailed_address": {
            "ward": null,
            "street": "6V4Q+WVR",
            "city": null,
            "postal_code": "122015",
            "state": "Haryana",
            "country_code": "IN"
        },
        "images": [
            {
                "about": "All",
                "link": "https://lh5.googleusercontent.com/p/AF1QipMDHWzhWy5aiaS9Fd8VOcLFLV7Yar60MGs6rPA=w397-h298-k-no"
            },
            {
                "about": "Street View & 360deg",
                "link": "https://streetviewpixels-pa.googleapis.com/v1/thumbnail?panoid=mPaLl_cVl04yyex-vA5pJQ&cb_client=maps_sv.tactile.gps&w=224&h=298&yaw=222.99034&pitch=0&thumbfov=100"
            },
            {
                "about": "Videos",
                "link": "https://lh5.googleusercontent.com/p/AF1QipNleF8mL3ad_Csc2DaX7RAZY7f3YYK6R5R010E=w224-h398-k-no"
            }
        ],
        "link": "https://www.google.com/maps/place/Eidgaah+masjid/data=!4m7!3m6!1s0x390d3769558e25e3:0x41b2327e9c7d82fd!8m2!3d28.2073643!4d76.8896302!16s%2Fg%2F11g71y0lyz!19sChIJ4yWOVWk3DTkR_YJ9nH4yskE?authuser=0&hl=en&rclk=1",
        "coordinates": {
            "latitude": 28.2073643,
            "longitude": 76.8896302
        }
    },
    {
        "name": "Madarsa Madinatul Uloom Masjid",
        "main_category": "Mosque",
        "address": "Madarsa Madinatul Uloom Masjid, Unnamed Road, 301707, Jhiwana, Rajasthan",
        "detailed_address": {
            "ward": null,
            "street": "Unnamed Road, 301707",
            "city": "Jhiwana",
            "postal_code": null,
            "state": "Rajasthan",
            "country_code": "IN"
        },
        "images": [
            {
                "about": "All",
                "link": "https://lh5.googleusercontent.com/p/AF1QipMR96Yub5Egd3wn3yQgzx-o-PbpwVOhVJ4Zv9j3=w224-h373-k-no"
            },
            {
                "about": "Street View & 360deg",
                "link": "https://streetviewpixels-pa.googleapis.com/v1/thumbnail?panoid=LGQSLnIWY6DPDKy6D4XHDw&cb_client=maps_sv.tactile.gps&w=224&h=298&yaw=94.2964&pitch=0&thumbfov=100"
            },
            {
                "about": "Videos",
                "link": "https://lh5.googleusercontent.com/p/AF1QipMcSa_4iTsN-4ReYsnzTnhL1H18rs6RhjkUgq8V=w224-h398-k-no"
            }
        ],
        "link": "https://www.google.com/maps/place/Madarsa+Madinatul+Uloom+Masjid/data=!4m7!3m6!1s0x390d366f2c5f7549:0x8d81deffc15b921a!8m2!3d28.1466654!4d76.858157!16s%2Fg%2F11f105dw81!19sChIJSXVfLG82DTkRGpJbwf_egY0?authuser=0&hl=en&rclk=1",
        "coordinates": {
            "latitude": 28.1466654,
            "longitude": 76.85815699999999
        }
    },
    {
        "name": "Jumma Masjid Tapukara",
        "main_category": "Mosque",
        "address": "4R2J+G5Q Jumma Masjid Tapukara, Tapukara, Rajasthan 301707",
        "detailed_address": {
            "ward": null,
            "street": "4R2J+G5Q",
            "city": "Tapukara",
            "postal_code": "301707",
            "state": "Rajasthan",
            "country_code": "IN"
        },
        "images": [
            {
                "about": "All",
                "link": "https://lh5.googleusercontent.com/p/AF1QipOkF6LOa1Wymk_k4LkxOingumbScwnYz1GGyHrE=w529-h298-k-no"
            },
            {
                "about": "Street View & 360deg",
                "link": "https://streetviewpixels-pa.googleapis.com/v1/thumbnail?panoid=p3Q8xVf0ooiN53Fw_31Xsg&cb_client=maps_sv.tactile.gps&w=224&h=298&yaw=91.00055&pitch=0&thumbfov=100"
            },
            {
                "about": "Videos",
                "link": "https://lh5.googleusercontent.com/p/AF1QipPElsarMZpdcSLYt6ALLFdeh7ZbJq63lVL2mLF8=w224-h398-k-no"
            }
        ],
        "link": "https://www.google.com/maps/place/Jumma+Masjid+Tapukara/data=!4m7!3m6!1s0x390d3501744e9b0b:0x4e01297e6a21cfec!8m2!3d28.1013412!4d76.8304934!16s%2Fg%2F11ptv5p9d8!19sChIJC5tOdAE1DTkR7M8han4pAU4?authuser=0&hl=en&rclk=1",
        "coordinates": {
            "latitude": 28.1013412,
            "longitude": 76.8304934
        }
    },
    {
        "name": "Badi Jama Masjid Pathredi",
        "main_category": "Mosque",
        "address": "4VRG+38X Badi Jama Masjid Pathredi, Pathredi, Rajasthan 301018",
        "detailed_address": {
            "ward": null,
            "street": "4VRG+38X",
            "city": "Pathredi",
            "postal_code": null,
            "state": "Rajasthan",
            "country_code": "IN"
        },
        "images": [
            {
                "about": "All",
                "link": "https://lh5.googleusercontent.com/p/AF1QipPIQq63fzBNoq3uUx5-LShiwR6X7ZkLB5178pUA=w298-h298-k-no"
            },
            {
                "about": "Street View & 360deg",
                "link": "https://streetviewpixels-pa.googleapis.com/v1/thumbnail?panoid=GJjxqg-y7Bhpos1fLQPeFw&cb_client=maps_sv.tactile.gps&w=224&h=298&yaw=55.968147&pitch=0&thumbfov=100"
            }
        ],
        "link": "https://www.google.com/maps/place/Badi+Jama+Masjid+Pathredi/data=!4m7!3m6!1s0x390d3686599b175b:0xee6106fe1b822b52!8m2!3d28.1402303!4d76.8758561!16s%2Fg%2F11g0260zhv!19sChIJWxebWYY2DTkRUiuCG_4GYe4?authuser=0&hl=en&rclk=1",
        "coordinates": {
            "latitude": 28.1402303,
            "longitude": 76.8758561
        }
    },
    {
        "name": "madina Masjid Bhonker",
        "main_category": "Mosque",
        "address": "3R36+JRF madina Masjid Bhonker, Bhonkar, Rajasthan 301707",
        "detailed_address": {
            "ward": null,
            "street": "3R36+JRF",
            "city": "Bhonkar",
            "postal_code": "301707",
            "state": "Rajasthan",
            "country_code": "IN"
        },
        "images": [
            {
                "about": "All",
                "link": "https://lh5.googleusercontent.com/p/AF1QipM8Xu5f9shPdHdmalzT8-pJUrSUe2eGigrpJNcD=w529-h298-k-no"
            }
        ],
        "link": "https://www.google.com/maps/place/madina+Masjid+Bhonker/data=!4m7!3m6!1s0x390d4abd0f719ef5:0x2d9702e0dfe932d0!8m2!3d28.0540661!4d76.8120386!16s%2Fg%2F11f3nb3lm7!19sChIJ9Z5xD71KDTkR0DLp3-ACly0?authuser=0&hl=en&rclk=1",
        "coordinates": {
            "latitude": 28.0540661,
            "longitude": 76.8120386
        }
    },
    {
        "name": "Haji Yasin Masjid Kharkhadi",
        "main_category": "Mosque",
        "address": "4WW5+WGH Haji Yasin Masjid Kharkhadi, Kharkhari, Sare Kalan, Rajasthan 301707",
        "detailed_address": {
            "ward": null,
            "street": "4WW5+WGH",
            "city": "Kharkhari, Sare Kalan",
            "postal_code": "301707",
            "state": "Rajasthan",
            "country_code": "IN"
        },
        "images": [
            {
                "about": "All",
                "link": "https://lh5.googleusercontent.com/p/AF1QipN8IJ5G6JQ4VV_lggY1RokCtCBJ9o_M4RIPgvOp=w224-h398-k-no"
            }
        ],
        "link": "https://www.google.com/maps/place/Haji+Yasin+Masjid+Kharkhadi/data=!4m7!3m6!1s0x390d375a4ea2c26d:0x68c34049d82d1504!8m2!3d28.1473152!4d76.9088446!16s%2Fg%2F11k10_6qrc!19sChIJbcKiTlo3DTkRBBUt2ElAw2g?authuser=0&hl=en&rclk=1",
        "coordinates": {
            "latitude": 28.147315199999998,
            "longitude": 76.9088446
        }
    },
    {
        "name": "Masjid karendi",
        "main_category": "Mosque",
        "address": "5VGW+RH6 Masjid karendi, Unnamed Road, Karendi, Karenda, Rajasthan 301018",
        "detailed_address": {
            "ward": null,
            "street": "5VGW+RH6, Unnamed Road",
            "city": "Karendi, Karenda",
            "postal_code": null,
            "state": "Rajasthan",
            "country_code": "IN"
        },
        "images": [
            {
                "about": "All",
                "link": "https://lh5.googleusercontent.com/p/AF1QipMWfjjVq_3e1awNxMeDJm9BmDGW9OgBaTqHtXx-=w529-h298-k-no"
            },
            {
                "about": "Dome",
                "link": "https://lh5.googleusercontent.com/p/AF1QipPYHrlVQ9MgVPsq9k9ZUv-IuEQE4tlG4bCZ_jD8=w224-h298-k-no"
            },
            {
                "about": "Videos",
                "link": "https://lh5.googleusercontent.com/p/AF1QipMtsR56BnpcMqB-khiUtzG3WzVudiDYzhyVMMfF=w224-h398-k-no"
            },
            {
                "about": "Street View & 360deg",
                "link": "https://streetviewpixels-pa.googleapis.com/v1/thumbnail?panoid=9gjsgYQrloiddb6rS-NFRg&cb_client=maps_sv.tactile.gps&w=224&h=298&yaw=137.58116&pitch=0&thumbfov=100"
            }
        ],
        "link": "https://www.google.com/maps/place/Masjid+karendi/data=!4m7!3m6!1s0x390d372e7cfa2383:0x11302add65d339cf!8m2!3d28.1770416!4d76.8963939!16s%2Fg%2F11qnk8yr97!19sChIJgyP6fC43DTkRzznTZd0qMBE?authuser=0&hl=en&rclk=1",
        "coordinates": {
            "latitude": 28.1770416,
            "longitude": 76.89639389999999
        }
    },
    {
        "name": "Aqsha Masjid",
        "main_category": "Mosque",
        "address": "22CH+7W6 Aqsha Masjid, Dehana, Haryana 122108",
        "detailed_address": {
            "ward": null,
            "street": "22CH+7W6",
            "city": "Dehana",
            "postal_code": "122108",
            "state": "Haryana",
            "country_code": "IN"
        },
        "images": [
            {
                "about": "All",
                "link": "https://lh5.googleusercontent.com/p/AF1QipPIzXpd9BZYUqft_QJgIvXHNLjIcmOvQfgB7tEe=w397-h298-k-no"
            },
            {
                "about": "Videos",
                "link": "https://lh5.googleusercontent.com/p/AF1QipO8vnjo-S1TyB5bGb-J86mgxA-cCYSTnyjO543F=w224-h462-k-no"
            }
        ],
        "link": "https://www.google.com/maps/place/Aqsha+Masjid/data=!4m7!3m6!1s0x3972d32611cd67bd:0x78b37864fbe338a1!8m2!3d28.0206611!4d77.029778!16s%2Fg%2F11h9g3_hhx!19sChIJvWfNESbTcjkRoTjj-2R4s3g?authuser=0&hl=en&rclk=1",
        "coordinates": {
            "latitude": 28.020661099999998,
            "longitude": 77.029778
        }
    },
    {
        "name": "Masjid",
        "main_category": "Mosque",
        "address": "W38P+95P Masjid, Dadola, Haryana 122108",
        "detailed_address": {
            "ward": null,
            "street": "W38P+95P",
            "city": "Dadola",
            "postal_code": "122108",
            "state": "Haryana",
            "country_code": "IN"
        },
        "images": [],
        "link": "https://www.google.com/maps/place/Masjid/data=!4m7!3m6!1s0x3972d0d9546f467f:0x4c22b9d8052c7d1d!8m2!3d27.915952!4d77.0854546!16s%2Fg%2F11dxq2mq3b!19sChIJf0ZvVNnQcjkRHX0sBdi5Ikw?authuser=0&hl=en&rclk=1",
        "coordinates": {
            "latitude": 27.915951999999997,
            "longitude": 77.08545459999999
        }
    },
    {
        "name": "Badi Masjid Sunari",
        "main_category": "Mosque",
        "address": "6WC4+934 Badi Masjid Sunari, Sunari, Haryana 122015",
        "detailed_address": {
            "ward": null,
            "street": "6WC4+934",
            "city": "Sunari",
            "postal_code": "122015",
            "state": "Haryana",
            "country_code": "IN"
        },
        "images": [
            {
                "about": "All",
                "link": "https://lh5.googleusercontent.com/p/AF1QipMDubCjYgjIbAUB-IpHcPP01twFiWEnengBOSc=w224-h398-k-no"
            },
            {
                "about": "Videos",
                "link": "https://lh5.googleusercontent.com/p/AF1QipOSrl70QJpzEsZ2XMCeoHstHH_ppY645C_DpBpR=w224-h398-k-no"
            }
        ],
        "link": "https://www.google.com/maps/place/Badi+Masjid+Sunari/data=!4m7!3m6!1s0x390d37b1a8c9e905:0x4fdbbc16a30d02a5!8m2!3d28.2208998!4d76.9052088!16s%2Fg%2F11m0sxn2c9!19sChIJBenJqLE3DTkRpQINoxa8208?authuser=0&hl=en&rclk=1",
        "coordinates": {
            "latitude": 28.220899799999998,
            "longitude": 76.9052088
        }
    },
    {
        "name": "Masjid",
        "main_category": "Mosque",
        "address": "5VC2+RQ4 Masjid, Godhan, Rajasthan 301018",
        "detailed_address": {
            "ward": null,
            "street": "5VC2+RQ4",
            "city": "Godhan",
            "postal_code": "301018",
            "state": "Rajasthan",
            "country_code": "IN"
        },
        "images": [
            {
                "about": "All",
                "link": "https://lh5.googleusercontent.com/p/AF1QipOgSq3TXAm7XP8OhBb7dgJRm7a6hVqK8Uo-7G4D=w635-h298-k-no"
            },
            {
                "about": "Videos",
                "link": "https://lh5.googleusercontent.com/p/AF1QipPzFgR_fL-SZLjj1xjPYEeOBqQB9KnrHGt3J9uS=w529-h298-k-no"
            }
        ],
        "link": "https://www.google.com/maps/place/Masjid/data=!4m7!3m6!1s0x390d37aa883f0a01:0x6d2f1732f6537104!8m2!3d28.1720035!4d76.8519385!16s%2Fg%2F11lpwzj679!19sChIJAQo_iKo3DTkRBHFT9jIXL20?authuser=0&hl=en&rclk=1",
        "coordinates": {
            "latitude": 28.1720035,
            "longitude": 76.8519385
        }
    },
    {
        "name": "Aqsha Masjid Bandapur",
        "main_category": "Mosque",
        "address": "5V4M+VGR Aqsha Masjid Bandapur, Bandapur, Rajasthan 301707",
        "detailed_address": {
            "ward": null,
            "street": "5V4M+VGR",
            "city": "Bandapur",
            "postal_code": "301707",
            "state": "Rajasthan",
            "country_code": "IN"
        },
        "images": [
            {
                "about": "All",
                "link": "https://lh5.googleusercontent.com/p/AF1QipMHUPaknT2353pm7163Ce4GbuCD-qIilKfB1dV7=w529-h298-k-no"
            }
        ],
        "link": "https://www.google.com/maps/place/Aqsha+Masjid+Bandapur/data=!4m7!3m6!1s0x390d3700d7f09205:0x551a0e428bdfb790!8m2!3d28.1572417!4d76.8837716!16s%2Fg%2F11fml2tnvf!19sChIJBZLw1wA3DTkRkLffi0IOGlU?authuser=0&hl=en&rclk=1",
        "coordinates": {
            "latitude": 28.1572417,
            "longitude": 76.8837716
        }
    },
    {
        "name": "masjid aqsa",
        "main_category": "Mosque",
        "address": "4VF8+VCV masjid aqsa, Khohari, Rajasthan 301707",
        "detailed_address": {
            "ward": null,
            "street": "4VF8+VCV",
            "city": "Khohari",
            "postal_code": "301707",
            "state": "Rajasthan",
            "country_code": "IN"
        },
        "images": [
            {
                "about": "All",
                "link": "https://lh5.googleusercontent.com/p/AF1QipN0xIijqT_MGXNlE_ILSkcDFSmaWqvBHDJC6UU4=w397-h298-k-no"
            },
            {
                "about": "Street View & 360deg",
                "link": "https://streetviewpixels-pa.googleapis.com/v1/thumbnail?panoid=FHZFBeCOoyd-FI4whp7UcA&cb_client=maps_sv.tactile.gps&w=224&h=298&yaw=234.54918&pitch=0&thumbfov=100"
            }
        ],
        "link": "https://www.google.com/maps/place/masjid+aqsa/data=!4m7!3m6!1s0x390d35cf0caec921:0xcc5bfa53677c0966!8m2!3d28.1247255!4d76.8660382!16s%2Fg%2F11n916ln6_!19sChIJIcmuDM81DTkRZgl8Z1P6W8w?authuser=0&hl=en&rclk=1",
        "coordinates": {
            "latitude": 28.1247255,
            "longitude": 76.86603819999999
        }
    },
    {
        "name": "JAMA MASJID HUSAIPUR",
        "main_category": "Mosque",
        "address": "5V3X+CRQ JAMA MASJID HUSAIPUR, Husaipur, Rajasthan 301018",
        "detailed_address": {
            "ward": null,
            "street": "5V3X+CRQ",
            "city": "Husaipur",
            "postal_code": "301018",
            "state": "Rajasthan",
            "country_code": "IN"
        },
        "images": [
            {
                "about": "All",
                "link": "https://lh5.googleusercontent.com/p/AF1QipO82uvu31RJt3UDYXJXEeHBZKbBHfbjAHmyTNHf=w224-h298-k-no"
            },
            {
                "about": "Street View & 360deg",
                "link": "https://streetviewpixels-pa.googleapis.com/v1/thumbnail?panoid=4m8Rdaht-nG5PJpE3lP0qg&cb_client=maps_sv.tactile.gps&w=224&h=298&yaw=342.35138&pitch=0&thumbfov=100"
            },
            {
                "about": "Videos",
                "link": "https://lh5.googleusercontent.com/p/AF1QipNklpjO92K8mRL0Oefi27Rs6sWSaa_ygsCoSHIt=w224-h398-k-no"
            }
        ],
        "link": "https://www.google.com/maps/place/JAMA+MASJID+HUSAIPUR/data=!4m7!3m6!1s0x390d3798c2f90561:0xbac268edf4962bd2!8m2!3d28.153593!4d76.8996121!16s%2Fg%2F11kgt25nb3!19sChIJYQX5wpg3DTkR0iuW9O1owro?authuser=0&hl=en&rclk=1",
        "coordinates": {
            "latitude": 28.153592999999997,
            "longitude": 76.8996121
        }
    },
    {
        "name": "Makki masjid Aazad nagar",
        "main_category": "Mosque",
        "address": "Makki masjid Aazad nagar, Khori Kalan, Haryana 301019",
        "detailed_address": {
            "ward": null,
            "street": null,
            "city": "Khori Kalan",
            "postal_code": null,
            "state": "Haryana",
            "country_code": "IN"
        },
        "images": [
            {
                "about": "All",
                "link": "https://lh5.googleusercontent.com/p/AF1QipM7ZKb--h5N4G1aCMJDUt5bV2YfxkNdQ87dlicS=w530-h298-k-no"
            },
            {
                "about": "Dome",
                "link": "https://lh5.googleusercontent.com/p/AF1QipOUqCqpmqYSVOTWj-xiJXZG88fsCxbvjq6iHIUD=w224-h298-k-no"
            },
            {
                "about": "By owner",
                "link": "https://lh5.googleusercontent.com/p/AF1QipPfrriCcxbswMJcV0JcHW_085u8gAzZq_I_RXBL=w224-h326-k-no"
            },
            {
                "about": "Street View & 360deg",
                "link": "https://streetviewpixels-pa.googleapis.com/v1/thumbnail?panoid=m4NRAehKzMAjrLvREyfotw&cb_client=maps_sv.tactile.gps&w=224&h=298&yaw=92.598785&pitch=0&thumbfov=100"
            }
        ],
        "link": "https://www.google.com/maps/place/Makki+masjid+Aazad+nagar/data=!4m7!3m6!1s0x390d37f060f6a38b:0x2e7c75430c5e58ee!8m2!3d28.2097752!4d76.8748258!16s%2Fg%2F11hz6rp163!19sChIJi6P2YPA3DTkR7lheDEN1fC4?authuser=0&hl=en&rclk=1",
        "coordinates": {
            "latitude": 28.2097752,
            "longitude": 76.8748258
        }
    },
    {
        "name": "Madina Masjid",
        "main_category": "Mosque",
        "address": "6V2G+3QX Madina Masjid, Rampura, Rajasthan 301019",
        "detailed_address": {
            "ward": null,
            "street": "6V2G+3QX",
            "city": "Rampura",
            "postal_code": "301019",
            "state": "Rajasthan",
            "country_code": "IN"
        },
        "images": [
            {
                "about": "All",
                "link": "https://streetviewpixels-pa.googleapis.com/v1/thumbnail?panoid=Y7WJv5RyutHzK5-k4o3qdg&cb_client=maps_sv.tactile.gps&w=224&h=298&yaw=282.01968&pitch=0&thumbfov=100"
            },
            {
                "about": "Street View & 360deg",
                "link": "https://streetviewpixels-pa.googleapis.com/v1/thumbnail?panoid=Y7WJv5RyutHzK5-k4o3qdg&cb_client=maps_sv.tactile.gps&w=224&h=298&yaw=282.01968&pitch=0&thumbfov=100"
            }
        ],
        "link": "https://www.google.com/maps/place/Madina+Masjid/data=!4m7!3m6!1s0x390d3772e49f2a21:0x925ae5a65968bc59!8m2!3d28.2002274!4d76.876978!16s%2Fg%2F11j07vw8kw!19sChIJISqf5HI3DTkRWbxoWablWpI?authuser=0&hl=en&rclk=1",
        "coordinates": {
            "latitude": 28.2002274,
            "longitude": 76.876978
        }
    },
    {
        "name": "Masjid Hussainia",
        "main_category": "Mosque",
        "address": "5JX8+749 Masjid Hussainia, Kayasthwara Mohalla, Kanmajra, Haryana 123401",
        "detailed_address": {
            "ward": "Kayasthwara Mohalla",
            "street": "5JX8+749",
            "city": "Kanmajra",
            "postal_code": "123401",
            "state": "Haryana",
            "country_code": "IN"
        },
        "images": [],
        "link": "https://www.google.com/maps/place/Masjid+Hussainia/data=!4m7!3m6!1s0x390d5b2a9c445a83:0x8da9e1341e51c3fe!8m2!3d28.1981511!4d76.6153743!16s%2Fg%2F11mnc14jvz!19sChIJg1pEnCpbDTkR_sNRHjThqY0?authuser=0&hl=en&rclk=1",
        "coordinates": {
            "latitude": 28.1981511,
            "longitude": 76.6153743
        }
    },
    {
        "name": "Chhoti Masjid chhwtty msjd",
        "main_category": "Mosque",
        "address": "7W6R+X99 Chhoti Masjid chhwtty msjd, Sheikhpur, Haryana 122015",
        "detailed_address": {
            "ward": null,
            "street": "7W6R+X99",
            "city": "Sheikhpur",
            "postal_code": "122015",
            "state": "Haryana",
            "country_code": "IN"
        },
        "images": [
            {
                "about": "All",
                "link": "https://streetviewpixels-pa.googleapis.com/v1/thumbnail?panoid=vY33p6EsV4URdgZYth09Kg&cb_client=maps_sv.tactile.gps&w=224&h=298&yaw=174.8786&pitch=0&thumbfov=100"
            },
            {
                "about": "Street View & 360deg",
                "link": "https://streetviewpixels-pa.googleapis.com/v1/thumbnail?panoid=vY33p6EsV4URdgZYth09Kg&cb_client=maps_sv.tactile.gps&w=224&h=298&yaw=174.8786&pitch=0&thumbfov=100"
            }
        ],
        "link": "https://www.google.com/maps/place/Chhoti+Masjid+%DA%86%DA%BE%D9%88%D9%B9%DB%8C+%D9%85%D8%B3%D8%AC%D8%AF%E2%80%AD/data=!4m7!3m6!1s0x390d3b8b0c055839:0x76b8b9b5f6b79643!8m2!3d28.2623499!4d76.9409274!16s%2Fg%2F11thnqbr29!19sChIJOVgFDIs7DTkRQ5a39rW5uHY?authuser=0&hl=en&rclk=1",
        "coordinates": {
            "latitude": 28.2623499,
            "longitude": 76.94092739999999
        }
    },
    {
        "name": "chottii msjid",
        "main_category": "Mosque",
        "address": "4VW3+P72 chottii msjid, Jhiwana, Rajasthan 301707",
        "detailed_address": {
            "ward": null,
            "street": "4VW3+P72",
            "city": "Jhiwana",
            "postal_code": null,
            "state": "Rajasthan",
            "country_code": "IN"
        },
        "images": [
            {
                "about": "All",
                "link": "https://lh5.googleusercontent.com/p/AF1QipPZotHO_85De6OqQOk_LpyUgn1znTXFBhwqsj2y=w224-h298-k-no"
            }
        ],
        "link": "https://www.google.com/maps/place/%E0%A4%9B%E0%A5%8B%E0%A4%9F%E0%A5%80+%E0%A4%AE%E0%A4%B8%E0%A5%8D%E0%A4%9C%E0%A4%BF%E0%A4%A6/data=!4m7!3m6!1s0x390d37efb38753c3:0x67d20b9afdf6d0bc!8m2!3d28.1467748!4d76.8531322!16s%2Fg%2F11fn335vx6!19sChIJw1OHs-83DTkRvND2_ZoL0mc?authuser=0&hl=en&rclk=1",
        "coordinates": {
            "latitude": 28.1467748,
            "longitude": 76.85313219999999
        }
    },
    {
        "name": "Gazi Bari Baitul Mamur Mosjid",
        "main_category": "Mosque",
        "address": "4M92+QH6 Gazi Bari Baitul Mamur Mosjid, Bakhapur, Haryana 123501",
        "detailed_address": {
            "ward": null,
            "street": "4M92+QH6",
            "city": "Bakhapur",
            "postal_code": null,
            "state": "Haryana",
            "country_code": "IN"
        },
        "images": [],
        "link": "https://www.google.com/maps/place/Gazi+Bari+Baitul+Mamur+Mosjid/data=!4m7!3m6!1s0x390d4ff1d3334d05:0xf9d91f116d634e58!8m2!3d28.119408!4d76.6513787!16s%2Fg%2F11h0t6tjs6!19sChIJBU0z0_FPDTkRWE5jbREf2fk?authuser=0&hl=en&rclk=1",
        "coordinates": {
            "latitude": 28.119408,
            "longitude": 76.6513787
        }
    },
    {
        "name": "MADINA MASJID",
        "main_category": "Mosque",
        "address": "6W94+GPX MADINA MASJID, Sunari Rd, Sunari, Haryana 122015",
        "detailed_address": {
            "ward": null,
            "street": "6W94+GPX, Sunari Rd",
            "city": "Sunari",
            "postal_code": "122015",
            "state": "Haryana",
            "country_code": "IN"
        },
        "images": [],
        "link": "https://www.google.com/maps/place/MADINA+MASJID/data=!4m7!3m6!1s0x390d3708abfdf1d7:0x1149aac20df6c208!8m2!3d28.2188706!4d76.9068523!16s%2Fg%2F11lrwwmvwf!19sChIJ1_H9qwg3DTkRCML2DcKqSRE?authuser=0&hl=en&rclk=1",
        "coordinates": {
            "latitude": 28.2188706,
            "longitude": 76.9068523
        }
    },
    {
        "name": "Madina masjid near sokat colony",
        "main_category": "Mosque",
        "address": "6V2F+GM6 Madina masjid near sokat colony, Suraj Cinema Rd, RIICO Industrial Area, Rampura, Rajasthan 301019",
        "detailed_address": {
            "ward": "RIICO Industrial Area",
            "street": "6V2F+GM6, Suraj Cinema Rd",
            "city": "Rampura",
            "postal_code": "301019",
            "state": "Rajasthan",
            "country_code": "IN"
        },
        "images": [
            {
                "about": "All",
                "link": "https://streetviewpixels-pa.googleapis.com/v1/thumbnail?panoid=bH4NSiTpl9tQ0ojChW_ApQ&cb_client=maps_sv.tactile.gps&w=224&h=298&yaw=4.9412613&pitch=0&thumbfov=100"
            },
            {
                "about": "Street View & 360deg",
                "link": "https://streetviewpixels-pa.googleapis.com/v1/thumbnail?panoid=bH4NSiTpl9tQ0ojChW_ApQ&cb_client=maps_sv.tactile.gps&w=224&h=298&yaw=4.9412613&pitch=0&thumbfov=100"
            }
        ],
        "link": "https://www.google.com/maps/place/Madina+masjid+near+sokat+colony/data=!4m7!3m6!1s0x390d37a22032ea3b:0x19362fa244f53ce6!8m2!3d28.201287!4d76.8741527!16s%2Fg%2F11rz460hk5!19sChIJO-oyIKI3DTkR5jz1RKIvNhk?authuser=0&hl=en&rclk=1",
        "coordinates": {
            "latitude": 28.201286999999997,
            "longitude": 76.8741527
        }
    },
    {
        "name": "Masjid E Juma",
        "main_category": "Mosque",
        "address": "5VFJ+QCR Masjid E Juma, Unnamed Road, Gadpur, Rajasthan 301019",
        "detailed_address": {
            "ward": null,
            "street": "5VFJ+QCR, Unnamed Road",
            "city": "Gadpur",
            "postal_code": "301019",
            "state": "Rajasthan",
            "country_code": "IN"
        },
        "images": [
            {
                "about": "All",
                "link": "https://streetviewpixels-pa.googleapis.com/v1/thumbnail?panoid=OvNHjwmkBSj8Gz0HrTVYvw&cb_client=maps_sv.tactile.gps&w=224&h=298&yaw=256.38892&pitch=0&thumbfov=100"
            },
            {
                "about": "Street View & 360deg",
                "link": "https://streetviewpixels-pa.googleapis.com/v1/thumbnail?panoid=OvNHjwmkBSj8Gz0HrTVYvw&cb_client=maps_sv.tactile.gps&w=224&h=298&yaw=256.38892&pitch=0&thumbfov=100"
            },
            {
                "about": "Videos",
                "link": "https://lh5.googleusercontent.com/p/AF1QipMLd1kodAPnuyb9aau8fg80om6aoeemGGp9QKiG=w224-h471-k-no"
            }
        ],
        "link": "https://www.google.com/maps/place/Masjid+E+Juma/data=!4m7!3m6!1s0x390d36fcf94938e3:0x5955b915cd2491a0!8m2!3d28.1744769!4d76.8810216!16s%2Fg%2F11hbnymtyw!19sChIJ4zhJ-fw2DTkRoJEkzRW5VVk?authuser=0&hl=en&rclk=1",
        "coordinates": {
            "latitude": 28.1744769,
            "longitude": 76.8810216
        }
    },
    {
        "name": "Molvi samsuddin masjid",
        "main_category": "Mosque",
        "address": "3RXX+7VM Molvi samsuddin masjid, Unnamed Road, Lakhnor, Rajasthan 301707",
        "detailed_address": {
            "ward": null,
            "street": "3RXX+7VM, Unnamed Road",
            "city": "Lakhnor",
            "postal_code": "301707",
            "state": "Rajasthan",
            "country_code": "IN"
        },
        "images": [],
        "link": "https://www.google.com/maps/place/Molvi+samsuddin+masjid/data=!4m7!3m6!1s0x390d35d490a06af1:0x7ab5d4fcb2dca59d!8m2!3d28.0982036!4d76.849674!16s%2Fg%2F11fp8cjxx0!19sChIJ8WqgkNQ1DTkRnaXcsvzUtXo?authuser=0&hl=en&rclk=1",
        "coordinates": {
            "latitude": 28.098203599999998,
            "longitude": 76.849674
        }
    },
    {
        "name": "Jama Masjid Chhapar",
        "main_category": "Mosque",
        "address": "4RPW+F76 Jama Masjid Chhapar, Chhapar, Rajasthan 301707",
        "detailed_address": {
            "ward": null,
            "street": "4RPW+F76",
            "city": "Chhapar",
            "postal_code": "301707",
            "state": "Rajasthan",
            "country_code": "IN"
        },
        "images": [
            {
                "about": "All",
                "link": "https://streetviewpixels-pa.googleapis.com/v1/thumbnail?panoid=IpQ4j88FkMw7qwgdtoradA&cb_client=maps_sv.tactile.gps&w=224&h=298&yaw=349.87805&pitch=0&thumbfov=100"
            },
            {
                "about": "Street View & 360deg",
                "link": "https://streetviewpixels-pa.googleapis.com/v1/thumbnail?panoid=IpQ4j88FkMw7qwgdtoradA&cb_client=maps_sv.tactile.gps&w=224&h=298&yaw=349.87805&pitch=0&thumbfov=100"
            }
        ],
        "link": "https://www.google.com/maps/place/Jama+Masjid+Chhapar/data=!4m7!3m6!1s0x390d374d35281e15:0x7578feb662fa10a3!8m2!3d28.1361524!4d76.8456353!16s%2Fg%2F11j0z5_zl0!19sChIJFR4oNU03DTkRoxD6Yrb-eHU?authuser=0&hl=en&rclk=1",
        "coordinates": {
            "latitude": 28.1361524,
            "longitude": 76.8456353
        }
    },
    {
        "name": "Masjid E Suffah Guwalda msjid e suphphaa guvaaldaa msjd Sfh gwldh",
        "main_category": "Mosque",
        "address": "4V7R+C8P Masjid E Suffah Guwalda msjid e suphphaa guvaaldaa msjd Sfh gwldh, Guwalda, Rajasthan 301707",
        "detailed_address": {
            "ward": null,
            "street": "4V7R+C8P",
            "city": "Guwalda",
            "postal_code": "301707",
            "state": "Rajasthan",
            "country_code": "IN"
        },
        "images": [
            {
                "about": "All",
                "link": "https://lh5.googleusercontent.com/p/AF1QipPRF4hK3V_f1dLotb5NhboVU7iJyHPRRufTuzf7=w397-h298-k-no"
            },
            {
                "about": "Latest",
                "link": "https://lh5.googleusercontent.com/p/AF1QipMAftl3YmqHpdFhk4YpH4003vXBvZmJRdsx1WTG=w224-h298-k-no"
            },
            {
                "about": "Videos",
                "link": "https://lh5.googleusercontent.com/p/AF1QipPJ80Xtaf3QgUS3X0wjKk2uEGrlDHezxUpb_-sx=w541-h298-k-no"
            }
        ],
        "link": "https://www.google.com/maps/place/Masjid+E+Suffah+Guwalda+%E0%A4%AE%E0%A4%B8%E0%A5%8D%E0%A4%9C%E0%A4%BF%E0%A4%A6+%E0%A4%8F+%E0%A4%B8%E0%A5%81%E0%A4%AB%E0%A5%8D%E0%A4%AB%E0%A4%BE+%E0%A4%97%E0%A5%81%E0%A4%B5%E0%A4%BE%E0%A4%B2%E0%A4%A6%E0%A4%BE+%D9%85%D8%B3%D8%AC%D8%AF+%D8%B5%D9%81%DB%81+%DA%AF%D9%88%D8%A7%D9%84%D8%AF%DB%81%E2%80%AD/data=!4m7!3m6!1s0x390d3555d3bba091:0xb1347cda4485bde8!8m2!3d28.1135992!4d76.8908302!16s%2Fg%2F11tcl4f8y7!19sChIJkaC701U1DTkR6L2FRNp8NLE?authuser=0&hl=en&rclk=1",
        "coordinates": {
            "latitude": 28.1135992,
            "longitude": 76.8908302
        }
    },
    {
        "name": "mkka masjid",
        "main_category": "Mosque",
        "address": "3VJQ+W6 mkka masjid, Ubaraka, Rajasthan 301707",
        "detailed_address": {
            "ward": null,
            "street": "3VJQ+W6",
            "city": "Ubaraka",
            "postal_code": "301707",
            "state": "Rajasthan",
            "country_code": "IN"
        },
        "images": [
            {
                "about": "All",
                "link": "https://lh5.googleusercontent.com/p/AF1QipOL5f4bS6x5A0vEQyKyKaDuLuyFidJ6ZTFivTN1=w224-h299-k-no"
            }
        ],
        "link": "https://www.google.com/maps/place/mkka+masjid/data=!4m7!3m6!1s0x390d3508ce53ec37:0x6e2be63575e8261f!8m2!3d28.082166!4d76.88817!16s%2Fg%2F11sjcfrf7s!19sChIJN-xTzgg1DTkRHybodTXmK24?authuser=0&hl=en&rclk=1",
        "coordinates": {
            "latitude": 28.082165999999997,
            "longitude": 76.88817
        }
    },
    {
        "name": "JUMMA MASJID KHIJARPUR",
        "main_category": "Mosque",
        "address": "5VM3+R9 JUMMA MASJID KHIJARPUR, Khijarpur, Rajasthan 301019",
        "detailed_address": {
            "ward": null,
            "street": "5VM3+R9",
            "city": "Khijarpur",
            "postal_code": null,
            "state": "Rajasthan",
            "country_code": "IN"
        },
        "images": [],
        "link": "https://www.google.com/maps/place/JUMMA+MASJID+KHIJARPUR/data=!4m7!3m6!1s0x390d3794d3da3e8b:0x7b632799bd489a20!8m2!3d28.1846176!4d76.8534911!16s%2Fg%2F11kpgmrjf3!19sChIJiz7a05Q3DTkRIJpIvZknY3s?authuser=0&hl=en&rclk=1",
        "coordinates": {
            "latitude": 28.1846176,
            "longitude": 76.8534911
        }
    },
    {
        "name": "Madarsa mundana",
        "main_category": "Mosque",
        "address": "5WM5+G9W Madarsa mundana, Unnamed Road, Sewka, Haryana 122015",
        "detailed_address": {
            "ward": null,
            "street": "5WM5+G9W, Unnamed Road",
            "city": "Sewka",
            "postal_code": "122015",
            "state": "Haryana",
            "country_code": "IN"
        },
        "images": [
            {
                "about": "All",
                "link": "https://lh5.googleusercontent.com/p/AF1QipPjgUxCKMvOua0KJpWzEb_zGh-XPcqYpz7P7QvT=w397-h298-k-no"
            }
        ],
        "link": "https://www.google.com/maps/place/Madarsa+mundana/data=!4m7!3m6!1s0x390d375611bc601b:0xcfa2d84e05a34989!8m2!3d28.1838531!4d76.908463!16s%2Fg%2F11fwxhy5_4!19sChIJG2C8EVY3DTkRiUmjBU7Yos8?authuser=0&hl=en&rclk=1",
        "coordinates": {
            "latitude": 28.1838531,
            "longitude": 76.908463
        }
    },
    {
        "name": "Masjid",
        "main_category": "Mosque",
        "address": "VQM8+3HM Masjid, Alwar - Bhiwadi Rd, Bagthala, Rajasthan 301405",
        "detailed_address": {
            "ward": null,
            "street": "VQM8+3HM, Alwar - Bhiwadi Rd",
            "city": "Bagthala",
            "postal_code": "301405",
            "state": "Rajasthan",
            "country_code": "IN"
        },
        "images": [
            {
                "about": "All",
                "link": "https://lh5.googleusercontent.com/p/AF1QipMQNFH3tQD8ySYnCKJ6cE3f243uVI0fauYNxQ5w=w529-h298-k-no"
            },
            {
                "about": "Street View & 360deg",
                "link": "https://streetviewpixels-pa.googleapis.com/v1/thumbnail?panoid=Q3n-O4-HS2WQWwWOIceMGg&cb_client=maps_sv.tactile.gps&w=224&h=298&yaw=359.824&pitch=0&thumbfov=100"
            }
        ],
        "link": "https://www.google.com/maps/place/Masjid/data=!4m7!3m6!1s0x3972b794f0492aaf:0xafa2b7b1dcadbbd9!8m2!3d27.8827023!4d76.7664274!16s%2Fg%2F11h0bzj5kf!19sChIJrypJ8JS3cjkR2but3LG3oq8?authuser=0&hl=en&rclk=1",
        "coordinates": {
            "latitude": 27.8827023,
            "longitude": 76.7664274
        }
    },
    {
        "name": "Jumma Masjid khori kalan",
        "main_category": "Mosque",
        "address": "6V8J+56 Jumma Masjid khori kalan, Khori Kalan, Haryana 122105",
        "detailed_address": {
            "ward": null,
            "street": "6V8J+56",
            "city": "Khori Kalan",
            "postal_code": "122105",
            "state": "Haryana",
            "country_code": "IN"
        },
        "images": [
            {
                "about": "All",
                "link": "https://lh5.googleusercontent.com/p/AF1QipNqn6pfJh4lT85gSGvs04jNRE8K7xZVyL3pYawR=w397-h298-k-no"
            },
            {
                "about": "Videos",
                "link": "https://lh5.googleusercontent.com/p/AF1QipMbRr92MUnv6VBsyW5mP5_2B7ofXWcn1Eb28DrI=w224-h407-k-no"
            }
        ],
        "link": "https://www.google.com/maps/place/Jumma+Masjid+khori+kalan/data=!4m7!3m6!1s0x390d3745c9ad4589:0x70e34bfd3de5f241!8m2!3d28.215419!4d76.8805482!16s%2Fg%2F11sqv8j8nb!19sChIJiUWtyUU3DTkRQfLlPf1L43A?authuser=0&hl=en&rclk=1",
        "coordinates": {
            "latitude": 28.215418999999997,
            "longitude": 76.88054819999999
        }
    },
    {
        "name": "Noor-e-Jama Masjid Sewka",
        "main_category": "Mosque",
        "address": "5VPR+6R5 Noor-e-Jama Masjid Sewka, Bhiwadi - Chopanki Road, Gadpur, Amlaki, Rajasthan 301018",
        "detailed_address": {
            "ward": null,
            "street": "5VPR+6R5, Bhiwadi - Chopanki Road",
            "city": "Gadpur, Amlaki",
            "postal_code": "301018",
            "state": "Rajasthan",
            "country_code": "IN"
        },
        "images": [
            {
                "about": "All",
                "link": "https://lh5.googleusercontent.com/p/AF1QipO18O3FKobldnCjbNyP8SUGAZwx66cwUtnmH2PT=w397-h298-k-no"
            },
            {
                "about": "Videos",
                "link": "https://lh5.googleusercontent.com/p/AF1QipOy76I52tkMxv6K-d1hVDHZkTFxgVl6Ws_HoyM2=w224-h398-k-no"
            }
        ],
        "link": "https://www.google.com/maps/place/Noor-e-Jama+Masjid+Sewka/data=!4m7!3m6!1s0x390d37072dba71e5:0x606092507da025d7!8m2!3d28.185511!4d76.8921113!16s%2Fg%2F11ssqg0r6j!19sChIJ5XG6LQc3DTkR1yWgfVCSYGA?authuser=0&hl=en&rclk=1",
        "coordinates": {
            "latitude": 28.185510999999998,
            "longitude": 76.8921113
        }
    },
    {
        "name": "Masjid-e-atitka",
        "main_category": "Mosque",
        "address": "6V4V+WW2 Masjid-e-atitka, Shahdod, Haryana 122015",
        "detailed_address": {
            "ward": null,
            "street": "6V4V+WW2",
            "city": "Shahdod",
            "postal_code": null,
            "state": "Haryana",
            "country_code": "IN"
        },
        "images": [
            {
                "about": "All",
                "link": "https://lh5.googleusercontent.com/p/AF1QipMglf1Shord1UENGKJ5HP9PV2MA4jT2zgcTSlEh=w224-h398-k-no"
            },
            {
                "about": "Videos",
                "link": "https://lh5.googleusercontent.com/p/AF1QipOTSPqk9WTVAtdn_W3lruf3tcQzpEOvTyH6L-rc=w526-h298-k-no"
            }
        ],
        "link": "https://www.google.com/maps/place/Masjid-e-atitka/data=!4m7!3m6!1s0x390d371c3ca7ef23:0x4773b7454a66f013!8m2!3d28.2072558!4d76.8947542!16s%2Fg%2F11hf1bv81t!19sChIJI--nPBw3DTkRE_BmSkW3c0c?authuser=0&hl=en&rclk=1",
        "coordinates": {
            "latitude": 28.2072558,
            "longitude": 76.8947542
        }
    },
    {
        "name": "Masjid Maseet",
        "main_category": "Mosque",
        "address": "3RGJ+5J6 Masjid Maseet, Maseet, Tijara, Rajasthan 301707",
        "detailed_address": {
            "ward": null,
            "street": "3RGJ+5J6, Maseet",
            "city": "Tijara, Maseet",
            "postal_code": "301707",
            "state": "Rajasthan",
            "country_code": "IN"
        },
        "images": [
            {
                "about": "All",
                "link": "https://lh5.googleusercontent.com/p/AF1QipNxsO2fhlyWp3WZR0N8nU5IXWuvhRwjqjhwTMMm=w224-h448-k-no"
            },
            {
                "about": "Videos",
                "link": "https://lh5.googleusercontent.com/p/AF1QipNsINs_TRJx28rLuOgwIeUqm6myfD4kafspR8ZY=w224-h407-k-no"
            }
        ],
        "link": "https://www.google.com/maps/place/Masjid+Maseet/data=!4m7!3m6!1s0x390d357eaa5a551d:0xcac702d166a8c01e!8m2!3d28.075414!4d76.8315192!16s%2Fg%2F11g02b5w35!19sChIJHVVaqn41DTkRHsCoZtECx8o?authuser=0&hl=en&rclk=1",
        "coordinates": {
            "latitude": 28.075414,
            "longitude": 76.8315192
        }
    },
    {
        "name": "Chopanki juma masjid",
        "main_category": "Mosque",
        "address": "4VVM+XF7 Chopanki juma masjid, Chaupanki, Rajasthan 301018",
        "detailed_address": {
            "ward": null,
            "street": "4VVM+XF7",
            "city": "Chaupanki",
            "postal_code": "301018",
            "state": "Rajasthan",
            "country_code": "IN"
        },
        "images": [
            {
                "about": "All",
                "link": "https://lh5.googleusercontent.com/p/AF1QipNB5EtUkgAfp82lCj6DfMXyEmPiaE5sVeU7z9uZ=w298-h298-k-no"
            },
            {
                "about": "Videos",
                "link": "https://lh5.googleusercontent.com/p/AF1QipNB5EtUkgAfp82lCj6DfMXyEmPiaE5sVeU7z9uZ=w298-h298-k-no"
            }
        ],
        "link": "https://www.google.com/maps/place/Chopanki+juma+masjid/data=!4m7!3m6!1s0x390d37ae8d6fb357:0x6b7bd5709bb0b479!8m2!3d28.1449195!4d76.883661!16s%2Fg%2F11ry3bb4j4!19sChIJV7Nvja43DTkRebSwm3DVe2s?authuser=0&hl=en&rclk=1",
        "coordinates": {
            "latitude": 28.1449195,
            "longitude": 76.883661
        }
    },
    {
        "name": "Eidgah khidarpur",
        "main_category": "Mosque",
        "address": "5VJ3+W74 Eidgah khidarpur, Khijarpur, Rajasthan 301019",
        "detailed_address": {
            "ward": null,
            "street": "5VJ3+W74",
            "city": "Khijarpur",
            "postal_code": "301019",
            "state": "Rajasthan",
            "country_code": "IN"
        },
        "images": [],
        "link": "https://www.google.com/maps/place/Eidgah+khidarpur/data=!4m7!3m6!1s0x390d3783c5e22de1:0xa280133d65b35703!8m2!3d28.1822644!4d76.8532109!16s%2Fg%2F11m2y6j3cc!19sChIJ4S3ixYM3DTkRA1ezZT0TgKI?authuser=0&hl=en&rclk=1",
        "coordinates": {
            "latitude": 28.182264399999998,
            "longitude": 76.8532109
        }
    },
    {
        "name": "Haji banniMasjid, bagodiya ki dhani nizampur",
        "main_category": "Place of worship",
        "address": "6W47+99G Haji banniMasjid, bagodiya ki dhani nizampur, Tavdu, Bhiwadi road, nizampur, 122015",
        "detailed_address": {
            "ward": null,
            "street": "6W47+99G, Tavdu, Bhiwadi road",
            "city": "nizampur, Atitka",
            "postal_code": "122015",
            "state": "Haryana",
            "country_code": "IN"
        },
        "images": [
            {
                "about": "All",
                "link": "https://lh5.googleusercontent.com/p/AF1QipM1OTE2_Z0PSQ79e6XdLnwQ9hdFSU_lVKoRqV_8=w224-h398-k-no"
            },
            {
                "about": "Videos",
                "link": "https://lh5.googleusercontent.com/p/AF1QipM1OTE2_Z0PSQ79e6XdLnwQ9hdFSU_lVKoRqV_8=w224-h398-k-no"
            }
        ],
        "link": "https://www.google.com/maps/place/Haji+banniMasjid,+bagodiya+ki+dhani+nizampur/data=!4m7!3m6!1s0x390d37e655b4accd:0xaa587512ee094577!8m2!3d28.2059425!4d76.9134429!16s%2Fg%2F11j7d__qlx!19sChIJzay0VeY3DTkRd0UJ7hJ1WKo?authuser=0&hl=en&rclk=1",
        "coordinates": {
            "latitude": 28.2059425,
            "longitude": 76.91344289999999
        }
    },
    {
        "name": "Masjid",
        "main_category": "Mosque",
        "address": "6X62+RF6 Masjid, Tauru, Haryana 122015",
        "detailed_address": {
            "ward": null,
            "street": "6X62+RF6",
            "city": "Tauru",
            "postal_code": null,
            "state": "Haryana",
            "country_code": "IN"
        },
        "images": [
            {
                "about": "All",
                "link": "https://streetviewpixels-pa.googleapis.com/v1/thumbnail?panoid=DPOaP3dqa6M0lG7tTUXwOQ&cb_client=maps_sv.tactile.gps&w=224&h=298&yaw=118.993065&pitch=0&thumbfov=100"
            },
            {
                "about": "Street View & 360deg",
                "link": "https://streetviewpixels-pa.googleapis.com/v1/thumbnail?panoid=DPOaP3dqa6M0lG7tTUXwOQ&cb_client=maps_sv.tactile.gps&w=224&h=298&yaw=118.993065&pitch=0&thumbfov=100"
            }
        ],
        "link": "https://www.google.com/maps/place/Masjid/data=!4m7!3m6!1s0x390d311378befb19:0x19e6402eca80c9ac!8m2!3d28.2120473!4d76.9511428!16s%2Fg%2F11rkg59bzl!19sChIJGfu-eBMxDTkRrMmAyi5A5hk?authuser=0&hl=en&rclk=1",
        "coordinates": {
            "latitude": 28.2120473,
            "longitude": 76.9511428
        }
    },
    {
        "name": "Ruddar Kapoora % Rahmat Masjid Kharkhadi",
        "main_category": "Mosque",
        "address": "4WX4+V9H Ruddar Kapoora % Rahmat Masjid Kharkhadi, Kharkhari, Rajasthan 301018",
        "detailed_address": {
            "ward": null,
            "street": "4WX4+V9H",
            "city": "Kharkhari",
            "postal_code": "301018",
            "state": "Rajasthan",
            "country_code": "IN"
        },
        "images": [
            {
                "about": "All",
                "link": "https://lh5.googleusercontent.com/p/AF1QipNK4veHIZYhHg7IIb4BPd3lmawlD1Ud28BRKfiD=w646-h298-k-no"
            },
            {
                "about": "Street View & 360deg",
                "link": "https://streetviewpixels-pa.googleapis.com/v1/thumbnail?panoid=29A4IIXOLSvkaAB_yzNZDA&cb_client=maps_sv.tactile.gps&w=224&h=298&yaw=213.90178&pitch=0&thumbfov=100"
            },
            {
                "about": "Videos",
                "link": "https://lh5.googleusercontent.com/p/AF1QipOWs88z5e2RpHwh1O9w00UKaMy8VTzrHw51ychn=w224-h398-k-no"
            }
        ],
        "link": "https://www.google.com/maps/place/Ruddar+Kapoora+%25+Rahmat+Masjid+Kharkhadi/data=!4m7!3m6!1s0x390d3723dce148e7:0x8ec096ceeb62c4ac!8m2!3d28.1496965!4d76.9059924!16s%2Fg%2F11nxsc6dsd!19sChIJ50jh3CM3DTkRrMRi686WwI4?authuser=0&hl=en&rclk=1",
        "coordinates": {
            "latitude": 28.149696499999997,
            "longitude": 76.9059924
        }
    },
    {
        "name": "Eidgaha wali masjid",
        "main_category": "Mosque",
        "address": "32PM+RJR Eidgaha wali masjid, Adbar, Haryana 122107",
        "detailed_address": {
            "ward": null,
            "street": "32PM+RJR",
            "city": "Adbar",
            "postal_code": "122107",
            "state": "Haryana",
            "country_code": "IN"
        },
        "images": [],
        "link": "https://www.google.com/maps/place/Eidgaha+wali+masjid/data=!4m7!3m6!1s0x390d2d12cf706fb3:0x3960cdc7d8eb3832!8m2!3d28.0871212!4d77.0340089!16s%2Fg%2F11f3r6nxsj!19sChIJs29wzxItDTkRMjjr2MfNYDk?authuser=0&hl=en&rclk=1",
        "coordinates": {
            "latitude": 28.0871212,
            "longitude": 77.0340089
        }
    },
    {
        "name": "Masjid",
        "main_category": "Mosque",
        "address": "326P+2XV Masjid, Nizampur Nuh, Haryana 122107",
        "detailed_address": {
            "ward": null,
            "street": "326P+2XV",
            "city": "Nizampur Nuh",
            "postal_code": "122107",
            "state": "Haryana",
            "country_code": "IN"
        },
        "images": [],
        "link": "https://www.google.com/maps/place/Masjid/data=!4m7!3m6!1s0x390d2d0af5f344dd:0x61211f4aca63de44!8m2!3d28.0601173!4d77.0374152!16s%2Fg%2F11h8rl8qhg!19sChIJ3UTz9QotDTkRRN5jykofIWE?authuser=0&hl=en&rclk=1",
        "coordinates": {
            "latitude": 28.060117299999998,
            "longitude": 77.0374152
        }
    },
    {
        "name": "Dharuhera",
        "main_category": "Garden",
        "address": "6Q4R+7H8 Dharuhera, Haryana 123106",
        "detailed_address": {
            "ward": null,
            "street": "6Q4R+7H8",
            "city": "Dharuhera",
            "postal_code": null,
            "state": "Haryana",
            "country_code": "IN"
        },
        "images": [
            {
                "about": "All",
                "link": "https://streetviewpixels-pa.googleapis.com/v1/thumbnail?panoid=wBLsKQMj46go4Ub-G2uZKQ&cb_client=maps_sv.tactile.gps&w=224&h=298&yaw=23.130512&pitch=0&thumbfov=100"
            },
            {
                "about": "Street View & 360deg",
                "link": "https://streetviewpixels-pa.googleapis.com/v1/thumbnail?panoid=wBLsKQMj46go4Ub-G2uZKQ&cb_client=maps_sv.tactile.gps&w=224&h=298&yaw=23.130512&pitch=0&thumbfov=100"
            }
        ],
        "link": "https://www.google.com/maps/place/Dharuhera/data=!4m7!3m6!1s0x390d49e410ce0bbb:0x92e30e9a30076d59!8m2!3d28.2056606!4d76.7914639!16s%2Fg%2F11sy4dppn1!19sChIJuwvOEORJDTkRWW0HMJoO45I?authuser=0&hl=en&rclk=1",
        "coordinates": {
            "latitude": 28.205660599999998,
            "longitude": 76.7914639
        }
    },
    {
        "name": "Jain Mandir",
        "main_category": "Place of worship",
        "address": "6Q9X+9FC Jain Mandir, Near Bestech Mall opp Huda, Sector 6, Dharuhera, Haryana 123106",
        "detailed_address": {
            "ward": "Sector 6",
            "street": "6Q9X+9FC, Near Bestech Mall opp Huda",
            "city": "Dharuhera",
            "postal_code": "123106",
            "state": "Haryana",
            "country_code": "IN"
        },
        "images": [],
        "link": "https://www.google.com/maps/place/Jain+Mandir/data=!4m7!3m6!1s0x390d4789893f0c19:0x509f65db0069b6ce!8m2!3d28.2184428!4d76.798654!16s%2Fg%2F11g0w452f9!19sChIJGQw_iYlHDTkRzrZpANtln1A?authuser=0&hl=en&rclk=1",
        "coordinates": {
            "latitude": 28.2184428,
            "longitude": 76.798654
        }
    },
    {
        "name": "Masjid mosque",
        "main_category": "Mosque",
        "address": "5VH9+MX9 Masjid mosque, Bhiwadi - Chopanki Rd, RIICO Industrial Area, Bhiwadi, Kahrani, Rajasthan 301019",
        "detailed_address": {
            "ward": "RIICO Industrial Area",
            "street": "5VH9+MX9, Bhiwadi - Chopanki Rd",
            "city": "Bhiwadi, Kahrani",
            "postal_code": "301019",
            "state": "Rajasthan",
            "country_code": "IN"
        },
        "images": [
            {
                "about": "All",
                "link": "https://streetviewpixels-pa.googleapis.com/v1/thumbnail?panoid=Bb0tZ6vJPxF2E3ZTmv78WQ&cb_client=maps_sv.tactile.gps&w=224&h=298&yaw=23.46985&pitch=0&thumbfov=100"
            },
            {
                "about": "Street View & 360deg",
                "link": "https://streetviewpixels-pa.googleapis.com/v1/thumbnail?panoid=Bb0tZ6vJPxF2E3ZTmv78WQ&cb_client=maps_sv.tactile.gps&w=224&h=298&yaw=23.46985&pitch=0&thumbfov=100"
            }
        ],
        "link": "https://www.google.com/maps/place/Masjid+mosque/data=!4m7!3m6!1s0x390d3763a6c4df3f:0x2d4c2b6d7f1062a9!8m2!3d28.1791613!4d76.8699827!16s%2Fg%2F11h6njp8sy!19sChIJP9_EpmM3DTkRqWIQf20rTC0?authuser=0&hl=en&rclk=1",
        "coordinates": {
            "latitude": 28.179161299999997,
            "longitude": 76.8699827
        }
    },
    {
        "name": "Rahmania Masjid Bandapur, Rajasthan",
        "main_category": "Mosque",
        "address": "Rahmania Masjid Bandapur, Rajasthan, PLOT NO. G1, 358, Bhiwadi - Chopanki Rd, RIICO Industrial Area, Bandapur, Rajasthan 301018",
        "detailed_address": {
            "ward": "RIICO Industrial Area",
            "street": "PLOT NO. G1, 358, Bhiwadi - Chopanki Rd",
            "city": "Bandapur",
            "postal_code": "301018",
            "state": "Rajasthan",
            "country_code": "IN"
        },
        "images": [
            {
                "about": "All",
                "link": "https://lh5.googleusercontent.com/p/AF1QipPssGvZT8SJu13QlgHatJYyf7M4nEZYRqLsIlSW=w224-h398-k-no"
            },
            {
                "about": "Street View & 360deg",
                "link": "https://streetviewpixels-pa.googleapis.com/v1/thumbnail?panoid=Kn3XG9RiEo4wTKrSGKBBhw&cb_client=maps_sv.tactile.gps&w=224&h=298&yaw=89.091545&pitch=0&thumbfov=100"
            },
            {
                "about": "Videos",
                "link": "https://lh5.googleusercontent.com/p/AF1QipOz74WbjqR61aUICWk0GcYInJ8AO0_-QMoChiIB=w224-h498-k-no"
            }
        ],
        "link": "https://www.google.com/maps/place/Rahmania+Masjid+Bandapur,+Rajasthan/data=!4m7!3m6!1s0x390d375e96614547:0x3e40c4f5d61a864!8m2!3d28.1530914!4d76.8872447!16s%2Fg%2F11fktlnk5h!19sChIJR0Vhll43DTkRZKhhXU8M5AM?authuser=0&hl=en&rclk=1",
        "coordinates": {
            "latitude": 28.153091399999997,
            "longitude": 76.8872447
        }
    },
    {
        "name": "Aeasha.masjid",
        "main_category": "Mosque",
        "address": "6W93+XQC Aeasha.masjid, Unnamed Road, Khori Khurd, Sunari, Haryana 122015",
        "detailed_address": {
            "ward": null,
            "street": "6W93+XQC, Unnamed Road",
            "city": "Khori Khurd, Sunari",
            "postal_code": "122015",
            "state": "Haryana",
            "country_code": "IN"
        },
        "images": [
            {
                "about": "All",
                "link": "https://lh5.googleusercontent.com/p/AF1QipOKJwZvd7DfZUQJAdjCmxrhxn60YukJVS7Mh-D2=w224-h398-k-no"
            },
            {
                "about": "Videos",
                "link": "https://lh5.googleusercontent.com/p/AF1QipOKJwZvd7DfZUQJAdjCmxrhxn60YukJVS7Mh-D2=w224-h398-k-no"
            }
        ],
        "link": "https://www.google.com/maps/place/Aeasha.masjid/data=!4m7!3m6!1s0x390d372dc616cebd:0x3b2ab937d684caaa!8m2!3d28.2199458!4d76.9044022!16s%2Fg%2F11r3cm3yv3!19sChIJvc4Wxi03DTkRqsqE1je5Kjs?authuser=0&hl=en&rclk=1",
        "coordinates": {
            "latitude": 28.219945799999998,
            "longitude": 76.90440219999999
        }
    },
    {
        "name": "CHOPANKI MOSQUE (MASJID)",
        "main_category": "Mosque",
        "address": "4VXP+47H CHOPANKI MOSQUE (MASJID), Bhiwadi - Chopanki Rd, Chaupanki, Bandapur, Rajasthan 301018",
        "detailed_address": {
            "ward": null,
            "street": "4VXP+47H, Bhiwadi - Chopanki Rd",
            "city": "Chaupanki, Bandapur",
            "postal_code": "301018",
            "state": "Rajasthan",
            "country_code": "IN"
        },
        "images": [
            {
                "about": "All",
                "link": "https://lh5.googleusercontent.com/p/AF1QipPUICKjVUIKunJZRWdSUK0NXk7eFlD6_i0DZEkq=w529-h298-k-no"
            },
            {
                "about": "Videos",
                "link": "https://lh5.googleusercontent.com/p/AF1QipMAExFTftNZZbJyCwbxnHzgOxz6N8tKydz0uEZ3=w529-h298-k-no"
            }
        ],
        "link": "https://www.google.com/maps/place/CHOPANKI+MOSQUE+%28MASJID%29/data=!4m7!3m6!1s0x390d3792dd44ad3f:0x69a82ab5873d41fe!8m2!3d28.1478173!4d76.8857444!16s%2Fg%2F11rsq88j_2!19sChIJP61E3ZI3DTkR_kE9h7UqqGk?authuser=0&hl=en&rclk=1",
        "coordinates": {
            "latitude": 28.1478173,
            "longitude": 76.8857444
        }
    },
    {
        "name": "Badi Masjid Khohri kalan",
        "main_category": "Mosque",
        "address": "4V99+79W Badi Masjid Khohri kalan, Khohri Kalan, Rajasthan 301707",
        "detailed_address": {
            "ward": null,
            "street": "4V99+79W",
            "city": "Khohri Kalan",
            "postal_code": "301707",
            "state": "Rajasthan",
            "country_code": "IN"
        },
        "images": [
            {
                "about": "All",
                "link": "https://lh5.googleusercontent.com/p/AF1QipNv32iAtZH2KAZGsso97INEzlGxMLcBAEzZHEEe=w530-h298-k-no"
            }
        ],
        "link": "https://www.google.com/maps/place/Badi+Masjid+Khohri+kalan/data=!4m7!3m6!1s0x390d3583b4d572b1:0x15018fcfe1212aa!8m2!3d28.1182933!4d76.8684738!16s%2Fg%2F11kj_8ph_x!19sChIJsXLVtIM1DTkRqhIS_vwYUAE?authuser=0&hl=en&rclk=1",
        "coordinates": {
            "latitude": 28.118293299999998,
            "longitude": 76.86847379999999
        }
    },
    {
        "name": "Jama masjid tapukara",
        "main_category": "Mosque",
        "address": "4R6P+PW8 Jama masjid tapukara, MDR61, Mayapur, Rajasthan 301707",
        "detailed_address": {
            "ward": null,
            "street": "4R6P+PW8, MDR61",
            "city": "Mayapur",
            "postal_code": "301707",
            "state": "Rajasthan",
            "country_code": "IN"
        },
        "images": [
            {
                "about": "All",
                "link": "https://lh5.googleusercontent.com/p/AF1QipM5UPgyq1CDb5t-B5seNGg6FhmmU1pmKn2UpGAR=w530-h298-k-no"
            },
            {
                "about": "Street View & 360deg",
                "link": "https://streetviewpixels-pa.googleapis.com/v1/thumbnail?panoid=_qB-skjGymI2tZqokqbWAA&cb_client=maps_sv.tactile.gps&w=224&h=298&yaw=335.82446&pitch=0&thumbfov=100"
            }
        ],
        "link": "https://www.google.com/maps/place/Jama+masjid+tapukara/data=!4m7!3m6!1s0x390d35f2254c01bb:0x98496226fe25b4bf!8m2!3d28.1117587!4d76.8372803!16s%2Fg%2F11kk5p3bxb!19sChIJuwFMJfI1DTkRv7Ql_iZiSZg?authuser=0&hl=en&rclk=1",
        "coordinates": {
            "latitude": 28.1117587,
            "longitude": 76.8372803
        }
    },
    {
        "name": "MASJID AL AQSAH MULLAH KI DHANI NIBAHERI",
        "main_category": "Mosque",
        "address": "MASJID AL AQSAH MULLAH KI DHANI NIBAHERI, Nibaheri, Rajasthan 301707",
        "detailed_address": {
            "ward": null,
            "street": null,
            "city": "Nibaheri",
            "postal_code": "301707",
            "state": "Rajasthan",
            "country_code": "IN"
        },
        "images": [
            {
                "about": "All",
                "link": "https://lh5.googleusercontent.com/p/AF1QipNSs3sfaRSuDF18eEMtBrrx0lhZhjdkSyyR7HPQ=w529-h298-k-no"
            },
            {
                "about": "By owner",
                "link": "https://lh5.googleusercontent.com/p/AF1QipOg61wIl-yQEf4UieN7b5nWAAZM-WuvwJT1YjwB=w529-h298-k-no"
            }
        ],
        "link": "https://www.google.com/maps/place/MASJID+AL+AQSAH+MULLAH+KI+DHANI+NIBAHERI/data=!4m7!3m6!1s0x390d357d12d9be83:0xa4042538b287fdb5!8m2!3d28.0841549!4d76.8722743!16s%2Fg%2F11s55gsrq7!19sChIJg77ZEn01DTkRtf2HsjglBKQ?authuser=0&hl=en&rclk=1",
        "coordinates": {
            "latitude": 28.084154899999998,
            "longitude": 76.8722743
        }
    },
    {
        "name": "Old Gaon Masjid Nakhnaul",
        "main_category": "Mosque",
        "address": "4V53+6MF Old Gaon Masjid Nakhnaul, Lakhnor, Rajasthan 301707",
        "detailed_address": {
            "ward": null,
            "street": "4V53+6MF",
            "city": "Lakhnor",
            "postal_code": "301707",
            "state": "Rajasthan",
            "country_code": "IN"
        },
        "images": [
            {
                "about": "All",
                "link": "https://lh5.googleusercontent.com/p/AF1QipODXlY2bc6LQJlDSBO3ShyJLpRZdgxM3BaLNmMT=w529-h298-k-no"
            },
            {
                "about": "Videos",
                "link": "https://lh5.googleusercontent.com/p/AF1QipODXlY2bc6LQJlDSBO3ShyJLpRZdgxM3BaLNmMT=w529-h298-k-no"
            }
        ],
        "link": "https://www.google.com/maps/place/Old+Gaon+Masjid+Nakhnaul/data=!4m7!3m6!1s0x390d35b9678af541:0xb6f6bafabf43ebb1!8m2!3d28.1078482!4d76.8551739!16s%2Fg%2F11n_zgp1h5!19sChIJQfWKZ7k1DTkRsetDv_q69rY?authuser=0&hl=en&rclk=1",
        "coordinates": {
            "latitude": 28.1078482,
            "longitude": 76.8551739
        }
    },
    {
        "name": "Masjid Eid Gah Guwalda msjid iidgaah guvaaldaa msjd `ydgh gwldh",
        "main_category": "Mosque",
        "address": "4V8R+FHC Masjid Eid Gah Guwalda msjid iidgaah guvaaldaa msjd `ydgh gwldh, Guwalda, Rajasthan 301707",
        "detailed_address": {
            "ward": null,
            "street": "4V8R+FHC",
            "city": "Guwalda",
            "postal_code": null,
            "state": "Rajasthan",
            "country_code": "IN"
        },
        "images": [
            {
                "about": "All",
                "link": "https://lh5.googleusercontent.com/p/AF1QipMjbZyH3meMTRSHTEc6XqoraLCA3dyrKkE-QuJd=w397-h298-k-no"
            },
            {
                "about": "Videos",
                "link": "https://lh5.googleusercontent.com/p/AF1QipMCiz4rdM0gLy684chD6jNM--BPE-T8syTcGn_U=w224-h398-k-no"
            }
        ],
        "link": "https://www.google.com/maps/place/Masjid+Eid+Gah+Guwalda+%E0%A4%AE%E0%A4%B8%E0%A5%8D%E0%A4%9C%E0%A4%BF%E0%A4%A6+%E0%A4%88%E0%A4%A6%E0%A4%97%E0%A4%BE%E0%A4%B9+%E0%A4%97%E0%A5%81%E0%A4%B5%E0%A4%BE%E0%A4%B2%E0%A4%A6%E0%A4%BE+%D9%85%D8%B3%D8%AC%D8%AF+%D8%B9%DB%8C%D8%AF%DA%AF%D8%A7%DB%81+%DA%AF%D9%88%D8%A7%D9%84%D8%AF%DB%81%E2%80%AD/data=!4m7!3m6!1s0x390d3505aaa68111:0xede99485aff5cc86!8m2!3d28.1161792!4d76.8913774!16s%2Fg%2F11tfb80v51!19sChIJEYGmqgU1DTkRhsz1r4WU6e0?authuser=0&hl=en&rclk=1",
        "coordinates": {
            "latitude": 28.116179199999998,
            "longitude": 76.8913774
        }
    },
    {
        "name": "Jumma masjid Chawandi",
        "main_category": "Mosque",
        "address": "2RPM+JP6 Jumma masjid Chawandi, Papari Rd, Chawandi Khurd, Rajasthan 301411",
        "detailed_address": {
            "ward": null,
            "street": "2RPM+JP6, Papari Rd",
            "city": "Chawandi Khurd",
            "postal_code": "301411",
            "state": "Rajasthan",
            "country_code": "IN"
        },
        "images": [
            {
                "about": "All",
                "link": "https://lh5.googleusercontent.com/p/AF1QipNBEgYJ9ScDCouqzZOX_ipMubVx5HgLzSBYKHdz=w224-h298-k-no"
            }
        ],
        "link": "https://www.google.com/maps/place/Jumma+masjid+Chawandi/data=!4m7!3m6!1s0x390d3528d5f1f5b5:0xacb488d999aa0df6!8m2!3d28.0365276!4d76.8342774!16s%2Fg%2F11m_g62v_y!19sChIJtfXx1Sg1DTkR9g2qmdmItKw?authuser=0&hl=en&rclk=1",
        "coordinates": {
            "latitude": 28.0365276,
            "longitude": 76.83427739999999
        }
    },
    {
        "name": "KHAN SAAB HOUSE",
        "main_category": "Mosque",
        "address": "5R24+HMX KHAN SAAB HOUSE, Kalaka, Rajasthan 301018",
        "detailed_address": {
            "ward": null,
            "street": "5R24+HMX",
            "city": "Kalaka",
            "postal_code": "301018",
            "state": "Rajasthan",
            "country_code": "IN"
        },
        "images": [
            {
                "about": "All",
                "link": "https://streetviewpixels-pa.googleapis.com/v1/thumbnail?panoid=C2xAZm6kCGkvoqHO65NIXQ&cb_client=maps_sv.tactile.gps&w=224&h=298&yaw=242.13324&pitch=0&thumbfov=100"
            },
            {
                "about": "Street View & 360deg",
                "link": "https://streetviewpixels-pa.googleapis.com/v1/thumbnail?panoid=C2xAZm6kCGkvoqHO65NIXQ&cb_client=maps_sv.tactile.gps&w=224&h=298&yaw=242.13324&pitch=0&thumbfov=100"
            }
        ],
        "link": "https://www.google.com/maps/place/KHAN+SAAB+HOUSE/data=!4m7!3m6!1s0x390d4974573fcc33:0x9bb8b2b5127b510!8m2!3d28.1514945!4d76.8067188!16s%2Fg%2F11tf2shscy!19sChIJM8w_V3RJDTkRELUnUSuLuwk?authuser=0&hl=en&rclk=1",
        "coordinates": {
            "latitude": 28.1514945,
            "longitude": 76.8067188
        }
    },
    {
        "name": "Eid Gah Masjid",
        "main_category": "Mosque",
        "address": "3XVF+66W Eid Gah Masjid, Gehbar, Haryana 122107",
        "detailed_address": {
            "ward": null,
            "street": "3XVF+66W",
            "city": "Gehbar",
            "postal_code": null,
            "state": "Haryana",
            "country_code": "IN"
        },
        "images": [
            {
                "about": "All",
                "link": "https://lh5.googleusercontent.com/p/AF1QipPjZankst5QtEv54uEEPwONgZOp_mbySuhbCCdp=w224-h298-k-no"
            }
        ],
        "link": "https://www.google.com/maps/place/Eid+Gah+Masjid/data=!4m7!3m6!1s0x390d32f85fa844db:0x309c9829b77ffe4e!8m2!3d28.0931115!4d76.9730722!16s%2Fg%2F11f4ld74gy!19sChIJ20SoX_gyDTkRTv5_tymYnDA?authuser=0&hl=en&rclk=1",
        "coordinates": {
            "latitude": 28.0931115,
            "longitude": 76.97307219999999
        }
    },
    {
        "name": "Park",
        "main_category": "Park",
        "address": "6Q4W+445 Park, Dharuhera, Haryana 123106",
        "detailed_address": {
            "ward": null,
            "street": "6Q4W+445",
            "city": "Dharuhera",
            "postal_code": null,
            "state": "Haryana",
            "country_code": "IN"
        },
        "images": [
            {
                "about": "All",
                "link": "https://lh5.googleusercontent.com/p/AF1QipNwE3q9Cb9KRw-DFaBTxaqNld6BQuPzgTrVfU-f=w224-h485-k-no"
            },
            {
                "about": "Street View & 360deg",
                "link": "https://streetviewpixels-pa.googleapis.com/v1/thumbnail?panoid=_YCv8u6NsyLk53_0cpDDvw&cb_client=maps_sv.tactile.gps&w=224&h=298&yaw=347.9356&pitch=0&thumbfov=100"
            }
        ],
        "link": "https://www.google.com/maps/place/Park/data=!4m7!3m6!1s0x390d498adb0fa313:0xa1f3bcfd6397d669!8m2!3d28.205267!4d76.7953647!16s%2Fg%2F11gtzg3083!19sChIJE6MP24pJDTkRadaXY_2886E?authuser=0&hl=en&rclk=1",
        "coordinates": {
            "latitude": 28.205267,
            "longitude": 76.7953647
        }
    },
    {
        "name": "EIDGAH MASJID",
        "main_category": "Mosque",
        "address": "4VQG+G65 EIDGAH MASJID, Pathredi, Rajasthan 301018",
        "detailed_address": {
            "ward": null,
            "street": "4VQG+G65",
            "city": "Pathredi",
            "postal_code": null,
            "state": "Rajasthan",
            "country_code": "IN"
        },
        "images": [
            {
                "about": "All",
                "link": "https://streetviewpixels-pa.googleapis.com/v1/thumbnail?panoid=QaekxQFw9wVY3nsvTZZAeg&cb_client=maps_sv.tactile.gps&w=224&h=298&yaw=294.75513&pitch=0&thumbfov=100"
            },
            {
                "about": "Dome",
                "link": "https://lh5.googleusercontent.com/p/AF1QipPKFADCsq8DSIGfaTjDlmnWtAliFE_mo6MdfsoS=w512-h298-k-no"
            },
            {
                "about": "Street View & 360deg",
                "link": "https://streetviewpixels-pa.googleapis.com/v1/thumbnail?panoid=QaekxQFw9wVY3nsvTZZAeg&cb_client=maps_sv.tactile.gps&w=224&h=298&yaw=294.75513&pitch=0&thumbfov=100"
            }
        ],
        "link": "https://www.google.com/maps/place/EIDGAH+MASJID/data=!4m7!3m6!1s0x390d3744faa3d3c5:0x584a09dd79c21655!8m2!3d28.1387507!4d76.8756188!16s%2Fg%2F11sytg0g4x!19sChIJxdOj-kQ3DTkRVRbCed0JSlg?authuser=0&hl=en&rclk=1",
        "coordinates": {
            "latitude": 28.1387507,
            "longitude": 76.8756188
        }
    },
    {
        "name": "iidgaah pttaudii",
        "main_category": "Place of worship",
        "address": "iidgaah pttaudii, WARD NO 11 REWARI ROAD, near SUBHAM MARUTI WORKSHOP, opposite IDHGAH, Pataudi, Haryana 122503",
        "detailed_address": {
            "ward": null,
            "street": "WARD NO 11 REWARI ROAD, near SUBHAM MARUTI WORKSHOP, opposite IDHGAH",
            "city": "Pataudi",
            "postal_code": "122503",
            "state": "Haryana",
            "country_code": "IN"
        },
        "images": [
            {
                "about": "All",
                "link": "https://lh5.googleusercontent.com/p/AF1QipMBOI5Dl4Ro2_d-NaN1P-tXcJxrhTAZAVOgbXH9=w529-h298-k-no"
            },
            {
                "about": "Street View & 360deg",
                "link": "https://streetviewpixels-pa.googleapis.com/v1/thumbnail?panoid=k5v6SxWdBNOVYH811CS05g&cb_client=maps_sv.tactile.gps&w=224&h=298&yaw=348.60455&pitch=0&thumbfov=100"
            }
        ],
        "link": "https://www.google.com/maps/place/%E0%A4%88%E0%A4%A6%E0%A4%97%E0%A4%BE%E0%A4%B9+%E0%A4%AA%E0%A4%9F%E0%A5%8C%E0%A4%A6%E0%A5%80/data=!4m7!3m6!1s0x390d41ef47eb1267:0xe9d0e2686b50186c!8m2!3d28.3242437!4d76.7720457!16s%2Fg%2F11h52s1hc4!19sChIJZxLrR-9BDTkRbBhQa2ji0Ok?authuser=0&hl=en&rclk=1",
        "coordinates": {
            "latitude": 28.3242437,
            "longitude": 76.77204569999999
        }
    },
    {
        "name": "Masjid",
        "main_category": "Mosque",
        "address": "22M6+6XR Masjid, Malab, Haryana 122107",
        "detailed_address": {
            "ward": null,
            "street": "22M6+6XR",
            "city": "Malab",
            "postal_code": "122107",
            "state": "Haryana",
            "country_code": "IN"
        },
        "images": [
            {
                "about": "All",
                "link": "https://lh5.googleusercontent.com/p/AF1QipOtZwD3EwjrZMrljs1EReBRS4dmaluOEDQ-NiO5=w224-h299-k-no"
            },
            {
                "about": "Street View & 360deg",
                "link": "https://streetviewpixels-pa.googleapis.com/v1/thumbnail?panoid=xrTnUxe6r3fxxqewedRnmw&cb_client=maps_sv.tactile.gps&w=224&h=298&yaw=142.4884&pitch=0&thumbfov=100"
            }
        ],
        "link": "https://www.google.com/maps/place/Masjid/data=!4m7!3m6!1s0x3972d3868c8be52f:0xbb3ffa2d9ed49cdf!8m2!3d28.0331122!4d77.0123832!16s%2Fg%2F11l45_ysln!19sChIJL-WLjIbTcjkR35zUni36P7s?authuser=0&hl=en&rclk=1",
        "coordinates": {
            "latitude": 28.033112199999998,
            "longitude": 77.0123832
        }
    },
    {
        "name": "Badi masjid khori khurd tauru",
        "main_category": "Mosque",
        "address": "Badi masjid khori khurd tauru, Khori Khurd, Haryana 122015",
        "detailed_address": {
            "ward": null,
            "street": null,
            "city": "Khori Khurd",
            "postal_code": "122015",
            "state": "Haryana",
            "country_code": "IN"
        },
        "images": [],
        "link": "https://www.google.com/maps/place/Badi+masjid+khori+khurd+tauru/data=!4m7!3m6!1s0x390d39e6ba535a75:0xf553ce07b6ee3f35!8m2!3d28.2249859!4d76.8819695!16s%2Fg%2F11p0dlqhdh!19sChIJdVpTuuY5DTkRNT_utgfOU_U?authuser=0&hl=en&rclk=1",
        "coordinates": {
            "latitude": 28.2249859,
            "longitude": 76.8819695
        }
    },
    {
        "name": "Mukeem",
        "main_category": "Mosque",
        "address": "7VFR+WRP Mukeem, Tauru Rd, Haryana 122015",
        "detailed_address": {
            "ward": null,
            "street": "7VFR+WRP, Tauru Rd",
            "city": null,
            "postal_code": "122015",
            "state": "Haryana",
            "country_code": "IN"
        },
        "images": [
            {
                "about": "All",
                "link": "https://streetviewpixels-pa.googleapis.com/v1/thumbnail?panoid=7gt9W-xFwYFTHxPuzcHsfg&cb_client=maps_sv.tactile.gps&w=224&h=298&yaw=292.4318&pitch=0&thumbfov=100"
            },
            {
                "about": "Street View & 360deg",
                "link": "https://streetviewpixels-pa.googleapis.com/v1/thumbnail?panoid=7gt9W-xFwYFTHxPuzcHsfg&cb_client=maps_sv.tactile.gps&w=224&h=298&yaw=292.4318&pitch=0&thumbfov=100"
            }
        ],
        "link": "https://www.google.com/maps/place/Mukeem/data=!4m7!3m6!1s0x390d39378cb9d599:0xa4177340992a7981!8m2!3d28.2748259!4d76.8920677!16s%2Fg%2F11rsyyv89v!19sChIJmdW5jDc5DTkRgXkqmUBzF6Q?authuser=0&hl=en&rclk=1",
        "coordinates": {
            "latitude": 28.2748259,
            "longitude": 76.8920677
        }
    },
    {
        "name": "BADI MASJID CHUNDHIKA",
        "main_category": "Mosque",
        "address": "6W35+Q4J BADI MASJID CHUNDHIKA, Atitka, Haryana 122015",
        "detailed_address": {
            "ward": null,
            "street": "6W35+Q4J",
            "city": "Atitka",
            "postal_code": "122015",
            "state": "Haryana",
            "country_code": "IN"
        },
        "images": [
            {
                "about": "All",
                "link": "https://lh5.googleusercontent.com/p/AF1QipO9ASAlhhhVx_FkaxYC72dBDMYj6SEyCI-eCfSn=w361-h298-k-no"
            },
            {
                "about": "Dome",
                "link": "https://lh5.googleusercontent.com/p/AF1QipPK7GEMxhf_rSI9YhnyM5LvGo-V1Dcslwbx66O3=w397-h298-k-no"
            }
        ],
        "link": "https://www.google.com/maps/place/BADI+MASJID+CHUNDHIKA/data=!4m7!3m6!1s0x390d37791528db3f:0x7aee38b3cf6bdb79!8m2!3d28.2044517!4d76.9077706!16s%2Fg%2F11tdbgfx5l!19sChIJP9soFXk3DTkRedtrz7M47no?authuser=0&hl=en&rclk=1",
        "coordinates": {
            "latitude": 28.2044517,
            "longitude": 76.90777059999999
        }
    },
    {
        "name": "Makka Masjid Haji Rujddar Ki dhani",
        "main_category": "Mosque",
        "address": "Makka Masjid Haji Rujddar Ki dhani, Nimbahedi Tijara, Alwar, Nibaheri, Rajasthan 301411",
        "detailed_address": {
            "ward": null,
            "street": "Nimbahedi Tijara",
            "city": "Alwar, Nibaheri",
            "postal_code": null,
            "state": "Rajasthan",
            "country_code": "IN"
        },
        "images": [],
        "link": "https://www.google.com/maps/place/Makka+Masjid+Haji+Rujddar+Ki+dhani/data=!4m7!3m6!1s0x390d3586d5105753:0x61176b22278ed911!8m2!3d28.0916028!4d76.8755304!16s%2Fg%2F11sjdx7p1h!19sChIJU1cQ1YY1DTkREdmOJyJrF2E?authuser=0&hl=en&rclk=1",
        "coordinates": {
            "latitude": 28.0916028,
            "longitude": 76.8755304
        }
    },
    {
        "name": "Takiya Wali Masjid Khohri kalan",
        "main_category": "Mosque",
        "address": "4VC8+HFR Takiya Wali Masjid Khohri kalan, MDR61, Khohri Kalan, Khohri Khurd, Rajasthan 301707",
        "detailed_address": {
            "ward": null,
            "street": "4VC8+HFR, MDR61",
            "city": "Khohri Kalan, Khohri Khurd",
            "postal_code": "301707",
            "state": "Rajasthan",
            "country_code": "IN"
        },
        "images": [
            {
                "about": "All",
                "link": "https://lh5.googleusercontent.com/p/AF1QipOTlkg4hUQju-XJ9i9GEG_fOXvLccEFScsoeE81=w530-h298-k-no"
            },
            {
                "about": "Street View & 360deg",
                "link": "https://streetviewpixels-pa.googleapis.com/v1/thumbnail?panoid=xFiLlTgDriwspenN9dEosw&cb_client=maps_sv.tactile.gps&w=224&h=298&yaw=337.70694&pitch=0&thumbfov=100"
            }
        ],
        "link": "https://www.google.com/maps/place/Takiya+Wali+Masjid+Khohri+kalan/data=!4m7!3m6!1s0x390d35be452b71fd:0xedd634cced6b72f1!8m2!3d28.1216603!4d76.8657681!16s%2Fg%2F11t_z2n4v5!19sChIJ_XErRb41DTkR8XJr7cw01u0?authuser=0&hl=en&rclk=1",
        "coordinates": {
            "latitude": 28.1216603,
            "longitude": 76.8657681
        }
    },
    {
        "name": "Bhamboo ki dhani ki masjid",
        "main_category": "Mosque",
        "address": "4V3Q+HQ2 Bhamboo ki dhani ki masjid, Bamboo ki dhani Bamboo ki dhani, Guwalda, Rajasthan 301707",
        "detailed_address": {
            "ward": null,
            "street": "4V3Q+HQ2 Bamboo ki dhani Bamboo ki dhani",
            "city": "Guwalda",
            "postal_code": "301707",
            "state": "Rajasthan",
            "country_code": "IN"
        },
        "images": [],
        "link": "https://www.google.com/maps/place/Bhamboo+ki+dhani+ki+masjid/data=!4m7!3m6!1s0x390d35c6952173dd:0xbf5206671f08a447!8m2!3d28.1038882!4d76.8893907!16s%2Fg%2F11rvg4qx20!19sChIJ3XMhlcY1DTkRR6QIH2cGUr8?authuser=0&hl=en&rclk=1",
        "coordinates": {
            "latitude": 28.1038882,
            "longitude": 76.88939069999999
        }
    },
    {
        "name": "jaamaa msjid besmentt vaalii khraanii",
        "main_category": "Mosque",
        "address": "5VGF+P26 jaamaa msjid besmentt vaalii khraanii, Kahrani, Rajasthan 301018",
        "detailed_address": {
            "ward": null,
            "street": "5VGF+P26",
            "city": "Kahrani",
            "postal_code": null,
            "state": "Rajasthan",
            "country_code": "IN"
        },
        "images": [],
        "link": "https://www.google.com/maps/place/%E0%A4%9C%E0%A4%BE%E0%A4%AE%E0%A4%BE+%E0%A4%AE%E0%A4%B8%E0%A5%8D%E0%A4%9C%E0%A4%BF%E0%A4%A6+%E0%A4%AC%E0%A5%87%E0%A4%B8%E0%A4%AE%E0%A5%87%E0%A4%A8%E0%A5%8D%E0%A4%9F+%E0%A4%B5%E0%A4%BE%E0%A4%B2%E0%A5%80+%E0%A4%95%E0%A4%B9%E0%A4%B0%E0%A4%BE%E0%A4%A8%E0%A5%80/data=!4m7!3m6!1s0x390d37d923ce1153:0xb70267baf522c1bf!8m2!3d28.1767999!4d76.8725201!16s%2Fg%2F11rxrt4xxm!19sChIJUxHOI9k3DTkRv8Ei9bpnArc?authuser=0&hl=en&rclk=1",
        "coordinates": {
            "latitude": 28.1767999,
            "longitude": 76.8725201
        }
    },
    {
        "name": "Ameer Saab Muhuru Ki Majid amiir saab muhuuruu ki mjiid",
        "main_category": "Mosque",
        "address": "4RVC+3W7 Ameer Saab Muhuru Ki Majid amiir saab muhuuruu ki mjiid, Bibipur, Rajasthan 301707",
        "detailed_address": {
            "ward": null,
            "street": "4RVC+3W7",
            "city": "Bibipur",
            "postal_code": "301707",
            "state": "Rajasthan",
            "country_code": "IN"
        },
        "images": [],
        "link": "https://www.google.com/maps/place/Ameer+Saab+Muhuru+Ki+Majid+%E0%A4%85%E0%A4%AE%E0%A5%80%E0%A4%B0+%E0%A4%B8%E0%A4%BE%E0%A4%AC+%E0%A4%AE%E0%A5%81%E0%A4%B9%E0%A5%82%E0%A4%B0%E0%A5%82+%E0%A4%95%E0%A4%BF+%E0%A4%AE%E0%A4%9C%E0%A5%80%E0%A4%A6/data=!4m7!3m6!1s0x390d4931b82066df:0x33e5ae4d2153ebb0!8m2!3d28.1426508!4d76.8223088!16s%2Fg%2F11pm71hyb4!19sChIJ32YguDFJDTkRsOtTIU2u5TM?authuser=0&hl=en&rclk=1",
        "coordinates": {
            "latitude": 28.1426508,
            "longitude": 76.8223088
        }
    },
    {
        "name": "Madina masjid hasmi ( Suleman ki dhani )",
        "main_category": "Mosque",
        "address": "3RFR+856 Madina masjid hasmi ( Suleman ki dhani ), Meethiyawas, Rajasthan 301707",
        "detailed_address": {
            "ward": null,
            "street": "3RFR+856",
            "city": "Meethiyawas",
            "postal_code": "301707",
            "state": "Rajasthan",
            "country_code": "IN"
        },
        "images": [],
        "link": "https://www.google.com/maps/place/Madina+masjid+hasmi+%28+Suleman+ki+dhani+%29/data=!4m7!3m6!1s0x390d358130102b4b:0xdd197c2086e00039!8m2!3d28.0731657!4d76.8403533!16s%2Fg%2F11vhsd_kx3!19sChIJSysQMIE1DTkROQDghiB8Gd0?authuser=0&hl=en&rclk=1",
        "coordinates": {
            "latitude": 28.073165699999997,
            "longitude": 76.84035329999999
        }
    },
    {
        "name": "Naye Masjid basaiya ki dhani",
        "main_category": "Mosque",
        "address": "3VWR+W73 Naye Masjid basaiya ki dhani, Guwalda, Rajasthan 301411",
        "detailed_address": {
            "ward": null,
            "street": "3VWR+W73",
            "city": "Guwalda",
            "postal_code": "301411",
            "state": "Rajasthan",
            "country_code": "IN"
        },
        "images": [],
        "link": "https://www.google.com/maps/place/Naye+Masjid+basaiya+ki+dhani/data=!4m7!3m6!1s0x390d35f4ec39ca5d:0x582ee4a0b9625ec3!8m2!3d28.0972714!4d76.8906578!16s%2Fg%2F11kryc0vxg!19sChIJXco57PQ1DTkRw15iuaDkLlg?authuser=0&hl=en&rclk=1",
        "coordinates": {
            "latitude": 28.0972714,
            "longitude": 76.8906578
        }
    },
    {
        "name": "MASJID E NAMRA",
        "main_category": "Mosque",
        "address": "6V3M+HXQ MASJID E NAMRA, Rampura, Rajasthan 301019",
        "detailed_address": {
            "ward": null,
            "street": "6V3M+HXQ",
            "city": "Rampura",
            "postal_code": "301019",
            "state": "Rajasthan",
            "country_code": "IN"
        },
        "images": [],
        "link": "https://www.google.com/maps/place/MASJID+E+NAMRA/data=!4m7!3m6!1s0x390d3726788aa599:0x24ccea9c32c7998f!8m2!3d28.204188!4d76.884525!16s%2Fg%2F11srhp2jd4!19sChIJmaWKeCY3DTkRj5nHMpzqzCQ?authuser=0&hl=en&rclk=1",
        "coordinates": {
            "latitude": 28.204188,
            "longitude": 76.884525
        }
    },
    {
        "name": "Jama Masjid Turkiawas",
        "main_category": "Mosque",
        "address": "6MPV+5MJ Jama Masjid Turkiawas, Turkiawas, Janti, Haryana 122502",
        "detailed_address": {
            "ward": null,
            "street": "6MPV+5MJ",
            "city": "Turkiawas, Janti",
            "postal_code": "122502",
            "state": "Haryana",
            "country_code": "IN"
        },
        "images": [
            {
                "about": "All",
                "link": "https://streetviewpixels-pa.googleapis.com/v1/thumbnail?panoid=VJdf3LIOiAa5aNW2e3WuXA&cb_client=maps_sv.tactile.gps&w=224&h=298&yaw=12.304319&pitch=0&thumbfov=100"
            },
            {
                "about": "Street View & 360deg",
                "link": "https://streetviewpixels-pa.googleapis.com/v1/thumbnail?panoid=VJdf3LIOiAa5aNW2e3WuXA&cb_client=maps_sv.tactile.gps&w=224&h=298&yaw=12.304319&pitch=0&thumbfov=100"
            }
        ],
        "link": "https://www.google.com/maps/place/Jama+Masjid+Turkiawas/data=!4m7!3m6!1s0x390d45ed50c007cb:0x4c3ea7a9983e7967!8m2!3d28.2354551!4d76.6941256!16s%2Fg%2F11t8bx1_6v!19sChIJywfAUO1FDTkRZ3k-mKmnPkw?authuser=0&hl=en&rclk=1",
        "coordinates": {
            "latitude": 28.2354551,
            "longitude": 76.69412559999999
        }
    },
    {
        "name": "Gadwali Masjid Khohri kalan",
        "main_category": "Mosque",
        "address": "4VCC+4V Gadwali Masjid Khohri kalan, Khohri Kalan, Rajasthan 301707",
        "detailed_address": {
            "ward": null,
            "street": "4VCC+4V",
            "city": "Khohri Kalan",
            "postal_code": null,
            "state": "Rajasthan",
            "country_code": "IN"
        },
        "images": [
            {
                "about": "All",
                "link": "https://lh5.googleusercontent.com/p/AF1QipNifAXlpNjts9FvS5i3qYGBy7sZIHVy0Y_DykNE=w530-h298-k-no"
            }
        ],
        "link": "https://www.google.com/maps/place/Gadwali+Masjid+Khohri+kalan/data=!4m7!3m6!1s0x390d359071dec8a7:0x3a857a67cdf2ceea!8m2!3d28.1203693!4d76.8721495!16s%2Fg%2F11st7z_yjk!19sChIJp8jecZA1DTkR6s7yzWd6hTo?authuser=0&hl=en&rclk=1",
        "coordinates": {
            "latitude": 28.1203693,
            "longitude": 76.87214949999999
        }
    },
    {
        "name": "Bamboo ki dhani ki masjid",
        "main_category": "Mosque",
        "address": "Bamboo ki dhani ki masjid, Bamboo ki dhani, Guwalda, Rajasthan 301411",
        "detailed_address": {
            "ward": null,
            "street": "Bamboo ki dhani",
            "city": "Guwalda",
            "postal_code": null,
            "state": "Rajasthan",
            "country_code": "IN"
        },
        "images": [],
        "link": "https://www.google.com/maps/place/Bamboo+ki+dhani+ki+masjid/data=!4m7!3m6!1s0x390d35bfa081b2cf:0x7897db53045f6966!8m2!3d28.0894647!4d76.9012529!16s%2Fg%2F11q4gcl052!19sChIJz7KBoL81DTkRZmlfBFPbl3g?authuser=0&hl=en&rclk=1",
        "coordinates": {
            "latitude": 28.089464699999997,
            "longitude": 76.9012529
        }
    },
    {
        "name": "Masjid Israil Gattad",
        "main_category": "Mosque",
        "address": "5VF2+8FG Masjid Israil Gattad, Godhan, Rajasthan 301018",
        "detailed_address": {
            "ward": null,
            "street": "5VF2+8FG",
            "city": "Godhan",
            "postal_code": null,
            "state": "Rajasthan",
            "country_code": "IN"
        },
        "images": [],
        "link": "https://www.google.com/maps/place/Masjid+Israil+Gattad/data=!4m7!3m6!1s0x390d376f10e2caf1:0x7865edfda44e02b8!8m2!3d28.1727816!4d76.8512292!16s%2Fg%2F11t7t_2hpt!19sChIJ8criEG83DTkRuAJOpP3tZXg?authuser=0&hl=en&rclk=1",
        "coordinates": {
            "latitude": 28.1727816,
            "longitude": 76.85122919999999
        }
    },
    {
        "name": "NOORANI MASJID",
        "main_category": "Mosque",
        "address": "7XC2+PV8 NOORANI MASJID, Beri Nisfi Tauru, Sabras, Haryana 122015",
        "detailed_address": {
            "ward": null,
            "street": "7XC2+PV8",
            "city": "Beri Nisfi Tauru, Sabras",
            "postal_code": null,
            "state": "Haryana",
            "country_code": "IN"
        },
        "images": [
            {
                "about": "All",
                "link": "https://streetviewpixels-pa.googleapis.com/v1/thumbnail?panoid=9OulYgUwSDww3HQSLpQhCA&cb_client=maps_sv.tactile.gps&w=224&h=298&yaw=94.61816&pitch=0&thumbfov=100"
            },
            {
                "about": "Street View & 360deg",
                "link": "https://streetviewpixels-pa.googleapis.com/v1/thumbnail?panoid=9OulYgUwSDww3HQSLpQhCA&cb_client=maps_sv.tactile.gps&w=224&h=298&yaw=94.61816&pitch=0&thumbfov=100"
            }
        ],
        "link": "https://www.google.com/maps/place/NOORANI+MASJID/data=!4m7!3m6!1s0x390d3b4a2e8e66cd:0xb36586a55550f649!8m2!3d28.2717895!4d76.9522142!16s%2Fg%2F11srty70dk!19sChIJzWaOLko7DTkRSfZQVaWGZbM?authuser=0&hl=en&rclk=1",
        "coordinates": {
            "latitude": 28.271789499999997,
            "longitude": 76.9522142
        }
    },
    {
        "name": "Badi Masjid",
        "main_category": "Mosque",
        "address": "5VFH+8P7 Badi Masjid, Gadpur, Rajasthan 301018",
        "detailed_address": {
            "ward": null,
            "street": "5VFH+8P7",
            "city": "Gadpur",
            "postal_code": null,
            "state": "Rajasthan",
            "country_code": "IN"
        },
        "images": [],
        "link": "https://www.google.com/maps/place/Badi+Masjid/data=!4m7!3m6!1s0x390d3763cfce7081:0xf56376419087392f!8m2!3d28.1732923!4d76.8793025!16s%2Fg%2F11k4frk867!19sChIJgXDOz2M3DTkRLzmHkEF2Y_U?authuser=0&hl=en&rclk=1",
        "coordinates": {
            "latitude": 28.1732923,
            "longitude": 76.8793025
        }
    },
    {
        "name": "Chhoti Masjid Alladiya",
        "main_category": "Mosque",
        "address": "7V3H+5C8 Chhoti Masjid Alladiya, Utoon, Haryana 122015",
        "detailed_address": {
            "ward": null,
            "street": "7V3H+5C8",
            "city": "Utoon",
            "postal_code": "122015",
            "state": "Haryana",
            "country_code": "IN"
        },
        "images": [
            {
                "about": "All",
                "link": "https://streetviewpixels-pa.googleapis.com/v1/thumbnail?panoid=BGon-qyrXPBCyn2SxDLZKQ&cb_client=maps_sv.tactile.gps&w=224&h=298&yaw=323.7184&pitch=0&thumbfov=100"
            },
            {
                "about": "Street View & 360deg",
                "link": "https://streetviewpixels-pa.googleapis.com/v1/thumbnail?panoid=BGon-qyrXPBCyn2SxDLZKQ&cb_client=maps_sv.tactile.gps&w=224&h=298&yaw=323.7184&pitch=0&thumbfov=100"
            }
        ],
        "link": "https://www.google.com/maps/place/Chhoti+Masjid+Alladiya/data=!4m7!3m6!1s0x390d39e155b5c3e9:0xc07aa6c4c6d4f69c!8m2!3d28.2529163!4d76.8785872!16s%2Fg%2F11tdhz1knj!19sChIJ6cO1VeE5DTkRnPbUxsSmesA?authuser=0&hl=en&rclk=1",
        "coordinates": {
            "latitude": 28.2529163,
            "longitude": 76.8785872
        }
    },
    {
        "name": "Masjid",
        "main_category": "Housing society",
        "address": "6W47+94C Masjid, Nizampur, Atitka, Haryana 122015",
        "detailed_address": {
            "ward": null,
            "street": "6W47+94C",
            "city": "Nizampur, Atitka",
            "postal_code": null,
            "state": "Haryana",
            "country_code": "IN"
        },
        "images": [],
        "link": "https://www.google.com/maps/place/Masjid/data=!4m7!3m6!1s0x390d37b614c2073f:0xa1ca7cfee26087ed!8m2!3d28.2059312!4d76.9127628!16s%2Fg%2F11qgfhp86l!19sChIJPwfCFLY3DTkR7Ydg4v58yqE?authuser=0&hl=en&rclk=1",
        "coordinates": {
            "latitude": 28.2059312,
            "longitude": 76.9127628
        }
    },
    {
        "name": "Madina",
        "main_category": "Mosque",
        "address": "6J47+XPJ Madina, Durga Colony, Rewari, Haryana 123401",
        "detailed_address": {
            "ward": "Durga Colony",
            "street": "6J47+XPJ",
            "city": "Rewari",
            "postal_code": "123401",
            "state": "Haryana",
            "country_code": "IN"
        },
        "images": [
            {
                "about": "All",
                "link": "https://streetviewpixels-pa.googleapis.com/v1/thumbnail?panoid=LhSy2lFqxt1p-ukJBUKxeg&cb_client=maps_sv.tactile.gps&w=224&h=298&yaw=86.44075&pitch=0&thumbfov=100"
            },
            {
                "about": "Street View & 360deg",
                "link": "https://streetviewpixels-pa.googleapis.com/v1/thumbnail?panoid=LhSy2lFqxt1p-ukJBUKxeg&cb_client=maps_sv.tactile.gps&w=224&h=298&yaw=86.44075&pitch=0&thumbfov=100"
            }
        ],
        "link": "https://www.google.com/maps/place/Madina/data=!4m7!3m6!1s0x390d5bbf4ff5eccd:0xb3d91f2b3a9842bc!8m2!3d28.2074582!4d76.6142693!16s%2Fg%2F11v3sjjyp5!19sChIJzez1T79bDTkRvEKYOisf2bM?authuser=0&hl=en&rclk=1",
        "coordinates": {
            "latitude": 28.207458199999998,
            "longitude": 76.61426929999999
        }
    },
    {
        "name": "Chhoti Masjid teuwas",
        "main_category": "Mosque",
        "address": "3R24+W8C Chhoti Masjid teuwas, MDR 61, Bhonkar, Rajasthan 301707",
        "detailed_address": {
            "ward": null,
            "street": "3R24+W8C, MDR 61",
            "city": "Bhonkar",
            "postal_code": "301707",
            "state": "Rajasthan",
            "country_code": "IN"
        },
        "images": [
            {
                "about": "All",
                "link": "https://lh5.googleusercontent.com/p/AF1QipOJsFK8YSUnnmlYZuCV65Su1YjRBfD9WUXoGZic=w530-h298-k-no"
            }
        ],
        "link": "https://www.google.com/maps/place/Chhoti+Masjid+teuwas/data=!4m7!3m6!1s0x390d4b8a6fa4e5e1:0xae23ec3a9874da7f!8m2!3d28.0520252!4d76.804773!16s%2Fg%2F11tghl5mtq!19sChIJ4eWkb4pLDTkRf9p0mDrsI64?authuser=0&hl=en&rclk=1",
        "coordinates": {
            "latitude": 28.0520252,
            "longitude": 76.804773
        }
    },
    {
        "name": "Aslat masjid (masjid",
        "main_category": "Mosque",
        "address": "W2Q4+3GH Aslat masjid (masjid, Delhi Alwar Rd, Bhadas, Haryana 122107",
        "detailed_address": {
            "ward": null,
            "street": "W2Q4+3GH, Delhi Alwar Rd",
            "city": "Bhadas",
            "postal_code": "122107",
            "state": "Haryana",
            "country_code": "IN"
        },
        "images": [
            {
                "about": "All",
                "link": "https://streetviewpixels-pa.googleapis.com/v1/thumbnail?panoid=-hkc1_n2iFM2-moNXnfsag&cb_client=maps_sv.tactile.gps&w=224&h=298&yaw=323.84314&pitch=0&thumbfov=100"
            },
            {
                "about": "Street View & 360deg",
                "link": "https://streetviewpixels-pa.googleapis.com/v1/thumbnail?panoid=-hkc1_n2iFM2-moNXnfsag&cb_client=maps_sv.tactile.gps&w=224&h=298&yaw=323.84314&pitch=0&thumbfov=100"
            }
        ],
        "link": "https://www.google.com/maps/place/Aslat+masjid+%28masjid/data=!4m7!3m6!1s0x3972cfd019ea685f:0x23a0639c8bddb203!8m2!3d27.937691!4d77.0063736!16s%2Fg%2F11ss9n4lsg!19sChIJX2jqGdDPcjkRA7Ldi5xjoCM?authuser=0&hl=en&rclk=1",
        "coordinates": {
            "latitude": 27.937690999999997,
            "longitude": 77.0063736
        }
    },
    {
        "name": "MAKKA MASJID DHADOLI",
        "main_category": "Mosque",
        "address": "W3FQ+4R4 MAKKA MASJID DHADOLI, Dhadoli Kalan, Haryana 122108",
        "detailed_address": {
            "ward": null,
            "street": "W3FQ+4R4",
            "city": "Dhadoli Kalan",
            "postal_code": "122108",
            "state": "Haryana",
            "country_code": "IN"
        },
        "images": [],
        "link": "https://www.google.com/maps/place/MAKKA+MASJID+DHADOLI/data=!4m7!3m6!1s0x3972d1545c76f223:0x35aa3640f8d85f0e!8m2!3d27.9227722!4d77.0895634!16s%2Fg%2F11n31yd8r2!19sChIJI_J2XFTRcjkRDl_Y-EA2qjU?authuser=0&hl=en&rclk=1",
        "coordinates": {
            "latitude": 27.922772199999997,
            "longitude": 77.0895634
        }
    },
    {
        "name": "Masjid",
        "main_category": "Mosque",
        "address": "22V8+G6F Masjid, Malab, Haryana 122107",
        "detailed_address": {
            "ward": null,
            "street": "22V8+G6F",
            "city": "Malab",
            "postal_code": "122107",
            "state": "Haryana",
            "country_code": "IN"
        },
        "images": [],
        "link": "https://www.google.com/maps/place/Masjid/data=!4m7!3m6!1s0x3972d31cb89fa00b:0xb71b0488d8838ecb!8m2!3d28.0438171!4d77.0155502!16s%2Fg%2F11hnl6823s!19sChIJC6CfuBzTcjkRy46D2IgEG7c?authuser=0&hl=en&rclk=1",
        "coordinates": {
            "latitude": 28.0438171,
            "longitude": 77.01555019999999
        }
    },
    {
        "name": "masjid bag wali",
        "main_category": "Mosque",
        "address": "4V3Q+HQ2 masjid bag wali, Guwalda, Rajasthan 301707",
        "detailed_address": {
            "ward": null,
            "street": "4V3Q+HQ2",
            "city": "Guwalda",
            "postal_code": null,
            "state": "Rajasthan",
            "country_code": "IN"
        },
        "images": [],
        "link": "https://www.google.com/maps/place/masjid+bag+wali/data=!4m7!3m6!1s0x390d353bbfe9cbe3:0x56838f77477ff9f3!8m2!3d28.1038882!4d76.8893907!16s%2Fg%2F11k46kmd4n!19sChIJ48vpvzs1DTkR8_l_R3ePg1Y?authuser=0&hl=en&rclk=1",
        "coordinates": {
            "latitude": 28.1038882,
            "longitude": 76.88939069999999
        }
    },
    {
        "name": "Masjid",
        "main_category": "Mosque",
        "address": "3235+CXH Masjid, Malab, Haryana 122107",
        "detailed_address": {
            "ward": null,
            "street": "3235+CXH",
            "city": "Malab",
            "postal_code": "122107",
            "state": "Haryana",
            "country_code": "IN"
        },
        "images": [
            {
                "about": "All",
                "link": "https://streetviewpixels-pa.googleapis.com/v1/thumbnail?panoid=JQmSJA1k4daUr6rf4Jiq1A&cb_client=maps_sv.tactile.gps&w=224&h=298&yaw=109.82673&pitch=0&thumbfov=100"
            },
            {
                "about": "Street View & 360deg",
                "link": "https://streetviewpixels-pa.googleapis.com/v1/thumbnail?panoid=JQmSJA1k4daUr6rf4Jiq1A&cb_client=maps_sv.tactile.gps&w=224&h=298&yaw=109.82673&pitch=0&thumbfov=100"
            }
        ],
        "link": "https://www.google.com/maps/place/Masjid/data=!4m7!3m6!1s0x390d334dcabe8bd7:0xd5575ea6441169c5!8m2!3d28.0535746!4d77.0099789!16s%2Fg%2F11l45zp4kq!19sChIJ14u-yk0zDTkRxWkRRKZeV9U?authuser=0&hl=en&rclk=1",
        "coordinates": {
            "latitude": 28.053574599999997,
            "longitude": 77.0099789
        }
    },
    {
        "name": "Dharuhera",
        "main_category": "Garden",
        "address": "5QVR+FXV Dharuhera, Haryana 123106",
        "detailed_address": {
            "ward": null,
            "street": "5QVR+FXV",
            "city": "Dharuhera",
            "postal_code": "123106",
            "state": "Haryana",
            "country_code": "IN"
        },
        "images": [
            {
                "about": "All",
                "link": "https://streetviewpixels-pa.googleapis.com/v1/thumbnail?panoid=E8CWLASE0HDQIrI6lo_rkQ&cb_client=maps_sv.tactile.gps&w=224&h=298&yaw=276.73315&pitch=0&thumbfov=100"
            },
            {
                "about": "Street View & 360deg",
                "link": "https://streetviewpixels-pa.googleapis.com/v1/thumbnail?panoid=E8CWLASE0HDQIrI6lo_rkQ&cb_client=maps_sv.tactile.gps&w=224&h=298&yaw=276.73315&pitch=0&thumbfov=100"
            }
        ],
        "link": "https://www.google.com/maps/place/Dharuhera/data=!4m7!3m6!1s0x390d494ddf57c0c5:0x98e5713de6403d84!8m2!3d28.1939915!4d76.7924786!16s%2Fg%2F11l5v7_164!19sChIJxcBX301JDTkRhD1A5j1x5Zg?authuser=0&hl=en&rclk=1",
        "coordinates": {
            "latitude": 28.1939915,
            "longitude": 76.7924786
        }
    },
    {
        "name": "Masjid",
        "main_category": "Mosque",
        "address": "4X5M+66Q Masjid, Palri, Nuh, Haryana 122107",
        "detailed_address": {
            "ward": "Palla",
            "street": "4X5M+66Q, Palri",
            "city": "Nuh",
            "postal_code": "122107",
            "state": "Haryana",
            "country_code": "IN"
        },
        "images": [],
        "link": "https://www.google.com/maps/place/Masjid/data=!4m7!3m6!1s0x390d336e85e72515:0x98f4e12a1f6ebe6a!8m2!3d28.1080964!4d76.9831099!16s%2Fg%2F11tjc0frvq!19sChIJFSXnhW4zDTkRar5uHyrh9Jg?authuser=0&hl=en&rclk=1",
        "coordinates": {
            "latitude": 28.108096399999997,
            "longitude": 76.9831099
        }
    }
]