[
    {
        "name": "G M C Campus Mandir",
        "main_category": "Hindu temple",
        "address": "6G3G+M49 G M C Campus Mandir, Rampur, Haldwani, Uttarakhand 263139",
        "detailed_address": {
            "ward": "Rampur",
            "street": "6G3G+M49",
            "city": "Haldwani",
            "postal_code": "263139",
            "state": "Uttarakhand",
            "country_code": "IN"
        },
        "images": [
            {
                "about": "All",
                "link": "https://lh5.googleusercontent.com/p/AF1QipNb1gA6f7zPE1mTCjqF7l_NByxOL7jU-36TI_Vo=w397-h298-k-no"
            },
            {
                "about": "Temple",
                "link": "https://lh5.googleusercontent.com/p/AF1QipNzAWfHWi5wu8tdcss5ZxNdKhkP49GiN1hZJ9vO=w224-h298-k-no"
            }
        ],
        "link": "https://www.google.com/maps/place/G+M+C+Campus+Mandir/data=!4m7!3m6!1s0x39a09adabda7e4b3:0xf728e71f33063914!8m2!3d29.2041734!4d79.5253458!16s%2Fg%2F11c2l9yhwq!19sChIJs-SnvdqaoDkRFDkGMx_nKPc?authuser=0&hl=en&rclk=1",
        "coordinates": {
            "latitude": 29.2041734,
            "longitude": 79.5253458
        }
    },
    {
        "name": "Hut",
        "main_category": "Bookbinder",
        "address": "6G9M+VPM Hut, Rajpura Basti, Haldwani, Uttarakhand 263139",
        "detailed_address": {
            "ward": "Rajpura Basti",
            "street": "6G9M+VPM",
            "city": "Haldwani",
            "postal_code": "263139",
            "state": "Uttarakhand",
            "country_code": "IN"
        },
        "images": [],
        "link": "https://www.google.com/maps/place/Hut/data=!4m7!3m6!1s0x39a09b775bca2201:0x54031696fefe8a6d!8m2!3d29.2196925!4d79.5339575!16s%2Fg%2F11kbs1zb3p!19sChIJASLKW3eboDkRbYr-_pYWA1Q?authuser=0&hl=en&rclk=1",
        "coordinates": {
            "latitude": 29.219692499999997,
            "longitude": 79.5339575
        }
    },
    {
        "name": "Mohan Ka Mandir",
        "main_category": "Hindu temple",
        "address": "6G2J+V3Q Mohan Ka Mandir, Unnamed Road, Indira Nagar, Haldwani, Uttarakhand 263139",
        "detailed_address": {
            "ward": "Indira Nagar",
            "street": "6G2J+V3Q, Unnamed Road",
            "city": "Haldwani",
            "postal_code": "263139",
            "state": "Uttarakhand",
            "country_code": "IN"
        },
        "images": [],
        "link": "https://www.google.com/maps/place/Mohan+Ka+Mandir/data=!4m7!3m6!1s0x39a09b28f9155e8d:0x9f9d7629f40842bb!8m2!3d29.2022018!4d79.5302292!16s%2Fg%2F11h6r6d_3l!19sChIJjV4V-SiboDkRu0II9Cl2nZ8?authuser=0&hl=en&rclk=1",
        "coordinates": {
            "latitude": 29.202201799999997,
            "longitude": 79.5302292
        }
    },
    {
        "name": "Lal Masjid",
        "main_category": "Private hospital",
        "address": "Lal Masjid, Line No. 16, Azad Nagar, Banbhoolpura, Haldwani, Uttarakhand 263139",
        "detailed_address": {
            "ward": "Azad Nagar, Banbhoolpura",
            "street": "Line No. 16",
            "city": "Haldwani",
            "postal_code": "263139",
            "state": "Uttarakhand",
            "country_code": "IN"
        },
        "images": [],
        "link": "https://www.google.com/maps/place/Lal+Masjid/data=!4m7!3m6!1s0x39a09baa3e6a10cd:0x774665f38f51b73b!8m2!3d29.208007!4d79.5313437!16s%2Fg%2F11k4942dmy!19sChIJzRBqPqqboDkRO7dRj_NlRnc?authuser=0&hl=en&rclk=1",
        "coordinates": {
            "latitude": 29.208007,
            "longitude": 79.5313437
        }
    },
    {
        "name": "Masjid Aa Hald",
        "main_category": "Bookbinder",
        "address": "Ward No-59, Masjid Aa Hald, Gaujajali Uttar, Haldwani, Uttarakhand 263139",
        "detailed_address": {
            "ward": null,
            "street": "Ward No-59",
            "city": "Gaujajali Uttar, Haldwani",
            "postal_code": "263139",
            "state": "Uttarakhand",
            "country_code": "IN"
        },
        "images": [],
        "link": "https://www.google.com/maps/place/Masjid+Aa+Hald/data=!4m7!3m6!1s0x39a09bc58502ba89:0x689302ddf327f536!8m2!3d29.1917013!4d79.5373873!16s%2Fg%2F11v44q8v3l!19sChIJiboChcWboDkRNvUn890Ck2g?authuser=0&hl=en&rclk=1",
        "coordinates": {
            "latitude": 29.1917013,
            "longitude": 79.53738729999999
        }
    },
    {
        "name": "Muhammadi masjid",
        "main_category": "Mosque",
        "address": "6G2J+G2V Muhammadi masjid, Mohammadi Masjid Rd, Indira Nagar, Haldwani, Uttarakhand 263139",
        "detailed_address": {
            "ward": "Indira Nagar",
            "street": "6G2J+G2V, Mohammadi Masjid Rd",
            "city": "Haldwani",
            "postal_code": "263139",
            "state": "Uttarakhand",
            "country_code": "IN"
        },
        "images": [],
        "link": "https://www.google.com/maps/place/Muhammadi+masjid/data=!4m7!3m6!1s0x39a09b0002519cf3:0x7bd28b031c67405a!8m2!3d29.2013672!4d79.5300539!16s%2Fg%2F11vjqg3y59!19sChIJ85xRAgCboDkRWkBnHAOL0ns?authuser=0&hl=en&rclk=1",
        "coordinates": {
            "latitude": 29.2013672,
            "longitude": 79.5300539
        }
    }
]