[
    {
        "name": "JAMA MASJID",
        "main_category": "Mosque",
        "address": "5QV4+MXJ JAMA MASJID, Parasia, Madhya Pradesh 480441",
        "detailed_address": {
            "ward": null,
            "street": "5QV4+MXJ",
            "city": "Parasia",
            "postal_code": "480441",
            "state": "Madhya Pradesh",
            "country_code": "IN"
        },
        "images": [
            {
                "about": "All",
                "link": "https://lh5.googleusercontent.com/p/AF1QipM-X0vB-V7l4wK9MQC6Wy77xdumNmrWr7jJf_M=w224-h316-k-no"
            },
            {
                "about": "Latest",
                "link": "https://lh5.googleusercontent.com/p/AF1QipMAxbjNwA3MQm6FaYFHiV38Mj4n5mENJFkFNz50=w224-h398-k-no"
            },
            {
                "about": "Videos",
                "link": "https://lh5.googleusercontent.com/p/AF1QipMAxbjNwA3MQm6FaYFHiV38Mj4n5mENJFkFNz50=w224-h398-k-no"
            },
            {
                "about": "Dome",
                "link": "https://lh5.googleusercontent.com/p/AF1QipMhcGJbbFUZqV9Ntqo5weL9lIY5GJTo-zQ1Kns=w224-h398-k-no"
            }
        ],
        "link": "https://www.google.com/maps/place/JAMA+MASJID/data=!4m7!3m6!1s0x3bd57dda9678b1d3:0xe9829a2c5991855f!8m2!3d22.1942056!4d78.7573806!16s%2Fg%2F11cs3ftq2s!19sChIJ07F4ltp91TsRX4WRWSyaguk?authuser=0&hl=en&rclk=1",
        "coordinates": {
            "latitude": 22.1942056,
            "longitude": 78.75738059999999
        }
    },
    {
        "name": "Eid-Hills Parasiya",
        "main_category": "Mosque",
        "address": "Eid-Hills Parasiya, jama-masjid, road, Parasia, Madhya Pradesh 480441",
        "detailed_address": {
            "ward": null,
            "street": "jama-masjid, road",
            "city": "Parasia",
            "postal_code": null,
            "state": "Madhya Pradesh",
            "country_code": "IN"
        },
        "images": [
            {
                "about": "All",
                "link": "https://lh5.googleusercontent.com/p/AF1QipPBAYJmKIWGqK_bLbNM3TmnKV0BCJ3unFEVuI_B=w397-h298-k-no"
            },
            {
                "about": "Street View & 360deg",
                "link": "https://streetviewpixels-pa.googleapis.com/v1/thumbnail?panoid=461wjie493qXSwVGlnRWLA&cb_client=maps_sv.tactile.gps&w=224&h=298&yaw=193.5405&pitch=0&thumbfov=100"
            },
            {
                "about": "Videos",
                "link": "https://lh5.googleusercontent.com/p/AF1QipPCUTLlhyDPMvvuZOuhIGZBROLkBg4M91PxrxfB=w224-h397-k-no"
            }
        ],
        "link": "https://www.google.com/maps/place/Eid-Hills+Parasiya/data=!4m7!3m6!1s0x3bd57dda9cb75307:0xa96339cd21e2c4c7!8m2!3d22.1941345!4d78.7541923!16s%2Fg%2F11f8mf2r8p!19sChIJB1O3nNp91TsRx8TiIc05Y6k?authuser=0&hl=en&rclk=1",
        "coordinates": {
            "latitude": 22.1941345,
            "longitude": 78.7541923
        }
    },
    {
        "name": "Masjid",
        "main_category": "Mosque",
        "address": "6QRP+V2 Masjid, Parasia Gauli, Madhya Pradesh 480557",
        "detailed_address": {
            "ward": null,
            "street": "6QRP+V2",
            "city": "Parasia Gauli",
            "postal_code": null,
            "state": "Madhya Pradesh",
            "country_code": "IN"
        },
        "images": [
            {
                "about": "All",
                "link": "https://streetviewpixels-pa.googleapis.com/v1/thumbnail?panoid=BJcAfNQuQdrZnUt96i6EtA&cb_client=maps_sv.tactile.gps&w=224&h=298&yaw=193.39165&pitch=0&thumbfov=100"
            },
            {
                "about": "Street View & 360deg",
                "link": "https://streetviewpixels-pa.googleapis.com/v1/thumbnail?panoid=BJcAfNQuQdrZnUt96i6EtA&cb_client=maps_sv.tactile.gps&w=224&h=298&yaw=193.39165&pitch=0&thumbfov=100"
            }
        ],
        "link": "https://www.google.com/maps/place/Masjid/data=!4m7!3m6!1s0x397fd751875ca2a3:0x187be9caee5594e8!8m2!3d22.2422263!4d78.7850172!16s%2Fg%2F11rkd080pb!19sChIJo6Jch1HXfzkR6JRV7srpexg?authuser=0&hl=en&rclk=1",
        "coordinates": {
            "latitude": 22.2422263,
            "longitude": 78.7850172
        }
    },
    {
        "name": "Parasia masjid",
        "main_category": "Mosque",
        "address": "J68V+CQJ Parasia masjid, Parasia, Bihar 802130",
        "detailed_address": {
            "ward": null,
            "street": "J68V+CQJ",
            "city": "Parasia",
            "postal_code": "802130",
            "state": "Bihar",
            "country_code": "IN"
        },
        "images": [],
        "link": "https://www.google.com/maps/place/Parasia+masjid/data=!4m7!3m6!1s0x39927f2cba91ed2b:0x6f9516646ab35b20!8m2!3d25.6160953!4d84.2443918!16s%2Fg%2F11sdykhm_2!19sChIJK-2Ruix_kjkRIFuzamQWlW8?authuser=0&hl=en&rclk=1",
        "coordinates": {
            "latitude": 25.616095299999998,
            "longitude": 84.2443918
        }
    },
    {
        "name": "Medina masjid",
        "main_category": "Mosque",
        "address": "5QQ7+2QJ Medina masjid, Parasia, Madhya Pradesh 480441",
        "detailed_address": {
            "ward": null,
            "street": "5QQ7+2QJ",
            "city": "Parasia",
            "postal_code": "480441",
            "state": "Madhya Pradesh",
            "country_code": "IN"
        },
        "images": [],
        "link": "https://www.google.com/maps/place/Medina+masjid/data=!4m7!3m6!1s0x3bd57d9f67c3cfd5:0xc0ad63ec85e279e0!8m2!3d22.1876082!4d78.7635718!16s%2Fg%2F11vc54mxkd!19sChIJ1c_DZ5991TsR4HnihexjrcA?authuser=0&hl=en&rclk=1",
        "coordinates": {
            "latitude": 22.1876082,
            "longitude": 78.7635718
        }
    }
]