[
    {
        "name": "Masjid",
        "main_category": "Mosque",
        "address": "CRF9+HXJ Masjid, Akbarpur Kalan, Akbapur, Uttar Pradesh 203001",
        "detailed_address": {
            "ward": null,
            "street": "CRF9+HXJ",
            "city": "Akbarpur Kalan, Akbapur",
            "postal_code": "203001",
            "state": "Uttar Pradesh",
            "country_code": "IN"
        },
        "images": [
            {
                "about": "All",
                "link": "https://lh5.googleusercontent.com/p/AF1QipNfU4-bgxhnuwu40YLHzIjvGXnM79SVYHYM6fiJ=w397-h298-k-no"
            },
            {
                "about": "Videos",
                "link": "https://lh5.googleusercontent.com/p/AF1QipNNWqLvdflk9QtQ8XX-9lLuLkNZj6AD6Ur7Kl-R=w529-h298-k-no"
            }
        ],
        "link": "https://www.google.com/maps/place/Masjid/data=!4m7!3m6!1s0x390ca3e981119365:0x2c79f7a8daf00026!8m2!3d28.4239622!4d77.8198948!16s%2Fg%2F11c2q3bg3b!19sChIJZZMRgemjDDkRJgDw2qj3eSw?authuser=0&hl=en&rclk=1",
        "coordinates": {
            "latitude": 28.4239622,
            "longitude": 77.8198948
        }
    },
    {
        "name": "Abubakar masjid akbarpur sunheti",
        "main_category": "Mosque",
        "address": "F5J4+F73 Abubakar masjid akbarpur sunheti, Akbarpur Sunheti kairana, 247774",
        "detailed_address": {
            "ward": null,
            "street": "F5J4+F73, Akbarpur Sunheti kairana",
            "city": "Basera Non Allvvial",
            "postal_code": "247774",
            "state": "Uttar Pradesh",
            "country_code": "IN"
        },
        "images": [
            {
                "about": "All",
                "link": "https://lh5.googleusercontent.com/p/AF1QipMEO0bq51ipNC9nSBhJgsd_wloW949TUPd-0x1N=w529-h298-k-no"
            },
            {
                "about": "Street View & 360deg",
                "link": "https://streetviewpixels-pa.googleapis.com/v1/thumbnail?panoid=lW3gt9SAM4Mxq81mtlC7hg&cb_client=maps_sv.tactile.gps&w=224&h=298&yaw=186.13698&pitch=0&thumbfov=100"
            },
            {
                "about": "Videos",
                "link": "https://lh5.googleusercontent.com/p/AF1QipOwG9R3VrJVNqNJbgfDsKHJoZ-96tJeEEwK75nK=w224-h398-k-no"
            }
        ],
        "link": "https://www.google.com/maps/place/Abubakar+masjid+akbarpur+sunheti/data=!4m7!3m6!1s0x390dd5d5dc752621:0xf27e9eb4bb909a5c!8m2!3d29.4811319!4d77.1556785!16s%2Fg%2F11fmwszglb!19sChIJISZ13NXVDTkRXJqQu7SefvI?authuser=0&hl=en&rclk=1",
        "coordinates": {
            "latitude": 29.481131899999998,
            "longitude": 77.1556785
        }
    },
    {
        "name": "Badi Masjid",
        "main_category": "Mosque",
        "address": "JRC4+PR9 Badi Masjid, Akbarpur, Uttar Pradesh 203408",
        "detailed_address": {
            "ward": null,
            "street": "JRC4+PR9",
            "city": "Akbarpur",
            "postal_code": "203408",
            "state": "Uttar Pradesh",
            "country_code": "IN"
        },
        "images": [
            {
                "about": "All",
                "link": "https://lh5.googleusercontent.com/p/AF1QipOX7DmSy6nc_OGC0_5JY9TjzEjtSl_4vo_tgD8H=w224-h396-k-no"
            }
        ],
        "link": "https://www.google.com/maps/place/Badi+Masjid/data=!4m7!3m6!1s0x390c9b39ed5c175d:0xcb44fb8fd30580c2!8m2!3d28.621793!4d77.8071145!16s%2Fg%2F11g4bmf3wt!19sChIJXRdc7TmbDDkRwoAF04_7RMs?authuser=0&hl=en&rclk=1",
        "coordinates": {
            "latitude": 28.621793,
            "longitude": 77.8071145
        }
    },
    {
        "name": "MADINA MASJID",
        "main_category": "Mosque",
        "address": "R5PP+G4M MADINA MASJID, Akbar Pur Mazra, Delhi, 110036",
        "detailed_address": {
            "ward": "Akbar Pur Mazra",
            "street": "R5PP+G4M",
            "city": "Delhi",
            "postal_code": "110036",
            "state": "Delhi",
            "country_code": "IN"
        },
        "images": [
            {
                "about": "All",
                "link": "https://lh5.googleusercontent.com/p/AF1QipOjngRyCDWRgahvx0n3o6EhmYQEX4OyTbTC-pFl=w397-h298-k-no"
            },
            {
                "about": "Street View & 360deg",
                "link": "https://streetviewpixels-pa.googleapis.com/v1/thumbnail?panoid=zw72YuGQobdqMYkVW7aiKg&cb_client=maps_sv.tactile.gps&w=224&h=298&yaw=239.91159&pitch=0&thumbfov=100"
            }
        ],
        "link": "https://www.google.com/maps/place/MADINA+MASJID/data=!4m7!3m6!1s0x390dab55d4e8e753:0x78479a38e0be1337!8m2!3d28.8363463!4d77.1852998!16s%2Fg%2F11grpmxv2g!19sChIJU-fo1FWrDTkRNxO-4DiaR3g?authuser=0&hl=en&rclk=1",
        "coordinates": {
            "latitude": 28.8363463,
            "longitude": 77.1852998
        }
    },
    {
        "name": "Akbarpur masjid",
        "main_category": "Mosque",
        "address": "W6MP+2WV Akbarpur masjid, Bachhraon, Uttar Pradesh 244225",
        "detailed_address": {
            "ward": null,
            "street": "W6MP+2WV",
            "city": "Bachhraon",
            "postal_code": "244225",
            "state": "Uttar Pradesh",
            "country_code": "IN"
        },
        "images": [
            {
                "about": "All",
                "link": "https://lh5.googleusercontent.com/p/AF1QipMM5tp5q9jPuqtbvdKsLXrblm-7OWvsy93qNBiO=w529-h298-k-no"
            },
            {
                "about": "Street View & 360deg",
                "link": "https://streetviewpixels-pa.googleapis.com/v1/thumbnail?panoid=4MRVA94D38v2nREXE2lbpQ&cb_client=maps_sv.tactile.gps&w=224&h=298&yaw=302.93124&pitch=0&thumbfov=100"
            },
            {
                "about": "Videos",
                "link": "https://lh5.googleusercontent.com/p/AF1QipPlX66Vmve5K58mNvigZLI9Hd2k3nZjqSPGuXxp=w541-h298-k-no"
            }
        ],
        "link": "https://www.google.com/maps/place/Akbarpur+masjid/data=!4m7!3m6!1s0x390b9fd30e502a9d:0xcaf805d302ab23db!8m2!3d28.9326088!4d78.2372981!16s%2Fg%2F11ngt04tlf!19sChIJnSpQDtOfCzkR2yOrAtMF-Mo?authuser=0&hl=en&rclk=1",
        "coordinates": {
            "latitude": 28.932608799999997,
            "longitude": 78.23729809999999
        }
    },
    {
        "name": "Umar Masjid Near Shahid Hassan, Post Office, Akbarpur",
        "main_category": "Mosque",
        "address": "CRFC+VPR Umar Masjid Near Shahid Hassan, Post Office, Akbarpur, village and post, Akbarpur, Akbarpur Kalan, Uttar Pradesh 203001",
        "detailed_address": {
            "ward": null,
            "street": "CRFC+VPR, village and post, Akbarpur",
            "city": "Akbarpur Kalan, Akbapur",
            "postal_code": "203001",
            "state": "Uttar Pradesh",
            "country_code": "IN"
        },
        "images": [
            {
                "about": "All",
                "link": "https://streetviewpixels-pa.googleapis.com/v1/thumbnail?panoid=mkbCOi5qrBi9xFn88fGxaw&cb_client=maps_sv.tactile.gps&w=224&h=298&yaw=72.01013&pitch=0&thumbfov=100"
            },
            {
                "about": "Street View & 360deg",
                "link": "https://streetviewpixels-pa.googleapis.com/v1/thumbnail?panoid=mkbCOi5qrBi9xFn88fGxaw&cb_client=maps_sv.tactile.gps&w=224&h=298&yaw=72.01013&pitch=0&thumbfov=100"
            }
        ],
        "link": "https://www.google.com/maps/place/Umar+Masjid+Near+Shahid+Hassan,+Post+Office,+Akbarpur/data=!4m7!3m6!1s0x390ca3a6847ca585:0x3c2690e210ba330b!8m2!3d28.4247434!4d77.8217591!16s%2Fg%2F11nldfl4gn!19sChIJhaV8hKajDDkRCzO6EOKQJjw?authuser=0&hl=en&rclk=1",
        "coordinates": {
            "latitude": 28.424743399999997,
            "longitude": 77.8217591
        }
    },
    {
        "name": "Noorani Masjid",
        "main_category": "Mosque",
        "address": "CRCF+W8H Noorani Masjid, Akbarpur Kalan, Akbapur, Uttar Pradesh 203001",
        "detailed_address": {
            "ward": null,
            "street": "CRCF+W8H",
            "city": "Akbarpur Kalan, Akbapur",
            "postal_code": "203001",
            "state": "Uttar Pradesh",
            "country_code": "IN"
        },
        "images": [],
        "link": "https://www.google.com/maps/place/Noorani+Masjid/data=!4m7!3m6!1s0x390ca39fe552e85d:0x908c89695f9feda9!8m2!3d28.4222966!4d77.8227823!16s%2Fg%2F11rv3tvsr3!19sChIJXehS5Z-jDDkRqe2fX2mJjJA?authuser=0&hl=en&rclk=1",
        "coordinates": {
            "latitude": 28.4222966,
            "longitude": 77.8227823
        }
    },
    {
        "name": "Masjid Aisha",
        "main_category": "Mosque",
        "address": "CRFC+8PW Masjid Aisha, Akbarpur Kalan, Akbapur, Uttar Pradesh 203001",
        "detailed_address": {
            "ward": null,
            "street": "CRFC+8PW",
            "city": "Akbarpur Kalan, Akbapur",
            "postal_code": "203001",
            "state": "Uttar Pradesh",
            "country_code": "IN"
        },
        "images": [],
        "link": "https://www.google.com/maps/place/Masjid+Aisha/data=!4m7!3m6!1s0x390ca3893c1915eb:0x7010d9f8fb65232f!8m2!3d28.4233578!4d77.8218237!16s%2Fg%2F11fl4l3zbl!19sChIJ6xUZPImjDDkRLyNl-_jZEHA?authuser=0&hl=en&rclk=1",
        "coordinates": {
            "latitude": 28.423357799999998,
            "longitude": 77.8218237
        }
    },
    {
        "name": "JAMA MASJID AKBARPUR",
        "main_category": "Mosque",
        "address": "9MW5+XJ3 JAMA MASJID AKBARPUR, Akbarpur, Uttar Pradesh 244410",
        "detailed_address": {
            "ward": null,
            "street": "9MW5+XJ3",
            "city": "Akbarpur",
            "postal_code": "244410",
            "state": "Uttar Pradesh",
            "country_code": "IN"
        },
        "images": [
            {
                "about": "All",
                "link": "https://lh5.googleusercontent.com/p/AF1QipO07ApIH_-68sVBhd7WlCKquVRkJ4gie8tg2ZZj=w224-h398-k-no"
            }
        ],
        "link": "https://www.google.com/maps/place/JAMA+MASJID+AKBARPUR/data=!4m7!3m6!1s0x390ad97fa39c16f5:0xd15b4f6eb0ae3f87!8m2!3d28.398015!4d78.659201!16s%2Fg%2F11khzc53dt!19sChIJ9Raco3_ZCjkRhz-usG5PW9E?authuser=0&hl=en&rclk=1",
        "coordinates": {
            "latitude": 28.398014999999997,
            "longitude": 78.659201
        }
    },
    {
        "name": "Jama masjid",
        "main_category": "Mosque",
        "address": "9FM6+M8 Jama masjid, Akbarpur, Haryana 121101",
        "detailed_address": {
            "ward": null,
            "street": "9FM6+M8",
            "city": "Akbarpur",
            "postal_code": null,
            "state": "Haryana",
            "country_code": "IN"
        },
        "images": [
            {
                "about": "All",
                "link": "https://streetviewpixels-pa.googleapis.com/v1/thumbnail?panoid=CeyrfYvf4q6Ls8ormf2Flw&cb_client=maps_sv.tactile.gps&w=224&h=298&yaw=249.59435&pitch=0&thumbfov=100"
            },
            {
                "about": "Street View & 360deg",
                "link": "https://streetviewpixels-pa.googleapis.com/v1/thumbnail?panoid=CeyrfYvf4q6Ls8ormf2Flw&cb_client=maps_sv.tactile.gps&w=224&h=298&yaw=249.59435&pitch=0&thumbfov=100"
            }
        ],
        "link": "https://www.google.com/maps/place/Jama+masjid/data=!4m7!3m6!1s0x390cc333689cbda9:0xdf55fcfbef22a258!8m2!3d28.3841258!4d77.460806!16s%2Fg%2F11y1kbc522!19sChIJqb2caDPDDDkRWKIi7_v8Vd8?authuser=0&hl=en&rclk=1",
        "coordinates": {
            "latitude": 28.3841258,
            "longitude": 77.46080599999999
        }
    },
    {
        "name": "Badi Masjid Akbarpur",
        "main_category": "Masonic center",
        "address": "V448+J5M Badi Masjid Akbarpur, Akbarpur, Haryana 122508",
        "detailed_address": {
            "ward": null,
            "street": "V448+J5M",
            "city": "Akbarpur",
            "postal_code": "122508",
            "state": "Haryana",
            "country_code": "IN"
        },
        "images": [],
        "link": "https://www.google.com/maps/place/Badi+Masjid+Akbarpur/data=!4m7!3m6!1s0x3972d9007e95d99f:0x8d8bbb786d291f76!8m2!3d27.8565837!4d77.1154368!16s%2Fg%2F11h0_p4zxk!19sChIJn9mVfgDZcjkRdh8pbXi7i40?authuser=0&hl=en&rclk=1",
        "coordinates": {
            "latitude": 27.856583699999998,
            "longitude": 77.1154368
        }
    },
    {
        "name": "Akbarpur masjid",
        "main_category": "Mosque",
        "address": "Akbarpur masjid, Dhanaura Rd, Bachhraon, Uttar Pradesh 244225",
        "detailed_address": {
            "ward": null,
            "street": "Dhanaura Rd",
            "city": "Bachhraon",
            "postal_code": "244225",
            "state": "Uttar Pradesh",
            "country_code": "IN"
        },
        "images": [
            {
                "about": "All",
                "link": "https://streetviewpixels-pa.googleapis.com/v1/thumbnail?panoid=CHyN3jP_PCaxJSM-tD7Vwg&cb_client=maps_sv.tactile.gps&w=224&h=298&yaw=292.75165&pitch=0&thumbfov=100"
            },
            {
                "about": "Street View & 360deg",
                "link": "https://streetviewpixels-pa.googleapis.com/v1/thumbnail?panoid=CHyN3jP_PCaxJSM-tD7Vwg&cb_client=maps_sv.tactile.gps&w=224&h=298&yaw=292.75165&pitch=0&thumbfov=100"
            }
        ],
        "link": "https://www.google.com/maps/place/Akbarpur+masjid/data=!4m7!3m6!1s0x390ba1e8b55b74f9:0x346baae8bd2c5073!8m2!3d28.9212228!4d78.3534408!16s%2Fg%2F11ngt0csvy!19sChIJ-XRbteihCzkRc1AsveiqazQ?authuser=0&hl=en&rclk=1",
        "coordinates": {
            "latitude": 28.9212228,
            "longitude": 78.3534408
        }
    }
]