[
    {
        "name": "Jumma Masjid",
        "main_category": "Mosque",
        "address": "834F+7H2 Jumma Masjid, Hosur - Krishnagiri Rd, Palacode, Tamil Nadu 636808",
        "detailed_address": {
            "ward": null,
            "street": "834F+7H2, Hosur - Krishnagiri Rd",
            "city": "Palacode",
            "postal_code": "636808",
            "state": "Tamil Nadu",
            "country_code": "IN"
        },
        "images": [
            {
                "about": "All",
                "link": "https://lh5.googleusercontent.com/p/AF1QipPpq-ZNJYrf_8iYK1r11des-kgyflFTEYKwk1Y3=w530-h298-k-no"
            }
        ],
        "link": "https://www.google.com/maps/place/Jumma+Masjid/data=!4m7!3m6!1s0x3bac24fb752ca6d3:0xc6f2c2eac973f968!8m2!3d12.305643!4d78.0738848!16s%2Fg%2F11bbrgxgkq!19sChIJ06YsdfskrDsRaPlzyerC8sY?authuser=0&hl=en&rclk=1",
        "coordinates": {
            "latitude": 12.305643,
            "longitude": 78.0738848
        }
    },
    {
        "name": "Sunnath Jamath Jamiya Masjid",
        "main_category": "Mosque",
        "address": "833C+VC4 Sunnath Jamath Jamiya Masjid, Kesarkuli Road, Palacode, Tamil Nadu",
        "detailed_address": {
            "ward": null,
            "street": "833C+VC4, Kesarkuli Road",
            "city": "Palacode",
            "postal_code": null,
            "state": "Tamil Nadu",
            "country_code": "IN"
        },
        "images": [
            {
                "about": "All",
                "link": "https://lh5.googleusercontent.com/p/AF1QipNtWbFjDnXLca5ZHSMLPnJ7dnmxGo5JDSnG36Ck=w224-h298-k-no"
            },
            {
                "about": "Dome",
                "link": "https://lh5.googleusercontent.com/p/AF1QipP9I-12wFnuylPFtQgIODaecY3yW7xywHyi0wmH=w397-h298-k-no"
            },
            {
                "about": "Street View & 360deg",
                "link": "https://streetviewpixels-pa.googleapis.com/v1/thumbnail?panoid=WO9OIWVLEE4K9EGUGGygEw&cb_client=maps_sv.tactile.gps&w=224&h=298&yaw=156.25856&pitch=0&thumbfov=100"
            }
        ],
        "link": "https://www.google.com/maps/place/Sunnath+Jamath+Jamiya+Masjid/data=!4m7!3m6!1s0x3bac24fbd7aab479:0x8f823df6f376f5c5!8m2!3d12.3046258!4d78.0710782!16s%2Fg%2F11c0pzyc4g!19sChIJebSq1_skrDsRxfV28_Y9go8?authuser=0&hl=en&rclk=1",
        "coordinates": {
            "latitude": 12.3046258,
            "longitude": 78.0710782
        }
    },
    {
        "name": "Masjid-E-Taqwa, TNTJ Markaz",
        "main_category": "Mosque",
        "address": "833F+PGH Masjid-E-Taqwa, TNTJ Markaz, Palacode, Tamil Nadu 636808",
        "detailed_address": {
            "ward": null,
            "street": "833F+PGH",
            "city": "Palacode",
            "postal_code": "636808",
            "state": "Tamil Nadu",
            "country_code": "IN"
        },
        "images": [
            {
                "about": "All",
                "link": "https://lh5.googleusercontent.com/p/AF1QipNklD4dBRHVhchBn3pxKl2IQS2o9eXxLBoWO3Nl=w224-h298-k-no"
            }
        ],
        "link": "https://www.google.com/maps/place/Masjid-E-Taqwa,+TNTJ+Markaz/data=!4m7!3m6!1s0x3bac24fb005d0795:0xcf34143644342cf0!8m2!3d12.3043125!4d78.0738594!16s%2Fg%2F11g8whz_0s!19sChIJlQddAPskrDsR8Cw0RDYUNM8?authuser=0&hl=en&rclk=1",
        "coordinates": {
            "latitude": 12.3043125,
            "longitude": 78.0738594
        }
    },
    {
        "name": "Ajmal Miyan Saheb Masjid",
        "main_category": "Mosque",
        "address": "834F+JJ4 Ajmal Miyan Saheb Masjid, Palacode, Tamil Nadu 636808",
        "detailed_address": {
            "ward": null,
            "street": "834F+JJ4",
            "city": "Palacode",
            "postal_code": "636808",
            "state": "Tamil Nadu",
            "country_code": "IN"
        },
        "images": [
            {
                "about": "All",
                "link": "https://lh5.googleusercontent.com/p/AF1QipNPrVKBEbcUo5r-9x_w1kZqPBLWLs-hY6Rwq4EH=w224-h298-k-no"
            }
        ],
        "link": "https://www.google.com/maps/place/Ajmal+Miyan+Saheb+Masjid/data=!4m7!3m6!1s0x3bac24fb797a4839:0x1b6a788dffb70a9f!8m2!3d12.3065045!4d78.0740719!16s%2Fg%2F11c14z3gm8!19sChIJOUh6efskrDsRnwq3_414ahs?authuser=0&hl=en&rclk=1",
        "coordinates": {
            "latitude": 12.306504499999999,
            "longitude": 78.07407189999999
        }
    },
    {
        "name": "Jamia Masjid, Dalavahalli, Palakkodu",
        "main_category": "Mosque",
        "address": "73W8+VVH Jamia Masjid, Dalavahalli, Palakkodu, Palacode, Tamil Nadu 636808",
        "detailed_address": {
            "ward": null,
            "street": "73W8+VVH",
            "city": "Palacode",
            "postal_code": "636808",
            "state": "Tamil Nadu",
            "country_code": "IN"
        },
        "images": [
            {
                "about": "All",
                "link": "https://lh5.googleusercontent.com/p/AF1QipPJi3rW1N05wceAMnyqfXZzjpQFVFoHCmEvkV4N=w224-h398-k-no"
            }
        ],
        "link": "https://www.google.com/maps/place/Jamia+Masjid,+Dalavahalli,+Palakkodu/data=!4m7!3m6!1s0x3bac24f644a7ba83:0xc3f1750d6f812e22!8m2!3d12.2971921!4d78.0672291!16s%2Fg%2F11d_1nr7gy!19sChIJg7qnRPYkrDsRIi6Bbw118cM?authuser=0&hl=en&rclk=1",
        "coordinates": {
            "latitude": 12.2971921,
            "longitude": 78.06722909999999
        }
    },
    {
        "name": "Masjid E Azam",
        "main_category": "Mosque",
        "address": "834F+667 Masjid E Azam, syed peer street, Palacode, Tamil Nadu",
        "detailed_address": {
            "ward": null,
            "street": "834F+667, syed peer street",
            "city": "Palacode",
            "postal_code": null,
            "state": "Tamil Nadu",
            "country_code": "IN"
        },
        "images": [
            {
                "about": "All",
                "link": "https://lh5.googleusercontent.com/p/AF1QipMV-_nf8AXWSMD486XJDHfrhwFHclfCsmJjCHOz=w447-h298-k-no"
            },
            {
                "about": "Dome",
                "link": "https://lh5.googleusercontent.com/p/AF1QipOo-tjunvxdn9r5Jbvrlj5W7ShT4rnNPI4ZnM-e=w397-h298-k-no"
            },
            {
                "about": "Street View & 360deg",
                "link": "https://streetviewpixels-pa.googleapis.com/v1/thumbnail?panoid=1xC5zfKgFK4zZo2bQRYm-w&cb_client=maps_sv.tactile.gps&w=224&h=298&yaw=168.56964&pitch=0&thumbfov=100"
            }
        ],
        "link": "https://www.google.com/maps/place/Masjid+E+Azam/data=!4m7!3m6!1s0x3bac24fba2a988e3:0x4fdcab441f0100c!8m2!3d12.3055456!4d78.0730611!16s%2Fg%2F11bv3y6bxx!19sChIJ44ipovskrDsRDBDwQbTK_QQ?authuser=0&hl=en&rclk=1",
        "coordinates": {
            "latitude": 12.3055456,
            "longitude": 78.07306109999999
        }
    },
    {
        "name": "Ansaar Masjid",
        "main_category": "Mosque",
        "address": "835G+56V Ansaar Masjid, Chikkardanahalli, Tamil Nadu 636808",
        "detailed_address": {
            "ward": null,
            "street": "835G+56V",
            "city": "Chikkardanahalli",
            "postal_code": "636808",
            "state": "Tamil Nadu",
            "country_code": "IN"
        },
        "images": [
            {
                "about": "All",
                "link": "https://lh5.googleusercontent.com/p/AF1QipN2e6Abs4zSbjFKCoP0sL4s01ezZX9kxLObRgJv=w397-h298-k-no"
            },
            {
                "about": "Videos",
                "link": "https://lh5.googleusercontent.com/p/AF1QipNWN7dModVlCwOv0-pLnWCcJ2I6G6Pff0VcQj0Q=w529-h298-k-no"
            }
        ],
        "link": "https://www.google.com/maps/place/Ansaar+Masjid/data=!4m7!3m6!1s0x3bac24fcbc83808f:0x72f1bda048d12245!8m2!3d12.3079832!4d78.0755434!16s%2Fg%2F11c30xc3dv!19sChIJj4CDvPwkrDsRRSLRSKC98XI?authuser=0&hl=en&rclk=1",
        "coordinates": {
            "latitude": 12.307983199999999,
            "longitude": 78.0755434
        }
    },
    {
        "name": "Khundmeer Miya Masjid",
        "main_category": "Mosque",
        "address": "833F+W96 Khundmeer Miya Masjid, Palacode, Tamil Nadu 636808",
        "detailed_address": {
            "ward": null,
            "street": "833F+W96",
            "city": "Palacode",
            "postal_code": "636808",
            "state": "Tamil Nadu",
            "country_code": "IN"
        },
        "images": [
            {
                "about": "All",
                "link": "https://lh5.googleusercontent.com/p/AF1QipOUjm5DeiZXHw7y11HelSZK9KCMjgG20iHjLJMX=w397-h298-k-no"
            }
        ],
        "link": "https://www.google.com/maps/place/Khundmeer+Miya+Masjid/data=!4m7!3m6!1s0x3bac24fbaf4ad7c9:0x3f16a89bd0f6b27f!8m2!3d12.3047874!4d78.0733923!16s%2Fg%2F11f4xg_2gz!19sChIJyddKr_skrDsRf7L20JuoFj8?authuser=0&hl=en&rclk=1",
        "coordinates": {
            "latitude": 12.304787399999999,
            "longitude": 78.0733923
        }
    },
    {
        "name": "Noor Masjid, Dalvahalli, Palakkodu",
        "main_category": "Mosque",
        "address": "73W9+M6F Noor Masjid, Dalvahalli, Palakkodu, Unnamed Road, Palacode, Tamil Nadu 636808",
        "detailed_address": {
            "ward": null,
            "street": "73W9+M6F, Unnamed Road",
            "city": "Palacode",
            "postal_code": "636808",
            "state": "Tamil Nadu",
            "country_code": "IN"
        },
        "images": [
            {
                "about": "All",
                "link": "https://lh5.googleusercontent.com/p/AF1QipNYX9Qa6fzLi99Myb3WnkQwUrDNT9u5JkWHpQC2=w627-h298-k-no"
            },
            {
                "about": "Street View & 360deg",
                "link": "https://streetviewpixels-pa.googleapis.com/v1/thumbnail?panoid=tRDqKhN-9O08bhXvf6XWww&cb_client=maps_sv.tactile.gps&w=224&h=298&yaw=5.4351077&pitch=0&thumbfov=100"
            }
        ],
        "link": "https://www.google.com/maps/place/Noor+Masjid,+Dalvahalli,+Palakkodu/data=!4m7!3m6!1s0x3bac24f68a79a135:0x471329769e31d3b2!8m2!3d12.2966906!4d78.0680398!16s%2Fg%2F11dfj2l3w7!19sChIJNaF5ivYkrDsRstMxnnYpE0c?authuser=0&hl=en&rclk=1",
        "coordinates": {
            "latitude": 12.2966906,
            "longitude": 78.0680398
        }
    },
    {
        "name": "Madina Masjid",
        "main_category": "Mosque",
        "address": "834G+VRM Madina Masjid, Chikkardanahalli, Tamil Nadu 636808",
        "detailed_address": {
            "ward": null,
            "street": "834G+VRM",
            "city": "Chikkardanahalli",
            "postal_code": "636808",
            "state": "Tamil Nadu",
            "country_code": "IN"
        },
        "images": [
            {
                "about": "All",
                "link": "https://streetviewpixels-pa.googleapis.com/v1/thumbnail?panoid=91koC73hS0irH3PwiV09Vw&cb_client=maps_sv.tactile.gps&w=224&h=298&yaw=32.53078&pitch=0&thumbfov=100"
            },
            {
                "about": "Street View & 360deg",
                "link": "https://streetviewpixels-pa.googleapis.com/v1/thumbnail?panoid=91koC73hS0irH3PwiV09Vw&cb_client=maps_sv.tactile.gps&w=224&h=298&yaw=32.53078&pitch=0&thumbfov=100"
            }
        ],
        "link": "https://www.google.com/maps/place/Madina+Masjid/data=!4m7!3m6!1s0x3bac24e35639f711:0xdb925e006c0c27b5!8m2!3d12.3072054!4d78.0770409!16s%2Fg%2F11dx94wrcg!19sChIJEfc5VuMkrDsRtScMbABekts?authuser=0&hl=en&rclk=1",
        "coordinates": {
            "latitude": 12.307205399999999,
            "longitude": 78.0770409
        }
    }
]