[
    {
        "name": "Sunheri Masjid Barahi",
        "main_category": "Mosque",
        "address": "MJFG+XR7 Sunheri Masjid Barahi, Barahi, Uttar Pradesh 244301",
        "detailed_address": {
            "ward": null,
            "street": "MJFG+XR7",
            "city": "Barahi",
            "postal_code": "244301",
            "state": "Uttar Pradesh",
            "country_code": "IN"
        },
        "images": [
            {
                "about": "All",
                "link": "https://lh5.googleusercontent.com/p/AF1QipM0aHdAyqZtfSIMQDzMXzYJ6afEHAgRSSk0W8xR=w529-h298-k-no"
            }
        ],
        "link": "https://www.google.com/maps/place/Sunheri+Masjid+Barahi/data=!4m7!3m6!1s0x390b1dc42291c3a7:0xd16c1c0a6c82e8a!8m2!3d28.6749093!4d78.6270411!16s%2Fg%2F11gd20mm7g!19sChIJp8ORIsQdCzkRii7IpsDBFg0?authuser=0&hl=en&rclk=1",
        "coordinates": {
            "latitude": 28.6749093,
            "longitude": 78.6270411
        }
    },
    {
        "name": "Jama Masjid",
        "main_category": "Mosque",
        "address": "4J2V+6QJ Jama Masjid, Barahi, Uttar Pradesh 241203",
        "detailed_address": {
            "ward": null,
            "street": "4J2V+6QJ",
            "city": "Barahi",
            "postal_code": "241203",
            "state": "Uttar Pradesh",
            "country_code": "IN"
        },
        "images": [
            {
                "about": "All",
                "link": "https://lh5.googleusercontent.com/p/AF1QipPnY5AaaygsXvBt0f3C14Nhtftp-iYPoMsGEiN-=w529-h298-k-no"
            },
            {
                "about": "Dome",
                "link": "https://lh5.googleusercontent.com/p/AF1QipO4QM2tyT-clq0W1BjTWNs-rQne4-RCRLbbP_EJ=w397-h298-k-no"
            },
            {
                "about": "Videos",
                "link": "https://lh5.googleusercontent.com/p/AF1QipNf542a5OVReGzmzcDfIZqhn4zC1Gj0z9HXRriQ=w529-h298-k-no"
            },
            {
                "about": "Street View & 360deg",
                "link": "https://streetviewpixels-pa.googleapis.com/v1/thumbnail?panoid=HpryCVp7H1SnGTHVIZuhqA&cb_client=maps_sv.tactile.gps&w=224&h=298&yaw=302.9133&pitch=0&thumbfov=100"
            }
        ],
        "link": "https://www.google.com/maps/place/Jama+Masjid/data=!4m7!3m6!1s0x399eb088984b430f:0x6d770f75b3314ef3!8m2!3d27.1005817!4d80.6443933!16s%2Fg%2F11bwyxsfv3!19sChIJD0NLmIiwnjkR804xs3UPd20?authuser=0&hl=en&rclk=1",
        "coordinates": {
            "latitude": 27.1005817,
            "longitude": 80.64439329999999
        }
    },
    {
        "name": "Jama Maszid",
        "main_category": "Mosque",
        "address": "72MC+7MF Jama Maszid, Barahiya, Bihar 811302",
        "detailed_address": {
            "ward": null,
            "street": "72MC+7MF",
            "city": "Barahiya",
            "postal_code": "811302",
            "state": "Bihar",
            "country_code": "IN"
        },
        "images": [
            {
                "about": "All",
                "link": "https://lh5.googleusercontent.com/p/AF1QipP4Vz72DUXS8lYPBcEMkWMjJ9w9In72ik3whYL1=w529-h298-k-no"
            },
            {
                "about": "Street View & 360deg",
                "link": "https://streetviewpixels-pa.googleapis.com/v1/thumbnail?panoid=x1qk9SORkCWZLqT9u5mUNg&cb_client=maps_sv.tactile.gps&w=224&h=298&yaw=142.20024&pitch=0&thumbfov=100"
            },
            {
                "about": "Videos",
                "link": "https://lh5.googleusercontent.com/p/AF1QipOwimnhaZ7PgwJZbJjwxqv9ykqTMPwz_JvpiRB7=w224-h398-k-no"
            }
        ],
        "link": "https://www.google.com/maps/place/Jama+Maszid/data=!4m7!3m6!1s0x39f216860580ac0f:0xa67422805691ab61!8m2!3d25.2831767!4d86.0216804!16s%2Fg%2F11f26_s696!19sChIJD6yABYYW8jkRYauRVoAidKY?authuser=0&hl=en&rclk=1",
        "coordinates": {
            "latitude": 25.2831767,
            "longitude": 86.0216804
        }
    },
    {
        "name": "Haidary Masjid",
        "main_category": "Mosque",
        "address": "4J2V+VJV Haidary Masjid, Barahi, Uttar Pradesh 241203",
        "detailed_address": {
            "ward": null,
            "street": "4J2V+VJV",
            "city": "Barahi",
            "postal_code": "241203",
            "state": "Uttar Pradesh",
            "country_code": "IN"
        },
        "images": [],
        "link": "https://www.google.com/maps/place/Haidary+Masjid/data=!4m7!3m6!1s0x399eb08f54ead2d7:0xda6c248a5e6c6822!8m2!3d27.1022283!4d80.6440506!16s%2Fg%2F11bx7x71nt!19sChIJ19LqVI-wnjkRImhsXookbNo?authuser=0&hl=en&rclk=1",
        "coordinates": {
            "latitude": 27.1022283,
            "longitude": 80.6440506
        }
    }
]