[
    {
        "name": "Jamat Ahmadiya Maszid",
        "main_category": "Mosque",
        "address": "HJ8M+7FR Jamat Ahmadiya Maszid, Dhenkanal, Odisha 759027",
        "detailed_address": {
            "ward": null,
            "street": "HJ8M+7FR",
            "city": "Dhenkanal",
            "postal_code": "759027",
            "state": "Odisha",
            "country_code": "IN"
        },
        "images": [
            {
                "about": "All",
                "link": "https://lh5.googleusercontent.com/p/AF1QipO0ZIp1gM-AkO3AIK58dFYew006vhCIkg9pKDz-=w397-h298-k-no"
            }
        ],
        "link": "https://www.google.com/maps/place/Jamat+Ahmadiya+Maszid/data=!4m7!3m6!1s0x3a191e79d0a555b3:0xb8c415661686bf9!8m2!3d20.565742!4d85.6336423!16s%2Fg%2F11cnbms3x1!19sChIJs1Wl0HkeGToR-WtoYVZBjAs?authuser=0&hl=en&rclk=1",
        "coordinates": {
            "latitude": 20.565742,
            "longitude": 85.63364229999999
        }
    },
    {
        "name": "AL MAKTABUL ISLAMIA - DHENKANAL",
        "main_category": "Mosque",
        "address": "AL MAKTABUL ISLAMIA - DHENKANAL, Meena Bazaar, Jama Masjid, Dhenkanal, Odisha 759001",
        "detailed_address": {
            "ward": "Kanchan Bazar",
            "street": "Meena Bazaar, Jama Masjid",
            "city": "Dhenkanal",
            "postal_code": "759001",
            "state": "Odisha",
            "country_code": "IN"
        },
        "images": [
            {
                "about": "All",
                "link": "https://lh5.googleusercontent.com/p/AF1QipPi7DItdshqJxHoWmMW9hFCx1PlZmfQvMT0N5Vr=w224-h298-k-no"
            },
            {
                "about": "By owner",
                "link": "https://lh5.googleusercontent.com/p/AF1QipMPWfCEYInGt6rncLmqMoJ7h7nP81OsczVyjEIf=w397-h298-k-no"
            },
            {
                "about": "Videos",
                "link": "https://lh5.googleusercontent.com/p/AF1QipPqmNZb1TkoSyk2x6Pg6ei-R0rrbRs-7azptqSu=w541-h298-k-no"
            },
            {
                "about": "Street View & 360deg",
                "link": "https://streetviewpixels-pa.googleapis.com/v1/thumbnail?panoid=7CqWxrzsmqRiYN4E4orYXA&cb_client=maps_sv.tactile.gps&w=224&h=298&yaw=220.08556&pitch=0&thumbfov=100"
            }
        ],
        "link": "https://www.google.com/maps/place/AL+MAKTABUL+ISLAMIA+-+DHENKANAL/data=!4m7!3m6!1s0x3a18df70fc13c06f:0x1b3cd41439bf9afa!8m2!3d20.6588125!4d85.5980625!16s%2Fg%2F11t6hf10xr!19sChIJb8AT_HDfGDoR-pq_ORTUPBs?authuser=0&hl=en&rclk=1",
        "coordinates": {
            "latitude": 20.6588125,
            "longitude": 85.5980625
        }
    },
    {
        "name": "Moti Masjid",
        "main_category": "Mosque",
        "address": "MH6X+973 Moti Masjid, Kanchan Bazar, Dhenkanal, Odisha 759001",
        "detailed_address": {
            "ward": "Kanchan Bazar",
            "street": "MH6X+973",
            "city": "Dhenkanal",
            "postal_code": "759001",
            "state": "Odisha",
            "country_code": "IN"
        },
        "images": [],
        "link": "https://www.google.com/maps/place/Moti+Masjid/data=!4m7!3m6!1s0x3a18dffebddc6981:0x72fdd54a208117d4!8m2!3d20.6608934!4d85.5981767!16s%2Fg%2F11g9vx5fy1!19sChIJgWncvf7fGDoR1BeBIErV_XI?authuser=0&hl=en&rclk=1",
        "coordinates": {
            "latitude": 20.6608934,
            "longitude": 85.5981767
        }
    },
    {
        "name": "Gudianali new masjid",
        "main_category": "Indian Muslim restaurant",
        "address": "MJ43+F75 Gudianali new masjid, Panjia Sahi, Gudianali, Dhenkanal, Odisha 759001",
        "detailed_address": {
            "ward": "Panjia Sahi, Gudianali",
            "street": "MJ43+F75",
            "city": "Dhenkanal",
            "postal_code": "759001",
            "state": "Odisha",
            "country_code": "IN"
        },
        "images": [],
        "link": "https://www.google.com/maps/place/Gudianali+new+masjid/data=!4m7!3m6!1s0x3a191fb0004ab179:0xa6edfabb4e6a8a98!8m2!3d20.6561446!4d85.6032221!16s%2Fg%2F11l5bpv8pp!19sChIJebFKALAfGToRmIpqTrv67aY?authuser=0&hl=en&rclk=1",
        "coordinates": {
            "latitude": 20.656144599999998,
            "longitude": 85.6032221
        }
    }
]