[
    {
        "name": "Shahi JAMA MASJID Shahabad shhy jm` msjd shh abd",
        "main_category": "Mosque",
        "address": "Shahi JAMA MASJID Shahabad shhy jm` msjd shh abd, Jaama Masjid, Purani Galla Mandi Rd, Shahabad, Uttar Pradesh 241124",
        "detailed_address": {
            "ward": null,
            "street": "Jaama Masjid, Purani Galla Mandi Rd",
            "city": "Shahabad",
            "postal_code": "241124",
            "state": "Uttar Pradesh",
            "country_code": "IN"
        },
        "images": [
            {
                "about": "All",
                "link": "https://lh5.googleusercontent.com/p/AF1QipOiXH9Y01zo2qRLuT3WoSYGEJ-H40Ik1YKdACv6=w527-h298-k-no"
            },
            {
                "about": "Dome",
                "link": "https://lh5.googleusercontent.com/p/AF1QipPnbRpvztngpqILlo1zqEAH-1cbdUwDSL5e04A_=w529-h298-k-no"
            },
            {
                "about": "Videos",
                "link": "https://lh5.googleusercontent.com/p/AF1QipN5i6YGYziQm0SM7m1fAI1vqTtC1rPriCh1bNq4=w541-h298-k-no"
            },
            {
                "about": "Street View & 360deg",
                "link": "https://streetviewpixels-pa.googleapis.com/v1/thumbnail?panoid=5dptEr-TdQAvkxWeUDkltQ&cb_client=maps_sv.tactile.gps&w=224&h=298&yaw=80.12106&pitch=0&thumbfov=100"
            }
        ],
        "link": "https://www.google.com/maps/place/Shahi+JAMA+MASJID+Shahabad+%D8%B4%D8%A7%DB%81%DB%8C+%D8%AC%D8%A7%D9%85%D8%B9+%D9%85%D8%B3%D8%AC%D8%AF+%D8%B4%D8%A7%DB%81+%D8%A2%D8%A8%D8%A7%D8%AF%E2%80%AD/data=!4m7!3m6!1s0x399faddc5394dfcf:0xf86ec1197cf1acc4!8m2!3d27.6448327!4d79.9355051!16s%2Fg%2F11c5scrnbt!19sChIJz9-UU9ytnzkRxKzxfBnBbvg?authuser=0&hl=en&rclk=1",
        "coordinates": {
            "latitude": 27.6448327,
            "longitude": 79.9355051
        }
    },
    {
        "name": "Safed masjid",
        "main_category": "Mosque",
        "address": "H286+PJ7 Safed masjid, Shahabad, Uttar Pradesh 244922",
        "detailed_address": {
            "ward": null,
            "street": "H286+PJ7",
            "city": "Shahabad",
            "postal_code": "244922",
            "state": "Uttar Pradesh",
            "country_code": "IN"
        },
        "images": [
            {
                "about": "All",
                "link": "https://lh5.googleusercontent.com/p/AF1QipPlCkujXTP4mOW46c01Hbq1A12iaxyDEB_bsSef=w529-h298-k-no"
            },
            {
                "about": "Videos",
                "link": "https://lh5.googleusercontent.com/p/AF1QipO8rAGDIso2l995ZGf8VvKjdYjKMjHV1FODo979=w224-h398-k-no"
            }
        ],
        "link": "https://www.google.com/maps/place/Safed+masjid/data=!4m7!3m6!1s0x390ac0711cb4e517:0x4719a53218a28c57!8m2!3d28.5667823!4d79.0115357!16s%2Fg%2F11dxl3x7mn!19sChIJF-W0HHHACjkRV4yiGDKlGUc?authuser=0&hl=en&rclk=1",
        "coordinates": {
            "latitude": 28.5667823,
            "longitude": 79.0115357
        }
    },
    {
        "name": "Masjid Qazi",
        "main_category": "Mosque",
        "address": "H295+4G4 Masjid Qazi, Shahabad, Uttar Pradesh 244922",
        "detailed_address": {
            "ward": null,
            "street": "H295+4G4",
            "city": "Shahabad",
            "postal_code": "244922",
            "state": "Uttar Pradesh",
            "country_code": "IN"
        },
        "images": [
            {
                "about": "All",
                "link": "https://lh5.googleusercontent.com/p/AF1QipPkHz86SQYOtGjoXoMz0G62IiIOVdpNm3dMt6We=w224-h395-k-no"
            },
            {
                "about": "Videos",
                "link": "https://lh5.googleusercontent.com/p/AF1QipPkHz86SQYOtGjoXoMz0G62IiIOVdpNm3dMt6We=w224-h395-k-no"
            }
        ],
        "link": "https://www.google.com/maps/place/Masjid+Qazi/data=!4m7!3m6!1s0x390ac152e09fbfdd:0x76cf8722754e352a!8m2!3d28.5677652!4d79.0088152!16s%2Fg%2F11g20j3_39!19sChIJ3b-f4FLBCjkRKjVOdSKHz3Y?authuser=0&hl=en&rclk=1",
        "coordinates": {
            "latitude": 28.5677652,
            "longitude": 79.0088152
        }
    },
    {
        "name": "ABDULLA MASJID (ABDUL RAB)",
        "main_category": "Mosque",
        "address": "H276+X33 ABDULLA MASJID (ABDUL RAB), Shahabad, Uttar Pradesh 244922",
        "detailed_address": {
            "ward": null,
            "street": "H276+X33",
            "city": "Shahabad",
            "postal_code": "244922",
            "state": "Uttar Pradesh",
            "country_code": "IN"
        },
        "images": [],
        "link": "https://www.google.com/maps/place/ABDULLA+MASJID+%28ABDUL+RAB%29/data=!4m7!3m6!1s0x390ac0706797a90f:0x433cb3ee13b26b75!8m2!3d28.5648793!4d79.0101673!16s%2Fg%2F11f15k7xtt!19sChIJD6mXZ3DACjkRdWuyE-6zPEM?authuser=0&hl=en&rclk=1",
        "coordinates": {
            "latitude": 28.564879299999998,
            "longitude": 79.01016729999999
        }
    },
    {
        "name": "Madinah Masjid (mdiinaa msjid)",
        "main_category": "Mosque",
        "address": "H287+2M8 Madinah Masjid (mdiinaa msjid), Shahabad, Uttar Pradesh 244922",
        "detailed_address": {
            "ward": null,
            "street": "H287+2M8",
            "city": "Shahabad",
            "postal_code": "244922",
            "state": "Uttar Pradesh",
            "country_code": "IN"
        },
        "images": [
            {
                "about": "All",
                "link": "https://lh5.googleusercontent.com/p/AF1QipNwTaIDVnO_VBlNOfO9LzQ4ELZnxU-1OgsLVqwO=w224-h398-k-no"
            },
            {
                "about": "Videos",
                "link": "https://lh5.googleusercontent.com/p/AF1QipPiMkVeREiEJLujVFDy1CXX66jKKkLl58sZ8VBc=w529-h298-k-no"
            }
        ],
        "link": "https://www.google.com/maps/place/Madinah+Masjid+%28%E0%A4%AE%E0%A4%A6%E0%A5%80%E0%A4%A8%E0%A4%BE+%E0%A4%AE%E0%A4%B8%E0%A5%8D%E0%A4%9C%E0%A4%BF%E0%A4%A6%29/data=!4m7!3m6!1s0x390ac16cc21c604d:0xfd14c38d2dd700bf!8m2!3d28.5650301!4d79.0141991!16s%2Fg%2F11grc86w7h!19sChIJTWAcwmzBCjkRvwDXLY3DFP0?authuser=0&hl=en&rclk=1",
        "coordinates": {
            "latitude": 28.565030099999998,
            "longitude": 79.0141991
        }
    },
    {
        "name": "Masjid Peerzadah",
        "main_category": "Mosque",
        "address": "H297+6GJ Masjid Peerzadah, Shahabad, Uttar Pradesh 244922",
        "detailed_address": {
            "ward": null,
            "street": "H297+6GJ",
            "city": "Shahabad",
            "postal_code": "244922",
            "state": "Uttar Pradesh",
            "country_code": "IN"
        },
        "images": [
            {
                "about": "All",
                "link": "https://lh5.googleusercontent.com/p/AF1QipN22tKkMf68RC3fJaKhKN_CC87CckWriAdmOaB6=w224-h497-k-no"
            }
        ],
        "link": "https://www.google.com/maps/place/Masjid+Peerzadah/data=!4m7!3m6!1s0x390ac161d4f68a6f:0x86baf382aff5c804!8m2!3d28.5680756!4d79.0137557!16s%2Fg%2F11g0lfdcx5!19sChIJb4r21GHBCjkRBMj1r4LzuoY?authuser=0&hl=en&rclk=1",
        "coordinates": {
            "latitude": 28.5680756,
            "longitude": 79.01375569999999
        }
    },
    {
        "name": "Masjid Ayesha (msjd `y'sh@)msjid aayshaa",
        "main_category": "Mosque",
        "address": "H277+346 Masjid Ayesha (msjd `y'sh@)msjid aayshaa, Shahabad, Uttar Pradesh 244922",
        "detailed_address": {
            "ward": null,
            "street": "H277+346",
            "city": "Shahabad",
            "postal_code": "244922",
            "state": "Uttar Pradesh",
            "country_code": "IN"
        },
        "images": [
            {
                "about": "All",
                "link": "https://streetviewpixels-pa.googleapis.com/v1/thumbnail?panoid=0AR6uMB6hjPQzWredUEwRQ&cb_client=maps_sv.tactile.gps&w=224&h=298&yaw=272.1812&pitch=0&thumbfov=100"
            },
            {
                "about": "Street View & 360deg",
                "link": "https://streetviewpixels-pa.googleapis.com/v1/thumbnail?panoid=0AR6uMB6hjPQzWredUEwRQ&cb_client=maps_sv.tactile.gps&w=224&h=298&yaw=272.1812&pitch=0&thumbfov=100"
            }
        ],
        "link": "https://www.google.com/maps/place/Masjid+Ayesha+%28%D9%85%D8%B3%D8%AC%D8%AF+%D8%B9%D8%A7%D8%A6%D8%B4%D8%A9%29%E0%A4%AE%E0%A4%B8%E0%A5%8D%E0%A4%9C%E0%A4%BF%E0%A4%A6+%E0%A4%86%E0%A4%AF%E0%A4%B6%E0%A4%BE%E2%80%AD/data=!4m7!3m6!1s0x390ac1e6b99d529f:0xc572ecb069a8b356!8m2!3d28.5626728!4d79.0127628!16s%2Fg%2F11gn21j3zp!19sChIJn1KduebBCjkRVrOoabDscsU?authuser=0&hl=en&rclk=1",
        "coordinates": {
            "latitude": 28.562672799999998,
            "longitude": 79.01276279999999
        }
    },
    {
        "name": "Bagiya Wali Masjid",
        "main_category": "Mosque",
        "address": "JWQR+M7R Bagiya Wali Masjid, Shahabad, Uttar Pradesh 241124",
        "detailed_address": {
            "ward": null,
            "street": "JWQR+M7R",
            "city": "Shahabad",
            "postal_code": "241124",
            "state": "Uttar Pradesh",
            "country_code": "IN"
        },
        "images": [
            {
                "about": "All",
                "link": "https://lh5.googleusercontent.com/p/AF1QipPJJ8Cb1LAbrjNrlshnQ4Y4O3FcDGojTilNTbpU=w397-h298-k-no"
            },
            {
                "about": "Dome",
                "link": "https://lh5.googleusercontent.com/p/AF1QipMIH6a1EQgG4xwbbcHHOf_OuisW4iAWqgKpj3L2=w298-h298-k-no"
            },
            {
                "about": "Street View & 360deg",
                "link": "https://streetviewpixels-pa.googleapis.com/v1/thumbnail?panoid=kZd9jcVEQR1Azprq-kKryw&cb_client=maps_sv.tactile.gps&w=224&h=298&yaw=217.49086&pitch=0&thumbfov=100"
            }
        ],
        "link": "https://www.google.com/maps/place/Bagiya+Wali+Masjid/data=!4m7!3m6!1s0x399fade8166cf9e5:0xcb68fb95b0f532c3!8m2!3d27.6392297!4d79.9406406!16s%2Fg%2F11f3bh9bnb!19sChIJ5flsFuitnzkRwzL1sJX7aMs?authuser=0&hl=en&rclk=1",
        "coordinates": {
            "latitude": 27.639229699999998,
            "longitude": 79.9406406
        }
    },
    {
        "name": "Jaama Masjid shahabad Rampur",
        "main_category": "Mosque",
        "address": "H285+H9C Jaama Masjid shahabad Rampur, Shahabad, Uttar Pradesh 244922",
        "detailed_address": {
            "ward": null,
            "street": "H285+H9C",
            "city": "Shahabad",
            "postal_code": "244922",
            "state": "Uttar Pradesh",
            "country_code": "IN"
        },
        "images": [
            {
                "about": "All",
                "link": "https://lh5.googleusercontent.com/p/AF1QipP2fNuxh41NwmY32tVxmDrShT6k-lhMWOMD0hUa=w224-h398-k-no"
            }
        ],
        "link": "https://www.google.com/maps/place/Jaama+Masjid+shahabad+Rampur/data=!4m7!3m6!1s0x390ac129107dc293:0xd774a8db53e980d!8m2!3d28.5664301!4d79.0084001!16s%2Fg%2F11gtyn1d3j!19sChIJk8J9ECnBCjkRDZg-tY1Kdw0?authuser=0&hl=en&rclk=1",
        "coordinates": {
            "latitude": 28.566430099999998,
            "longitude": 79.0084001
        }
    },
    {
        "name": "Masjid e Bilal",
        "main_category": "Mosque",
        "address": "H285+346 Masjid e Bilal, Muhalla Saadaat, Shahabad, Uttar Pradesh 244922",
        "detailed_address": {
            "ward": null,
            "street": "H285+346, Muhalla Saadaat",
            "city": "Shahabad",
            "postal_code": "244922",
            "state": "Uttar Pradesh",
            "country_code": "IN"
        },
        "images": [
            {
                "about": "All",
                "link": "https://lh5.googleusercontent.com/p/AF1QipNbvM6v4jrap0FF2tlS-_aEAfZG8bgPV27MEHwy=w397-h298-k-no"
            },
            {
                "about": "Street View & 360deg",
                "link": "https://lh5.googleusercontent.com/p/AF1QipOjRhjqIVEmL7gO8RIDVuwioqycV_HdcLQuscNq=w224-h298-k-no-pi-10-ya4.000003-ro-0-fo100"
            }
        ],
        "link": "https://www.google.com/maps/place/Masjid+e+Bilal/data=!4m7!3m6!1s0x390ac11786eb662b:0x4a68a18a07835fac!8m2!3d28.5651519!4d79.0077776!16s%2Fg%2F11nztrhst4!19sChIJK2brhhfBCjkRrF-DB4qhaEo?authuser=0&hl=en&rclk=1",
        "coordinates": {
            "latitude": 28.5651519,
            "longitude": 79.0077776
        }
    },
    {
        "name": "Ilahi masjid",
        "main_category": "Mosque",
        "address": "H2C4+8RR Ilahi masjid, Shahabad, Uttar Pradesh 244922",
        "detailed_address": {
            "ward": null,
            "street": "H2C4+8RR",
            "city": "Shahabad",
            "postal_code": "244922",
            "state": "Uttar Pradesh",
            "country_code": "IN"
        },
        "images": [],
        "link": "https://www.google.com/maps/place/Ilahi+masjid/data=!4m7!3m6!1s0x390ac1e3b7117c7f:0x57391ddea0865bde!8m2!3d28.5708414!4d79.0077019!16s%2Fg%2F11tcqng7kv!19sChIJf3wRt-PBCjkR3luGoN4dOVc?authuser=0&hl=en&rclk=1",
        "coordinates": {
            "latitude": 28.5708414,
            "longitude": 79.0077019
        }
    },
    {
        "name": "Masjid Saraaye Wali (msjid sraay)",
        "main_category": "Mosque",
        "address": "H285+VMW Masjid Saraaye Wali (msjid sraay), Shahabad, Uttar Pradesh 244922",
        "detailed_address": {
            "ward": null,
            "street": "H285+VMW",
            "city": "Shahabad",
            "postal_code": "244922",
            "state": "Uttar Pradesh",
            "country_code": "IN"
        },
        "images": [],
        "link": "https://www.google.com/maps/place/Masjid+Saraaye+Wali+%28%E0%A4%AE%E0%A4%B8%E0%A5%8D%E0%A4%9C%E0%A4%BF%E0%A4%A6+%E0%A4%B8%E0%A4%B0%E0%A4%BE%E0%A4%AF%29/data=!4m7!3m6!1s0x390ac179ac66d2bd:0xb8f728634a930376!8m2!3d28.5672444!4d79.0091951!16s%2Fg%2F11fd4thys0!19sChIJvdJmrHnBCjkRdgOTSmMo97g?authuser=0&hl=en&rclk=1",
        "coordinates": {
            "latitude": 28.5672444,
            "longitude": 79.0091951
        }
    },
    {
        "name": "Masjid NaalaPaar Sbd",
        "main_category": "Mosque",
        "address": "H288+X4J Masjid NaalaPaar Sbd, Shahabad, Uttar Pradesh 244922",
        "detailed_address": {
            "ward": null,
            "street": "H288+X4J",
            "city": "Shahabad",
            "postal_code": "244922",
            "state": "Uttar Pradesh",
            "country_code": "IN"
        },
        "images": [
            {
                "about": "All",
                "link": "https://lh5.googleusercontent.com/p/AF1QipP8A7KfmFcG6EUk74QW2x8zOWuadpnr9MyYOFjQ=w645-h298-k-no"
            }
        ],
        "link": "https://www.google.com/maps/place/Masjid+NaalaPaar+Sbd/data=!4m7!3m6!1s0x390ac1e40a984355:0x20dd6d578b3542e9!8m2!3d28.5674558!4d79.0152668!16s%2Fg%2F11fd4r24cp!19sChIJVUOYCuTBCjkR6UI1i1dt3SA?authuser=0&hl=en&rclk=1",
        "coordinates": {
            "latitude": 28.567455799999998,
            "longitude": 79.01526679999999
        }
    },
    {
        "name": "Noori Masjid nuurii msjid",
        "main_category": "Mosque",
        "address": "JWQR+8G4 Noori Masjid nuurii msjid, Budh Baazaar Rd, Shahabad, Uttar Pradesh 241124",
        "detailed_address": {
            "ward": null,
            "street": "JWQR+8G4, Budh Baazaar Rd",
            "city": "Shahabad",
            "postal_code": "241124",
            "state": "Uttar Pradesh",
            "country_code": "IN"
        },
        "images": [
            {
                "about": "All",
                "link": "https://streetviewpixels-pa.googleapis.com/v1/thumbnail?panoid=X3x_k1ciimP5xJvQallyKQ&cb_client=maps_sv.tactile.gps&w=224&h=298&yaw=229.27759&pitch=0&thumbfov=100"
            },
            {
                "about": "Street View & 360deg",
                "link": "https://streetviewpixels-pa.googleapis.com/v1/thumbnail?panoid=X3x_k1ciimP5xJvQallyKQ&cb_client=maps_sv.tactile.gps&w=224&h=298&yaw=229.27759&pitch=0&thumbfov=100"
            }
        ],
        "link": "https://www.google.com/maps/place/Noori+Masjid+%E0%A4%A8%E0%A5%82%E0%A4%B0%E0%A5%80+%E0%A4%AE%E0%A4%B8%E0%A5%8D%E0%A4%9C%E0%A4%BF%E0%A4%A6/data=!4m7!3m6!1s0x399fade828c9896b:0x22073f59bcc93413!8m2!3d27.638273!4d79.941328!16s%2Fg%2F11f_3ws2mm!19sChIJa4nJKOitnzkREzTJvFk_ByI?authuser=0&hl=en&rclk=1",
        "coordinates": {
            "latitude": 27.638272999999998,
            "longitude": 79.941328
        }
    },
    {
        "name": "Musalla masjid (Takiye wali masjid)",
        "main_category": "Mosque",
        "address": "H294+GRR Musalla masjid (Takiye wali masjid), Shahabad, Uttar Pradesh 244922",
        "detailed_address": {
            "ward": null,
            "street": "H294+GRR",
            "city": "Shahabad",
            "postal_code": "244922",
            "state": "Uttar Pradesh",
            "country_code": "IN"
        },
        "images": [
            {
                "about": "All",
                "link": "https://lh5.googleusercontent.com/p/AF1QipMPBCDPVXYkT4ggG7TxBuWxG9kVNVZ1HSaaViAV=w529-h298-k-no"
            }
        ],
        "link": "https://www.google.com/maps/place/Musalla+masjid+%28Takiye+wali+masjid%29/data=!4m7!3m6!1s0x390ac102549b5891:0x4f68e147e0a68fcf!8m2!3d28.5690455!4d79.0069318!16s%2Fg%2F11pvz589y5!19sChIJkVibVALBCjkRz4-m4EfhaE8?authuser=0&hl=en&rclk=1",
        "coordinates": {
            "latitude": 28.569045499999998,
            "longitude": 79.00693179999999
        }
    },
    {
        "name": "Khanchi Wali Masjid",
        "main_category": "Mosque",
        "address": "Khanchi Wali Masjid, Unnamed Road, Shahabad, Uttar Pradesh 244922",
        "detailed_address": {
            "ward": null,
            "street": "Unnamed Road",
            "city": "Shahabad",
            "postal_code": "244922",
            "state": "Uttar Pradesh",
            "country_code": "IN"
        },
        "images": [
            {
                "about": "All",
                "link": "https://lh5.googleusercontent.com/p/AF1QipN2LLZIDkn4rISRHceNs_Xwkk_rC4oZhMIeWSpB=w224-h398-k-no"
            }
        ],
        "link": "https://www.google.com/maps/place/Khanchi+Wali+Masjid/data=!4m7!3m6!1s0x390ac17521457921:0x4a50bd8080167de1!8m2!3d28.5669244!4d79.0136995!16s%2Fg%2F11mwypz6m2!19sChIJIXlFIXXBCjkR4X0WgIC9UEo?authuser=0&hl=en&rclk=1",
        "coordinates": {
            "latitude": 28.566924399999998,
            "longitude": 79.0136995
        }
    },
    {
        "name": "Masjid e Ansar",
        "main_category": "Mosque",
        "address": "H284+6HW Masjid e Ansar, Muhalla farra Shan, Shahabad, Uttar Pradesh 244922",
        "detailed_address": {
            "ward": null,
            "street": "H284+6HW, Muhalla farra Shan",
            "city": "Shahabad",
            "postal_code": "244922",
            "state": "Uttar Pradesh",
            "country_code": "IN"
        },
        "images": [],
        "link": "https://www.google.com/maps/place/Masjid+e+Ansar/data=!4m7!3m6!1s0x390ac1a08ebd6f53:0x70707c0ae2ba577d!8m2!3d28.5656032!4d79.0064414!16s%2Fg%2F11p4nk5mc2!19sChIJU2-9jqDBCjkRfVe64gp8cHA?authuser=0&hl=en&rclk=1",
        "coordinates": {
            "latitude": 28.565603199999998,
            "longitude": 79.0064414
        }
    },
    {
        "name": "Khanchi Wali Masjid",
        "main_category": "Mosque",
        "address": "H297+H24 Khanchi Wali Masjid, Shahabad, Uttar Pradesh 244922",
        "detailed_address": {
            "ward": null,
            "street": "H297+H24",
            "city": "Shahabad",
            "postal_code": "244922",
            "state": "Uttar Pradesh",
            "country_code": "IN"
        },
        "images": [
            {
                "about": "All",
                "link": "https://lh5.googleusercontent.com/p/AF1QipMT6RaSubNO9Pv6rsYnJwFMQcAbOzbUk8inkn3Y=w529-h298-k-no"
            }
        ],
        "link": "https://www.google.com/maps/place/Khanchi+Wali+Masjid/data=!4m7!3m6!1s0x390ac131a6dc80f7:0x26921e80c2ebc100!8m2!3d28.5688842!4d79.0125653!16s%2Fg%2F11r3lfqkf4!19sChIJ94DcpjHBCjkRAMHrwoAekiY?authuser=0&hl=en&rclk=1",
        "coordinates": {
            "latitude": 28.5688842,
            "longitude": 79.01256529999999
        }
    },
    {
        "name": "Salafi Masjid",
        "main_category": "Mosque",
        "address": "JWVV+MW6 Salafi Masjid, salafi Masjid Baitut Taqwa jamait Ahlul Hadith Nowgam, Shahabad, Uttar Pradesh",
        "detailed_address": {
            "ward": null,
            "street": "JWVV+MW6, salafi Masjid Baitut Taqwa jamait Ahlul Hadith Nowgam",
            "city": "Shahabad",
            "postal_code": null,
            "state": "Uttar Pradesh",
            "country_code": "IN"
        },
        "images": [
            {
                "about": "All",
                "link": "https://streetviewpixels-pa.googleapis.com/v1/thumbnail?panoid=Ig2e_BIZtH8RFCwBiadFsA&cb_client=maps_sv.tactile.gps&w=224&h=298&yaw=65.813835&pitch=0&thumbfov=100"
            },
            {
                "about": "Street View & 360deg",
                "link": "https://streetviewpixels-pa.googleapis.com/v1/thumbnail?panoid=Ig2e_BIZtH8RFCwBiadFsA&cb_client=maps_sv.tactile.gps&w=224&h=298&yaw=65.813835&pitch=0&thumbfov=100"
            }
        ],
        "link": "https://www.google.com/maps/place/Salafi+Masjid/data=!4m7!3m6!1s0x399faddc5394dfcf:0x2b7c49c09714ed71!8m2!3d27.6441541!4d79.944752!16s%2Fg%2F11gf976xtw!19sChIJz9-UU9ytnzkRce0Ul8BJfCs?authuser=0&hl=en&rclk=1",
        "coordinates": {
            "latitude": 27.644154099999998,
            "longitude": 79.944752
        }
    },
    {
        "name": "masjide aqsha",
        "main_category": "Mosque",
        "address": "JWQW+94P masjide aqsha, Shahabad, Uttar Pradesh 241124",
        "detailed_address": {
            "ward": null,
            "street": "JWQW+94P",
            "city": "Shahabad",
            "postal_code": "241124",
            "state": "Uttar Pradesh",
            "country_code": "IN"
        },
        "images": [
            {
                "about": "All",
                "link": "https://streetviewpixels-pa.googleapis.com/v1/thumbnail?panoid=ypTFQi4es2H0b4gTkJBNlg&cb_client=maps_sv.tactile.gps&w=224&h=298&yaw=90.59876&pitch=0&thumbfov=100"
            },
            {
                "about": "Street View & 360deg",
                "link": "https://streetviewpixels-pa.googleapis.com/v1/thumbnail?panoid=ypTFQi4es2H0b4gTkJBNlg&cb_client=maps_sv.tactile.gps&w=224&h=298&yaw=90.59876&pitch=0&thumbfov=100"
            }
        ],
        "link": "https://www.google.com/maps/place/masjide+aqsha/data=!4m7!3m6!1s0x399fadc30e54dea9:0x349b1c0b28e2114d!8m2!3d27.6384728!4d79.9453249!16s%2Fg%2F11fxvtwp2l!19sChIJqd5UDsOtnzkRTRHiKAscmzQ?authuser=0&hl=en&rclk=1",
        "coordinates": {
            "latitude": 27.6384728,
            "longitude": 79.9453249
        }
    },
    {
        "name": "KhalilUllah Masjid",
        "main_category": "Mosque",
        "address": "MW3P+M5V KhalilUllah Masjid, Shahabad, Jogipur, Uttar Pradesh 241124",
        "detailed_address": {
            "ward": null,
            "street": "MW3P+M5V",
            "city": "Shahabad, Jogipur",
            "postal_code": "241124",
            "state": "Uttar Pradesh",
            "country_code": "IN"
        },
        "images": [
            {
                "about": "All",
                "link": "https://lh5.googleusercontent.com/p/AF1QipMLV00y1BuKUY8bDS9NRb9NDMTKIVMBwD2yYsbr=w224-h398-k-no"
            }
        ],
        "link": "https://www.google.com/maps/place/KhalilUllah+Masjid/data=!4m7!3m6!1s0x399faf923e2271ef:0x428d6cbe6d61383a!8m2!3d27.6541662!4d79.9357231!16s%2Fg%2F11l5x2hfy1!19sChIJ73EiPpKvnzkROjhhbb5sjUI?authuser=0&hl=en&rclk=1",
        "coordinates": {
            "latitude": 27.6541662,
            "longitude": 79.93572309999999
        }
    },
    {
        "name": "Masjid Abubakar Dilawerpur",
        "main_category": "Mosque",
        "address": "Masjid Abubakar Dilawerpur, 94, Shahabad, Uttar Pradesh 241124",
        "detailed_address": {
            "ward": null,
            "street": "94",
            "city": "Shahabad",
            "postal_code": "241124",
            "state": "Uttar Pradesh",
            "country_code": "IN"
        },
        "images": [
            {
                "about": "All",
                "link": "https://streetviewpixels-pa.googleapis.com/v1/thumbnail?panoid=6yWGeYkGJY-fFw5vv6daWw&cb_client=maps_sv.tactile.gps&w=224&h=298&yaw=219.42497&pitch=0&thumbfov=100"
            },
            {
                "about": "Street View & 360deg",
                "link": "https://streetviewpixels-pa.googleapis.com/v1/thumbnail?panoid=6yWGeYkGJY-fFw5vv6daWw&cb_client=maps_sv.tactile.gps&w=224&h=298&yaw=219.42497&pitch=0&thumbfov=100"
            }
        ],
        "link": "https://www.google.com/maps/place/Masjid+Abubakar+Dilawerpur/data=!4m7!3m6!1s0x399fadd520dfb49d:0x86b31a9f1cb64b43!8m2!3d27.6310204!4d79.9469603!16s%2Fg%2F11rb1n5pmr!19sChIJnbTfINWtnzkRQ0u2HJ8as4Y?authuser=0&hl=en&rclk=1",
        "coordinates": {
            "latitude": 27.631020399999997,
            "longitude": 79.9469603
        }
    },
    {
        "name": "Eidgah Shahbad iidg'aah shaahaabaad",
        "main_category": "Mosque",
        "address": "MW9Q+3MG Eidgah Shahbad iidg'aah shaahaabaad, SH 25, near Hariyali Petrol Pump, Shahabad, Shahabad Dehat, Uttar Pradesh 241124",
        "detailed_address": {
            "ward": null,
            "street": "MW9Q+3MG, SH 25, near Hariyali Petrol Pump",
            "city": "Shahabad, Shahabad Dehat",
            "postal_code": "241124",
            "state": "Uttar Pradesh",
            "country_code": "IN"
        },
        "images": [
            {
                "about": "All",
                "link": "https://streetviewpixels-pa.googleapis.com/v1/thumbnail?panoid=rkG3hMwOCvdud69r0RFh1g&cb_client=maps_sv.tactile.gps&w=224&h=298&yaw=349.44968&pitch=0&thumbfov=100"
            },
            {
                "about": "Street View & 360deg",
                "link": "https://streetviewpixels-pa.googleapis.com/v1/thumbnail?panoid=rkG3hMwOCvdud69r0RFh1g&cb_client=maps_sv.tactile.gps&w=224&h=298&yaw=349.44968&pitch=0&thumbfov=100"
            }
        ],
        "link": "https://www.google.com/maps/place/Eidgah+Shahbad+%E0%A4%88%E0%A4%A6%E0%A4%97%E0%A4%BC%E0%A4%BE%E0%A4%B9+%E0%A4%B6%E0%A4%BE%E0%A4%B9%E0%A4%BE%E0%A4%AC%E0%A4%BE%E0%A4%A6/data=!4m7!3m6!1s0x399faf6e0f8e8a99:0x60c5804cb91c9053!8m2!3d27.6676822!4d79.9391953!16s%2Fg%2F11n1xd_g57!19sChIJmYqOD26vnzkRU5AcuUyAxWA?authuser=0&hl=en&rclk=1",
        "coordinates": {
            "latitude": 27.667682199999998,
            "longitude": 79.9391953
        }
    },
    {
        "name": "Masjid AL Ansar",
        "main_category": "Mosque",
        "address": "JWVV+PH8 Masjid AL Ansar, Maulagaung Rd, Shahabad, Uttar Pradesh 241124",
        "detailed_address": {
            "ward": null,
            "street": "JWVV+PH8, Maulagaung Rd",
            "city": "Shahabad",
            "postal_code": "241124",
            "state": "Uttar Pradesh",
            "country_code": "IN"
        },
        "images": [],
        "link": "https://www.google.com/maps/place/Masjid+AL+Ansar/data=!4m7!3m6!1s0x399fad910bd3300d:0xcc08ef4e5b0c7eca!8m2!3d27.6442817!4d79.9439534!16s%2Fg%2F11nck81t3m!19sChIJDTDTC5GtnzkRyn4MW07vCMw?authuser=0&hl=en&rclk=1",
        "coordinates": {
            "latitude": 27.6442817,
            "longitude": 79.9439534
        }
    },
    {
        "name": "Faiz Masjid",
        "main_category": "Mosque",
        "address": "JWRP+J4J Faiz Masjid, Shahabad, Uttar Pradesh 241124",
        "detailed_address": {
            "ward": null,
            "street": "JWRP+J4J",
            "city": "Shahabad",
            "postal_code": "241124",
            "state": "Uttar Pradesh",
            "country_code": "IN"
        },
        "images": [
            {
                "about": "All",
                "link": "https://streetviewpixels-pa.googleapis.com/v1/thumbnail?panoid=QZbeeQkISF79_Eqh1eE6JA&cb_client=maps_sv.tactile.gps&w=224&h=298&yaw=6.5480556&pitch=0&thumbfov=100"
            },
            {
                "about": "Street View & 360deg",
                "link": "https://streetviewpixels-pa.googleapis.com/v1/thumbnail?panoid=QZbeeQkISF79_Eqh1eE6JA&cb_client=maps_sv.tactile.gps&w=224&h=298&yaw=6.5480556&pitch=0&thumbfov=100"
            }
        ],
        "link": "https://www.google.com/maps/place/Faiz+Masjid/data=!4m7!3m6!1s0x399fad91aee1d37d:0x5542c871257c5c09!8m2!3d27.6415802!4d79.9352779!16s%2Fg%2F11gv27xlb6!19sChIJfdPhrpGtnzkRCVx8JXHIQlU?authuser=0&hl=en&rclk=1",
        "coordinates": {
            "latitude": 27.6415802,
            "longitude": 79.9352779
        }
    },
    {
        "name": "Qadri Masjid",
        "main_category": "Mosque",
        "address": "JWQR+MQ8 Qadri Masjid, Shahabad, Uttar Pradesh 241124",
        "detailed_address": {
            "ward": null,
            "street": "JWQR+MQ8",
            "city": "Shahabad",
            "postal_code": "241124",
            "state": "Uttar Pradesh",
            "country_code": "IN"
        },
        "images": [],
        "link": "https://www.google.com/maps/place/Qadri+Masjid/data=!4m7!3m6!1s0x399fad5d2ab22585:0x2653139ba3da4234!8m2!3d27.6391564!4d79.9419545!16s%2Fg%2F11gyxrq_6y!19sChIJhSWyKl2tnzkRNELao5sTUyY?authuser=0&hl=en&rclk=1",
        "coordinates": {
            "latitude": 27.639156399999997,
            "longitude": 79.9419545
        }
    },
    {
        "name": "Masjid e Quba",
        "main_category": "Mosque",
        "address": "H275+QP8 Masjid e Quba, Muhalla Qanoon Goyan, Shahabad, Uttar Pradesh 244922",
        "detailed_address": {
            "ward": null,
            "street": "H275+QP8, Muhalla Qanoon Goyan",
            "city": "Shahabad",
            "postal_code": "244922",
            "state": "Uttar Pradesh",
            "country_code": "IN"
        },
        "images": [
            {
                "about": "All",
                "link": "https://lh5.googleusercontent.com/p/AF1QipNjaGmZCAKJiNy8AZKOLfPhRl3iDMlNLrDbBmuB=w224-h298-k-no"
            },
            {
                "about": "Dome",
                "link": "https://lh5.googleusercontent.com/p/AF1QipN5fveMfwwpe_gdmXQuNm7lKdGwqfDG6dETlCaN=w224-h298-k-no"
            }
        ],
        "link": "https://www.google.com/maps/place/Masjid+e+Quba/data=!4m7!3m6!1s0x390ac1aaf9822049:0xa98438a54359866b!8m2!3d28.5644043!4d79.0093141!16s%2Fg%2F11mpbsjsrj!19sChIJSSCC-arBCjkRa4ZZQ6U4hKk?authuser=0&hl=en&rclk=1",
        "coordinates": {
            "latitude": 28.5644043,
            "longitude": 79.0093141
        }
    },
    {
        "name": "Rampur up Shahabad Gate Masjid Colonel Fateh near you.",
        "main_category": "Children Policlinic",
        "address": "Q2RC+XRH Rampur up Shahabad Gate Masjid Colonel Fateh near you., Shahabad Gate Rd, Mohsin -E- Azam Colony, Civil Lines, Rampur, Uttar Pradesh 244901",
        "detailed_address": {
            "ward": "Mohsin -E- Azam Colony, Civil Lines",
            "street": "Q2RC+XRH, Shahabad Gate Rd",
            "city": "Rampur",
            "postal_code": "244901",
            "state": "Uttar Pradesh",
            "country_code": "IN"
        },
        "images": [
            {
                "about": "All",
                "link": "https://streetviewpixels-pa.googleapis.com/v1/thumbnail?panoid=q4C_L3FWvvKfsO6sEb4LMQ&cb_client=maps_sv.tactile.gps&w=224&h=298&yaw=29.681341&pitch=0&thumbfov=100"
            },
            {
                "about": "Street View & 360deg",
                "link": "https://streetviewpixels-pa.googleapis.com/v1/thumbnail?panoid=q4C_L3FWvvKfsO6sEb4LMQ&cb_client=maps_sv.tactile.gps&w=224&h=298&yaw=29.681341&pitch=0&thumbfov=100"
            }
        ],
        "link": "https://www.google.com/maps/place/Rampur+up+Shahabad+Gate+Masjid+Colonel+Fateh+near+you./data=!4m7!3m6!1s0x390a8d159924abc3:0x405a90344ebd1033!8m2!3d28.7924441!4d79.0221187!16s%2Fg%2F11v5v79_7_!19sChIJw6skmRWNCjkRMxC9TjSQWkA?authuser=0&hl=en&rclk=1",
        "coordinates": {
            "latitude": 28.792444099999997,
            "longitude": 79.0221187
        }
    },
    {
        "name": "Masjid Milak Husain ganj",
        "main_category": "Mosque",
        "address": "HXFW+HMG Masjid Milak Husain ganj, Shahabad, Uttar Pradesh 244922",
        "detailed_address": {
            "ward": null,
            "street": "HXFW+HMG",
            "city": "Shahabad",
            "postal_code": "244922",
            "state": "Uttar Pradesh",
            "country_code": "IN"
        },
        "images": [],
        "link": "https://www.google.com/maps/place/Masjid+Milak+Husain+ganj/data=!4m7!3m6!1s0x390ac129f05f16ef:0xcc961a3225ff137d!8m2!3d28.5739303!4d78.9966888!16s%2Fg%2F11sjhvt7s8!19sChIJ7xZf8CnBCjkRfRP_JTIalsw?authuser=0&hl=en&rclk=1",
        "coordinates": {
            "latitude": 28.573930299999997,
            "longitude": 78.9966888
        }
    },
    {
        "name": "Masjid E Noor",
        "main_category": "Mosque",
        "address": "H292+QGQ Masjid E Noor, Shahabad, Uttar Pradesh 244922",
        "detailed_address": {
            "ward": null,
            "street": "H292+QGQ",
            "city": "Shahabad",
            "postal_code": null,
            "state": "Uttar Pradesh",
            "country_code": "IN"
        },
        "images": [],
        "link": "https://www.google.com/maps/place/Masjid+E+Noor/data=!4m7!3m6!1s0x390ac1c1b89903d5:0x4458d413208d8bfd!8m2!3d28.5694656!4d79.0013658!16s%2Fg%2F11j0w7512_!19sChIJ1QOZuMHBCjkR_YuNIBPUWEQ?authuser=0&hl=en&rclk=1",
        "coordinates": {
            "latitude": 28.569465599999997,
            "longitude": 79.0013658
        }
    },
    {
        "name": "Masjid Khalid bin al Waleed",
        "main_category": "Mosque",
        "address": "Masjid Khalid bin al Waleed, Shahnai marriage lawn, Shahabad, Uttar Pradesh 241124",
        "detailed_address": {
            "ward": null,
            "street": "Shahnai marriage lawn",
            "city": "Shahabad",
            "postal_code": "241124",
            "state": "Uttar Pradesh",
            "country_code": "IN"
        },
        "images": [
            {
                "about": "All",
                "link": "https://streetviewpixels-pa.googleapis.com/v1/thumbnail?panoid=Ig2e_BIZtH8RFCwBiadFsA&cb_client=maps_sv.tactile.gps&w=224&h=298&yaw=65.86382&pitch=0&thumbfov=100"
            },
            {
                "about": "Street View & 360deg",
                "link": "https://streetviewpixels-pa.googleapis.com/v1/thumbnail?panoid=Ig2e_BIZtH8RFCwBiadFsA&cb_client=maps_sv.tactile.gps&w=224&h=298&yaw=65.86382&pitch=0&thumbfov=100"
            }
        ],
        "link": "https://www.google.com/maps/place/Masjid+Khalid+bin+al+Waleed/data=!4m7!3m6!1s0x399fad2b0387f7e5:0x3f4f2dcae8d6e6e5!8m2!3d27.644154!4d79.944752!16s%2Fg%2F11kq007rwr!19sChIJ5feHAyutnzkR5ebW6MotTz8?authuser=0&hl=en&rclk=1",
        "coordinates": {
            "latitude": 27.644154,
            "longitude": 79.944752
        }
    },
    {
        "name": "Masjid Al Falah",
        "main_category": "Mosque",
        "address": "JWGM+JCP Masjid Al Falah, Akhtiyaar Pur Rd, Shahabad, Shahabad Dehat, Uttar Pradesh 241124",
        "detailed_address": {
            "ward": null,
            "street": "JWGM+JCP, Akhtiyaar Pur Rd",
            "city": "Shahabad, Shahabad Dehat",
            "postal_code": "241124",
            "state": "Uttar Pradesh",
            "country_code": "IN"
        },
        "images": [
            {
                "about": "All",
                "link": "https://streetviewpixels-pa.googleapis.com/v1/thumbnail?panoid=6L8hGRmY8e7OBS3VITmGLg&cb_client=maps_sv.tactile.gps&w=224&h=298&yaw=300.33212&pitch=0&thumbfov=100"
            },
            {
                "about": "Street View & 360deg",
                "link": "https://streetviewpixels-pa.googleapis.com/v1/thumbnail?panoid=6L8hGRmY8e7OBS3VITmGLg&cb_client=maps_sv.tactile.gps&w=224&h=298&yaw=300.33212&pitch=0&thumbfov=100"
            }
        ],
        "link": "https://www.google.com/maps/place/Masjid+Al+Falah/data=!4m7!3m6!1s0x399fadce2a50b903:0xf57a5ebb3dd8feb3!8m2!3d27.6265834!4d79.9335803!16s%2Fg%2F11nck629p2!19sChIJA7lQKs6tnzkRs_7YPbteevU?authuser=0&hl=en&rclk=1",
        "coordinates": {
            "latitude": 27.626583399999998,
            "longitude": 79.9335803
        }
    },
    {
        "name": "Masjid Musab ibn Umair",
        "main_category": "Mosque",
        "address": "JWPP+WMW Masjid Musab ibn Umair, Akhtiyaar Pur Rd, Shahabad, Uttar Pradesh 241124",
        "detailed_address": {
            "ward": null,
            "street": "JWPP+WMW, Akhtiyaar Pur Rd",
            "city": "Shahabad",
            "postal_code": "241124",
            "state": "Uttar Pradesh",
            "country_code": "IN"
        },
        "images": [
            {
                "about": "All",
                "link": "https://streetviewpixels-pa.googleapis.com/v1/thumbnail?panoid=rKcngVvRHYhLnBTywQP9lg&cb_client=maps_sv.tactile.gps&w=224&h=298&yaw=305.7752&pitch=0&thumbfov=100"
            },
            {
                "about": "Street View & 360deg",
                "link": "https://streetviewpixels-pa.googleapis.com/v1/thumbnail?panoid=rKcngVvRHYhLnBTywQP9lg&cb_client=maps_sv.tactile.gps&w=224&h=298&yaw=305.7752&pitch=0&thumbfov=100"
            }
        ],
        "link": "https://www.google.com/maps/place/Masjid+Musab+ibn+Umair/data=!4m7!3m6!1s0x399fadee42dd2ebf:0x567e881a0056130a!8m2!3d27.637351!4d79.9367119!16s%2Fg%2F11qt3dg2qv!19sChIJvy7dQu6tnzkRChNWABqIflY?authuser=0&hl=en&rclk=1",
        "coordinates": {
            "latitude": 27.637351,
            "longitude": 79.93671189999999
        }
    },
    {
        "name": "Mosque",
        "main_category": "Mosque",
        "address": "JWRP+864 Mosque, Shivalay Ln, Shahabad, Uttar Pradesh 241124",
        "detailed_address": {
            "ward": null,
            "street": "JWRP+864, Shivalay Ln",
            "city": "Shahabad",
            "postal_code": "241124",
            "state": "Uttar Pradesh",
            "country_code": "IN"
        },
        "images": [
            {
                "about": "All",
                "link": "https://streetviewpixels-pa.googleapis.com/v1/thumbnail?panoid=uUlXVLq-hAqv_gcEom62aw&cb_client=maps_sv.tactile.gps&w=224&h=298&yaw=338.23868&pitch=0&thumbfov=100"
            },
            {
                "about": "Street View & 360deg",
                "link": "https://streetviewpixels-pa.googleapis.com/v1/thumbnail?panoid=uUlXVLq-hAqv_gcEom62aw&cb_client=maps_sv.tactile.gps&w=224&h=298&yaw=338.23868&pitch=0&thumbfov=100"
            }
        ],
        "link": "https://www.google.com/maps/place/Mosque/data=!4m7!3m6!1s0x399fad1e090e2e43:0x8ecebfc8944527b!8m2!3d27.6407596!4d79.9355758!16s%2Fg%2F11tsq0m3zn!19sChIJQy4OCR6tnzkRe1JEifzr7Ag?authuser=0&hl=en&rclk=1",
        "coordinates": {
            "latitude": 27.6407596,
            "longitude": 79.9355758
        }
    },
    {
        "name": "Masjid Al Yarmook",
        "main_category": "Mosque",
        "address": "Masjid Al Yarmook, 1, Sardar Ganj, Shahabad, Uttar Pradesh 241124",
        "detailed_address": {
            "ward": "Sardar Ganj",
            "street": "1",
            "city": "Shahabad",
            "postal_code": "241124",
            "state": "Uttar Pradesh",
            "country_code": "IN"
        },
        "images": [
            {
                "about": "All",
                "link": "https://streetviewpixels-pa.googleapis.com/v1/thumbnail?panoid=vsbIQbWvDziKkK7gzB3yXw&cb_client=maps_sv.tactile.gps&w=224&h=298&yaw=216.16345&pitch=0&thumbfov=100"
            },
            {
                "about": "Street View & 360deg",
                "link": "https://streetviewpixels-pa.googleapis.com/v1/thumbnail?panoid=vsbIQbWvDziKkK7gzB3yXw&cb_client=maps_sv.tactile.gps&w=224&h=298&yaw=216.16345&pitch=0&thumbfov=100"
            }
        ],
        "link": "https://www.google.com/maps/place/Masjid+Al+Yarmook/data=!4m7!3m6!1s0x399fad17fafb88db:0x60fe792107773063!8m2!3d27.6405285!4d79.9407151!16s%2Fg%2F11l_dk67g8!19sChIJ24j7-hetnzkRYzB3ByF5_mA?authuser=0&hl=en&rclk=1",
        "coordinates": {
            "latitude": 27.6405285,
            "longitude": 79.94071509999999
        }
    },
    {
        "name": "Dr yakoob wali masjid",
        "main_category": "Mosque",
        "address": "JWVV+MW6 Dr yakoob wali masjid, Mahuatola, Shahabad, Uttar Pradesh",
        "detailed_address": {
            "ward": null,
            "street": "JWVV+MW6, Mahuatola",
            "city": "Shahabad",
            "postal_code": null,
            "state": "Uttar Pradesh",
            "country_code": "IN"
        },
        "images": [
            {
                "about": "All",
                "link": "https://streetviewpixels-pa.googleapis.com/v1/thumbnail?panoid=Ig2e_BIZtH8RFCwBiadFsA&cb_client=maps_sv.tactile.gps&w=224&h=298&yaw=65.813835&pitch=0&thumbfov=100"
            },
            {
                "about": "Street View & 360deg",
                "link": "https://streetviewpixels-pa.googleapis.com/v1/thumbnail?panoid=Ig2e_BIZtH8RFCwBiadFsA&cb_client=maps_sv.tactile.gps&w=224&h=298&yaw=65.813835&pitch=0&thumbfov=100"
            }
        ],
        "link": "https://www.google.com/maps/place/Dr+yakoob+wali+masjid/data=!4m7!3m6!1s0x399fad057d2993ef:0x79e76444db14a47b!8m2!3d27.6441541!4d79.944752!16s%2Fg%2F11txv6blbp!19sChIJ75MpfQWtnzkRe6QU20Rk53k?authuser=0&hl=en&rclk=1",
        "coordinates": {
            "latitude": 27.644154099999998,
            "longitude": 79.944752
        }
    },
    {
        "name": "msjid osaamaa bin jai'd",
        "main_category": "Mosque",
        "address": "JWRP+864 msjid osaamaa bin jai'd, Shivalay Ln, Shahabad, Uttar Pradesh 241124",
        "detailed_address": {
            "ward": null,
            "street": "JWRP+864, Shivalay Ln",
            "city": "Shahabad",
            "postal_code": "241124",
            "state": "Uttar Pradesh",
            "country_code": "IN"
        },
        "images": [
            {
                "about": "All",
                "link": "https://streetviewpixels-pa.googleapis.com/v1/thumbnail?panoid=uUlXVLq-hAqv_gcEom62aw&cb_client=maps_sv.tactile.gps&w=224&h=298&yaw=338.2855&pitch=0&thumbfov=100"
            },
            {
                "about": "Street View & 360deg",
                "link": "https://streetviewpixels-pa.googleapis.com/v1/thumbnail?panoid=uUlXVLq-hAqv_gcEom62aw&cb_client=maps_sv.tactile.gps&w=224&h=298&yaw=338.2855&pitch=0&thumbfov=100"
            }
        ],
        "link": "https://www.google.com/maps/place/%E0%A4%AE%E0%A4%B8%E0%A5%8D%E0%A4%9C%E0%A4%BF%E0%A4%A6+%E0%A4%93%E0%A4%B8%E0%A4%BE%E0%A4%AE%E0%A4%BE+%E0%A4%AC%E0%A4%BF%E0%A4%A8+%E0%A4%9C%E0%A5%88%E0%A4%BC%E0%A4%A6/data=!4m7!3m6!1s0x399fada5a0d5f965:0xdacb9253f43b967f!8m2!3d27.6407596!4d79.935576!16s%2Fg%2F11rgh0yf24!19sChIJZfnVoKWtnzkRf5Y79FOSy9o?authuser=0&hl=en&rclk=1",
        "coordinates": {
            "latitude": 27.6407596,
            "longitude": 79.935576
        }
    },
    {
        "name": "msjid e shuhdaa e bdr",
        "main_category": "Mosque",
        "address": "JWPR+V2W msjid e shuhdaa e bdr, Budh Baazaar Rd, Shahabad, Uttar Pradesh 241124",
        "detailed_address": {
            "ward": null,
            "street": "JWPR+V2W, Budh Baazaar Rd",
            "city": "Shahabad",
            "postal_code": "241124",
            "state": "Uttar Pradesh",
            "country_code": "IN"
        },
        "images": [
            {
                "about": "All",
                "link": "https://streetviewpixels-pa.googleapis.com/v1/thumbnail?panoid=pluIR7ehrEZBlC2MEeaRLw&cb_client=maps_sv.tactile.gps&w=224&h=298&yaw=110.42506&pitch=0&thumbfov=100"
            },
            {
                "about": "Street View & 360deg",
                "link": "https://streetviewpixels-pa.googleapis.com/v1/thumbnail?panoid=pluIR7ehrEZBlC2MEeaRLw&cb_client=maps_sv.tactile.gps&w=224&h=298&yaw=110.42506&pitch=0&thumbfov=100"
            }
        ],
        "link": "https://www.google.com/maps/place/%E0%A4%AE%E0%A4%B8%E0%A5%8D%E0%A4%9C%E0%A4%BF%E0%A4%A6+%E0%A4%8F+%E0%A4%B6%E0%A5%81%E0%A4%B9%E0%A4%A6%E0%A4%BE+%E0%A4%8F+%E0%A4%AC%E0%A4%A6%E0%A4%B0/data=!4m7!3m6!1s0x399fad64b25f7941:0x8ddf2c1847ca74d5!8m2!3d27.6372409!4d79.9400783!16s%2Fg%2F11m9r45twt!19sChIJQXlfsmStnzkR1XTKRxgs340?authuser=0&hl=en&rclk=1",
        "coordinates": {
            "latitude": 27.6372409,
            "longitude": 79.9400783
        }
    },
    {
        "name": "kbristaan",
        "main_category": "Mosque",
        "address": "JXQ2+6XG kbristaan, Shahabad, Uttar Pradesh 241124",
        "detailed_address": {
            "ward": null,
            "street": "JXQ2+6XG",
            "city": "Shahabad",
            "postal_code": "241124",
            "state": "Uttar Pradesh",
            "country_code": "IN"
        },
        "images": [
            {
                "about": "All",
                "link": "https://streetviewpixels-pa.googleapis.com/v1/thumbnail?panoid=Xk0QxTvwkN-AE-C4OGVXpg&cb_client=maps_sv.tactile.gps&w=224&h=298&yaw=36.171528&pitch=0&thumbfov=100"
            },
            {
                "about": "Street View & 360deg",
                "link": "https://streetviewpixels-pa.googleapis.com/v1/thumbnail?panoid=Xk0QxTvwkN-AE-C4OGVXpg&cb_client=maps_sv.tactile.gps&w=224&h=298&yaw=36.171528&pitch=0&thumbfov=100"
            }
        ],
        "link": "https://www.google.com/maps/place/%E0%A4%95%E0%A4%AC%E0%A5%8D%E0%A4%B0%E0%A4%BF%E0%A4%B8%E0%A5%8D%E0%A4%A4%E0%A4%BE%E0%A4%A8/data=!4m7!3m6!1s0x399fadb9ceff9d5d:0x41d1e3c5b349be0c!8m2!3d27.6380597!4d79.9524524!16s%2Fg%2F11lgx85wqr!19sChIJXZ3_zrmtnzkRDL5Js8Xj0UE?authuser=0&hl=en&rclk=1",
        "coordinates": {
            "latitude": 27.6380597,
            "longitude": 79.9524524
        }
    },
    {
        "name": "taaj msjid / mdrsaa phaij ur rsuul",
        "main_category": "Mosque",
        "address": "taaj msjid / mdrsaa phaij ur rsuul, mohllaa taajpuraa, Shahabad, Uttar Pradesh 241124",
        "detailed_address": {
            "ward": null,
            "street": "mohllaa taajpuraa",
            "city": "Shahabad",
            "postal_code": null,
            "state": "Uttar Pradesh",
            "country_code": "IN"
        },
        "images": [
            {
                "about": "All",
                "link": "https://lh5.googleusercontent.com/p/AF1QipP8srj9OjRAr3wg2ERRGvFc4MMvWCLjzsvs1_fi=w224-h497-k-no"
            },
            {
                "about": "Dome",
                "link": "https://lh5.googleusercontent.com/p/AF1QipP8srj9OjRAr3wg2ERRGvFc4MMvWCLjzsvs1_fi=w224-h497-k-no"
            },
            {
                "about": "Videos",
                "link": "https://lh5.googleusercontent.com/p/AF1QipMjzQtmy2z0s-3wJOs02sJLuy6gDfnB2jA7T6bP=w224-h398-k-no"
            },
            {
                "about": "Street View & 360deg",
                "link": "https://streetviewpixels-pa.googleapis.com/v1/thumbnail?panoid=pyMYE-rVbbPTJPNU_ORxcg&cb_client=maps_sv.tactile.gps&w=224&h=298&yaw=345.9215&pitch=0&thumbfov=100"
            }
        ],
        "link": "https://www.google.com/maps/place/%E0%A4%A4%E0%A4%BE%E0%A4%9C+%E0%A4%AE%E0%A4%B8%E0%A5%8D%E0%A4%9C%E0%A4%BF%E0%A4%A6+%2F+%E0%A4%AE%E0%A4%A6%E0%A4%B0%E0%A4%B8%E0%A4%BE+%E0%A4%AB%E0%A5%88%E0%A4%9C+%E0%A4%89%E0%A4%B0+%E0%A4%B0%E0%A4%B8%E0%A5%82%E0%A4%B2/data=!4m7!3m6!1s0x399fadca1e3cafcb:0x63820372f70f5bba!8m2!3d27.635532!4d79.9447873!16s%2Fg%2F11jsmfvjdj!19sChIJy688HsqtnzkRulsP93IDgmM?authuser=0&hl=en&rclk=1",
        "coordinates": {
            "latitude": 27.635531999999998,
            "longitude": 79.9447873
        }
    }
]