[
    {
        "name": "Madina Masjid",
        "main_category": "Mosque",
        "address": "9JWG+FV6 Madina Masjid, Bahjoi, Uttar Pradesh 244410",
        "detailed_address": {
            "ward": null,
            "street": "9JWG+FV6",
            "city": "Bahjoi",
            "postal_code": "244410",
            "state": "Uttar Pradesh",
            "country_code": "IN"
        },
        "images": [
            {
                "about": "All",
                "link": "https://lh5.googleusercontent.com/p/AF1QipMk4xby46XJr7AIdBT58kj9Tk8F68kiWyZu9OgJ=w224-h398-k-no"
            }
        ],
        "link": "https://www.google.com/maps/place/Madina+Masjid/data=!4m7!3m6!1s0x390b27c48a92317b:0x6cf39d1f4c64bd14!8m2!3d28.3961587!4d78.6271355!16s%2Fg%2F11fx8v1tcs!19sChIJezGSisQnCzkRFL1kTB-d82w?authuser=0&hl=en&rclk=1",
        "coordinates": {
            "latitude": 28.396158699999997,
            "longitude": 78.6271355
        }
    },
    {
        "name": "Noori Masjid",
        "main_category": "Mosque",
        "address": "9JR9+9MM Noori Masjid, Bahjoi, Uttar Pradesh 244410",
        "detailed_address": {
            "ward": null,
            "street": "9JR9+9MM",
            "city": "Bahjoi",
            "postal_code": "244410",
            "state": "Uttar Pradesh",
            "country_code": "IN"
        },
        "images": [
            {
                "about": "All",
                "link": "https://lh5.googleusercontent.com/p/AF1QipNnc_nogJoG0k1H3ocF3duTAWqexyw9H0EcpZPI=w224-h298-k-no"
            }
        ],
        "link": "https://www.google.com/maps/place/Noori+Masjid/data=!4m7!3m6!1s0x390b27d1ba2e5a7b:0x4a55a669cc96caf!8m2!3d28.3909541!4d78.6191565!16s%2Fg%2F11b6sp0wsj!19sChIJe1ouutEnCzkRr2zJnGZapQQ?authuser=0&hl=en&rclk=1",
        "coordinates": {
            "latitude": 28.3909541,
            "longitude": 78.6191565
        }
    },
    {
        "name": "Gausiya Masjid",
        "main_category": "Mosque",
        "address": "9JWH+6QC Gausiya Masjid, Bahjoi, Uttar Pradesh 244410",
        "detailed_address": {
            "ward": null,
            "street": "9JWH+6QC",
            "city": "Bahjoi",
            "postal_code": "244410",
            "state": "Uttar Pradesh",
            "country_code": "IN"
        },
        "images": [],
        "link": "https://www.google.com/maps/place/Gausiya+Masjid/data=!4m7!3m6!1s0x390b27c36f1bb8cd:0xd62cd9ac22daeb88!8m2!3d28.3955712!4d78.6293827!16s%2Fg%2F11g8w5sfc8!19sChIJzbgbb8MnCzkRiOvaIqzZLNY?authuser=0&hl=en&rclk=1",
        "coordinates": {
            "latitude": 28.3955712,
            "longitude": 78.6293827
        }
    },
    {
        "name": "Badi Masjid",
        "main_category": "Mosque",
        "address": "9JWF+3QH Badi Masjid, Bahjoi, Uttar Pradesh 244410",
        "detailed_address": {
            "ward": null,
            "street": "9JWF+3QH",
            "city": "Bahjoi",
            "postal_code": "244410",
            "state": "Uttar Pradesh",
            "country_code": "IN"
        },
        "images": [
            {
                "about": "All",
                "link": "https://streetviewpixels-pa.googleapis.com/v1/thumbnail?panoid=iXmlzwH_qys6bYc0PMovzA&cb_client=maps_sv.tactile.gps&w=224&h=298&yaw=203.99976&pitch=0&thumbfov=100"
            },
            {
                "about": "Street View & 360deg",
                "link": "https://streetviewpixels-pa.googleapis.com/v1/thumbnail?panoid=iXmlzwH_qys6bYc0PMovzA&cb_client=maps_sv.tactile.gps&w=224&h=298&yaw=203.99976&pitch=0&thumbfov=100"
            }
        ],
        "link": "https://www.google.com/maps/place/Badi+Masjid/data=!4m7!3m6!1s0x390b27c512e3d6c5:0x53c691d912f7fb6e!8m2!3d28.395193!4d78.624471!16s%2Fg%2F11d_8842n6!19sChIJxdbjEsUnCzkRbvv3EtmRxlM?authuser=0&hl=en&rclk=1",
        "coordinates": {
            "latitude": 28.395193,
            "longitude": 78.624471
        }
    },
    {
        "name": "Saifiyan Masjid",
        "main_category": "Mosque",
        "address": "9JWG+JFX Saifiyan Masjid, Bahjoi, Uttar Pradesh 244410",
        "detailed_address": {
            "ward": null,
            "street": "9JWG+JFX",
            "city": "Bahjoi",
            "postal_code": "244410",
            "state": "Uttar Pradesh",
            "country_code": "IN"
        },
        "images": [],
        "link": "https://www.google.com/maps/place/Saifiyan+Masjid/data=!4m7!3m6!1s0x390b27c45728477d:0x4de8a0343670ddb4!8m2!3d28.3966165!4d78.6262452!16s%2Fg%2F11d_87df5x!19sChIJfUcoV8QnCzkRtN1wNjSg6E0?authuser=0&hl=en&rclk=1",
        "coordinates": {
            "latitude": 28.3966165,
            "longitude": 78.6262452
        }
    },
    {
        "name": "Jama Masjid",
        "main_category": "Mosque",
        "address": "9JVC+XVR Jama Masjid, Purana Bazar, Bahjoi, Uttar Pradesh 244410",
        "detailed_address": {
            "ward": "Purana Bazar",
            "street": "9JVC+XVR",
            "city": "Bahjoi",
            "postal_code": "244410",
            "state": "Uttar Pradesh",
            "country_code": "IN"
        },
        "images": [],
        "link": "https://www.google.com/maps/place/Jama+Masjid/data=!4m7!3m6!1s0x390b27cf91d6553b:0x93b943b81ff5e3cf!8m2!3d28.3949887!4d78.6221304!16s%2Fg%2F11d_86xmsz!19sChIJO1XWkc8nCzkRz-P1H7hDuZM?authuser=0&hl=en&rclk=1",
        "coordinates": {
            "latitude": 28.3949887,
            "longitude": 78.6221304
        }
    },
    {
        "name": "Qadri Masjid",
        "main_category": "Mosque",
        "address": "9JWH+WMV Qadri Masjid, Unnamed Road, Maraiyan, Bahjoi, Uttar Pradesh 202410",
        "detailed_address": {
            "ward": null,
            "street": "9JWH+WMV, Unnamed Road, Maraiyan",
            "city": "Bahjoi",
            "postal_code": "202410",
            "state": "Uttar Pradesh",
            "country_code": "IN"
        },
        "images": [],
        "link": "https://www.google.com/maps/place/Qadri+Masjid/data=!4m7!3m6!1s0x390b2790a7af53f3:0xd57eab241c74ec3d!8m2!3d28.397375!4d78.6291601!16s%2Fg%2F11rg9tfnmx!19sChIJ81Ovp5AnCzkRPex0HCSrftU?authuser=0&hl=en&rclk=1",
        "coordinates": {
            "latitude": 28.397375,
            "longitude": 78.62916009999999
        }
    },
    {
        "name": "Madina Masjid",
        "main_category": "Mosque",
        "address": "Madina Masjid, Idrish chacha Shop, Bahjoi, Uttar Pradesh 244410",
        "detailed_address": {
            "ward": null,
            "street": "Idrish chacha Shop",
            "city": "Bahjoi",
            "postal_code": "244410",
            "state": "Uttar Pradesh",
            "country_code": "IN"
        },
        "images": [
            {
                "about": "All",
                "link": "https://streetviewpixels-pa.googleapis.com/v1/thumbnail?panoid=Zwi8UqXSviOImJHieVTj8A&cb_client=maps_sv.tactile.gps&w=224&h=298&yaw=145.90535&pitch=0&thumbfov=100"
            },
            {
                "about": "Street View & 360deg",
                "link": "https://streetviewpixels-pa.googleapis.com/v1/thumbnail?panoid=Zwi8UqXSviOImJHieVTj8A&cb_client=maps_sv.tactile.gps&w=224&h=298&yaw=145.90535&pitch=0&thumbfov=100"
            }
        ],
        "link": "https://www.google.com/maps/place/Madina+Masjid/data=!4m7!3m6!1s0x390b277ce7afbfb9:0xf731a3b7f56e9447!8m2!3d28.3868718!4d78.6171875!16s%2Fg%2F11r7ztdtf_!19sChIJub-v53wnCzkRR5Ru9bejMfc?authuser=0&hl=en&rclk=1",
        "coordinates": {
            "latitude": 28.386871799999998,
            "longitude": 78.6171875
        }
    },
    {
        "name": "Roshni masjid",
        "main_category": "Mosque",
        "address": "9JH8+R86 Roshni masjid, Chitanpur, Bahjoi, Uttar Pradesh 244410",
        "detailed_address": {
            "ward": null,
            "street": "9JH8+R86",
            "city": "Chitanpur, Bahjoi",
            "postal_code": "244410",
            "state": "Uttar Pradesh",
            "country_code": "IN"
        },
        "images": [],
        "link": "https://www.google.com/maps/place/Roshni+masjid/data=!4m7!3m6!1s0x390b29673a28b085:0x2a04a9f3c4a1c005!8m2!3d28.3795372!4d78.6157565!16s%2Fg%2F11t_py6_08!19sChIJhbAoOmcpCzkRBcChxPOpBCo?authuser=0&hl=en&rclk=1",
        "coordinates": {
            "latitude": 28.379537199999998,
            "longitude": 78.6157565
        }
    }
]