[
    {
        "name": "Makka Masjid",
        "main_category": "Mosque",
        "address": "6W95+988 Makka Masjid, Santhosh Nagar, Kandukur, Andhra Pradesh 523105",
        "detailed_address": {
            "ward": "Santhosh Nagar",
            "street": "6W95+988",
            "city": "Kandukur",
            "postal_code": "523105",
            "state": "Andhra Pradesh",
            "country_code": "IN"
        },
        "images": [],
        "link": "https://www.google.com/maps/place/Makka+Masjid/data=!4m7!3m6!1s0x3a4b12858b5a88b3:0x8ca2fd8778cd298f!8m2!3d15.21841!4d79.9083406!16s%2Fg%2F11bwqq5vx5!19sChIJs4hai4USSzoRjynNeIf9oow?authuser=0&hl=en&rclk=1",
        "coordinates": {
            "latitude": 15.218409999999999,
            "longitude": 79.9083406
        }
    },
    {
        "name": "MASJID-E-AYESHA AHL-E-HADEES",
        "main_category": "Mosque",
        "address": "6W84+4WW MASJID-E-AYESHA AHL-E-HADEES, Sai Nagar, Kandukur, Andhra Pradesh 523105",
        "detailed_address": {
            "ward": "Sai Nagar",
            "street": "6W84+4WW",
            "city": "Kandukur",
            "postal_code": "523105",
            "state": "Andhra Pradesh",
            "country_code": "IN"
        },
        "images": [
            {
                "about": "All",
                "link": "https://lh5.googleusercontent.com/p/AF1QipOgRP7XnRL4ly9b28Ltp95d-_y8m_E7Kha-uHZW=w395-h298-k-no"
            },
            {
                "about": "Videos",
                "link": "https://lh5.googleusercontent.com/p/AF1QipPcQEwv4TLyOMfiq7gZ4Y92MKxXjq9yo0Nb8D_Z=w529-h298-k-no"
            }
        ],
        "link": "https://www.google.com/maps/place/MASJID-E-AYESHA+AHL-E-HADEES/data=!4m7!3m6!1s0x3a4b13af863f0b4f:0xcef0ce2fb06b2dd7!8m2!3d15.2153681!4d79.9073202!16s%2Fg%2F11jt52nfp5!19sChIJTws_hq8TSzoR1y1rsC_O8M4?authuser=0&hl=en&rclk=1",
        "coordinates": {
            "latitude": 15.2153681,
            "longitude": 79.9073202
        }
    },
    {
        "name": "Masjid(Mohammadia)",
        "main_category": "Mosque",
        "address": "3F7Q+WMQ Masjid(Mohammadia), Venkat Narayana Bazar, Kandukur, Telangana 501359",
        "detailed_address": {
            "ward": "Venkat Narayana Bazar",
            "street": "3F7Q+WMQ",
            "city": "Kandukur",
            "postal_code": "501359",
            "state": "Telangana",
            "country_code": "IN"
        },
        "images": [
            {
                "about": "All",
                "link": "https://lh5.googleusercontent.com/p/AF1QipOHMMYWrGRQRpr-pr0XTYxPYnHkqzpObs3GSH5i=w224-h298-k-no"
            },
            {
                "about": "Street View & 360deg",
                "link": "https://streetviewpixels-pa.googleapis.com/v1/thumbnail?panoid=yvSX4PtcLrLFPsNMkKMhOw&cb_client=maps_sv.tactile.gps&w=224&h=298&yaw=322.7368&pitch=0&thumbfov=100"
            }
        ],
        "link": "https://www.google.com/maps/place/Masjid%28Mohammadia%29/data=!4m7!3m6!1s0x3bcbaf5daf65f801:0xe114f490279354ce!8m2!3d17.06484!4d78.4892222!16s%2Fg%2F11h5dmc244!19sChIJAfhlr12vyzsRzlSTJ5D0FOE?authuser=0&hl=en&rclk=1",
        "coordinates": {
            "latitude": 17.06484,
            "longitude": 78.4892222
        }
    },
    {
        "name": "Masjid Kandukur",
        "main_category": "Religious destination",
        "address": "3F7Q+WMP Masjid Kandukur, Venkat Narayana Bazar, Kandukur, Telangana 501359",
        "detailed_address": {
            "ward": "Venkat Narayana Bazar",
            "street": "3F7Q+WMP",
            "city": "Kandukur",
            "postal_code": "501359",
            "state": "Telangana",
            "country_code": "IN"
        },
        "images": [
            {
                "about": "All",
                "link": "https://streetviewpixels-pa.googleapis.com/v1/thumbnail?panoid=fq80WaxzQ4MzCHaD-LSz7g&cb_client=maps_sv.tactile.gps&w=224&h=298&yaw=30.979675&pitch=0&thumbfov=100"
            },
            {
                "about": "Street View & 360deg",
                "link": "https://streetviewpixels-pa.googleapis.com/v1/thumbnail?panoid=fq80WaxzQ4MzCHaD-LSz7g&cb_client=maps_sv.tactile.gps&w=224&h=298&yaw=30.979675&pitch=0&thumbfov=100"
            }
        ],
        "link": "https://www.google.com/maps/place/Masjid+Kandukur/data=!4m7!3m6!1s0x3bcbaf0bd4fc32fb:0xb8fe0278e022268a!8m2!3d17.0648396!4d78.4892115!16s%2Fg%2F11fww00382!19sChIJ-zL81AuvyzsRiiYi4HgC_rg?authuser=0&hl=en&rclk=1",
        "coordinates": {
            "latitude": 17.0648396,
            "longitude": 78.4892115
        }
    },
    {
        "name": "SHER-E-AHMED KHAN (BADI) MASJID shyr Hmd khn (bdy) msjd",
        "main_category": "Mosque",
        "address": "SHER-E-AHMED KHAN (BADI) MASJID shyr Hmd khn (bdy) msjd, Siva Temple, DV Nagar, Kandukur, Andhra Pradesh 523105",
        "detailed_address": {
            "ward": "DV Nagar",
            "street": "Siva Temple",
            "city": "Kandukur",
            "postal_code": "523105",
            "state": "Andhra Pradesh",
            "country_code": "IN"
        },
        "images": [],
        "link": "https://www.google.com/maps/place/SHER-E-AHMED+KHAN+%28BADI%29+MASJID+%D8%B4%DB%8C%D8%B1+%D8%A7%D8%AD%D9%85%D8%AF+%D8%AE%D8%A7%D9%86+%28%D8%A8%D8%AF%DB%8C%29+%D9%85%D8%B3%D8%AC%D8%AF%E2%80%AD/data=!4m7!3m6!1s0x3a4b131633016155:0x2042c07045ffe439!8m2!3d15.2111347!4d79.9062879!16s%2Fg%2F11rwqwpkj1!19sChIJVWEBMxYTSzoROeT_RXDAQiA?authuser=0&hl=en&rclk=1",
        "coordinates": {
            "latitude": 15.211134699999999,
            "longitude": 79.9062879
        }
    }
]