[
    {
        "name": "Jamiya Masjid (Markaz)",
        "main_category": "Mosque",
        "address": "CP6G+X7G Jamiya Masjid (Markaz), Car St, Akkpedianera, Dharmavaram, Andhra Pradesh 515671",
        "detailed_address": {
            "ward": "Akkpedianera",
            "street": "CP6G+X7G, Car St",
            "city": "Dharmavaram",
            "postal_code": "515671",
            "state": "Andhra Pradesh",
            "country_code": "IN"
        },
        "images": [
            {
                "about": "All",
                "link": "https://lh5.googleusercontent.com/p/AF1QipPcmuvsToSniSRkeQKHnfh6cr8LCbtlq4YFnWq6=w293-h298-k-no"
            },
            {
                "about": "Dome",
                "link": "https://lh5.googleusercontent.com/p/AF1QipMRgv5Q-12B2Kx5qdUKFh1OQtBNuD_mWXiZ7z6i=w397-h298-k-no"
            },
            {
                "about": "Street View & 360deg",
                "link": "https://streetviewpixels-pa.googleapis.com/v1/thumbnail?panoid=s8mXgYHlnSUCpu52-q798g&cb_client=maps_sv.tactile.gps&w=224&h=298&yaw=101.63638&pitch=0&thumbfov=100"
            }
        ],
        "link": "https://www.google.com/maps/place/Jamiya+Masjid+%28Markaz%29/data=!4m7!3m6!1s0x3bb14343d1ee4051:0xc1b61961a6854a98!8m2!3d14.4124311!4d77.7256886!16s%2Fg%2F11b6t0lrvx!19sChIJUUDu0UNDsTsRmEqFpmEZtsE?authuser=0&hl=en&rclk=1",
        "coordinates": {
            "latitude": 14.4124311,
            "longitude": 77.7256886
        }
    },
    {
        "name": "Masjid-E-Madeena msjd",
        "main_category": "Mosque",
        "address": "CP79+FM4 Masjid-E-Madeena msjd, Indiranagar, Dharmavaram, Andhra Pradesh 515671",
        "detailed_address": {
            "ward": "Indiranagar",
            "street": "CP79+FM4",
            "city": "Dharmavaram",
            "postal_code": "515671",
            "state": "Andhra Pradesh",
            "country_code": "IN"
        },
        "images": [
            {
                "about": "All",
                "link": "https://lh5.googleusercontent.com/p/AF1QipPZ-xfkcJ3J9B1t4TmfykCWIZ4h24Lw5Q5d236X=w224-h298-k-no"
            },
            {
                "about": "Videos",
                "link": "https://lh5.googleusercontent.com/p/AF1QipMETorIV-1PIt9jjbKagQcd8eVGt-cXYe0TpX9x=w224-h398-k-no"
            }
        ],
        "link": "https://www.google.com/maps/place/Masjid-E-Madeena+%D9%85%D8%B3%D8%AC%D8%AF%E2%80%AD/data=!4m7!3m6!1s0x3bb1436908e9040f:0x71e68f08296d8280!8m2!3d14.4136388!4d77.7191989!16s%2Fg%2F11gdst3bsl!19sChIJDwTpCGlDsTsRgIJtKQiP5nE?authuser=0&hl=en&rclk=1",
        "coordinates": {
            "latitude": 14.4136388,
            "longitude": 77.7191989
        }
    },
    {
        "name": "Masjid e Kousar",
        "main_category": "Mosque",
        "address": "CP87+M4W Masjid e Kousar, Lakshmi Nagar, Dharmavaram, Andhra Pradesh 515671",
        "detailed_address": {
            "ward": "Lakshmi Nagar",
            "street": "CP87+M4W",
            "city": "Dharmavaram",
            "postal_code": "515671",
            "state": "Andhra Pradesh",
            "country_code": "IN"
        },
        "images": [
            {
                "about": "All",
                "link": "https://lh5.googleusercontent.com/p/AF1QipOnLpLJquLlkFxzGR86LkxPah-IjZ5ZjAOJuQJO=w513-h298-k-no"
            },
            {
                "about": "Street View & 360deg",
                "link": "https://streetviewpixels-pa.googleapis.com/v1/thumbnail?panoid=BP-dzZQdeispEibBwsugvA&cb_client=maps_sv.tactile.gps&w=224&h=298&yaw=36.808697&pitch=0&thumbfov=100"
            },
            {
                "about": "Videos",
                "link": "https://lh5.googleusercontent.com/p/AF1QipNVfsTst3pUO1Vtycaz1FXS-Vp6oGA4Zz_sI1Mx=w224-h398-k-no"
            }
        ],
        "link": "https://www.google.com/maps/place/Masjid+e+Kousar/data=!4m7!3m6!1s0x3bb1436f891f7223:0xf2dc04694a104659!8m2!3d14.4167344!4d77.7128226!16s%2Fg%2F11c5b1qfk9!19sChIJI3IfiW9DsTsRWUYQSmkE3PI?authuser=0&hl=en&rclk=1",
        "coordinates": {
            "latitude": 14.4167344,
            "longitude": 77.7128226
        }
    },
    {
        "name": "Noorani Masjid",
        "main_category": "Mosque",
        "address": "CP66+JRF Noorani Masjid, Parthasaradhi Nagar, Dharmavaram, Andhra Pradesh 515671",
        "detailed_address": {
            "ward": "Parthasaradhi Nagar",
            "street": "CP66+JRF",
            "city": "Dharmavaram",
            "postal_code": "515671",
            "state": "Andhra Pradesh",
            "country_code": "IN"
        },
        "images": [
            {
                "about": "All",
                "link": "https://lh5.googleusercontent.com/p/AF1QipONQa-nbeqATBYpso1L9EFs_t7gVrrycykFmtA4=w224-h398-k-no"
            },
            {
                "about": "Videos",
                "link": "https://lh5.googleusercontent.com/p/AF1QipPdGtLXPIijXAQ8DG3FfTgtp-4USN4CLisSN_WS=w224-h398-k-no"
            }
        ],
        "link": "https://www.google.com/maps/place/Noorani+Masjid/data=!4m7!3m6!1s0x3bb1436e0b8e916d:0x61aa97ede71486d4!8m2!3d14.411569!4d77.7120575!16s%2Fg%2F11ddxr3jgj!19sChIJbZGOC25DsTsR1IYU5-2XqmE?authuser=0&hl=en&rclk=1",
        "coordinates": {
            "latitude": 14.411569,
            "longitude": 77.7120575
        }
    },
    {
        "name": "Bilal Masjid",
        "main_category": "Mosque",
        "address": "CP75+64F Bilal Masjid, Durganagar, Regatipalle, Dharmavaram, Andhra Pradesh 515671",
        "detailed_address": {
            "ward": "Durganagar, Regatipalle",
            "street": "CP75+64F",
            "city": "Dharmavaram",
            "postal_code": "515671",
            "state": "Andhra Pradesh",
            "country_code": "IN"
        },
        "images": [
            {
                "about": "All",
                "link": "https://lh5.googleusercontent.com/p/AF1QipPFao0UiR2fCuWpxic3hfoDOqEndyvBGaAEsKU4=w662-h298-k-no"
            }
        ],
        "link": "https://www.google.com/maps/place/Bilal+Masjid/data=!4m7!3m6!1s0x3bb1437108f2924f:0x80b4e6703592ef90!8m2!3d14.4130638!4d77.7077875!16s%2Fg%2F11c2nk_rtz!19sChIJT5LyCHFDsTsRkO-SNXDmtIA?authuser=0&hl=en&rclk=1",
        "coordinates": {
            "latitude": 14.4130638,
            "longitude": 77.7077875
        }
    },
    {
        "name": "Masjid E Abraar qila",
        "main_category": "Mosque",
        "address": "CP5C+JPF Masjid E Abraar qila, Fort, Dharmavaram, Andhra Pradesh 515671",
        "detailed_address": {
            "ward": "Fort",
            "street": "CP5C+JPF",
            "city": "Dharmavaram",
            "postal_code": "515671",
            "state": "Andhra Pradesh",
            "country_code": "IN"
        },
        "images": [
            {
                "about": "All",
                "link": "https://lh5.googleusercontent.com/p/AF1QipO6iBJ-ItQjoWOrUrQZsggTWdKVO4-FhdO-vCBe=w395-h298-k-no"
            },
            {
                "about": "Videos",
                "link": "https://lh5.googleusercontent.com/p/AF1QipPVEWX-4eoEquVNKv0LulMISP2QnkMl1dUhcX2K=w224-h398-k-no"
            }
        ],
        "link": "https://www.google.com/maps/place/Masjid+E+Abraar+qila/data=!4m7!3m6!1s0x3bb1436a7dac601b:0x92124a823d969ae9!8m2!3d14.4090625!4d77.7218074!16s%2Fg%2F11ckkx1797!19sChIJG2CsfWpDsTsR6ZqWPYJKEpI?authuser=0&hl=en&rclk=1",
        "coordinates": {
            "latitude": 14.4090625,
            "longitude": 77.7218074
        }
    },
    {
        "name": "Masjid E Firdouse",
        "main_category": "Mosque",
        "address": "CP89+H76 Masjid E Firdouse, Indiranagar, Dharmavaram, Andhra Pradesh 515671",
        "detailed_address": {
            "ward": "Indiranagar",
            "street": "CP89+H76",
            "city": "Dharmavaram",
            "postal_code": "515671",
            "state": "Andhra Pradesh",
            "country_code": "IN"
        },
        "images": [
            {
                "about": "All",
                "link": "https://lh5.googleusercontent.com/p/AF1QipNl0XWO0dlsJ3k1D8lZqKX4HrqHPMA8m845wRB4=w529-h298-k-no"
            },
            {
                "about": "Street View & 360deg",
                "link": "https://streetviewpixels-pa.googleapis.com/v1/thumbnail?panoid=3SISKswQQ0SOrgbv7qan-g&cb_client=maps_sv.tactile.gps&w=224&h=298&yaw=181.38832&pitch=0&thumbfov=100"
            },
            {
                "about": "Videos",
                "link": "https://lh5.googleusercontent.com/p/AF1QipMa-HGMJJe9axUbHMi2Uh15d1e0mHk7c7BR3l8N=w224-h398-k-no"
            }
        ],
        "link": "https://www.google.com/maps/place/Masjid+E+Firdouse/data=!4m7!3m6!1s0x3bb1436897b11a4b:0xe58707cdb238a710!8m2!3d14.4164156!4d77.7181427!16s%2Fg%2F11gfjvpbmt!19sChIJSxqxl2hDsTsREKc4ss0Hh-U?authuser=0&hl=en&rclk=1",
        "coordinates": {
            "latitude": 14.416415599999999,
            "longitude": 77.7181427
        }
    },
    {
        "name": "Masjid e Abdul Razzaq",
        "main_category": "Mosque",
        "address": "9PX4+CX7 Masjid e Abdul Razzaq, Parthasaradhi Nagar, Dharmavaram, Regatipalli, Andhra Pradesh 515671",
        "detailed_address": {
            "ward": "Parthasaradhi Nagar",
            "street": "9PX4+CX7",
            "city": "Dharmavaram, Regatipalli",
            "postal_code": "515671",
            "state": "Andhra Pradesh",
            "country_code": "IN"
        },
        "images": [
            {
                "about": "All",
                "link": "https://lh5.googleusercontent.com/p/AF1QipO_pq10ZMuugIDOs8IHdkLJELBXXFn_sNilY4w=w396-h298-k-no"
            },
            {
                "about": "Dome",
                "link": "https://lh5.googleusercontent.com/p/AF1QipNbjPvFheQtE_BqcrAqNAeEOnAa6rFrCzR47DPl=w224-h298-k-no"
            },
            {
                "about": "Street View & 360deg",
                "link": "https://streetviewpixels-pa.googleapis.com/v1/thumbnail?panoid=1NFeq1I-JPOhNFwke1ax7Q&cb_client=maps_sv.tactile.gps&w=224&h=298&yaw=159.9215&pitch=0&thumbfov=100"
            }
        ],
        "link": "https://www.google.com/maps/place/Masjid+e+Abdul+Razzaq/data=!4m7!3m6!1s0x3bb1430e8f393db7:0xa4f6896fe60f3660!8m2!3d14.3985381!4d77.7074207!16s%2Fg%2F11cjnnyr8z!19sChIJtz05jw5DsTsRYDYP5m-J9qQ?authuser=0&hl=en&rclk=1",
        "coordinates": {
            "latitude": 14.3985381,
            "longitude": 77.7074207
        }
    },
    {
        "name": "Masjid- E -Ayesha. Masjid",
        "main_category": "Mosque",
        "address": "CPHF+R3X Masjid- E -Ayesha. Masjid, Shanthi Nagar, Dharmavaram, near Ganga Temple, Anantapur, Andhra Pradesh 515671",
        "detailed_address": {
            "ward": "Shanthi Nagar",
            "street": "CPHF+R3X, Shanthi Nagar, Dharmavaram, near Ganga Temple",
            "city": "Anantapur, Dharmavaram",
            "postal_code": "515671",
            "state": "Andhra Pradesh",
            "country_code": "IN"
        },
        "images": [
            {
                "about": "All",
                "link": "https://lh5.googleusercontent.com/p/AF1QipPwkQWfiOomTSh54Nx7xd9UeEWtTa0f7tIW3lH5=w397-h298-k-no"
            }
        ],
        "link": "https://www.google.com/maps/place/Masjid-+E+-Ayesha.+Masjid/data=!4m7!3m6!1s0x3bb144a004bb9d25:0xf57134ce71bdc7d8!8m2!3d14.4296026!4d77.7227304!16s%2Fg%2F11f2xn35bw!19sChIJJZ27BKBEsTsR2Me9cc40cfU?authuser=0&hl=en&rclk=1",
        "coordinates": {
            "latitude": 14.429602599999999,
            "longitude": 77.7227304
        }
    },
    {
        "name": "Masjid E Kubra",
        "main_category": "Mosque",
        "address": "CPC7+VR7 Masjid E Kubra, Ramnagar, Kothapeta, Dharmavaram, Andhra Pradesh 515672",
        "detailed_address": {
            "ward": "Ramnagar, Kothapeta",
            "street": "CPC7+VR7",
            "city": "Dharmavaram",
            "postal_code": "515672",
            "state": "Andhra Pradesh",
            "country_code": "IN"
        },
        "images": [
            {
                "about": "All",
                "link": "https://lh5.googleusercontent.com/p/AF1QipPSA8mNxK22wXaNJWG6tOgmJGwiyhdwz5C5uENm=w529-h298-k-no"
            },
            {
                "about": "Latest",
                "link": "https://lh5.googleusercontent.com/p/AF1QipMQD2-SwJ2fWEz5khl-WStHsCAPz8gDwz498lzk=w397-h298-k-no"
            },
            {
                "about": "Videos",
                "link": "https://lh5.googleusercontent.com/p/AF1QipMxuj6xXTki-nBRu_ddF_ACdVxnE1GJL29wEI4H=w224-h398-k-no"
            },
            {
                "about": "Street View & 360deg",
                "link": "https://streetviewpixels-pa.googleapis.com/v1/thumbnail?panoid=0E_RewKR43-23kbd9VMYqA&cb_client=maps_sv.tactile.gps&w=224&h=298&yaw=187.78377&pitch=0&thumbfov=100"
            }
        ],
        "link": "https://www.google.com/maps/place/Masjid+E+Kubra/data=!4m7!3m6!1s0x3bb14364703e5f33:0xd9d2a2df52a2b96c!8m2!3d14.4221525!4d77.714555!16s%2Fg%2F11f3x9bz9_!19sChIJM18-cGRDsTsRbLmiUt-i0tk?authuser=0&hl=en&rclk=1",
        "coordinates": {
            "latitude": 14.4221525,
            "longitude": 77.71455499999999
        }
    },
    {
        "name": "Masjid E Nimra",
        "main_category": "Mosque",
        "address": "Masjid E Nimra, 12/74, Giriraj Colony, Regatipalle, Dharmavaram, Andhra Pradesh 515671",
        "detailed_address": {
            "ward": "Giriraj Colony, Regatipalle",
            "street": "12/74",
            "city": "Dharmavaram",
            "postal_code": "515671",
            "state": "Andhra Pradesh",
            "country_code": "IN"
        },
        "images": [
            {
                "about": "All",
                "link": "https://lh5.googleusercontent.com/p/AF1QipMAvaCREkTFYulmtdl7FmY7tpIbl4ILvGyGkdl_=w397-h298-k-no"
            }
        ],
        "link": "https://www.google.com/maps/place/Masjid+E+Nimra/data=!4m7!3m6!1s0x3bb143d2acf5e715:0xaf42ef1d134ae86f!8m2!3d14.4179402!4d77.703653!16s%2Fg%2F11spqz3wzp!19sChIJFef1rNJDsTsRb-hKEx3vQq8?authuser=0&hl=en&rclk=1",
        "coordinates": {
            "latitude": 14.417940199999999,
            "longitude": 77.703653
        }
    },
    {
        "name": "Masjid E Hamza",
        "main_category": "Mosque",
        "address": "CPG7+97M Masjid E Hamza, Dharmavaram Rd, Kothapeta, Dharmavaram, Andhra Pradesh 515672",
        "detailed_address": {
            "ward": "Kothapeta",
            "street": "CPG7+97M, Dharmavaram Rd",
            "city": "Dharmavaram",
            "postal_code": "515672",
            "state": "Andhra Pradesh",
            "country_code": "IN"
        },
        "images": [
            {
                "about": "All",
                "link": "https://streetviewpixels-pa.googleapis.com/v1/thumbnail?panoid=TyEAdYYXn_kRlgyfbsIjpg&cb_client=maps_sv.tactile.gps&w=224&h=298&yaw=256.44308&pitch=0&thumbfov=100"
            },
            {
                "about": "Street View & 360deg",
                "link": "https://streetviewpixels-pa.googleapis.com/v1/thumbnail?panoid=TyEAdYYXn_kRlgyfbsIjpg&cb_client=maps_sv.tactile.gps&w=224&h=298&yaw=256.44308&pitch=0&thumbfov=100"
            }
        ],
        "link": "https://www.google.com/maps/place/Masjid+E+Hamza/data=!4m7!3m6!1s0x3bb143e8cf177fd5:0x25cbc3e863a2b793!8m2!3d14.4259608!4d77.7131766!16s%2Fg%2F11g0ldnglt!19sChIJ1X8Xz-hDsTsRk7eiY-jDyyU?authuser=0&hl=en&rclk=1",
        "coordinates": {
            "latitude": 14.425960799999999,
            "longitude": 77.7131766
        }
    },
    {
        "name": "Masjid E Ismail (Markaz) Madarasa e Misbahul uloom",
        "main_category": "Mosque",
        "address": "Masjid E Ismail (Markaz) Madarasa e Misbahul uloom, MDR170, Akkpedianera, Dharmavaram, Andhra Pradesh 515671",
        "detailed_address": {
            "ward": "Akkpedianera",
            "street": "MDR170",
            "city": "Dharmavaram",
            "postal_code": "515671",
            "state": "Andhra Pradesh",
            "country_code": "IN"
        },
        "images": [
            {
                "about": "All",
                "link": "https://lh5.googleusercontent.com/p/AF1QipODkylab9mIbwMC43H_q5kZV2jDL7XqJf5I-Px-=w224-h298-k-no"
            },
            {
                "about": "Street View & 360deg",
                "link": "https://streetviewpixels-pa.googleapis.com/v1/thumbnail?panoid=iGeUVr5QPpXHrutOgnEmCQ&cb_client=maps_sv.tactile.gps&w=224&h=298&yaw=296.80725&pitch=0&thumbfov=100"
            }
        ],
        "link": "https://www.google.com/maps/place/Masjid+E+Ismail+%28Markaz%29+Madarasa+e+Misbahul+uloom/data=!4m7!3m6!1s0x3bb1437f8e567149:0x4b606ce967c2567b!8m2!3d14.4091553!4d77.7228655!16s%2Fg%2F11nn4l9b_l!19sChIJSXFWjn9DsTsRe1bCZ-lsYEs?authuser=0&hl=en&rclk=1",
        "coordinates": {
            "latitude": 14.4091553,
            "longitude": 77.7228655
        }
    },
    {
        "name": "Masjid-E-Ali",
        "main_category": "Mosque",
        "address": "CP44+GJW Masjid-E-Ali, Regadpalli, Dharmavaram, Andhra Pradesh 515671",
        "detailed_address": {
            "ward": "Regadpalli",
            "street": "CP44+GJW",
            "city": "Dharmavaram",
            "postal_code": "515671",
            "state": "Andhra Pradesh",
            "country_code": "IN"
        },
        "images": [
            {
                "about": "All",
                "link": "https://lh5.googleusercontent.com/p/AF1QipOJJ0eJ_xXE3YyMK69A-SPxlecTOxP-u9XCJsQt=w529-h298-k-no"
            }
        ],
        "link": "https://www.google.com/maps/place/Masjid-E-Ali/data=!4m7!3m6!1s0x3bb1434b9d5a9e59:0x8db4e5565270070!8m2!3d14.4063649!4d77.7065855!16s%2Fg%2F11sq1d7h8j!19sChIJWZ5anUtDsTsRcAAnZVVO2wg?authuser=0&hl=en&rclk=1",
        "coordinates": {
            "latitude": 14.4063649,
            "longitude": 77.7065855
        }
    },
    {
        "name": "Farookiya MASJID",
        "main_category": "Mosque",
        "address": "CMCV+VJ6 Farookiya MASJID, Pothukunta, Dharmavaram, Kunuthuru Rural, Andhra Pradesh 515672",
        "detailed_address": {
            "ward": "Pothukunta",
            "street": "CMCV+VJ6",
            "city": "Dharmavaram, Kunuthuru Rural",
            "postal_code": "515672",
            "state": "Andhra Pradesh",
            "country_code": "IN"
        },
        "images": [
            {
                "about": "All",
                "link": "https://lh5.googleusercontent.com/p/AF1QipNeqh67f933M93zWjCvJp7SdI-WAohalrGjen8J=w224-h298-k-no"
            },
            {
                "about": "Dome",
                "link": "https://lh5.googleusercontent.com/p/AF1QipNyfrLyYcTD2J6O-3D_oGuneApngWEHN9DdEiVL=w224-h298-k-no"
            }
        ],
        "link": "https://www.google.com/maps/place/Farookiya+MASJID/data=!4m7!3m6!1s0x3bb1438153e86fd1:0x9983558284d2d203!8m2!3d14.422164!4d77.694005!16s%2Fg%2F11f317fncb!19sChIJ0W_oU4FDsTsRA9LShIJVg5k?authuser=0&hl=en&rclk=1",
        "coordinates": {
            "latitude": 14.422163999999999,
            "longitude": 77.69400499999999
        }
    },
    {
        "name": "Makkah Masjid",
        "main_category": "Mosque",
        "address": "CPH5+6C8 Makkah Masjid, Tarakaramapuram, Dharmavaram, Andhra Pradesh 515672",
        "detailed_address": {
            "ward": "Tarakaramapuram",
            "street": "CPH5+6C8",
            "city": "Dharmavaram",
            "postal_code": "515672",
            "state": "Andhra Pradesh",
            "country_code": "IN"
        },
        "images": [
            {
                "about": "All",
                "link": "https://streetviewpixels-pa.googleapis.com/v1/thumbnail?panoid=FVo1krEecNq6LyY8bKnCKg&cb_client=maps_sv.tactile.gps&w=224&h=298&yaw=116.18404&pitch=0&thumbfov=100"
            },
            {
                "about": "Street View & 360deg",
                "link": "https://streetviewpixels-pa.googleapis.com/v1/thumbnail?panoid=FVo1krEecNq6LyY8bKnCKg&cb_client=maps_sv.tactile.gps&w=224&h=298&yaw=116.18404&pitch=0&thumbfov=100"
            }
        ],
        "link": "https://www.google.com/maps/place/Makkah+Masjid/data=!4m7!3m6!1s0x3bb143d26cd498fb:0xf612314ad1c9aaa7!8m2!3d14.428048!4d77.7085683!16s%2Fg%2F11rhqt93kd!19sChIJ-5jUbNJDsTsRp6rJ0UoxEvY?authuser=0&hl=en&rclk=1",
        "coordinates": {
            "latitude": 14.428047999999999,
            "longitude": 77.7085683
        }
    },
    {
        "name": "Masjid E Chaandni",
        "main_category": "Mosque",
        "address": "CPGG+MX5 Masjid E Chaandni, Shanthi Nagar, Dharmavaram, Andhra Pradesh 515672",
        "detailed_address": {
            "ward": "Shanthi Nagar",
            "street": "CPGG+MX5",
            "city": "Dharmavaram",
            "postal_code": "515672",
            "state": "Andhra Pradesh",
            "country_code": "IN"
        },
        "images": [
            {
                "about": "All",
                "link": "https://lh5.googleusercontent.com/p/AF1QipOg4QtwZRPiewCaHsQKvQkaiVWD4nhIdjysqlsc=w645-h298-k-no"
            }
        ],
        "link": "https://www.google.com/maps/place/Masjid+E+Chaandni/data=!4m7!3m6!1s0x3bb1432b199d3f3d:0x6e8f40e55670861f!8m2!3d14.4266264!4d77.727498!16s%2Fg%2F11ptv7dvh0!19sChIJPT-dGStDsTsRH4ZwVuVAj24?authuser=0&hl=en&rclk=1",
        "coordinates": {
            "latitude": 14.4266264,
            "longitude": 77.727498
        }
    },
    {
        "name": "Masjid-E-Ansar",
        "main_category": "Mosque",
        "address": "CPJ7+M8W Masjid-E-Ansar, Guttakindapalli, Dharmavaram, Andhra Pradesh 515672",
        "detailed_address": {
            "ward": "Guttakindapalli",
            "street": "CPJ7+M8W",
            "city": "Dharmavaram",
            "postal_code": "515672",
            "state": "Andhra Pradesh",
            "country_code": "IN"
        },
        "images": [],
        "link": "https://www.google.com/maps/place/Masjid-E-Ansar/data=!4m7!3m6!1s0x3bb14511a2851d7f:0xafb5d6b0f0a1cf39!8m2!3d14.4317482!4d77.7133216!16s%2Fg%2F11rr4rty97!19sChIJfx2FohFFsTsROc-h8LDWta8?authuser=0&hl=en&rclk=1",
        "coordinates": {
            "latitude": 14.4317482,
            "longitude": 77.7133216
        }
    },
    {
        "name": "Masjid",
        "main_category": "Mosque",
        "address": "CPC8+9CP Masjid, Lakshmi Nagar, Dharmavaram, Andhra Pradesh 515671",
        "detailed_address": {
            "ward": "Lakshmi Nagar",
            "street": "CPC8+9CP",
            "city": "Dharmavaram",
            "postal_code": "515671",
            "state": "Andhra Pradesh",
            "country_code": "IN"
        },
        "images": [
            {
                "about": "All",
                "link": "https://streetviewpixels-pa.googleapis.com/v1/thumbnail?panoid=uCrxf9i6UEuF6vnq5Q2UdQ&cb_client=maps_sv.tactile.gps&w=224&h=298&yaw=257.11377&pitch=0&thumbfov=100"
            },
            {
                "about": "Street View & 360deg",
                "link": "https://streetviewpixels-pa.googleapis.com/v1/thumbnail?panoid=uCrxf9i6UEuF6vnq5Q2UdQ&cb_client=maps_sv.tactile.gps&w=224&h=298&yaw=257.11377&pitch=0&thumbfov=100"
            }
        ],
        "link": "https://www.google.com/maps/place/Masjid/data=!4m7!3m6!1s0x3bb14303d0d7f281:0x30d03687255181b2!8m2!3d14.4206907!4d77.7161923!16s%2Fg%2F11s6l03r9j!19sChIJgfLX0ANDsTsRsoFRJYc20DA?authuser=0&hl=en&rclk=1",
        "coordinates": {
            "latitude": 14.4206907,
            "longitude": 77.7161923
        }
    },
    {
        "name": "Mosque",
        "main_category": "Mosque",
        "address": "CP79+FRF Mosque, Indiranagar, Dharmavaram, Andhra Pradesh 515671",
        "detailed_address": {
            "ward": "Indiranagar",
            "street": "CP79+FRF",
            "city": "Dharmavaram",
            "postal_code": "515671",
            "state": "Andhra Pradesh",
            "country_code": "IN"
        },
        "images": [],
        "link": "https://www.google.com/maps/place/Mosque/data=!4m7!3m6!1s0x3bb14369a7bfffff:0xb08ed0252a8aaf9c!8m2!3d14.4136888!4d77.7195439!16s%2Fg%2F11sscscqgv!19sChIJ__-_p2lDsTsRnK-KKiXQjrA?authuser=0&hl=en&rclk=1",
        "coordinates": {
            "latitude": 14.4136888,
            "longitude": 77.71954389999999
        }
    }
]