[
    {
        "name": "Masjid-E-bilaal",
        "main_category": "Mosque",
        "address": "9PX4+6FM Masjid-E-bilaal, Emmiganur, Karnataka 583113",
        "detailed_address": {
            "ward": null,
            "street": "9PX4+6FM",
            "city": "Emmiganur",
            "postal_code": "583113",
            "state": "Karnataka",
            "country_code": "IN"
        },
        "images": [
            {
                "about": "All",
                "link": "https://lh5.googleusercontent.com/p/AF1QipPGMKMF7egsCQq01RvK4joDTvVNizr4fq-cJBdT=w224-h358-k-no"
            },
            {
                "about": "Dome",
                "link": "https://lh5.googleusercontent.com/p/AF1QipPGMKMF7egsCQq01RvK4joDTvVNizr4fq-cJBdT=w224-h358-k-no"
            }
        ],
        "link": "https://www.google.com/maps/place/Masjid-E-bilaal/data=!4m7!3m6!1s0x3bb79d9415555555:0x7676721718fc75bd!8m2!3d15.3980872!4d76.7061872!16s%2Fg%2F11c5_nx1f4!19sChIJVVVVFZSdtzsRvXX8GBdydnY?authuser=0&hl=en&rclk=1",
        "coordinates": {
            "latitude": 15.398087199999999,
            "longitude": 76.7061872
        }
    },
    {
        "name": "Mazid",
        "main_category": "Mosque",
        "address": "CP24+6R3 Mazid, Emmiganur, Karnataka 583113",
        "detailed_address": {
            "ward": null,
            "street": "CP24+6R3",
            "city": "Emmiganur",
            "postal_code": "583113",
            "state": "Karnataka",
            "country_code": "IN"
        },
        "images": [
            {
                "about": "All",
                "link": "https://streetviewpixels-pa.googleapis.com/v1/thumbnail?panoid=VlMsuD3UthpxhPGiIbh6Ew&cb_client=maps_sv.tactile.gps&w=224&h=298&yaw=69.82876&pitch=0&thumbfov=100"
            },
            {
                "about": "Street View & 360deg",
                "link": "https://streetviewpixels-pa.googleapis.com/v1/thumbnail?panoid=VlMsuD3UthpxhPGiIbh6Ew&cb_client=maps_sv.tactile.gps&w=224&h=298&yaw=69.82876&pitch=0&thumbfov=100"
            },
            {
                "about": "Videos",
                "link": "https://lh5.googleusercontent.com/p/AF1QipM-F830dQJbgnWtLGPNRZ2qufqmP0ag1JdHAAZV=w224-h398-k-no"
            }
        ],
        "link": "https://www.google.com/maps/place/Mazid/data=!4m7!3m6!1s0x3bb79ddb90d6b553:0xf38fadfe95cc6b67!8m2!3d15.4005208!4d76.7070452!16s%2Fg%2F11flhkvqj5!19sChIJU7XWkNudtzsRZ2vMlf6tj_M?authuser=0&hl=en&rclk=1",
        "coordinates": {
            "latitude": 15.400520799999999,
            "longitude": 76.7070452
        }
    },
    {
        "name": "Masjid E Fathima",
        "main_category": "Mosque",
        "address": "9M5F+GFC Masjid E Fathima, Unnamed Road, Chikkajaganur, Karnataka 583129",
        "detailed_address": {
            "ward": null,
            "street": "9M5F+GFC, Unnamed Road",
            "city": "Chikkajaganur",
            "postal_code": "583129",
            "state": "Karnataka",
            "country_code": "IN"
        },
        "images": [
            {
                "about": "All",
                "link": "https://lh5.googleusercontent.com/p/AF1QipOJYCk7JdKCI0i3StFt_LAjjEv6DtwJl_QXJ-Xo=w224-h397-k-no"
            }
        ],
        "link": "https://www.google.com/maps/place/Masjid+E+Fathima/data=!4m7!3m6!1s0x3bb777a47a53d57d:0xdc7fc45e65041ca8!8m2!3d15.3587755!4d76.6736655!16s%2Fg%2F11vdmcw7fy!19sChIJfdVTeqR3tzsRqBwEZV7Ef9w?authuser=0&hl=en&rclk=1",
        "coordinates": {
            "latitude": 15.3587755,
            "longitude": 76.6736655
        }
    }
]