[
    {
        "name": "Chandwari muhalla , 04,masjid",
        "main_category": "Mosque",
        "address": "9WR7+556 Chandwari muhalla , 04,masjid, Railway Colony, Mokama, Mokameh Khas, Bihar 803302",
        "detailed_address": {
            "ward": "Railway Colony, Mokama",
            "street": "9WR7+556",
            "city": "Mokameh Khas",
            "postal_code": "803302",
            "state": "Bihar",
            "country_code": "IN"
        },
        "images": [
            {
                "about": "All",
                "link": "https://lh5.googleusercontent.com/p/AF1QipP50_FQRjvMICRrhHo9-P49xiCDHLD4o0WZu79K=w224-h398-k-no"
            }
        ],
        "link": "https://www.google.com/maps/place/Chandwari+muhalla+,+04,masjid/data=!4m7!3m6!1s0x39f26d60725b2151:0x66795aaeeff9804d!8m2!3d25.3904127!4d85.9128908!16s%2Fg%2F11sss64b6y!19sChIJUSFbcmBt8jkRTYD5765aeWY?authuser=0&hl=en&rclk=1",
        "coordinates": {
            "latitude": 25.3904127,
            "longitude": 85.9128908
        }
    },
    {
        "name": "Gandhi Masjid",
        "main_category": "Mosque",
        "address": "9WWC+8HH Gandhi Masjid, Mokama, Mokameh Khas, Jazira Mokama, Bihar 803302",
        "detailed_address": {
            "ward": "Mokama",
            "street": "9WWC+8HH",
            "city": "Mokameh Khas, Jazira Mokama",
            "postal_code": "803302",
            "state": "Bihar",
            "country_code": "IN"
        },
        "images": [],
        "link": "https://www.google.com/maps/place/Gandhi+Masjid/data=!4m7!3m6!1s0x39f26d06fbf8a4f1:0x20a57b53e08cb1a7!8m2!3d25.3958182!4d85.9214856!16s%2Fg%2F11hzd0865w!19sChIJ8aT4-wZt8jkRp7GM4FN7pSA?authuser=0&hl=en&rclk=1",
        "coordinates": {
            "latitude": 25.395818199999997,
            "longitude": 85.9214856
        }
    },
    {
        "name": "Al Hadaya Masjid",
        "main_category": "Mosque",
        "address": "Al Hadaya Masjid, Farsi mohalla ward no 6, Mokama, Mokameh Khas, Bihar 803302",
        "detailed_address": {
            "ward": "Gurudev Tola, Mokama",
            "street": "Farsi mohalla ward no 6",
            "city": "Mokameh Khas",
            "postal_code": "803302",
            "state": "Bihar",
            "country_code": "IN"
        },
        "images": [
            {
                "about": "All",
                "link": "https://lh5.googleusercontent.com/p/AF1QipMvuSv_ITAKzRckfdSeixmBbi7G4UMGrax0vCA-=w224-h298-k-no"
            },
            {
                "about": "Dome",
                "link": "https://lh5.googleusercontent.com/p/AF1QipMvuSv_ITAKzRckfdSeixmBbi7G4UMGrax0vCA-=w224-h298-k-no"
            },
            {
                "about": "Street View & 360deg",
                "link": "https://streetviewpixels-pa.googleapis.com/v1/thumbnail?panoid=5qM1TuTup7O4R9uW2pxXww&cb_client=maps_sv.tactile.gps&w=224&h=298&yaw=21.944923&pitch=0&thumbfov=100"
            }
        ],
        "link": "https://www.google.com/maps/place/Al+Hadaya+Masjid/data=!4m7!3m6!1s0x39f26d3bf44d4d57:0x6622e0fdf8696b12!8m2!3d25.3927779!4d85.9147445!16s%2Fg%2F11s5m0f9yv!19sChIJV01N9Dtt8jkREmtp-P3gImY?authuser=0&hl=en&rclk=1",
        "coordinates": {
            "latitude": 25.3927779,
            "longitude": 85.9147445
        }
    },
    {
        "name": "Mokama ghat masjid",
        "main_category": "Mosque",
        "address": "9WRX+FG9 Mokama ghat masjid, Sisouni - Mokamaghat Ln, Mokama Ghat, Dhourani Tola, Panchmahla, Jazira Mokama, Bihar 803303",
        "detailed_address": {
            "ward": "Mokama Ghat, Dhourani Tola",
            "street": "9WRX+FG9, Sisouni - Mokamaghat Ln",
            "city": "Panchmahla, Jazira Mokama",
            "postal_code": "803303",
            "state": "Bihar",
            "country_code": "IN"
        },
        "images": [
            {
                "about": "All",
                "link": "https://lh5.googleusercontent.com/p/AF1QipNga079C_mvRXYAeFuzGA6KffqJMH-HPWpwa1jp=w662-h298-k-no"
            }
        ],
        "link": "https://www.google.com/maps/place/Mokama+ghat+masjid/data=!4m7!3m6!1s0x39f213757dec3ac1:0xe0ca4408762641ff!8m2!3d25.391211!4d85.948924!16s%2Fg%2F11ks5l7q5b!19sChIJwTrsfXUT8jkR_0EmdghEyuA?authuser=0&hl=en&rclk=1",
        "coordinates": {
            "latitude": 25.391211,
            "longitude": 85.94892399999999
        }
    },
    {
        "name": "Masjid Chintamani chak",
        "main_category": "Mosque",
        "address": "9WXJ+4R4 Masjid Chintamani chak, Dhaurani Tola Rd, Chinta Mani Chak, Bihar 803302",
        "detailed_address": {
            "ward": null,
            "street": "9WXJ+4R4, Dhaurani Tola Rd",
            "city": "Chinta Mani Chak",
            "postal_code": "803302",
            "state": "Bihar",
            "country_code": "IN"
        },
        "images": [],
        "link": "https://www.google.com/maps/place/Masjid+Chintamani+chak/data=!4m7!3m6!1s0x39f213f36c87d86f:0xa1df96befeb17347!8m2!3d25.3977582!4d85.9320638!16s%2Fg%2F11rgdcj300!19sChIJb9iHbPMT8jkRR3Ox_r6W36E?authuser=0&hl=en&rclk=1",
        "coordinates": {
            "latitude": 25.3977582,
            "longitude": 85.9320638
        }
    },
    {
        "name": "Mosque",
        "main_category": "Mosque",
        "address": "CW28+GFM Mosque, Moldiyar Tola Rd, Mokama, Mokameh Khas, Jazira Mokama, Bihar 803302",
        "detailed_address": {
            "ward": "Mokama",
            "street": "CW28+GFM, Moldiyar Tola Rd",
            "city": "Mokameh Khas, Jazira Mokama",
            "postal_code": "803302",
            "state": "Bihar",
            "country_code": "IN"
        },
        "images": [
            {
                "about": "All",
                "link": "https://streetviewpixels-pa.googleapis.com/v1/thumbnail?panoid=UG7CqtxK-8heMrG_yzHMrQ&cb_client=maps_sv.tactile.gps&w=224&h=298&yaw=282.65924&pitch=0&thumbfov=100"
            },
            {
                "about": "Street View & 360deg",
                "link": "https://streetviewpixels-pa.googleapis.com/v1/thumbnail?panoid=UG7CqtxK-8heMrG_yzHMrQ&cb_client=maps_sv.tactile.gps&w=224&h=298&yaw=282.65924&pitch=0&thumbfov=100"
            }
        ],
        "link": "https://www.google.com/maps/place/Mosque/data=!4m7!3m6!1s0x39f26d5d211d62fd:0xd59107644c33a35c!8m2!3d25.4013441!4d85.916184!16s%2Fg%2F11td5j_zgg!19sChIJ_WIdIV1t8jkRXKMzTGQHkdU?authuser=0&hl=en&rclk=1",
        "coordinates": {
            "latitude": 25.4013441,
            "longitude": 85.916184
        }
    },
    {
        "name": "Home(moqeem)",
        "main_category": "Mosque",
        "address": "9WX8+984 Home(moqeem), Mokama, Mokameh Khas, Jazira Mokama, Bihar 803302",
        "detailed_address": {
            "ward": "Mokama",
            "street": "9WX8+984",
            "city": "Mokameh Khas, Jazira Mokama",
            "postal_code": "803302",
            "state": "Bihar",
            "country_code": "IN"
        },
        "images": [
            {
                "about": "All",
                "link": "https://streetviewpixels-pa.googleapis.com/v1/thumbnail?panoid=jqZL20IQ8D5E2Un-L-svjg&cb_client=maps_sv.tactile.gps&w=224&h=298&yaw=14.267207&pitch=0&thumbfov=100"
            },
            {
                "about": "Street View & 360deg",
                "link": "https://streetviewpixels-pa.googleapis.com/v1/thumbnail?panoid=jqZL20IQ8D5E2Un-L-svjg&cb_client=maps_sv.tactile.gps&w=224&h=298&yaw=14.267207&pitch=0&thumbfov=100"
            }
        ],
        "link": "https://www.google.com/maps/place/Home%28moqeem%29/data=!4m7!3m6!1s0x39f26d4ae08076f1:0xc4a7c504067ffd95!8m2!3d25.3983988!4d85.9158262!16s%2Fg%2F11tx4vw8vs!19sChIJ8XaA4Ept8jkRlf1_BgTFp8Q?authuser=0&hl=en&rclk=1",
        "coordinates": {
            "latitude": 25.3983988,
            "longitude": 85.9158262
        }
    }
]