[
    {
        "name": "Jama Masjid Tanda",
        "main_category": "Mosque",
        "address": "HCJ8+WHG Jama Masjid Tanda, Dhaura Tanda, Uttar Pradesh 243202",
        "detailed_address": {
            "ward": null,
            "street": "HCJ8+WHG",
            "city": "Dhaura Tanda",
            "postal_code": "243202",
            "state": "Uttar Pradesh",
            "country_code": "IN"
        },
        "images": [
            {
                "about": "All",
                "link": "https://lh5.googleusercontent.com/p/AF1QipMLcrv1wdzxk2voH2Al2NiIBtP2COXcW5ZLl8eO=w224-h338-k-no"
            },
            {
                "about": "Videos",
                "link": "https://lh5.googleusercontent.com/p/AF1QipO_d32l3Po8gbRmnB0GHjJ-rWccBmft-M2RVBIW=w224-h398-k-no"
            }
        ],
        "link": "https://www.google.com/maps/place/Jama+Masjid+Tanda/data=!4m7!3m6!1s0x39a00a57ae1d0081:0x991f6465f6b4532!8m2!3d28.582313!4d79.4164627!16s%2Fg%2F1hc193jc2!19sChIJgQAdrlcKoDkRMkVrX0b2kQk?authuser=0&hl=en&rclk=1",
        "coordinates": {
            "latitude": 28.582313,
            "longitude": 79.4164627
        }
    },
    {
        "name": "Jama Masjid",
        "main_category": "Mosque",
        "address": "XWGV+54C Jama Masjid, Rampur Rd, Tanda, Uttar Pradesh 244925",
        "detailed_address": {
            "ward": null,
            "street": "XWGV+54C, Rampur Rd",
            "city": "Tanda",
            "postal_code": "244925",
            "state": "Uttar Pradesh",
            "country_code": "IN"
        },
        "images": [
            {
                "about": "All",
                "link": "https://lh5.googleusercontent.com/p/AF1QipNAlDXKigzjvsvpZ6BaybwTgca2Y4angPFr3YFO=w255-h298-k-no"
            },
            {
                "about": "Dome",
                "link": "https://lh5.googleusercontent.com/p/AF1QipNi1b9Dsqlb7fj3cf8yj7WV0Rap5puBa4gIRiGW=w224-h299-k-no"
            },
            {
                "about": "Videos",
                "link": "https://lh5.googleusercontent.com/p/AF1QipPdPSItv-KiHF5n7gfGcS0EGmbfkHm9AGS8WJ0a=w224-h398-k-no"
            },
            {
                "about": "Street View & 360deg",
                "link": "https://streetviewpixels-pa.googleapis.com/v1/thumbnail?panoid=vHkLXwuBnj2-VvUjfDAFmA&cb_client=maps_sv.tactile.gps&w=224&h=298&yaw=352.25995&pitch=0&thumbfov=100"
            }
        ],
        "link": "https://www.google.com/maps/place/Jama+Masjid/data=!4m7!3m6!1s0x390a5f45aba40fab:0x9f783d2f63922a0a!8m2!3d28.9754381!4d78.9427643!16s%2Fg%2F11b6v5pk5n!19sChIJqw-kq0VfCjkRCiqSYy89eJ8?authuser=0&hl=en&rclk=1",
        "coordinates": {
            "latitude": 28.975438099999998,
            "longitude": 78.9427643
        }
    },
    {
        "name": "Fatima Masjid",
        "main_category": "Mosque",
        "address": "CV5C+FGC Fatima Masjid, SH 18, Faislabad, Bulandshahr, Uttar Pradesh 203001",
        "detailed_address": {
            "ward": "Faislabad",
            "street": "CV5C+FGC, SH 18",
            "city": "Bulandshahr",
            "postal_code": "203001",
            "state": "Uttar Pradesh",
            "country_code": "IN"
        },
        "images": [
            {
                "about": "All",
                "link": "https://lh5.googleusercontent.com/p/AF1QipMGFyH1xM5dRMbTEylBXrCxfOElMm3v792Hex6e=w662-h298-k-no"
            }
        ],
        "link": "https://www.google.com/maps/place/Fatima+Masjid/data=!4m7!3m6!1s0x390ca12d56ef9a6f:0x3bf8ed711d375388!8m2!3d28.408697!4d77.871255!16s%2Fg%2F11f0ky44p0!19sChIJb5rvVi2hDDkRiFM3HXHt-Ds?authuser=0&hl=en&rclk=1",
        "coordinates": {
            "latitude": 28.408697,
            "longitude": 77.87125499999999
        }
    },
    {
        "name": "Jama Masjid, Aasfabad chaman",
        "main_category": "Mosque",
        "address": "Jama Masjid, Aasfabad chaman, Aasfabad chaman, Tanda Bairagi Bila Ahatmali, Uttar Pradesh 246722",
        "detailed_address": {
            "ward": null,
            "street": "Aasfabad chaman",
            "city": "Tanda Bairagi Bila Ahatmali",
            "postal_code": "246722",
            "state": "Uttar Pradesh",
            "country_code": "IN"
        },
        "images": [
            {
                "about": "All",
                "link": "https://lh5.googleusercontent.com/p/AF1QipN18ybZLihcvS80K-onbSlZWhSXIbXI48jnZ78L=w229-h298-k-no"
            },
            {
                "about": "Dome",
                "link": "https://lh5.googleusercontent.com/p/AF1QipP7uOV1mIHfAIwd0hCqeKoH0shrUSTMBOiwdheN=w260-h298-k-no"
            }
        ],
        "link": "https://www.google.com/maps/place/Jama+Masjid,+Aasfabad+chaman/data=!4m7!3m6!1s0x390a3580c65fa317:0xffec3887429f110d!8m2!3d29.3511884!4d78.6697422!16s%2Fg%2F11f662fgqv!19sChIJF6NfxoA1CjkRDRGfQoc47P8?authuser=0&hl=en&rclk=1",
        "coordinates": {
            "latitude": 29.351188399999998,
            "longitude": 78.6697422
        }
    },
    {
        "name": "Bilal masjid",
        "main_category": "Mosque",
        "address": "Bilal masjid, Ward No 10, Dhaura Tanda, Thana, Bhoji Pura, Uttar Pradesh 243203",
        "detailed_address": {
            "ward": null,
            "street": "Ward No 10, Dhaura Tanda, Thana",
            "city": "Bhoji Pura, Dhaura Tanda",
            "postal_code": "243203",
            "state": "Uttar Pradesh",
            "country_code": "IN"
        },
        "images": [
            {
                "about": "All",
                "link": "https://lh5.googleusercontent.com/p/AF1QipOxjuRLYHgkQEWEDQt6Jqqghh3eS2zy09Htr1jT=w224-h298-k-no"
            }
        ],
        "link": "https://www.google.com/maps/place/Bilal+masjid/data=!4m7!3m6!1s0x39a00a5f4dc23251:0x65698084ba554a10!8m2!3d28.5822626!4d79.4123819!16s%2Fg%2F11dzzf0fw1!19sChIJUTLCTV8KoDkREEpVuoSAaWU?authuser=0&hl=en&rclk=1",
        "coordinates": {
            "latitude": 28.5822626,
            "longitude": 79.4123819
        }
    },
    {
        "name": "Kunde Wali Masjid",
        "main_category": "Mosque",
        "address": "HCP7+2R3 Kunde Wali Masjid, Dhaura Tanda, Uttar Pradesh 243202",
        "detailed_address": {
            "ward": null,
            "street": "HCP7+2R3",
            "city": "Dhaura Tanda",
            "postal_code": "243202",
            "state": "Uttar Pradesh",
            "country_code": "IN"
        },
        "images": [
            {
                "about": "All",
                "link": "https://lh5.googleusercontent.com/p/AF1QipNJYKN2B3JHBDPnme_LmSKF0h2azsdmIjAfG5mG=w224-h298-k-no"
            },
            {
                "about": "Videos",
                "link": "https://lh5.googleusercontent.com/p/AF1QipOZaOew5CY_WGGjKT1UpL9R5ZeFc_UhVBBntyDZ=w224-h398-k-no"
            }
        ],
        "link": "https://www.google.com/maps/place/Kunde+Wali+Masjid/data=!4m7!3m6!1s0x39a00af804cc6f5d:0xc2d6268b2665eaa0!8m2!3d28.5850021!4d79.4145381!16s%2Fg%2F1hc22lbft!19sChIJXW_MBPgKoDkRoOplJosm1sI?authuser=0&hl=en&rclk=1",
        "coordinates": {
            "latitude": 28.585002099999997,
            "longitude": 79.4145381
        }
    },
    {
        "name": "Mallahan Masjid",
        "main_category": "Mosque",
        "address": "W6M9+2GV Mallahan Masjid, Desraj Mohalla, Baghpat, Uttar Pradesh 250609",
        "detailed_address": {
            "ward": "Desraj Mohalla",
            "street": "W6M9+2GV",
            "city": "Baghpat",
            "postal_code": "250609",
            "state": "Uttar Pradesh",
            "country_code": "IN"
        },
        "images": [
            {
                "about": "All",
                "link": "https://lh5.googleusercontent.com/p/AF1QipOfGgLDjf7twSmi9l_fG7XUBlnQwdVyc8lpP_ns=w224-h497-k-no"
            },
            {
                "about": "Street View & 360deg",
                "link": "https://streetviewpixels-pa.googleapis.com/v1/thumbnail?panoid=Ce3LVGG9dMQFQf_mZmQJRg&cb_client=maps_sv.tactile.gps&w=224&h=298&yaw=149.87949&pitch=0&thumbfov=100"
            },
            {
                "about": "Videos",
                "link": "https://lh5.googleusercontent.com/p/AF1QipNzllAkn5rHoC4NsaSiAKjuPensuIMqgMXgdcbN=w224-h398-k-no"
            }
        ],
        "link": "https://www.google.com/maps/place/Mallahan+Masjid/data=!4m7!3m6!1s0x390c535d5ff5a4cb:0x91e823cea26267f8!8m2!3d28.9326006!4d77.2188023!16s%2Fg%2F11gj682qvh!19sChIJy6T1X11TDDkR-Gdios4j6JE?authuser=0&hl=en&rclk=1",
        "coordinates": {
            "latitude": 28.932600599999997,
            "longitude": 77.2188023
        }
    },
    {
        "name": "Eid Gah wali Masjid-e-Ahle Hadees",
        "main_category": "Mosque",
        "address": "HCH8+VWJ Eid Gah wali Masjid-e-Ahle Hadees, Dhaura Tanda, Uttar Pradesh 243203",
        "detailed_address": {
            "ward": null,
            "street": "HCH8+VWJ",
            "city": "Dhaura Tanda",
            "postal_code": "243203",
            "state": "Uttar Pradesh",
            "country_code": "IN"
        },
        "images": [
            {
                "about": "All",
                "link": "https://lh5.googleusercontent.com/p/AF1QipMk8LhcX-1xW_Vx38iWkZ1dxTQt4d4O5cRTMpgj=w224-h398-k-no"
            },
            {
                "about": "Videos",
                "link": "https://lh5.googleusercontent.com/p/AF1QipMk8LhcX-1xW_Vx38iWkZ1dxTQt4d4O5cRTMpgj=w224-h398-k-no"
            }
        ],
        "link": "https://www.google.com/maps/place/Eid+Gah+wali+Masjid-e-Ahle+Hadees/data=!4m7!3m6!1s0x39a00a56df56042b:0x5d1b585f459218ea!8m2!3d28.5797197!4d79.4172511!16s%2Fg%2F11c37x8q05!19sChIJKwRW31YKoDkR6hiSRV9YG10?authuser=0&hl=en&rclk=1",
        "coordinates": {
            "latitude": 28.5797197,
            "longitude": 79.4172511
        }
    },
    {
        "name": "Madina Masjid Tanda Khulasa",
        "main_category": "Mosque",
        "address": "QPJG+MM5 Madina Masjid Tanda Khulasa, Tanda Khulasa, Kurha Sadat, Uttar Pradesh 224120",
        "detailed_address": {
            "ward": null,
            "street": "QPJG+MM5",
            "city": "Tanda Khulasa, Kurha Sadat",
            "postal_code": null,
            "state": "Uttar Pradesh",
            "country_code": "IN"
        },
        "images": [
            {
                "about": "All",
                "link": "https://streetviewpixels-pa.googleapis.com/v1/thumbnail?panoid=7qSxY_Ro1g_D0Uo5mCFFYA&cb_client=maps_sv.tactile.gps&w=224&h=298&yaw=183.05534&pitch=0&thumbfov=100"
            },
            {
                "about": "Street View & 360deg",
                "link": "https://streetviewpixels-pa.googleapis.com/v1/thumbnail?panoid=7qSxY_Ro1g_D0Uo5mCFFYA&cb_client=maps_sv.tactile.gps&w=224&h=298&yaw=183.05534&pitch=0&thumbfov=100"
            }
        ],
        "link": "https://www.google.com/maps/place/Madina+Masjid+Tanda+Khulasa/data=!4m7!3m6!1s0x399a250455555555:0x6142e2cab64500c1!8m2!3d26.7816421!4d81.7267341!16s%2Fg%2F11f31l_8td!19sChIJVVVVVQQlmjkRwQBFtsriQmE?authuser=0&hl=en&rclk=1",
        "coordinates": {
            "latitude": 26.7816421,
            "longitude": 81.7267341
        }
    },
    {
        "name": "Madina Masjid Tanda",
        "main_category": "Mosque",
        "address": "F2VV+PXJ Madina Masjid Tanda, Tanda, Uttar Pradesh 244926",
        "detailed_address": {
            "ward": null,
            "street": "F2VV+PXJ",
            "city": "Tanda",
            "postal_code": "244926",
            "state": "Uttar Pradesh",
            "country_code": "IN"
        },
        "images": [
            {
                "about": "All",
                "link": "https://lh5.googleusercontent.com/p/AF1QipPgIsV8wfT0TgcYPtKEcR7wGtU59MyMRyjurXOA=w224-h298-k-no"
            },
            {
                "about": "Videos",
                "link": "https://lh5.googleusercontent.com/p/AF1QipOnRcbgzuPLQXnARZ6qiKS84yMgaH6Srcvt992d=w224-h398-k-no"
            }
        ],
        "link": "https://www.google.com/maps/place/Madina+Masjid+Tanda/data=!4m7!3m6!1s0x390ab9b3a268461d:0xe0a5f93b19f6ee2a!8m2!3d28.4943274!4d79.0448756!16s%2Fg%2F11h7krsrp8!19sChIJHUZoorO5CjkRKu72GTv5peA?authuser=0&hl=en&rclk=1",
        "coordinates": {
            "latitude": 28.4943274,
            "longitude": 79.0448756
        }
    },
    {
        "name": "Masjid Thekedar wali",
        "main_category": "Mosque",
        "address": "XWGV+35Q Masjid Thekedar wali, Tanda, Uttar Pradesh 244925",
        "detailed_address": {
            "ward": null,
            "street": "XWGV+35Q",
            "city": "Tanda",
            "postal_code": "244925",
            "state": "Uttar Pradesh",
            "country_code": "IN"
        },
        "images": [
            {
                "about": "All",
                "link": "https://lh5.googleusercontent.com/p/AF1QipNtsBJUGYuocuRqA-UUIR0B911khMh3iNiBIb1y=w529-h298-k-no"
            },
            {
                "about": "Street View & 360deg",
                "link": "https://streetviewpixels-pa.googleapis.com/v1/thumbnail?panoid=vHkLXwuBnj2-VvUjfDAFmA&cb_client=maps_sv.tactile.gps&w=224&h=298&yaw=84.44358&pitch=0&thumbfov=100"
            },
            {
                "about": "Videos",
                "link": "https://lh5.googleusercontent.com/p/AF1QipNzFrnaXZs5OL8cCFauw6WYm8pVauJbhiZJPu53=w224-h395-k-no"
            }
        ],
        "link": "https://www.google.com/maps/place/Masjid+Thekedar+wali/data=!4m7!3m6!1s0x390a5f44da89b2db:0x5a775acc74e33786!8m2!3d28.9752048!4d78.9429801!16s%2Fg%2F11bw4vyq1l!19sChIJ27KJ2kRfCjkRhjfjdMxad1o?authuser=0&hl=en&rclk=1",
        "coordinates": {
            "latitude": 28.9752048,
            "longitude": 78.9429801
        }
    },
    {
        "name": "Tande wali masjid",
        "main_category": "Mosque",
        "address": "C4MJ+H44 Tande wali masjid, Jamdarpur, Uttar Pradesh 246701",
        "detailed_address": {
            "ward": null,
            "street": "C4MJ+H44",
            "city": "Jamdarpur",
            "postal_code": "246701",
            "state": "Uttar Pradesh",
            "country_code": "IN"
        },
        "images": [
            {
                "about": "All",
                "link": "https://lh5.googleusercontent.com/p/AF1QipOBWxJPMSJfplF7gIrFWQAYiGcI3bWZ7ow6Mns3=w224-h398-k-no"
            },
            {
                "about": "Latest",
                "link": "https://lh5.googleusercontent.com/p/AF1QipOBWxJPMSJfplF7gIrFWQAYiGcI3bWZ7ow6Mns3=w224-h398-k-no"
            }
        ],
        "link": "https://www.google.com/maps/place/Tande+wali+masjid/data=!4m7!3m6!1s0x390beff3a27665b5:0x424ccac2b526f0c7!8m2!3d29.433881!4d78.1303287!16s%2Fg%2F11c60m7clf!19sChIJtWV2ovPvCzkRx_AmtcLKTEI?authuser=0&hl=en&rclk=1",
        "coordinates": {
            "latitude": 29.433881,
            "longitude": 78.13032869999999
        }
    },
    {
        "name": "Peer Wali Masjid",
        "main_category": "Mosque",
        "address": "JP4C+4WF Peer Wali Masjid, Bajhera Kalan, Uttar Pradesh 245101",
        "detailed_address": {
            "ward": null,
            "street": "JP4C+4WF",
            "city": "Bajhera Kalan",
            "postal_code": "245101",
            "state": "Uttar Pradesh",
            "country_code": "IN"
        },
        "images": [
            {
                "about": "All",
                "link": "https://lh5.googleusercontent.com/p/AF1QipN8uEzqWZJEceT7IMqQr2jw4E6tEdDbZLnlIdJE=w224-h477-k-no"
            },
            {
                "about": "Street View & 360deg",
                "link": "https://streetviewpixels-pa.googleapis.com/v1/thumbnail?panoid=yWyhPWRlaCj4xjOuUo9z4Q&cb_client=maps_sv.tactile.gps&w=224&h=298&yaw=278.5606&pitch=0&thumbfov=100"
            },
            {
                "about": "Videos",
                "link": "https://lh5.googleusercontent.com/p/AF1QipPDdlh8oDAuPbtLta2bmXq7ULn-RmFXqwK6fyvH=w224-h395-k-no"
            }
        ],
        "link": "https://www.google.com/maps/place/Peer+Wali+Masjid/data=!4m7!3m6!1s0x390c90eb2d562b37:0xcd3d8f16bc03a297!8m2!3d28.6053165!4d77.7222824!16s%2Fg%2F11f54s50l0!19sChIJNytWLeuQDDkRl6IDvBaPPc0?authuser=0&hl=en&rclk=1",
        "coordinates": {
            "latitude": 28.605316499999997,
            "longitude": 77.7222824
        }
    },
    {
        "name": "Dada Miyan Wali Masjid",
        "main_category": "Mosque",
        "address": "R24Q+H38 Dada Miyan Wali Masjid, Purana Ganj, Rampur, Uttar Pradesh 244901",
        "detailed_address": {
            "ward": "Purana Ganj",
            "street": "R24Q+H38",
            "city": "Rampur",
            "postal_code": "244901",
            "state": "Uttar Pradesh",
            "country_code": "IN"
        },
        "images": [
            {
                "about": "All",
                "link": "https://lh5.googleusercontent.com/p/AF1QipObO-n6KaVfFhpBBG_i5JbHAbWLZo-CDLjVdNRB=w529-h298-k-no"
            }
        ],
        "link": "https://www.google.com/maps/place/Dada+Miyan+Wali+Masjid/data=!4m7!3m6!1s0x390a8d4095e7311d:0x608e5ba01cace2fb!8m2!3d28.8064082!4d79.0377108!16s%2Fg%2F11fxxwmr9z!19sChIJHTHnlUCNCjkR--KsHKBbjmA?authuser=0&hl=en&rclk=1",
        "coordinates": {
            "latitude": 28.8064082,
            "longitude": 79.0377108
        }
    },
    {
        "name": "Badi Masjid",
        "main_category": "Mosque",
        "address": "482M+RH3 Badi Masjid, Angadpur, Uttar Pradesh 250345",
        "detailed_address": {
            "ward": null,
            "street": "482M+RH3",
            "city": "Angadpur",
            "postal_code": "250345",
            "state": "Uttar Pradesh",
            "country_code": "IN"
        },
        "images": [
            {
                "about": "All",
                "link": "https://lh5.googleusercontent.com/p/AF1QipP--gip__4LRfiiyyajISpWPqyKkT9_klVi1Wb6=w224-h398-k-no"
            },
            {
                "about": "Videos",
                "link": "https://lh5.googleusercontent.com/p/AF1QipO4raF-7iicxaKtW3vA0jOPbcNgF8FOAZHsVSo=w529-h298-k-no"
            }
        ],
        "link": "https://www.google.com/maps/place/Badi+Masjid/data=!4m7!3m6!1s0x390c48d7b83d6e89:0x2181b4641709b208!8m2!3d29.1020057!4d77.3339262!16s%2Fg%2F11c2p9tyg1!19sChIJiW49uNdIDDkRCLIJF2S0gSE?authuser=0&hl=en&rclk=1",
        "coordinates": {
            "latitude": 29.1020057,
            "longitude": 77.3339262
        }
    },
    {
        "name": "Masjid Umar Ibn Al Khattab dhora Tanda",
        "main_category": "Mosque",
        "address": "HCF9+4R9 Masjid Umar Ibn Al Khattab dhora Tanda, Dhaura Tanda, Uttar Pradesh 243202",
        "detailed_address": {
            "ward": null,
            "street": "HCF9+4R9",
            "city": "Dhaura Tanda",
            "postal_code": "243202",
            "state": "Uttar Pradesh",
            "country_code": "IN"
        },
        "images": [
            {
                "about": "All",
                "link": "https://lh5.googleusercontent.com/p/AF1QipNswjjXENYfvLJ1yGSNckRGtchZ9aGpMQrhbLbT=w529-h298-k-no"
            },
            {
                "about": "Videos",
                "link": "https://lh5.googleusercontent.com/p/AF1QipMcO-_uJYX5Zm-qGXZ8JXG3SOnOXv2tKsf87L0a=w224-h398-k-no"
            }
        ],
        "link": "https://www.google.com/maps/place/Masjid+Umar+Ibn+Al+Khattab+dhora+Tanda/data=!4m7!3m6!1s0x39a00a4e012f3069:0x98e0431c2fbe25e5!8m2!3d28.5727997!4d79.4196128!16s%2Fg%2F11f0kqslrv!19sChIJaTAvAU4KoDkR5SW-LxxD4Jg?authuser=0&hl=en&rclk=1",
        "coordinates": {
            "latitude": 28.572799699999997,
            "longitude": 79.4196128
        }
    },
    {
        "name": "Masjid Abu Bakr Ahle Hadees",
        "main_category": "Mosque",
        "address": "HCG9+HR8 Masjid Abu Bakr Ahle Hadees, Dhaura Tanda, Uttar Pradesh 243202",
        "detailed_address": {
            "ward": null,
            "street": "HCG9+HR8",
            "city": "Dhaura Tanda",
            "postal_code": "243202",
            "state": "Uttar Pradesh",
            "country_code": "IN"
        },
        "images": [
            {
                "about": "All",
                "link": "https://lh5.googleusercontent.com/p/AF1QipO4zRhmakmg7CxmCj4epimGipmMKE1ng7R_NjFW=w224-h298-k-no"
            }
        ],
        "link": "https://www.google.com/maps/place/Masjid+Abu+Bakr+Ahle+Hadees/data=!4m7!3m6!1s0x39a00a517e7e7bfd:0x79d730ad66834878!8m2!3d28.5764231!4d79.4195833!16s%2Fg%2F11g72mqfgz!19sChIJ_Xt-flEKoDkReEiDZq0w13k?authuser=0&hl=en&rclk=1",
        "coordinates": {
            "latitude": 28.5764231,
            "longitude": 79.4195833
        }
    },
    {
        "name": "Maszid Ameer E Ma Aaviya",
        "main_category": "Mosque",
        "address": "XWJQ+5WH Maszid Ameer E Ma Aaviya, Khajuwa Khera, Uttar Pradesh 244925",
        "detailed_address": {
            "ward": null,
            "street": "XWJQ+5WH",
            "city": "Khajuwa Khera",
            "postal_code": "244925",
            "state": "Uttar Pradesh",
            "country_code": "IN"
        },
        "images": [
            {
                "about": "All",
                "link": "https://lh5.googleusercontent.com/p/AF1QipPbUgmhfcLes7OXfpABABwXUUr0NrQBpl0ZJdda=w293-h298-k-no"
            },
            {
                "about": "Street View & 360deg",
                "link": "https://streetviewpixels-pa.googleapis.com/v1/thumbnail?panoid=5SBLHT2V3TvPYdX4q2M15w&cb_client=maps_sv.tactile.gps&w=224&h=298&yaw=264.977&pitch=0&thumbfov=100"
            },
            {
                "about": "Videos",
                "link": "https://lh5.googleusercontent.com/p/AF1QipN17KCoOehxmNCCfwOjWcR0aRTICjlE6ayHAdOP=w224-h467-k-no"
            }
        ],
        "link": "https://www.google.com/maps/place/Maszid+Ameer+E+Ma+Aaviya/data=!4m7!3m6!1s0x390a5f4881518db3:0x2e112c3b20de2bd6!8m2!3d28.9804433!4d78.9398711!16s%2Fg%2F11c6_z3bc3!19sChIJs41RgUhfCjkR1iveIDssES4?authuser=0&hl=en&rclk=1",
        "coordinates": {
            "latitude": 28.980443299999997,
            "longitude": 78.93987109999999
        }
    },
    {
        "name": "Moti Masjid",
        "main_category": "Mosque",
        "address": "Moti Masjid, Dhaura Tanda, Uttar Pradesh 243202",
        "detailed_address": {
            "ward": null,
            "street": "Moti Masjid",
            "city": "Dhaura Tanda",
            "postal_code": "243202",
            "state": "Uttar Pradesh",
            "country_code": "IN"
        },
        "images": [
            {
                "about": "All",
                "link": "https://lh5.googleusercontent.com/p/AF1QipMmWb-Y53drkhoStUXBaYIb-SNfHRQQr5dmg_47=w298-h298-k-no"
            },
            {
                "about": "Dome",
                "link": "https://lh5.googleusercontent.com/p/AF1QipOeOEUhhmalklLmRM7VWFEVsP5YzrXcWnqazoru=w528-h298-k-no"
            }
        ],
        "link": "https://www.google.com/maps/place/Moti+Masjid/data=!4m7!3m6!1s0x39a00be71a6b14f7:0x3319dcfa014ac07d!8m2!3d28.5826392!4d79.4191713!16s%2Fg%2F11vcsbt0f8!19sChIJ9xRrGucLoDkRfcBKAfrcGTM?authuser=0&hl=en&rclk=1",
        "coordinates": {
            "latitude": 28.5826392,
            "longitude": 79.4191713
        }
    },
    {
        "name": "Dera wali maszid",
        "main_category": "Mosque",
        "address": "M23M+688 Dera wali maszid, Patwai, Nawabnagar Near Patwai, Uttar Pradesh 244901",
        "detailed_address": {
            "ward": null,
            "street": "M23M+688",
            "city": "Patwai, Nawabnagar Near Patwai",
            "postal_code": "244901",
            "state": "Uttar Pradesh",
            "country_code": "IN"
        },
        "images": [
            {
                "about": "All",
                "link": "https://lh5.googleusercontent.com/p/AF1QipNLNUfgFaHC3via8qAFJmHAN7AIxoVoLiH1LEFM=w224-h398-k-no"
            },
            {
                "about": "Street View & 360deg",
                "link": "https://streetviewpixels-pa.googleapis.com/v1/thumbnail?panoid=kFV2UmTrb9-uyMz1wbpkow&cb_client=maps_sv.tactile.gps&w=224&h=298&yaw=233.93933&pitch=0&thumbfov=100"
            },
            {
                "about": "Videos",
                "link": "https://lh5.googleusercontent.com/p/AF1QipN3ZCm17aKf2oAD9ZkznavlMt6Y0ivbaE6lUaff=w224-h398-k-no"
            }
        ],
        "link": "https://www.google.com/maps/place/Dera+wali+maszid/data=!4m7!3m6!1s0x390a94da3580c70b:0xb8e418f5d4510ff0!8m2!3d28.6530394!4d79.0333316!16s%2Fg%2F11f263xxxt!19sChIJC8eANdqUCjkR8A9R1PUY5Lg?authuser=0&hl=en&rclk=1",
        "coordinates": {
            "latitude": 28.653039399999997,
            "longitude": 79.0333316
        }
    },
    {
        "name": "Masjid",
        "main_category": "Mosque",
        "address": "3JHW+79H Masjid, Malpur Tatera Mustahkam, Nadayal, Uttar Pradesh 243638",
        "detailed_address": {
            "ward": null,
            "street": "3JHW+79H",
            "city": "Malpur Tatera Mustahkam, Nadayal",
            "postal_code": "243638",
            "state": "Uttar Pradesh",
            "country_code": "IN"
        },
        "images": [
            {
                "about": "All",
                "link": "https://lh5.googleusercontent.com/p/AF1QipMJxRs02sVKiu2YtU3yLxPkCHH75hqCdiMS4372=w397-h298-k-no"
            },
            {
                "about": "Videos",
                "link": "https://lh5.googleusercontent.com/p/AF1QipOPXY5XYueI_s4UiH7lV_QlSftS_5MPGrPC5jx2=w224-h398-k-no"
            }
        ],
        "link": "https://www.google.com/maps/place/Masjid/data=!4m7!3m6!1s0x3974d62351444a31:0xbad6f8a505425ac1!8m2!3d28.0781857!4d78.6459793!16s%2Fg%2F1hm22vqw4!19sChIJMUpEUSPWdDkRwVpCBaX41ro?authuser=0&hl=en&rclk=1",
        "coordinates": {
            "latitude": 28.0781857,
            "longitude": 78.6459793
        }
    },
    {
        "name": "Masjid ahle hdiis",
        "main_category": "Mosque",
        "address": "XWGR+R6W Masjid ahle hdiis, Rampur Rd, Tanda, Uttar Pradesh 244925",
        "detailed_address": {
            "ward": null,
            "street": "XWGR+R6W, Rampur Rd",
            "city": "Tanda",
            "postal_code": null,
            "state": "Uttar Pradesh",
            "country_code": "IN"
        },
        "images": [
            {
                "about": "All",
                "link": "https://streetviewpixels-pa.googleapis.com/v1/thumbnail?panoid=J6r1vSjyJ3ahCgQNWO8O0g&cb_client=maps_sv.tactile.gps&w=224&h=298&yaw=57.63261&pitch=0&thumbfov=100"
            },
            {
                "about": "Street View & 360deg",
                "link": "https://streetviewpixels-pa.googleapis.com/v1/thumbnail?panoid=J6r1vSjyJ3ahCgQNWO8O0g&cb_client=maps_sv.tactile.gps&w=224&h=298&yaw=57.63261&pitch=0&thumbfov=100"
            }
        ],
        "link": "https://www.google.com/maps/place/Masjid+%E0%A4%85%E0%A4%B9%E0%A4%B2%E0%A5%87+%E0%A4%B9%E0%A4%A6%E0%A5%80%E0%A4%B8/data=!4m7!3m6!1s0x390a5f45f0bdb1c5:0x997537f4012a6564!8m2!3d28.9771021!4d78.9405658!16s%2Fg%2F11f4qxxvgt!19sChIJxbG98EVfCjkRZGUqAfQ3dZk?authuser=0&hl=en&rclk=1",
        "coordinates": {
            "latitude": 28.9771021,
            "longitude": 78.9405658
        }
    },
    {
        "name": "Madina masjid",
        "main_category": "Mosque",
        "address": "C989+57G Madina masjid, Unnamed Road, Nethaur, Pittanherijia, Uttar Pradesh 246733",
        "detailed_address": {
            "ward": null,
            "street": "C989+57G, Unnamed Road",
            "city": "Nethaur, Pittanherijia",
            "postal_code": "246733",
            "state": "Uttar Pradesh",
            "country_code": "IN"
        },
        "images": [
            {
                "about": "All",
                "link": "https://lh5.googleusercontent.com/p/AF1QipOsGXq3p8H2KpvZvFHqK4hUHo0rLpqISk9Zw54=w224-h299-k-no"
            },
            {
                "about": "Videos",
                "link": "https://lh5.googleusercontent.com/p/AF1QipMswPoyyHtrERSwWS3Bn7La0ky_-jLhqcp06eTX=w224-h398-k-no"
            }
        ],
        "link": "https://www.google.com/maps/place/Madina+masjid/data=!4m7!3m6!1s0x390bc31d2dc38dfb:0x7b4527264791d505!8m2!3d29.4154464!4d78.3681933!16s%2Fg%2F11h5ltgp22!19sChIJ-43DLR3DCzkRBdWRRyYnRXs?authuser=0&hl=en&rclk=1",
        "coordinates": {
            "latitude": 29.4154464,
            "longitude": 78.3681933
        }
    },
    {
        "name": "Chand Masjid Jataua 243202",
        "main_category": "Mosque",
        "address": "HC5F+VV4 Chand Masjid Jataua 243202, Jatawa, Uttar Pradesh 243202",
        "detailed_address": {
            "ward": null,
            "street": "HC5F+VV4",
            "city": "Jatawa",
            "postal_code": "243202",
            "state": "Uttar Pradesh",
            "country_code": "IN"
        },
        "images": [
            {
                "about": "All",
                "link": "https://lh5.googleusercontent.com/p/AF1QipOoiHx0pdZaOCqybkpxnDrLDXxznLsiREWq9PAd=w224-h398-k-no"
            },
            {
                "about": "Dome",
                "link": "https://lh5.googleusercontent.com/p/AF1QipP6SxyFsyVmJ4uUaFicpLtwSb91wDQRWiU9BGHS=w224-h398-k-no"
            },
            {
                "about": "Videos",
                "link": "https://lh5.googleusercontent.com/p/AF1QipM66h2IkuuuIlKhTzyCcnEu57eciYWYqnueW4PM=w224-h397-k-no"
            }
        ],
        "link": "https://www.google.com/maps/place/Chand+Masjid+Jataua+243202/data=!4m7!3m6!1s0x39a00a352f5d9b7d:0x9186ce58e0c03f68!8m2!3d28.5596291!4d79.4247057!16s%2Fg%2F11cs5fdb7v!19sChIJfZtdLzUKoDkRaD_A4FjOhpE?authuser=0&hl=en&rclk=1",
        "coordinates": {
            "latitude": 28.5596291,
            "longitude": 79.42470569999999
        }
    },
    {
        "name": "Jama Masjid Ahle Hadees",
        "main_category": "Mosque",
        "address": "HCF8+4V5 Jama Masjid Ahle Hadees, Dhaura Tanda, Uttar Pradesh 243202",
        "detailed_address": {
            "ward": null,
            "street": "HCF8+4V5",
            "city": "Dhaura Tanda",
            "postal_code": "243202",
            "state": "Uttar Pradesh",
            "country_code": "IN"
        },
        "images": [
            {
                "about": "All",
                "link": "https://lh5.googleusercontent.com/p/AF1QipOgZLsa-NpM8nJd_YMeDHv02EIj6xIQKrliOUxA=w224-h298-k-no"
            },
            {
                "about": "Videos",
                "link": "https://lh5.googleusercontent.com/p/AF1QipOl_bQyhF3JL-o0hKk2lB5JBuPsbCE4MMl8yIzV=w224-h398-k-no"
            }
        ],
        "link": "https://www.google.com/maps/place/Jama+Masjid+Ahle+Hadees/data=!4m7!3m6!1s0x39a00a4e2bdd0cfb:0xe1f90a26b736659d!8m2!3d28.5727533!4d79.4172418!16s%2Fg%2F11cmysml7l!19sChIJ-wzdK04KoDkRnWU2tyYK-eE?authuser=0&hl=en&rclk=1",
        "coordinates": {
            "latitude": 28.5727533,
            "longitude": 79.4172418
        }
    },
    {
        "name": "Masjid",
        "main_category": "Mosque",
        "address": "RFW6+4GQ Masjid, Kumheda, Uttar Pradesh 201206",
        "detailed_address": {
            "ward": null,
            "street": "RFW6+4GQ",
            "city": "Kumheda",
            "postal_code": "201206",
            "state": "Uttar Pradesh",
            "country_code": "IN"
        },
        "images": [
            {
                "about": "All",
                "link": "https://lh5.googleusercontent.com/p/AF1QipPod4ou-3zy5iBN4AEnUaBvT0GapVPjAZAI0LvT=w224-h497-k-no"
            },
            {
                "about": "Videos",
                "link": "https://lh5.googleusercontent.com/p/AF1QipNGUVA4sEAG263bO3RqARxqlz8GhxX-wqA83Tnw=w224-h398-k-no"
            }
        ],
        "link": "https://www.google.com/maps/place/Masjid/data=!4m7!3m6!1s0x390c58b0e1125b4d:0xfd9e63316d494a36!8m2!3d28.8453408!4d77.4613748!16s%2Fg%2F11gclz8wp4!19sChIJTVsS4bBYDDkRNkpJbTFjnv0?authuser=0&hl=en&rclk=1",
        "coordinates": {
            "latitude": 28.8453408,
            "longitude": 77.4613748
        }
    },
    {
        "name": "Chand Masjid Bhagatpur",
        "main_category": "Mosque",
        "address": "2V8W+RJX Chand Masjid Bhagatpur, Bhagtpur Tanda, Uttar Pradesh 244402",
        "detailed_address": {
            "ward": null,
            "street": "2V8W+RJX",
            "city": "Bhagtpur Tanda",
            "postal_code": "244402",
            "state": "Uttar Pradesh",
            "country_code": "IN"
        },
        "images": [
            {
                "about": "All",
                "link": "https://lh5.googleusercontent.com/p/AF1QipNf5Qf2DdsJJgprkYWrNEUfGedT9CQ1vxTr8PA2=w224-h298-k-no"
            },
            {
                "about": "Videos",
                "link": "https://lh5.googleusercontent.com/p/AF1QipO1nziqmjKAnK-jvo4YlezHApoeyFe92X7au2qv=w224-h398-k-no"
            }
        ],
        "link": "https://www.google.com/maps/place/Chand+Masjid+Bhagatpur/data=!4m7!3m6!1s0x390a59104b85be4f:0xcb2fcb22927dea83!8m2!3d29.0171103!4d78.8966142!16s%2Fg%2F11g6wfsc5w!19sChIJT76FSxBZCjkRg-p9kiLLL8s?authuser=0&hl=en&rclk=1",
        "coordinates": {
            "latitude": 29.0171103,
            "longitude": 78.8966142
        }
    },
    {
        "name": "Noori masjid",
        "main_category": "Musalla",
        "address": "Noori masjid, Sentakhera, Uttar Pradesh 244925",
        "detailed_address": {
            "ward": null,
            "street": null,
            "city": "Sentakhera",
            "postal_code": "244925",
            "state": "Uttar Pradesh",
            "country_code": "IN"
        },
        "images": [
            {
                "about": "All",
                "link": "https://lh5.googleusercontent.com/p/AF1QipOgmj_lofXe7dVDsVtHFoinEAvhD9scLOGv1Bg=w224-h298-k-no"
            },
            {
                "about": "By owner",
                "link": "https://lh5.googleusercontent.com/p/AF1QipPvgDdIz0sEeDG1N-vFByof_SLkzuv1GvrhJvcM=w305-h298-k-no"
            }
        ],
        "link": "https://www.google.com/maps/place/Noori+masjid/data=!4m7!3m6!1s0x390a5fd5030766c7:0xea4af5a412e33c72!8m2!3d28.9660771!4d78.9581535!16s%2Fg%2F11fss32h3f!19sChIJx2YHA9VfCjkRcjzjEqT1Suo?authuser=0&hl=en&rclk=1",
        "coordinates": {
            "latitude": 28.9660771,
            "longitude": 78.9581535
        }
    },
    {
        "name": "JAMA MASJID JATAUA 243202",
        "main_category": "Mosque",
        "address": "HC5G+655 JAMA MASJID JATAUA 243202, jama masjid, Jatawa, Uttar Pradesh 243202",
        "detailed_address": {
            "ward": null,
            "street": "HC5G+655, jama masjid",
            "city": "Jatawa",
            "postal_code": "243202",
            "state": "Uttar Pradesh",
            "country_code": "IN"
        },
        "images": [
            {
                "about": "All",
                "link": "https://lh5.googleusercontent.com/p/AF1QipM3pNObkM9p1eRVXKkryZCuU8-VTu5PqHwwl42A=w298-h298-k-no"
            },
            {
                "about": "Videos",
                "link": "https://lh5.googleusercontent.com/p/AF1QipOocn8rVkvGQJXUwfO_UyrGbpVLqvq-ZEeNtUPg=w298-h298-k-no"
            }
        ],
        "link": "https://www.google.com/maps/place/JAMA+MASJID+JATAUA+243202/data=!4m7!3m6!1s0x39a00bcb3522c6eb:0x76a292b296f7211!8m2!3d28.5580007!4d79.4254933!16s%2Fg%2F11cs4y77sn!19sChIJ68YiNcsLoDkREXJvKSspagc?authuser=0&hl=en&rclk=1",
        "coordinates": {
            "latitude": 28.558000699999997,
            "longitude": 79.4254933
        }
    },
    {
        "name": "Jama Masjid Runwa Nagla",
        "main_category": "Mosque",
        "address": "WX7F+R4C Jama Masjid Runwa Nagla, Unnamed Road, Uttar Pradesh 244927",
        "detailed_address": {
            "ward": null,
            "street": "WX7F+R4C, Unnamed Road",
            "city": "Saharia Narpat",
            "postal_code": "244927",
            "state": "Uttar Pradesh",
            "country_code": "IN"
        },
        "images": [
            {
                "about": "All",
                "link": "https://lh5.googleusercontent.com/p/AF1QipPVwhUATkc5nYldjR0V46yQ-6GeQVPHyAc2x8Og=w224-h298-k-no"
            }
        ],
        "link": "https://www.google.com/maps/place/Jama+Masjid+Runwa+Nagla/data=!4m7!3m6!1s0x390af54129d99ed3:0x6c07ef8794e88215!8m2!3d28.914574!4d78.9727792!16s%2Fg%2F11gxx74zbz!19sChIJ057ZKUH1CjkRFYLolIfvB2w?authuser=0&hl=en&rclk=1",
        "coordinates": {
            "latitude": 28.914573999999998,
            "longitude": 78.97277919999999
        }
    },
    {
        "name": "JAMA MASJID TANDA",
        "main_category": "Mosque",
        "address": "74FV+9H8 JAMA MASJID TANDA, Tanda, Nangal, Uttar Pradesh 250617",
        "detailed_address": {
            "ward": null,
            "street": "74FV+9H8",
            "city": "Tanda, Nangal",
            "postal_code": "250617",
            "state": "Uttar Pradesh",
            "country_code": "IN"
        },
        "images": [
            {
                "about": "All",
                "link": "https://lh5.googleusercontent.com/p/AF1QipNlCWHrS6LW2sTKtHjm2q5wn3T4yz-d7g7JjB5f=w529-h298-k-no"
            },
            {
                "about": "Dome",
                "link": "https://lh5.googleusercontent.com/p/AF1QipNjgq5hWCSv2kPdT1pPnGqyJbrIaeOuZs3DFL-p=w224-h398-k-no"
            },
            {
                "about": "Videos",
                "link": "https://lh5.googleusercontent.com/p/AF1QipOueIAdQZ-Wqye4ZRSKF8eWBw4W52IMZcvGdwvb=w224-h398-k-no"
            }
        ],
        "link": "https://www.google.com/maps/place/JAMA+MASJID+TANDA/data=!4m7!3m6!1s0x390dcd7c815ec791:0x98a8ab0baaef46dd!8m2!3d29.2734026!4d77.1439572!16s%2Fg%2F11h71460dw!19sChIJkcdegXzNDTkR3UbvqgurqJg?authuser=0&hl=en&rclk=1",
        "coordinates": {
            "latitude": 29.273402599999997,
            "longitude": 77.1439572
        }
    },
    {
        "name": "Mohalla Maszid Kohna",
        "main_category": "Mosque",
        "address": "XWHQ+9HQ Mohalla Maszid Kohna, Tanda, Uttar Pradesh 244925",
        "detailed_address": {
            "ward": null,
            "street": "XWHQ+9HQ",
            "city": "Tanda",
            "postal_code": "244925",
            "state": "Uttar Pradesh",
            "country_code": "IN"
        },
        "images": [
            {
                "about": "All",
                "link": "https://lh5.googleusercontent.com/p/AF1QipMTX4VGCkBba52cGLDuoJZULXaSSdgteOyXD5ye=w298-h298-k-no"
            },
            {
                "about": "Street View & 360deg",
                "link": "https://streetviewpixels-pa.googleapis.com/v1/thumbnail?panoid=zmgX7f9Xzbp3IGMRcPH_3A&cb_client=maps_sv.tactile.gps&w=224&h=298&yaw=257.85742&pitch=0&thumbfov=100"
            },
            {
                "about": "Videos",
                "link": "https://lh5.googleusercontent.com/p/AF1QipONEsY_P3oN3f5syRGQ1xj_Os8PtehQfgBbFqSn=w224-h398-k-no"
            }
        ],
        "link": "https://www.google.com/maps/place/Mohalla+Maszid+Kohna/data=!4m7!3m6!1s0x390a5f4455555555:0xc0a687850da8e52c!8m2!3d28.9784513!4d78.9389697!16s%2Fg%2F11g6x9z__w!19sChIJVVVVVURfCjkRLOWoDYWHpsA?authuser=0&hl=en&rclk=1",
        "coordinates": {
            "latitude": 28.9784513,
            "longitude": 78.9389697
        }
    },
    {
        "name": "Masjid Ahle Hadis Nahar Wali",
        "main_category": "Mosque",
        "address": "HCJ8+3G8 Masjid Ahle Hadis Nahar Wali, Dhaura Tanda, Uttar Pradesh 243203",
        "detailed_address": {
            "ward": null,
            "street": "HCJ8+3G8",
            "city": "Dhaura Tanda",
            "postal_code": null,
            "state": "Uttar Pradesh",
            "country_code": "IN"
        },
        "images": [
            {
                "about": "All",
                "link": "https://lh5.googleusercontent.com/p/AF1QipP0x3gMsDE0sAuW3BSkLcfv0zdr3pc46VVNoyhv=w224-h497-k-no"
            }
        ],
        "link": "https://www.google.com/maps/place/Masjid+Ahle+Hadis+Nahar+Wali/data=!4m7!3m6!1s0x39a00b26d167a099:0x2a1e3d99acd61243!8m2!3d28.58016!4d79.4163316!16s%2Fg%2F11fjt9vs3b!19sChIJmaBn0SYLoDkRQxLWrJk9Hio?authuser=0&hl=en&rclk=1",
        "coordinates": {
            "latitude": 28.58016,
            "longitude": 79.41633159999999
        }
    },
    {
        "name": "Wahidia Masjid",
        "main_category": "Mosque",
        "address": "HCC9+P93 Wahidia Masjid, Dhaura Tanda, Uttar Pradesh 243202",
        "detailed_address": {
            "ward": null,
            "street": "HCC9+P93",
            "city": "Dhaura Tanda",
            "postal_code": "243202",
            "state": "Uttar Pradesh",
            "country_code": "IN"
        },
        "images": [],
        "link": "https://www.google.com/maps/place/Wahidia+Masjid/data=!4m7!3m6!1s0x39a00a4e154366c9:0x4d8f092c6f95f708!8m2!3d28.5717504!4d79.4184066!16s%2Fg%2F11g9k1mz77!19sChIJyWZDFU4KoDkRCPeVbywJj00?authuser=0&hl=en&rclk=1",
        "coordinates": {
            "latitude": 28.5717504,
            "longitude": 79.4184066
        }
    },
    {
        "name": "Tandi Masjid (Juma Namaz 01:15)",
        "main_category": "Mosque",
        "address": "5QC7+2XH Tandi Masjid (Juma Namaz 01:15), Unnamed Road, Tandi, Shahpur Zadid, Uttar Pradesh 250222",
        "detailed_address": {
            "ward": null,
            "street": "5QC7+2XH, Unnamed Road",
            "city": "Tandi, Shahpur Zadid",
            "postal_code": "250222",
            "state": "Uttar Pradesh",
            "country_code": "IN"
        },
        "images": [
            {
                "about": "All",
                "link": "https://streetviewpixels-pa.googleapis.com/v1/thumbnail?panoid=vPz2n6N2K0cGHULby8bGBg&cb_client=maps_sv.tactile.gps&w=224&h=298&yaw=345.5635&pitch=0&thumbfov=100"
            },
            {
                "about": "Street View & 360deg",
                "link": "https://streetviewpixels-pa.googleapis.com/v1/thumbnail?panoid=vPz2n6N2K0cGHULby8bGBg&cb_client=maps_sv.tactile.gps&w=224&h=298&yaw=345.5635&pitch=0&thumbfov=100"
            }
        ],
        "link": "https://www.google.com/maps/place/Tandi+Masjid+%28Juma+Namaz+01:15%29/data=!4m7!3m6!1s0x390c7322d9aa1759:0x9d33f641c27224ba!8m2!3d29.1700731!4d77.76497!16s%2Fg%2F11rf9z5xt1!19sChIJWReq2SJzDDkRuiRywkH2M50?authuser=0&hl=en&rclk=1",
        "coordinates": {
            "latitude": 29.1700731,
            "longitude": 77.76496999999999
        }
    },
    {
        "name": "Masjid Bandde Wali",
        "main_category": "Mosque",
        "address": "RRM2+QC5 Masjid Bandde Wali, Moradabad, Khanpur Kasba Ahatmali, Uttar Pradesh 244001",
        "detailed_address": {
            "ward": null,
            "street": "RRM2+QC5",
            "city": "Moradabad, Khanpur Kasba Ahatmali",
            "postal_code": "244001",
            "state": "Uttar Pradesh",
            "country_code": "IN"
        },
        "images": [
            {
                "about": "All",
                "link": "https://lh5.googleusercontent.com/p/AF1QipMGIIjzrOOMIXmqZnVSCQ9937XKdX9Goj_4VNDS=w596-h298-k-no"
            },
            {
                "about": "Street View & 360deg",
                "link": "https://streetviewpixels-pa.googleapis.com/v1/thumbnail?panoid=Fw422kNYCkLyMD-L0vDw-A&cb_client=maps_sv.tactile.gps&w=224&h=298&yaw=302.11887&pitch=0&thumbfov=100"
            },
            {
                "about": "Videos",
                "link": "https://lh5.googleusercontent.com/p/AF1QipML_yo0LbbNBmhziBvn_64AWxG_3z0rPNv7xAjp=w224-h398-k-no"
            }
        ],
        "link": "https://www.google.com/maps/place/Masjid+Bandde+Wali/data=!4m7!3m6!1s0x390afb9bb03b5e71:0xd42a998b22f13e0b!8m2!3d28.8343955!4d78.8011017!16s%2Fg%2F11py6fcc16!19sChIJcV47sJv7CjkRCz7xIouZKtQ?authuser=0&hl=en&rclk=1",
        "coordinates": {
            "latitude": 28.8343955,
            "longitude": 78.80110169999999
        }
    },
    {
        "name": "MADEENA MASJID",
        "main_category": "Mosque",
        "address": "XV7C+349 MADEENA MASJID, BAHORANPUR KALAN, Moradabad, Uttar Pradesh 244001",
        "detailed_address": {
            "ward": null,
            "street": "XV7C+349, BAHORANPUR KALAN",
            "city": "Moradabad, Bahoranpur Kalan",
            "postal_code": "244001",
            "state": "Uttar Pradesh",
            "country_code": "IN"
        },
        "images": [
            {
                "about": "All",
                "link": "https://lh5.googleusercontent.com/p/AF1QipNn4zdoBi75VWfqpJPtFykVxFBgL5E6u7dm5zUe=w529-h298-k-no"
            },
            {
                "about": "Street View & 360deg",
                "link": "https://streetviewpixels-pa.googleapis.com/v1/thumbnail?panoid=11k6BsRQxGVkWpGk1YjmXA&cb_client=maps_sv.tactile.gps&w=224&h=298&yaw=114.28354&pitch=0&thumbfov=100"
            },
            {
                "about": "Videos",
                "link": "https://lh5.googleusercontent.com/p/AF1QipPKBJoeIxFjG9trS3sZNVD1GhAz7pCJhK65Yw3V=w224-h398-k-no"
            }
        ],
        "link": "https://www.google.com/maps/place/MADEENA+MASJID/data=!4m7!3m6!1s0x390a5870ee235c8f:0x4d32d0326a15fed4!8m2!3d28.9626719!4d78.8703568!16s%2Fg%2F11f_bz8x9w!19sChIJj1wj7nBYCjkR1P4VajLQMk0?authuser=0&hl=en&rclk=1",
        "coordinates": {
            "latitude": 28.9626719,
            "longitude": 78.8703568
        }
    },
    {
        "name": "Qasmi Masjid",
        "main_category": "Mosque",
        "address": "W6V6+PPV Qasmi Masjid, Baghpat Bangar, Baghpat, Uttar Pradesh 250609",
        "detailed_address": {
            "ward": "Baghpat Bangar",
            "street": "W6V6+PPV",
            "city": "Baghpat",
            "postal_code": "250609",
            "state": "Uttar Pradesh",
            "country_code": "IN"
        },
        "images": [
            {
                "about": "All",
                "link": "https://lh5.googleusercontent.com/p/AF1QipN0DmXEwWVWo5v5i5V0M3OPu8h6Onx6U95FBQgL=w224-h398-k-no"
            },
            {
                "about": "Street View & 360deg",
                "link": "https://streetviewpixels-pa.googleapis.com/v1/thumbnail?panoid=cjPvSUxQwabenlXNr7RVTA&cb_client=maps_sv.tactile.gps&w=224&h=298&yaw=147.10968&pitch=0&thumbfov=100"
            }
        ],
        "link": "https://www.google.com/maps/place/Qasmi+Masjid/data=!4m7!3m6!1s0x390c53b4f65ca3a9:0xaddf3dff27ace901!8m2!3d28.944353!4d77.2118004!16s%2Fg%2F11fm5wjyy4!19sChIJqaNc9rRTDDkRAemsJ_89360?authuser=0&hl=en&rclk=1",
        "coordinates": {
            "latitude": 28.944353,
            "longitude": 77.2118004
        }
    },
    {
        "name": "Baadiyan masjid",
        "main_category": "Mosque",
        "address": "4534+CHF Baadiyan masjid, Kotana, Uttar Pradesh 250611",
        "detailed_address": {
            "ward": null,
            "street": "4534+CHF",
            "city": "Kotana",
            "postal_code": null,
            "state": "Uttar Pradesh",
            "country_code": "IN"
        },
        "images": [],
        "link": "https://www.google.com/maps/place/Baadiyan+masjid/data=!4m7!3m6!1s0x390db5c3fa2ecab5:0x8e9a571c00c2441b!8m2!3d29.1035625!4d77.1564219!16s%2Fg%2F11h_ytl9s_!19sChIJtcou-sO1DTkRG0TCABxXmo4?authuser=0&hl=en&rclk=1",
        "coordinates": {
            "latitude": 29.1035625,
            "longitude": 77.1564219
        }
    },
    {
        "name": "sunhera madina masjid of sunhera",
        "main_category": "Mosque",
        "address": "W72J+GMP sunhera madina masjid of sunhera, Sunehra, Uttar Pradesh 250101",
        "detailed_address": {
            "ward": null,
            "street": "W72J+GMP",
            "city": "Sunehra",
            "postal_code": "250101",
            "state": "Uttar Pradesh",
            "country_code": "IN"
        },
        "images": [
            {
                "about": "All",
                "link": "https://lh5.googleusercontent.com/p/AF1QipMxI8j6mkeAPCA0oTFeu2dJTpJS5QyDAX65OhOX=w224-h298-k-no"
            },
            {
                "about": "Street View & 360deg",
                "link": "https://streetviewpixels-pa.googleapis.com/v1/thumbnail?panoid=uVg3880bI37jKw4Ix7Wcbw&cb_client=maps_sv.tactile.gps&w=224&h=298&yaw=113.24579&pitch=0&thumbfov=100"
            }
        ],
        "link": "https://www.google.com/maps/place/sunhera+madina+masjid+of+sunhera/data=!4m7!3m6!1s0x390c55a230852fc9:0x64a913dd26c5d57e!8m2!3d28.9013478!4d77.2817074!16s%2Fg%2F11fs__gbsq!19sChIJyS-FMKJVDDkRftXFJt0TqWQ?authuser=0&hl=en&rclk=1",
        "coordinates": {
            "latitude": 28.9013478,
            "longitude": 77.2817074
        }
    },
    {
        "name": "Masjid Ansariyan Tanda",
        "main_category": "Mosque",
        "address": "MJ7H+VJR Masjid Ansariyan Tanda, Tanda, Punjab 144204",
        "detailed_address": {
            "ward": null,
            "street": "MJ7H+VJR",
            "city": "Tanda",
            "postal_code": "144204",
            "state": "Punjab",
            "country_code": "IN"
        },
        "images": [],
        "link": "https://www.google.com/maps/place/Masjid+Ansariyan+Tanda/data=!4m7!3m6!1s0x391ba92ee4dcf18b:0x2d6a7a2f08ea8ad3!8m2!3d31.6647336!4d75.6290285!16s%2Fg%2F11hcn8x96m!19sChIJi_Hc5C6pGzkR04rqCC96ai0?authuser=0&hl=en&rclk=1",
        "coordinates": {
            "latitude": 31.664733599999998,
            "longitude": 75.62902849999999
        }
    },
    {
        "name": "Masjid Ahle Sunnat Wal Jamaat (Gumbad Wali)Hazrat Bilal Rz.masjid Mohalla Pachayan",
        "main_category": "Mosque",
        "address": "8PMF+2JG Masjid Ahle Sunnat Wal Jamaat (Gumbad Wali)Hazrat Bilal Rz.masjid Mohalla Pachayan, Islamnagar, Uttar Pradesh 243723",
        "detailed_address": {
            "ward": null,
            "street": "8PMF+2JG",
            "city": "Islamnagar",
            "postal_code": "243723",
            "state": "Uttar Pradesh",
            "country_code": "IN"
        },
        "images": [
            {
                "about": "All",
                "link": "https://lh5.googleusercontent.com/p/AF1QipND-_zl8-3HStixic_rbm0QZ0h2SzL3qYUFw-IP=w224-h398-k-no"
            },
            {
                "about": "Dome",
                "link": "https://lh5.googleusercontent.com/p/AF1QipNAwjYI-s77sZuwilN1nAQHykYRRzaExDMMxjaQ=w529-h298-k-no"
            }
        ],
        "link": "https://www.google.com/maps/place/Masjid+Ahle+Sunnat+Wal+Jamaat+%28Gumbad+Wali%29Hazrat+Bilal+Rz.masjid+Mohalla+Pachayan/data=!4m7!3m6!1s0x390ad6e7e2fe806d:0x2fca8195f0ce2db!8m2!3d28.3325686!4d78.7240828!16s%2Fg%2F11c7swqptv!19sChIJbYD-4ufWCjkR2-IMXxmo_AI?authuser=0&hl=en&rclk=1",
        "coordinates": {
            "latitude": 28.3325686,
            "longitude": 78.72408279999999
        }
    },
    {
        "name": "Jama Masjid Tanda",
        "main_category": "Mosque",
        "address": "Jama Masjid Tanda, Jama Masjid, Road, Tanda, Uttar Pradesh 244236",
        "detailed_address": {
            "ward": null,
            "street": "Jama Masjid, Road",
            "city": "Tanda",
            "postal_code": "244236",
            "state": "Uttar Pradesh",
            "country_code": "IN"
        },
        "images": [
            {
                "about": "All",
                "link": "https://lh5.googleusercontent.com/p/AF1QipNC7_h3wm5T3wHV29FPzyqJ_PsIypH798BqRjBd=w224-h498-k-no"
            },
            {
                "about": "Street View & 360deg",
                "link": "https://streetviewpixels-pa.googleapis.com/v1/thumbnail?panoid=JSj6vtgWYjFhx0HGNOfuBA&cb_client=maps_sv.tactile.gps&w=224&h=298&yaw=200.03012&pitch=0&thumbfov=100"
            },
            {
                "about": "Videos",
                "link": "https://lh5.googleusercontent.com/p/AF1QipOiHyVUh5FYIF-N5EidO1TUYyCbOt1nt8r_oZ4w=w224-h398-k-no"
            }
        ],
        "link": "https://www.google.com/maps/place/Jama+Masjid+Tanda/data=!4m7!3m6!1s0x390b0d39bd39775b:0xcfbf327699705198!8m2!3d28.8052012!4d78.3057054!16s%2Fg%2F11qvgq186q!19sChIJW3c5vTkNCzkRmFFwmXYyv88?authuser=0&hl=en&rclk=1",
        "coordinates": {
            "latitude": 28.8052012,
            "longitude": 78.3057054
        }
    },
    {
        "name": "Maryam MASJID Tanda",
        "main_category": "Mosque",
        "address": "74CV+R5W Maryam MASJID Tanda, Tanda, Nangal, Uttar Pradesh 250617",
        "detailed_address": {
            "ward": null,
            "street": "74CV+R5W",
            "city": "Tanda, Nangal",
            "postal_code": "250617",
            "state": "Uttar Pradesh",
            "country_code": "IN"
        },
        "images": [
            {
                "about": "All",
                "link": "https://streetviewpixels-pa.googleapis.com/v1/thumbnail?panoid=EX0Yj7sXxaGW5sRHe6M4tw&cb_client=maps_sv.tactile.gps&w=224&h=298&yaw=342.85956&pitch=0&thumbfov=100"
            },
            {
                "about": "Street View & 360deg",
                "link": "https://streetviewpixels-pa.googleapis.com/v1/thumbnail?panoid=EX0Yj7sXxaGW5sRHe6M4tw&cb_client=maps_sv.tactile.gps&w=224&h=298&yaw=342.85956&pitch=0&thumbfov=100"
            }
        ],
        "link": "https://www.google.com/maps/place/Maryam+MASJID+Tanda/data=!4m7!3m6!1s0x390dcd6f420276e3:0x108de9463ca45cf2!8m2!3d29.2721007!4d77.1429679!16s%2Fg%2F11fl8ny2wb!19sChIJ43YCQm_NDTkR8lykPEbpjRA?authuser=0&hl=en&rclk=1",
        "coordinates": {
            "latitude": 29.2721007,
            "longitude": 77.1429679
        }
    },
    {
        "name": "Qadri Masjid",
        "main_category": "Mosque",
        "address": "GMW8+4R8 Qadri Masjid, Mohammadpur Tanda, Uttar Pradesh 244302",
        "detailed_address": {
            "ward": null,
            "street": "GMW8+4R8",
            "city": "Mohammadpur Tanda",
            "postal_code": null,
            "state": "Uttar Pradesh",
            "country_code": "IN"
        },
        "images": [
            {
                "about": "All",
                "link": "https://lh5.googleusercontent.com/p/AF1QipNMqeNDMcmr0NZrsOZGPZbc2ZSXOrWynhnKPytS=w224-h397-k-no"
            },
            {
                "about": "Videos",
                "link": "https://lh5.googleusercontent.com/p/AF1QipNVk1pVGaFHDna9B0lrCH-a8rtAREJiAO8IAbIZ=w224-h398-k-no"
            }
        ],
        "link": "https://www.google.com/maps/place/Qadri+Masjid/data=!4m7!3m6!1s0x390adf8d41bd29af:0x185cc9311e930814!8m2!3d28.5452984!4d78.6670768!16s%2Fg%2F11gf994jf9!19sChIJrym9QY3fCjkRFAiTHjHJXBg?authuser=0&hl=en&rclk=1",
        "coordinates": {
            "latitude": 28.5452984,
            "longitude": 78.66707679999999
        }
    },
    {
        "name": "Makka Masjid Sardar Nagar",
        "main_category": "Mosque",
        "address": "WV5F+379 Makka Masjid Sardar Nagar, Tanda - Moradabad highway, Sardar Nagar, Moradabad, Uttar Pradesh",
        "detailed_address": {
            "ward": null,
            "street": "WV5F+379, Tanda - Moradabad highway, Sardar Nagar",
            "city": "Moradabad, Sardar Nagar",
            "postal_code": null,
            "state": "Uttar Pradesh",
            "country_code": "IN"
        },
        "images": [],
        "link": "https://www.google.com/maps/place/Makka+Masjid+Sardar+Nagar/data=!4m7!3m6!1s0x390af7f424439775:0x8f9deee337b186d!8m2!3d28.9076714!4d78.8732215!16s%2Fg%2F11g1h4ztwk!19sChIJdZdDJPT3CjkRbRh7M-7e-Qg?authuser=0&hl=en&rclk=1",
        "coordinates": {
            "latitude": 28.907671399999998,
            "longitude": 78.8732215
        }
    },
    {
        "name": "Sunehri Masjid",
        "main_category": "Mosque",
        "address": "MGRC+99M Sunehri Masjid, Richha, Uttar Pradesh 243203",
        "detailed_address": {
            "ward": null,
            "street": "MGRC+99M",
            "city": "Richha",
            "postal_code": "243203",
            "state": "Uttar Pradesh",
            "country_code": "IN"
        },
        "images": [],
        "link": "https://www.google.com/maps/place/Sunehri+Masjid/data=!4m7!3m6!1s0x39a07253fe704e15:0xb0f3ec1ee8e1c3a!8m2!3d28.6909662!4d79.5209193!16s%2Fg%2F11f1211fw4!19sChIJFU5w_lNyoDkROhyO7sE-Dws?authuser=0&hl=en&rclk=1",
        "coordinates": {
            "latitude": 28.6909662,
            "longitude": 79.5209193
        }
    },
    {
        "name": "Ameer Hamzah Mosque",
        "main_category": "Mosque",
        "address": "86FM+972 Ameer Hamzah Mosque, Uttar Pradesh 247775",
        "detailed_address": {
            "ward": null,
            "street": "86FM+972",
            "city": null,
            "postal_code": null,
            "state": "Uttar Pradesh",
            "country_code": "IN"
        },
        "images": [
            {
                "about": "All",
                "link": "https://lh5.googleusercontent.com/p/AF1QipM2-PCfZWdnkAmtjAUcGxhLm75mm4nyML0QNS4J=w252-h298-k-no"
            },
            {
                "about": "Street View & 360deg",
                "link": "https://streetviewpixels-pa.googleapis.com/v1/thumbnail?panoid=-lChuK0LAqsjFisVW9JDVA&cb_client=maps_sv.tactile.gps&w=224&h=298&yaw=138.73404&pitch=0&thumbfov=100"
            }
        ],
        "link": "https://www.google.com/maps/place/Ameer+Hamzah+Mosque/data=!4m7!3m6!1s0x390c32f0996a4a55:0x396860d36159f6f7!8m2!3d29.3233769!4d77.2331309!16s%2Fg%2F11hbbt9l4w!19sChIJVUpqmfAyDDkR9_ZZYdNgaDk?authuser=0&hl=en&rclk=1",
        "coordinates": {
            "latitude": 29.3233769,
            "longitude": 77.23313089999999
        }
    },
    {
        "name": "Masjid",
        "main_category": "Mosque",
        "address": "W6V8+WMQ Masjid, Unnamed Road, Baghpat Bangar, Baghpat, Uttar Pradesh 250609",
        "detailed_address": {
            "ward": "Baghpat Bangar",
            "street": "W6V8+WMQ, Unnamed Road",
            "city": "Baghpat",
            "postal_code": "250609",
            "state": "Uttar Pradesh",
            "country_code": "IN"
        },
        "images": [],
        "link": "https://www.google.com/maps/place/Masjid/data=!4m7!3m6!1s0x390c535a01d1a66d:0xfa70e36ec8a4499!8m2!3d28.9448344!4d77.2167417!16s%2Fg%2F11hytk_122!19sChIJbabRAVpTDDkRmUSK7DYOpw8?authuser=0&hl=en&rclk=1",
        "coordinates": {
            "latitude": 28.944834399999998,
            "longitude": 77.2167417
        }
    },
    {
        "name": "JAMA Masjid (Tanda)",
        "main_category": "Mosque",
        "address": "PHJF+9PF JAMA Masjid (Tanda), Tanda Kothi, Uttar Pradesh 244301",
        "detailed_address": {
            "ward": null,
            "street": "PHJF+9PF",
            "city": "Tanda Kothi",
            "postal_code": "244301",
            "state": "Uttar Pradesh",
            "country_code": "IN"
        },
        "images": [
            {
                "about": "All",
                "link": "https://lh5.googleusercontent.com/p/AF1QipOdYBh2n54y6tK-7XaBJ6NgXGBdrOB3jmItrA=w224-h497-k-no"
            }
        ],
        "link": "https://www.google.com/maps/place/JAMA+Masjid+%28Tanda%29/data=!4m7!3m6!1s0x390b1dc2d9404177:0x68c70d33a8437fc7!8m2!3d28.730928!4d78.5742851!16s%2Fg%2F11t9ls7z47!19sChIJd0FA2cIdCzkRx39DqDMNx2g?authuser=0&hl=en&rclk=1",
        "coordinates": {
            "latitude": 28.730928,
            "longitude": 78.5742851
        }
    },
    {
        "name": "Chhoti /Mohammadi masjid( Ahle Hadees)",
        "main_category": "Mosque",
        "address": "GHQF+GP4 Chhoti /Mohammadi masjid( Ahle Hadees), Gali No. 0, Tanda Sadat, Uttar Pradesh 243407",
        "detailed_address": {
            "ward": null,
            "street": "GHQF+GP4, Gali No. 0",
            "city": "Tanda Sadat",
            "postal_code": "243407",
            "state": "Uttar Pradesh",
            "country_code": "IN"
        },
        "images": [
            {
                "about": "All",
                "link": "https://lh5.googleusercontent.com/p/AF1QipPbtRYy9AjyNVNp5V7jn0ZRzhdwYSU3YwWgf5V4=w529-h298-k-no"
            }
        ],
        "link": "https://www.google.com/maps/place/Chhoti+%2FMohammadi+masjid%28+Ahle+Hadees%29/data=!4m7!3m6!1s0x39a011d2db46b525:0x16e4dffd1e254eea!8m2!3d28.5387693!4d79.5743253!16s%2Fg%2F11fwhsqtt4!19sChIJJbVG29IRoDkR6k4lHv3f5BY?authuser=0&hl=en&rclk=1",
        "coordinates": {
            "latitude": 28.5387693,
            "longitude": 79.5743253
        }
    },
    {
        "name": "Madina Masjid Bhagatpur mdiinaa msjid bhgtpur",
        "main_category": "Mosque",
        "address": "2V9W+W58 Madina Masjid Bhagatpur mdiinaa msjid bhgtpur, Bhagtpur Tanda, Uttar Pradesh 244402",
        "detailed_address": {
            "ward": null,
            "street": "2V9W+W58",
            "city": "Bhagtpur Tanda",
            "postal_code": "244402",
            "state": "Uttar Pradesh",
            "country_code": "IN"
        },
        "images": [
            {
                "about": "All",
                "link": "https://lh5.googleusercontent.com/p/AF1QipM0byV5LNZO4AC1k4VMh40B3mJnDUkg65PFQgW3=w529-h298-k-no"
            }
        ],
        "link": "https://www.google.com/maps/place/Madina+Masjid+Bhagatpur+%E0%A4%AE%E0%A4%A6%E0%A5%80%E0%A4%A8%E0%A4%BE+%E0%A4%AE%E0%A4%B8%E0%A5%8D%E0%A4%9C%E0%A4%BF%E0%A4%A6+%E0%A4%AD%E0%A4%97%E0%A4%A4%E0%A4%AA%E0%A5%81%E0%A4%B0/data=!4m7!3m6!1s0x390a59e4da2f10bf:0x136cd5bb7b32508!8m2!3d29.01979!4d78.8954502!16s%2Fg%2F11gt_v7_z8!19sChIJvxAv2uRZCjkRCCWzt1vNNgE?authuser=0&hl=en&rclk=1",
        "coordinates": {
            "latitude": 29.01979,
            "longitude": 78.8954502
        }
    },
    {
        "name": "Jama Masjid Bhagtwan",
        "main_category": "Mosque",
        "address": "2V5W+8C9 Jama Masjid Bhagtwan, Bhatgwan, Uttar Pradesh 244402",
        "detailed_address": {
            "ward": null,
            "street": "2V5W+8C9",
            "city": "Bhatgwan",
            "postal_code": "244402",
            "state": "Uttar Pradesh",
            "country_code": "IN"
        },
        "images": [],
        "link": "https://www.google.com/maps/place/Jama+Masjid+Bhagtwan/data=!4m7!3m6!1s0x390a59535d62b515:0x9794a36653bb7ffc!8m2!3d29.0082915!4d78.8960984!16s%2Fg%2F11gjx7w0hl!19sChIJFbViXVNZCjkR_H-7U2ajlJc?authuser=0&hl=en&rclk=1",
        "coordinates": {
            "latitude": 29.0082915,
            "longitude": 78.8960984
        }
    },
    {
        "name": "Jama Masjid",
        "main_category": "Mosque",
        "address": "XWJ8+G4R Jama Masjid, Malhupura Hardo Dandi, Uttar Pradesh 244402",
        "detailed_address": {
            "ward": null,
            "street": "XWJ8+G4R",
            "city": "Malhupura Hardo Dandi",
            "postal_code": null,
            "state": "Uttar Pradesh",
            "country_code": "IN"
        },
        "images": [
            {
                "about": "All",
                "link": "https://lh5.googleusercontent.com/p/AF1QipOiiA2V5s2ZVvs1v3pmyNHrEcwbv4hA8Bs9nyhS=w224-h398-k-no"
            }
        ],
        "link": "https://www.google.com/maps/place/Jama+Masjid/data=!4m7!3m6!1s0x390a58b8784d1bfb:0x6397c9dd31f3ac7f!8m2!3d28.9813604!4d78.915264!16s%2Fg%2F11gfm6v5vl!19sChIJ-xtNeLhYCjkRf6zzMd3Jl2M?authuser=0&hl=en&rclk=1",
        "coordinates": {
            "latitude": 28.9813604,
            "longitude": 78.915264
        }
    },
    {
        "name": "iidgaah dhnauraa",
        "main_category": "Mosque",
        "address": "28RP+7HF iidgaah dhnauraa, Dhanaura Silvernagar, Uttar Pradesh 250611",
        "detailed_address": {
            "ward": null,
            "street": "28RP+7HF",
            "city": "Dhanaura Silvernagar",
            "postal_code": null,
            "state": "Uttar Pradesh",
            "country_code": "IN"
        },
        "images": [
            {
                "about": "All",
                "link": "https://lh5.googleusercontent.com/p/AF1QipMgfxWKLYd4PjPeJ40NbG2E4sJvXEsKIgFfBxsK=w224-h398-k-no"
            },
            {
                "about": "Videos",
                "link": "https://lh5.googleusercontent.com/p/AF1QipPQrXRXyLuLHmljTr_G_1UlPXSgLQ52mzfjW3i-=w224-h398-k-no"
            }
        ],
        "link": "https://www.google.com/maps/place/%E0%A4%88%E0%A4%A6%E0%A4%97%E0%A4%BE%E0%A4%B9+%E0%A4%A7%E0%A4%A8%E0%A5%8C%E0%A4%B0%E0%A4%BE/data=!4m7!3m6!1s0x390c4fc42ff36531:0x2bb59e6657a9c41a!8m2!3d29.0406839!4d77.3364065!16s%2Fg%2F11jg_d8x78!19sChIJMWXzL8RPDDkRGsSpV2aetSs?authuser=0&hl=en&rclk=1",
        "coordinates": {
            "latitude": 29.040683899999998,
            "longitude": 77.3364065
        }
    },
    {
        "name": "msjd hli Hdyth khlN",
        "main_category": "Mosque",
        "address": "MGVC+MP7 msjd hli Hdyth khlN, Richha, Uttar Pradesh 243201",
        "detailed_address": {
            "ward": null,
            "street": "MGVC+MP7",
            "city": "Richha",
            "postal_code": "243201",
            "state": "Uttar Pradesh",
            "country_code": "IN"
        },
        "images": [
            {
                "about": "All",
                "link": "https://lh5.googleusercontent.com/p/AF1QipOJ3qjCuOWrsDVzHmf0AVhBMPCJo2qk08s_9utC=w529-h298-k-no"
            }
        ],
        "link": "https://www.google.com/maps/place/%D9%85%D8%B3%D8%AC%D8%AF+%D8%A7%DB%81%D9%84%D9%90+%D8%AD%D8%AF%DB%8C%D8%AB+%DA%A9%D9%84%D8%A7%DA%BA%E2%80%AD/data=!4m7!3m6!1s0x39a0737a4e8993c1:0xd5c5c8db76ae4ca0!8m2!3d28.6941725!4d79.5218089!16s%2Fg%2F11q4k4rc3d!19sChIJwZOJTnpzoDkRoEyudtvIxdU?authuser=0&hl=en&rclk=1",
        "coordinates": {
            "latitude": 28.694172499999997,
            "longitude": 79.5218089
        }
    },
    {
        "name": "Chand Masjid",
        "main_category": "Mosque",
        "address": "2VPQ+25P Chand Masjid, Sitapur Road, Baheri, Uttar Pradesh 244402",
        "detailed_address": {
            "ward": "Baheri",
            "street": "2VPQ+25P, Sitapur Road",
            "city": null,
            "postal_code": "244402",
            "state": "Uttar Pradesh",
            "country_code": "IN"
        },
        "images": [
            {
                "about": "All",
                "link": "https://lh5.googleusercontent.com/p/AF1QipOSp8KX-mesBBPRcoadOJ-x0wR3PUVst0zVLQ9n=w224-h473-k-no"
            },
            {
                "about": "Videos",
                "link": "https://lh5.googleusercontent.com/p/AF1QipMRgXqMyabRVIDSmDON6NwtLAZNGAgIPSqK5pfF=w224-h395-k-no"
            }
        ],
        "link": "https://www.google.com/maps/place/Chand+Masjid/data=!4m7!3m6!1s0x390a59f0a926f14b:0x89281d8b679cc45c!8m2!3d29.0350779!4d78.8879639!16s%2Fg%2F11h3rsc9wp!19sChIJS_EmqfBZCjkRXMScZ4sdKIk?authuser=0&hl=en&rclk=1",
        "coordinates": {
            "latitude": 29.035077899999997,
            "longitude": 78.8879639
        }
    },
    {
        "name": "Masjid E Talha",
        "main_category": "Mosque",
        "address": "XWFP+8VH Masjid E Talha, Mohalla, Dayampura, TandaUttar, Tanda, Uttar Pradesh 244925",
        "detailed_address": {
            "ward": null,
            "street": "XWFP+8VH, Mohalla, Dayampura, TandaUttar",
            "city": "Tanda",
            "postal_code": "244925",
            "state": "Uttar Pradesh",
            "country_code": "IN"
        },
        "images": [
            {
                "about": "All",
                "link": "https://streetviewpixels-pa.googleapis.com/v1/thumbnail?panoid=RudFwaNDQTxc533X_Eo_lw&cb_client=maps_sv.tactile.gps&w=224&h=298&yaw=287.55457&pitch=0&thumbfov=100"
            },
            {
                "about": "Street View & 360deg",
                "link": "https://streetviewpixels-pa.googleapis.com/v1/thumbnail?panoid=RudFwaNDQTxc533X_Eo_lw&cb_client=maps_sv.tactile.gps&w=224&h=298&yaw=287.55457&pitch=0&thumbfov=100"
            }
        ],
        "link": "https://www.google.com/maps/place/Masjid+E+Talha/data=!4m7!3m6!1s0x390a5f0d81ad93b9:0xe578d14919f7803!8m2!3d28.9733082!4d78.9372254!16s%2Fg%2F11h4msgcm1!19sChIJuZOtgQ1fCjkRA3ifkRSNVw4?authuser=0&hl=en&rclk=1",
        "coordinates": {
            "latitude": 28.973308199999998,
            "longitude": 78.9372254
        }
    },
    {
        "name": "Masjid Kham",
        "main_category": "Mosque",
        "address": "XWGR+PWP Masjid Kham, Eidgah Rd, Tanda, Uttar Pradesh 244925",
        "detailed_address": {
            "ward": null,
            "street": "XWGR+PWP, Eidgah Rd",
            "city": "Tanda",
            "postal_code": "244925",
            "state": "Uttar Pradesh",
            "country_code": "IN"
        },
        "images": [
            {
                "about": "All",
                "link": "https://lh5.googleusercontent.com/p/AF1QipP9epi5LiwL60Mfgze-9enFpknHgCSqmiVjLFgv=w224-h398-k-no"
            }
        ],
        "link": "https://www.google.com/maps/place/Masjid+Kham/data=!4m7!3m6!1s0x390a5f9f2590c34f:0xdffdbe54fa76c61e!8m2!3d28.9768421!4d78.9423312!16s%2Fg%2F11ghdnch93!19sChIJT8OQJZ9fCjkRHsZ2-lS-_d8?authuser=0&hl=en&rclk=1",
        "coordinates": {
            "latitude": 28.9768421,
            "longitude": 78.9423312
        }
    },
    {
        "name": "MASJID HAZRAT ALI (JAMALI)",
        "main_category": "Mosque",
        "address": "XW9W+72G MASJID HAZRAT ALI (JAMALI), Bhojpur - Kashipur Rd, Tanda, Uttar Pradesh 244925",
        "detailed_address": {
            "ward": null,
            "street": "XW9W+72G, Bhojpur - Kashipur Rd",
            "city": "Tanda",
            "postal_code": "244925",
            "state": "Uttar Pradesh",
            "country_code": "IN"
        },
        "images": [],
        "link": "https://www.google.com/maps/place/MASJID+HAZRAT+ALI+%28JAMALI%29/data=!4m7!3m6!1s0x390a5f1b5a9c2515:0xc04f80fe797433b9!8m2!3d28.9681916!4d78.9450849!16s%2Fg%2F11fl2x7c67!19sChIJFSWcWhtfCjkRuTN0ef6AT8A?authuser=0&hl=en&rclk=1",
        "coordinates": {
            "latitude": 28.968191599999997,
            "longitude": 78.9450849
        }
    },
    {
        "name": "Masjid maryam",
        "main_category": "Mosque",
        "address": "HCMC+43M Masjid maryam, Town, near Madarsa mohammadiya pin, Ward number 15, Dhaura Tanda, code 243202",
        "detailed_address": {
            "ward": "Ward number 15",
            "street": "HCMC+43M, Town, near Madarsa mohammadiya pin",
            "city": "Dhaura Tanda",
            "postal_code": "code 243202",
            "state": "Uttar Pradesh",
            "country_code": "IN"
        },
        "images": [
            {
                "about": "All",
                "link": "https://lh5.googleusercontent.com/p/AF1QipOdxSuCQ4zzWmtCxZ5bgCYwLzKILPNHPbkLN2Cj=w529-h298-k-no"
            }
        ],
        "link": "https://www.google.com/maps/place/Masjid+maryam/data=!4m7!3m6!1s0x39a00bf76a1f29ef:0x9ecfa601509c751e!8m2!3d28.582843!4d79.4201651!16s%2Fg%2F11rzh7mvvf!19sChIJ7ykfavcLoDkRHnWcUAGmz54?authuser=0&hl=en&rclk=1",
        "coordinates": {
            "latitude": 28.582843,
            "longitude": 79.42016509999999
        }
    },
    {
        "name": "Nehar Wali Masjid",
        "main_category": "Mosque",
        "address": "HCH8+9GW Nehar Wali Masjid, Dhaura Tanda, Uttar Pradesh 243203",
        "detailed_address": {
            "ward": null,
            "street": "HCH8+9GW",
            "city": "Dhaura Tanda",
            "postal_code": null,
            "state": "Uttar Pradesh",
            "country_code": "IN"
        },
        "images": [],
        "link": "https://www.google.com/maps/place/Nehar+Wali+Masjid/data=!4m7!3m6!1s0x39a00b11af0a4ebb:0x3ed2be8ae97bec9!8m2!3d28.5784855!4d79.4163137!16s%2Fg%2F11hy9jt1km!19sChIJu04KrxELoDkRyb6Xrugr7QM?authuser=0&hl=en&rclk=1",
        "coordinates": {
            "latitude": 28.5784855,
            "longitude": 79.4163137
        }
    },
    {
        "name": "Masjid E kosar",
        "main_category": "Mosque",
        "address": "XWFP+4WP Masjid E kosar, Tanda, Uttar Pradesh 244925",
        "detailed_address": {
            "ward": null,
            "street": "XWFP+4WP",
            "city": "Tanda",
            "postal_code": null,
            "state": "Uttar Pradesh",
            "country_code": "IN"
        },
        "images": [
            {
                "about": "All",
                "link": "https://streetviewpixels-pa.googleapis.com/v1/thumbnail?panoid=HGcyFIk8ZHjObb_GMF5j7A&cb_client=maps_sv.tactile.gps&w=224&h=298&yaw=342.81808&pitch=0&thumbfov=100"
            },
            {
                "about": "Street View & 360deg",
                "link": "https://streetviewpixels-pa.googleapis.com/v1/thumbnail?panoid=HGcyFIk8ZHjObb_GMF5j7A&cb_client=maps_sv.tactile.gps&w=224&h=298&yaw=342.81808&pitch=0&thumbfov=100"
            }
        ],
        "link": "https://www.google.com/maps/place/Masjid+E+kosar/data=!4m7!3m6!1s0x390a5f8c31a8f435:0xbd3e5e50df03ade9!8m2!3d28.9728323!4d78.9373332!16s%2Fg%2F11sj8kt3p1!19sChIJNfSoMYxfCjkR6a0D31BePr0?authuser=0&hl=en&rclk=1",
        "coordinates": {
            "latitude": 28.9728323,
            "longitude": 78.9373332
        }
    },
    {
        "name": "Masjid Ahle Hadees Kamal wali",
        "main_category": "Mosque",
        "address": "HCP9+4RG Masjid Ahle Hadees Kamal wali, Shahi Rd, Dhaura Tanda, Uttar Pradesh 243203",
        "detailed_address": {
            "ward": null,
            "street": "HCP9+4RG, Shahi Rd",
            "city": "Dhaura Tanda",
            "postal_code": "243203",
            "state": "Uttar Pradesh",
            "country_code": "IN"
        },
        "images": [],
        "link": "https://www.google.com/maps/place/Masjid+Ahle+Hadees+Kamal+wali/data=!4m7!3m6!1s0x39a00bfd43ae68fb:0x44fc8b4e07b24424!8m2!3d28.5853057!4d79.4195702!16s%2Fg%2F11fm7ds9cv!19sChIJ-2iuQ_0LoDkRJESyB06L_EQ?authuser=0&hl=en&rclk=1",
        "coordinates": {
            "latitude": 28.5853057,
            "longitude": 79.4195702
        }
    },
    {
        "name": "Salfi Masjid",
        "main_category": "Mosque",
        "address": "HCP9+4PQ Salfi Masjid, Dhaura Tanda, Uttar Pradesh 243203",
        "detailed_address": {
            "ward": null,
            "street": "HCP9+4PQ",
            "city": "Dhaura Tanda",
            "postal_code": null,
            "state": "Uttar Pradesh",
            "country_code": "IN"
        },
        "images": [],
        "link": "https://www.google.com/maps/place/Salfi+Masjid/data=!4m7!3m6!1s0x39a00b570f86f4db:0x5890883b5bbf26b8!8m2!3d28.5853271!4d79.4193541!16s%2Fg%2F11h4g9krvk!19sChIJ2_SGD1cLoDkRuCa_WzuIkFg?authuser=0&hl=en&rclk=1",
        "coordinates": {
            "latitude": 28.585327099999997,
            "longitude": 79.41935409999999
        }
    },
    {
        "name": "HTy wly msjd",
        "main_category": "Mosque",
        "address": "W3HR+2X6 HTy wly msjd, Super Rice Mill, Road, Khera Tanda, Uttar Pradesh 244924",
        "detailed_address": {
            "ward": null,
            "street": "W3HR+2X6 Super Rice Mill, Road",
            "city": "Khera Tanda",
            "postal_code": "244924",
            "state": "Uttar Pradesh",
            "country_code": "IN"
        },
        "images": [
            {
                "about": "All",
                "link": "https://lh5.googleusercontent.com/p/AF1QipPAG6yfczlC3Lzd52f-lVUkpknTiPYdTD_GCsIg=w224-h497-k-no"
            },
            {
                "about": "Dome",
                "link": "https://lh5.googleusercontent.com/p/AF1QipPAG6yfczlC3Lzd52f-lVUkpknTiPYdTD_GCsIg=w224-h497-k-no"
            }
        ],
        "link": "https://www.google.com/maps/place/%D8%AD%D8%A7%D8%B7%DB%92+%D9%88%D8%A7%D9%84%DB%8C+%D9%85%D8%B3%D8%AC%D8%AF%E2%80%AD/data=!4m7!3m6!1s0x390a8be51af8817b:0x30d35e5e597d304!8m2!3d28.926811!4d79.0922978!16s%2Fg%2F11jywyfr11!19sChIJe4H4GuWLCjkRBNOX5eU1DQM?authuser=0&hl=en&rclk=1",
        "coordinates": {
            "latitude": 28.926810999999997,
            "longitude": 79.0922978
        }
    },
    {
        "name": "Masjid Ahle Hadees Hakeem Ji Wali",
        "main_category": "Mosque",
        "address": "W245+48G Masjid Ahle Hadees Hakeem Ji Wali, Rampur Rd, Lalpur Kalan, Uttar Pradesh 244927",
        "detailed_address": {
            "ward": null,
            "street": "W245+48G, Rampur Rd",
            "city": "Lalpur Kalan",
            "postal_code": "244927",
            "state": "Uttar Pradesh",
            "country_code": "IN"
        },
        "images": [
            {
                "about": "All",
                "link": "https://lh5.googleusercontent.com/p/AF1QipOk10KO1Cm_vI5WdZpzZCTbmIg4YcDtvD9V1Rw8=w529-h298-k-no"
            },
            {
                "about": "Street View & 360deg",
                "link": "https://streetviewpixels-pa.googleapis.com/v1/thumbnail?panoid=7Pm5aNdyVtLoblv6g6rVvg&cb_client=maps_sv.tactile.gps&w=224&h=298&yaw=213.40276&pitch=0&thumbfov=100"
            }
        ],
        "link": "https://www.google.com/maps/place/Masjid+Ahle+Hadees+Hakeem+Ji+Wali/data=!4m7!3m6!1s0x390af50c15e9a9a5:0xd6702983da50e4f6!8m2!3d28.90531!4d79.0083195!16s%2Fg%2F11m9s7nbdb!19sChIJpanpFQz1CjkR9uRQ2oMpcNY?authuser=0&hl=en&rclk=1",
        "coordinates": {
            "latitude": 28.90531,
            "longitude": 79.0083195
        }
    },
    {
        "name": "Madina masjid",
        "main_category": "Mosque",
        "address": "QG2J+HQX Madina masjid, Miyangi, Uttar Pradesh 247554",
        "detailed_address": {
            "ward": null,
            "street": "QG2J+HQX",
            "city": "Miyangi",
            "postal_code": "247554",
            "state": "Uttar Pradesh",
            "country_code": "IN"
        },
        "images": [],
        "link": "https://www.google.com/maps/place/Madina+masjid/data=!4m7!3m6!1s0x390e99e984c4809d:0x371a88ba55caf610!8m2!3d29.7507708!4d77.5315615!16s%2Fg%2F11qgkkp515!19sChIJnYDEhOmZDjkREPbKVbqIGjc?authuser=0&hl=en&rclk=1",
        "coordinates": {
            "latitude": 29.750770799999998,
            "longitude": 77.5315615
        }
    },
    {
        "name": "Masjid Thotar",
        "main_category": "Mosque",
        "address": "R28H+76X Masjid Thotar, Kuncha Lala Miyan, Thotar, Rampur, Uttar Pradesh 244901",
        "detailed_address": {
            "ward": "Kuncha Lala Miyan",
            "street": "R28H+76X",
            "city": "Thotar, Rampur",
            "postal_code": null,
            "state": "Uttar Pradesh",
            "country_code": "IN"
        },
        "images": [],
        "link": "https://www.google.com/maps/place/Masjid+Thotar/data=!4m7!3m6!1s0x390a8d32c653ac29:0xd6a3df9a23e404a3!8m2!3d28.8157414!4d79.0281193!16s%2Fg%2F11llybh639!19sChIJKaxTxjKNCjkRowTkI5rfo9Y?authuser=0&hl=en&rclk=1",
        "coordinates": {
            "latitude": 28.8157414,
            "longitude": 79.0281193
        }
    },
    {
        "name": "Jama Masjid (Ahle Sunnat Wal Jamat)",
        "main_category": "Mosque",
        "address": "HCVF+4G2 Jama Masjid (Ahle Sunnat Wal Jamat), Dhanua, Uttar Pradesh 243203",
        "detailed_address": {
            "ward": null,
            "street": "HCVF+4G2",
            "city": "Dhanua",
            "postal_code": "243203",
            "state": "Uttar Pradesh",
            "country_code": "IN"
        },
        "images": [
            {
                "about": "All",
                "link": "https://lh5.googleusercontent.com/p/AF1QipOPs3rOfh6W9HrTUtpQkRMBrz_7GrtFtAMeIJYC=w224-h298-k-no"
            }
        ],
        "link": "https://www.google.com/maps/place/Jama+Masjid+%28Ahle+Sunnat+Wal+Jamat%29/data=!4m7!3m6!1s0x39a00ba35f45b17f:0xee8c87361179d233!8m2!3d28.5927513!4d79.4237538!16s%2Fg%2F11s0tl0nkf!19sChIJf7FFX6MLoDkRM9J5ETaHjO4?authuser=0&hl=en&rclk=1",
        "coordinates": {
            "latitude": 28.5927513,
            "longitude": 79.4237538
        }
    },
    {
        "name": "Kua bali masjid",
        "main_category": "Mosque",
        "address": "MHXP+3PV Kua bali masjid, Unnamed Road, Har Singhpur, Shafat Nagar, Uttar Pradesh 244301",
        "detailed_address": {
            "ward": null,
            "street": "MHXP+3PV, Unnamed Road",
            "city": "Har Singhpur, Shafat Nagar",
            "postal_code": "244301",
            "state": "Uttar Pradesh",
            "country_code": "IN"
        },
        "images": [
            {
                "about": "All",
                "link": "https://lh5.googleusercontent.com/p/AF1QipP4kDjpLctM4enAsd4q6i_jPHSL2iYkD7qSaSHn=w594-h298-k-no"
            },
            {
                "about": "Videos",
                "link": "https://lh5.googleusercontent.com/p/AF1QipPL6VAzu7uYeE5NljC9x9t0rVYXnsgJJxk9QDs=w224-h398-k-no"
            }
        ],
        "link": "https://www.google.com/maps/place/Kua+bali+masjid/data=!4m7!3m6!1s0x390b1d0e9a8ead43:0x74466a762366c422!8m2!3d28.6977262!4d78.5867823!16s%2Fg%2F11lgsbqm_l!19sChIJQ62Omg4dCzkRIsRmI3ZqRnQ?authuser=0&hl=en&rclk=1",
        "coordinates": {
            "latitude": 28.697726199999998,
            "longitude": 78.5867823
        }
    },
    {
        "name": "Madina Masjid Tanda",
        "main_category": "Mosque",
        "address": "R844+8G6 Madina Masjid Tanda, mdiinaa msjid, Tanda, Uttar Pradesh 244236",
        "detailed_address": {
            "ward": null,
            "street": "R844+8G6 mdiinaa msjid",
            "city": "Tanda",
            "postal_code": null,
            "state": "Uttar Pradesh",
            "country_code": "IN"
        },
        "images": [
            {
                "about": "All",
                "link": "https://lh5.googleusercontent.com/p/AF1QipOvWQza-Sq5v9DiXGn2iCgCpwN8hxpnvIr12yVy=w224-h398-k-no"
            },
            {
                "about": "Street View & 360deg",
                "link": "https://streetviewpixels-pa.googleapis.com/v1/thumbnail?panoid=6Y6qYXyYVs1j-7cd_UkFiA&cb_client=maps_sv.tactile.gps&w=224&h=298&yaw=279.47598&pitch=0&thumbfov=100"
            },
            {
                "about": "Videos",
                "link": "https://lh5.googleusercontent.com/p/AF1QipO7o3qIk6ObzmpZcOOj5G04WfPtmB7bxJBi2dh3=w224-h398-k-no"
            }
        ],
        "link": "https://www.google.com/maps/place/Madina+Masjid+Tanda/data=!4m7!3m6!1s0x390b0df0850627ad:0x1324cf312505c384!8m2!3d28.805343!4d78.305672!16s%2Fg%2F11r3stlrsn!19sChIJrScGhfANCzkRhMMFJTHPJBM?authuser=0&hl=en&rclk=1",
        "coordinates": {
            "latitude": 28.805342999999997,
            "longitude": 78.305672
        }
    },
    {
        "name": "Badi Masjid",
        "main_category": "Mosque",
        "address": "GV53+6GC Badi Masjid, Ahmadpur, Tanda, Agota, Uttar Pradesh 203001",
        "detailed_address": {
            "ward": "Tanda",
            "street": "GV53+6GC, Ahmadpur",
            "city": "Agota, Ahmadpurtanda",
            "postal_code": "203001",
            "state": "Uttar Pradesh",
            "country_code": "IN"
        },
        "images": [
            {
                "about": "All",
                "link": "https://lh5.googleusercontent.com/p/AF1QipM6ZAVpGyCUQktsi0vX-uDALAuM9-nZYDAB8BWp=w224-h362-k-no"
            }
        ],
        "link": "https://www.google.com/maps/place/Badi+Masjid/data=!4m7!3m6!1s0x390c9f897478bf21:0xaa78b7a9b8c90ad3!8m2!3d28.5080733!4d77.8537761!16s%2Fg%2F11svdm26nr!19sChIJIb94dImfDDkR0wrJuKm3eKo?authuser=0&hl=en&rclk=1",
        "coordinates": {
            "latitude": 28.5080733,
            "longitude": 77.85377609999999
        }
    },
    {
        "name": "Masjid",
        "main_category": "Mosque",
        "address": "CV5C+8PH Masjid, Tanda, Bulandshahr, Uttar Pradesh 203001",
        "detailed_address": {
            "ward": "Tanda",
            "street": "CV5C+8PH",
            "city": "Bulandshahr",
            "postal_code": "203001",
            "state": "Uttar Pradesh",
            "country_code": "IN"
        },
        "images": [],
        "link": "https://www.google.com/maps/place/Masjid/data=!4m7!3m6!1s0x390ca150ca3f8fdb:0x614d07e4f833b5c2!8m2!3d28.4083182!4d77.8718723!16s%2Fg%2F11j7vct3zs!19sChIJ248_ylChDDkRwrUz-OQHTWE?authuser=0&hl=en&rclk=1",
        "coordinates": {
            "latitude": 28.4083182,
            "longitude": 77.87187229999999
        }
    },
    {
        "name": "Masjid",
        "main_category": "Mosque",
        "address": "JQG7+3X9 Masjid, Tanda Amarpur, Uttar Pradesh 244415",
        "detailed_address": {
            "ward": null,
            "street": "JQG7+3X9",
            "city": "Tanda Amarpur",
            "postal_code": "244415",
            "state": "Uttar Pradesh",
            "country_code": "IN"
        },
        "images": [
            {
                "about": "All",
                "link": "https://streetviewpixels-pa.googleapis.com/v1/thumbnail?panoid=_KEVDqvEXcfUWyTrjkBQxg&cb_client=maps_sv.tactile.gps&w=224&h=298&yaw=309.9285&pitch=0&thumbfov=100"
            },
            {
                "about": "Street View & 360deg",
                "link": "https://streetviewpixels-pa.googleapis.com/v1/thumbnail?panoid=_KEVDqvEXcfUWyTrjkBQxg&cb_client=maps_sv.tactile.gps&w=224&h=298&yaw=309.9285&pitch=0&thumbfov=100"
            }
        ],
        "link": "https://www.google.com/maps/place/Masjid/data=!4m7!3m6!1s0x390ae75f0d5ec537:0xd084ea026f12e253!8m2!3d28.6251525!4d78.7649964!16s%2Fg%2F11pb1zfry6!19sChIJN8VeDV_nCjkRU-ISbwLqhNA?authuser=0&hl=en&rclk=1",
        "coordinates": {
            "latitude": 28.6251525,
            "longitude": 78.7649964
        }
    },
    {
        "name": "MASJID HAJRAT USMAN GANI & MADRASA RAMNAGAR TANDA",
        "main_category": "Place of worship",
        "address": "6HXQ+9G MASJID HAJRAT USMAN GANI & MADRASA RAMNAGAR TANDA, Hasanpur Palki, Uttar Pradesh 246746",
        "detailed_address": {
            "ward": null,
            "street": "6HXQ+9G",
            "city": "Hasanpur Palki",
            "postal_code": null,
            "state": "Uttar Pradesh",
            "country_code": "IN"
        },
        "images": [
            {
                "about": "All",
                "link": "https://streetviewpixels-pa.googleapis.com/v1/thumbnail?panoid=PE-UM7usfHmKtwZ-EqIHfg&cb_client=maps_sv.tactile.gps&w=224&h=298&yaw=246.9307&pitch=0&thumbfov=100"
            },
            {
                "about": "Street View & 360deg",
                "link": "https://streetviewpixels-pa.googleapis.com/v1/thumbnail?panoid=PE-UM7usfHmKtwZ-EqIHfg&cb_client=maps_sv.tactile.gps&w=224&h=298&yaw=246.9307&pitch=0&thumbfov=100"
            }
        ],
        "link": "https://www.google.com/maps/place/MASJID+HAJRAT+USMAN+GANI+%26+MADRASA+RAMNAGAR+TANDA/data=!4m7!3m6!1s0x390bb5dcb6c60751:0xbd78f15f66237729!8m2!3d29.248393!4d78.588848!16s%2Fg%2F11s69rzn4z!19sChIJUQfGtty1CzkRKXcjZl_xeL0?authuser=0&hl=en&rclk=1",
        "coordinates": {
            "latitude": 29.248393,
            "longitude": 78.588848
        }
    },
    {
        "name": "Masjid Aziziya Ahle Hadeesh",
        "main_category": "Mosque",
        "address": "HCJ6+4XR Masjid Aziziya Ahle Hadeesh, Dhaura Tanda, Uttar Pradesh 243203",
        "detailed_address": {
            "ward": null,
            "street": "HCJ6+4XR",
            "city": "Dhaura Tanda",
            "postal_code": "243203",
            "state": "Uttar Pradesh",
            "country_code": "IN"
        },
        "images": [
            {
                "about": "All",
                "link": "https://lh5.googleusercontent.com/p/AF1QipNSuivMyaJsRwtxzHbXg7sZXtHZea-AqJJgqeA3=w397-h298-k-no"
            }
        ],
        "link": "https://www.google.com/maps/place/Masjid+Aziziya+Ahle+Hadeesh/data=!4m7!3m6!1s0x39a00b94e1d613bd:0x146963bfa562c2a2!8m2!3d28.5804491!4d79.4123406!16s%2Fg%2F11t25p2c72!19sChIJvRPW4ZQLoDkRosJipb9jaRQ?authuser=0&hl=en&rclk=1",
        "coordinates": {
            "latitude": 28.5804491,
            "longitude": 79.4123406
        }
    },
    {
        "name": "Ahle Hadees Masjid Neem",
        "main_category": "Mosque",
        "address": "XWFV+P9J Ahle Hadees Masjid Neem, MDR 65W, Tanda, Uttar Pradesh 244925",
        "detailed_address": {
            "ward": null,
            "street": "XWFV+P9J, MDR 65W",
            "city": "Tanda",
            "postal_code": "244925",
            "state": "Uttar Pradesh",
            "country_code": "IN"
        },
        "images": [
            {
                "about": "All",
                "link": "https://streetviewpixels-pa.googleapis.com/v1/thumbnail?panoid=WKA-_rlsseutLbH3ha8wEw&cb_client=maps_sv.tactile.gps&w=224&h=298&yaw=158.8227&pitch=0&thumbfov=100"
            },
            {
                "about": "Street View & 360deg",
                "link": "https://streetviewpixels-pa.googleapis.com/v1/thumbnail?panoid=WKA-_rlsseutLbH3ha8wEw&cb_client=maps_sv.tactile.gps&w=224&h=298&yaw=158.8227&pitch=0&thumbfov=100"
            }
        ],
        "link": "https://www.google.com/maps/place/Ahle+Hadees+Masjid+Neem/data=!4m7!3m6!1s0x390a5f780dfaa581:0x28db75360f7e312a!8m2!3d28.9743344!4d78.9434039!16s%2Fg%2F11h0_xk6lt!19sChIJgaX6DXhfCjkRKjF-DzZ12yg?authuser=0&hl=en&rclk=1",
        "coordinates": {
            "latitude": 28.9743344,
            "longitude": 78.94340389999999
        }
    },
    {
        "name": "Lal masjid",
        "main_category": "Mosque",
        "address": "XWGV+35Q Lal masjid, Tanda, Uttar Pradesh 244925",
        "detailed_address": {
            "ward": null,
            "street": "XWGV+35Q",
            "city": "Tanda",
            "postal_code": null,
            "state": "Uttar Pradesh",
            "country_code": "IN"
        },
        "images": [
            {
                "about": "All",
                "link": "https://streetviewpixels-pa.googleapis.com/v1/thumbnail?panoid=vHkLXwuBnj2-VvUjfDAFmA&cb_client=maps_sv.tactile.gps&w=224&h=298&yaw=84.44358&pitch=0&thumbfov=100"
            },
            {
                "about": "Street View & 360deg",
                "link": "https://streetviewpixels-pa.googleapis.com/v1/thumbnail?panoid=vHkLXwuBnj2-VvUjfDAFmA&cb_client=maps_sv.tactile.gps&w=224&h=298&yaw=84.44358&pitch=0&thumbfov=100"
            }
        ],
        "link": "https://www.google.com/maps/place/Lal+masjid/data=!4m7!3m6!1s0x390a5fab4aa2237b:0xedae3216bbc80286!8m2!3d28.9752048!4d78.9429801!16s%2Fg%2F11flw4gpkt!19sChIJeyOiSqtfCjkRhgLIuxYyru0?authuser=0&hl=en&rclk=1",
        "coordinates": {
            "latitude": 28.9752048,
            "longitude": 78.9429801
        }
    },
    {
        "name": "Takiya Wali Masjid",
        "main_category": "Mosque",
        "address": "HCJ7+GWP Takiya Wali Masjid, Dhaura Tanda, Uttar Pradesh 243203",
        "detailed_address": {
            "ward": null,
            "street": "HCJ7+GWP",
            "city": "Dhaura Tanda",
            "postal_code": "243203",
            "state": "Uttar Pradesh",
            "country_code": "IN"
        },
        "images": [],
        "link": "https://www.google.com/maps/place/Takiya+Wali+Masjid/data=!4m7!3m6!1s0x39a00a57778a393b:0x33aa9c03acf61475!8m2!3d28.5813464!4d79.4148333!16s%2Fg%2F11dxb1l09_!19sChIJOzmKd1cKoDkRdRT2rAOcqjM?authuser=0&hl=en&rclk=1",
        "coordinates": {
            "latitude": 28.581346399999997,
            "longitude": 79.4148333
        }
    },
    {
        "name": "Jama masjid ahle sunnat",
        "main_category": "Mosque",
        "address": "HCF9+M6H Jama masjid ahle sunnat, Dhaura Tanda, Uttar Pradesh 243202",
        "detailed_address": {
            "ward": null,
            "street": "HCF9+M6H",
            "city": "Dhaura Tanda",
            "postal_code": "243202",
            "state": "Uttar Pradesh",
            "country_code": "IN"
        },
        "images": [
            {
                "about": "All",
                "link": "https://streetviewpixels-pa.googleapis.com/v1/thumbnail?panoid=lnOvxb4k7dYr9F0Lbm1ruQ&cb_client=maps_sv.tactile.gps&w=224&h=298&yaw=151.19376&pitch=0&thumbfov=100"
            },
            {
                "about": "Street View & 360deg",
                "link": "https://streetviewpixels-pa.googleapis.com/v1/thumbnail?panoid=lnOvxb4k7dYr9F0Lbm1ruQ&cb_client=maps_sv.tactile.gps&w=224&h=298&yaw=151.19376&pitch=0&thumbfov=100"
            }
        ],
        "link": "https://www.google.com/maps/place/Jama+masjid+ahle+sunnat/data=!4m7!3m6!1s0x39a00b37ac544311:0x2c17f984fc8c3fc2!8m2!3d28.5743273!4d79.4180338!16s%2Fg%2F11srkdmv7p!19sChIJEUNUrDcLoDkRwj-M_IT5Fyw?authuser=0&hl=en&rclk=1",
        "coordinates": {
            "latitude": 28.5743273,
            "longitude": 79.4180338
        }
    },
    {
        "name": "Jama Masjid Bhagatpur",
        "main_category": "Mosque",
        "address": "2V8W+M54 Jama Masjid Bhagatpur, Bhagtpur Tanda, Uttar Pradesh 244402",
        "detailed_address": {
            "ward": null,
            "street": "2V8W+M54",
            "city": "Bhagtpur Tanda",
            "postal_code": "244402",
            "state": "Uttar Pradesh",
            "country_code": "IN"
        },
        "images": [
            {
                "about": "All",
                "link": "https://lh5.googleusercontent.com/p/AF1QipN13mTtJoRb03dgAorfpnxtwF73Llk8bXBqWt6i=w224-h298-k-no"
            }
        ],
        "link": "https://www.google.com/maps/place/Jama+Masjid+Bhagatpur/data=!4m7!3m6!1s0x390a59102026b679:0x4a0a58e0e730b45!8m2!3d29.0166356!4d78.8954452!16s%2Fg%2F11dxjyh766!19sChIJebYmIBBZCjkRRQtzDo6loAQ?authuser=0&hl=en&rclk=1",
        "coordinates": {
            "latitude": 29.016635599999997,
            "longitude": 78.8954452
        }
    },
    {
        "name": "MASJID MAHMOODPUR GARHI",
        "main_category": "Mosque",
        "address": "W2G9+5R3 MASJID MAHMOODPUR GARHI, Mahmudpur Garvi, Uttar Pradesh 250104",
        "detailed_address": {
            "ward": null,
            "street": "W2G9+5R3",
            "city": "Mahmudpur Garvi",
            "postal_code": "250104",
            "state": "Uttar Pradesh",
            "country_code": "IN"
        },
        "images": [
            {
                "about": "All",
                "link": "https://streetviewpixels-pa.googleapis.com/v1/thumbnail?panoid=IqJsuHphzevk9snDIA2iyQ&cb_client=maps_sv.tactile.gps&w=224&h=298&yaw=133.08058&pitch=0&thumbfov=100"
            },
            {
                "about": "Street View & 360deg",
                "link": "https://streetviewpixels-pa.googleapis.com/v1/thumbnail?panoid=IqJsuHphzevk9snDIA2iyQ&cb_client=maps_sv.tactile.gps&w=224&h=298&yaw=133.08058&pitch=0&thumbfov=100"
            }
        ],
        "link": "https://www.google.com/maps/place/MASJID+MAHMOODPUR+GARHI/data=!4m7!3m6!1s0x390b8173325af5a9:0x127984982acae272!8m2!3d28.9253!4d78.0196125!16s%2Fg%2F11ptxtckdf!19sChIJqfVaMnOBCzkRcuLKKpiEeRI?authuser=0&hl=en&rclk=1",
        "coordinates": {
            "latitude": 28.9253,
            "longitude": 78.0196125
        }
    },
    {
        "name": "Masjid belhaiya tanda",
        "main_category": "Mosque",
        "address": "FF24+6J6 Masjid belhaiya tanda, Unnamed Road, Dighia, Uttar Pradesh 261401",
        "detailed_address": {
            "ward": null,
            "street": "FF24+6J6, Unnamed Road",
            "city": "Dighia",
            "postal_code": "261401",
            "state": "Uttar Pradesh",
            "country_code": "IN"
        },
        "images": [
            {
                "about": "All",
                "link": "https://lh5.googleusercontent.com/p/AF1QipO6QnVBucYvDtnPaWqPXyMNgnQy-d38O-9YUg7W=w224-h497-k-no"
            }
        ],
        "link": "https://www.google.com/maps/place/Masjid+belhaiya+tanda/data=!4m7!3m6!1s0x399edd800c6becef:0x37d787738004f73a!8m2!3d27.4505395!4d80.4565109!16s%2Fg%2F11r6kdnkcv!19sChIJ7-xrDIDdnjkROvcEgHOH1zc?authuser=0&hl=en&rclk=1",
        "coordinates": {
            "latitude": 27.450539499999998,
            "longitude": 80.4565109
        }
    },
    {
        "name": "Jama Masjid",
        "main_category": "Mosque",
        "address": "WRGX+3G5 Jama Masjid, Bhagatpur, Uttar Pradesh 244402",
        "detailed_address": {
            "ward": null,
            "street": "WRGX+3G5",
            "city": "Bhagatpur",
            "postal_code": "244402",
            "state": "Uttar Pradesh",
            "country_code": "IN"
        },
        "images": [
            {
                "about": "All",
                "link": "https://lh5.googleusercontent.com/p/AF1QipO3UV_d7Jzu_1bpat-12JGnHyubSxt6R-rgGmpQ=w224-h298-k-no"
            },
            {
                "about": "Videos",
                "link": "https://lh5.googleusercontent.com/p/AF1QipMIfJj0cS66ZAQiEbkj5cEx7nMoE7fty1d50kzO=w224-h398-k-no"
            }
        ],
        "link": "https://www.google.com/maps/place/Jama+Masjid/data=!4m7!3m6!1s0x390af7465b987a15:0xb3194e2cc162c609!8m2!3d28.9246463!4d78.8490258!16s%2Fg%2F11rm_76mfr!19sChIJFXqYW0b3CjkRCcZiwSxOGbM?authuser=0&hl=en&rclk=1",
        "coordinates": {
            "latitude": 28.9246463,
            "longitude": 78.84902579999999
        }
    },
    {
        "name": "Masjid Rogdaan",
        "main_category": "Mosque",
        "address": "68X4+34V Masjid Rogdaan, Asara, Uttar Pradesh 250623",
        "detailed_address": {
            "ward": null,
            "street": "68X4+34V",
            "city": "Asara",
            "postal_code": "250623",
            "state": "Uttar Pradesh",
            "country_code": "IN"
        },
        "images": [
            {
                "about": "All",
                "link": "https://streetviewpixels-pa.googleapis.com/v1/thumbnail?panoid=2gSwY3EHmIpMVeM7LP4row&cb_client=maps_sv.tactile.gps&w=224&h=298&yaw=9.041668&pitch=0&thumbfov=100"
            },
            {
                "about": "Street View & 360deg",
                "link": "https://streetviewpixels-pa.googleapis.com/v1/thumbnail?panoid=2gSwY3EHmIpMVeM7LP4row&cb_client=maps_sv.tactile.gps&w=224&h=298&yaw=9.041668&pitch=0&thumbfov=100"
            }
        ],
        "link": "https://www.google.com/maps/place/Masjid+Rogdaan/data=!4m7!3m6!1s0x390c3695b70b85c7:0x6ffed0fe8f234e69!8m2!3d29.2477347!4d77.3052919!16s%2Fg%2F11d_yth1_r!19sChIJx4ULt5U2DDkRaU4jj_7Q_m8?authuser=0&hl=en&rclk=1",
        "coordinates": {
            "latitude": 29.2477347,
            "longitude": 77.3052919
        }
    },
    {
        "name": "Masjid",
        "main_category": "Mosque",
        "address": "R8MQ+8WC Masjid, Rataul, Uttar Pradesh 250101",
        "detailed_address": {
            "ward": null,
            "street": "R8MQ+8WC",
            "city": "Rataul",
            "postal_code": "250101",
            "state": "Uttar Pradesh",
            "country_code": "IN"
        },
        "images": [
            {
                "about": "All",
                "link": "https://streetviewpixels-pa.googleapis.com/v1/thumbnail?panoid=K698yPkC4eZGOuBOpbeMwg&cb_client=maps_sv.tactile.gps&w=224&h=298&yaw=259.0403&pitch=0&thumbfov=100"
            },
            {
                "about": "Street View & 360deg",
                "link": "https://streetviewpixels-pa.googleapis.com/v1/thumbnail?panoid=K698yPkC4eZGOuBOpbeMwg&cb_client=maps_sv.tactile.gps&w=224&h=298&yaw=259.0403&pitch=0&thumbfov=100"
            }
        ],
        "link": "https://www.google.com/maps/place/Masjid/data=!4m7!3m6!1s0x390c57cef24cc299:0x81fa3191b7d3d3d!8m2!3d28.8333117!4d77.3397708!16s%2Fg%2F11dd_r6cjs!19sChIJmcJM8s5XDDkRPT19GxmjHwg?authuser=0&hl=en&rclk=1",
        "coordinates": {
            "latitude": 28.8333117,
            "longitude": 77.3397708
        }
    },
    {
        "name": "New masjid(Raza masjid)",
        "main_category": "Mosque",
        "address": "74MJ+3V6 New masjid(Raza masjid), Manauna, Uttar Pradesh 243301",
        "detailed_address": {
            "ward": null,
            "street": "74MJ+3V6",
            "city": "Manauna",
            "postal_code": "243301",
            "state": "Uttar Pradesh",
            "country_code": "IN"
        },
        "images": [
            {
                "about": "All",
                "link": "https://lh5.googleusercontent.com/p/AF1QipNheT0X6s56CVmRQEoV4OOMJ2bWDE4tNQfY-x6V=w224-h298-k-no"
            }
        ],
        "link": "https://www.google.com/maps/place/New+masjid%28Raza+masjid%29/data=!4m7!3m6!1s0x390ab3495b37db7b:0x2a8e71e3f752851f!8m2!3d28.2826625!4d79.1321259!16s%2Fg%2F11r_thpmpy!19sChIJe9s3W0mzCjkRH4VS9-Nxjio?authuser=0&hl=en&rclk=1",
        "coordinates": {
            "latitude": 28.282662499999997,
            "longitude": 79.13212589999999
        }
    },
    {
        "name": "Madina Masjid",
        "main_category": "Mosque",
        "address": "36WR+RH6 Madina Masjid, Rariya, Hasanpur Tanda, Uttar Pradesh 225305",
        "detailed_address": {
            "ward": null,
            "street": "36WR+RH6, Rariya",
            "city": "Hasanpur Tanda",
            "postal_code": "225305",
            "state": "Uttar Pradesh",
            "country_code": "IN"
        },
        "images": [
            {
                "about": "All",
                "link": "https://lh5.googleusercontent.com/p/AF1QipOqrYbSNDqRIrL9ERi4Xjf6h89_170DRrZEtUB0=w397-h298-k-no"
            }
        ],
        "link": "https://www.google.com/maps/place/Madina+Masjid/data=!4m7!3m6!1s0x399969cf69e7f7cf:0x4584b3b30ac8a626!8m2!3d27.097027!4d81.241405!16s%2Fg%2F11r_f8cvm7!19sChIJz_fnac9pmTkRJqbICrOzhEU?authuser=0&hl=en&rclk=1",
        "coordinates": {
            "latitude": 27.097026999999997,
            "longitude": 81.241405
        }
    },
    {
        "name": "Masjid Ala hazrat Ashrafi",
        "main_category": "Mosque",
        "address": "GMX5+P95 Masjid Ala hazrat Ashrafi, Tanda, Uttar Pradesh 224190",
        "detailed_address": {
            "ward": null,
            "street": "GMX5+P95",
            "city": "Tanda",
            "postal_code": "224190",
            "state": "Uttar Pradesh",
            "country_code": "IN"
        },
        "images": [
            {
                "about": "All",
                "link": "https://streetviewpixels-pa.googleapis.com/v1/thumbnail?panoid=JjWhaxlH8gIrEWHslZpVzw&cb_client=maps_sv.tactile.gps&w=224&h=298&yaw=191.26276&pitch=0&thumbfov=100"
            },
            {
                "about": "Street View & 360deg",
                "link": "https://streetviewpixels-pa.googleapis.com/v1/thumbnail?panoid=JjWhaxlH8gIrEWHslZpVzw&cb_client=maps_sv.tactile.gps&w=224&h=298&yaw=191.26276&pitch=0&thumbfov=100"
            }
        ],
        "link": "https://www.google.com/maps/place/Masjid+Ala+hazrat+Ashrafi/data=!4m7!3m6!1s0x3990e9067c45edef:0x2b25fd826dfe2749!8m2!3d26.5492615!4d82.6584716!16s%2Fg%2F11hy9n3l08!19sChIJ7-1FfAbpkDkRSSf-bYL9JSs?authuser=0&hl=en&rclk=1",
        "coordinates": {
            "latitude": 26.5492615,
            "longitude": 82.6584716
        }
    },
    {
        "name": "Madina Masjid",
        "main_category": "Mosque",
        "address": "GH6G+JV4 Madina Masjid, Khusropur, Uttar Pradesh 251311",
        "detailed_address": {
            "ward": null,
            "street": "GH6G+JV4",
            "city": "Khusropur",
            "postal_code": "251311",
            "state": "Uttar Pradesh",
            "country_code": "IN"
        },
        "images": [
            {
                "about": "All",
                "link": "https://streetviewpixels-pa.googleapis.com/v1/thumbnail?panoid=f3mYmRUlMmlpq95D5W0q1Q&cb_client=maps_sv.tactile.gps&w=224&h=298&yaw=56.956757&pitch=0&thumbfov=100"
            },
            {
                "about": "Street View & 360deg",
                "link": "https://streetviewpixels-pa.googleapis.com/v1/thumbnail?panoid=f3mYmRUlMmlpq95D5W0q1Q&cb_client=maps_sv.tactile.gps&w=224&h=298&yaw=56.956757&pitch=0&thumbfov=100"
            }
        ],
        "link": "https://www.google.com/maps/place/Madina+Masjid/data=!4m7!3m6!1s0x390c1fe919eacb37:0xc9187062b1a06059!8m2!3d29.5115107!4d77.5771965!16s%2Fg%2F11hh_shqx4!19sChIJN8vqGekfDDkRWWCgsWJwGMk?authuser=0&hl=en&rclk=1",
        "coordinates": {
            "latitude": 29.5115107,
            "longitude": 77.5771965
        }
    },
    {
        "name": "Tanda Masjid ttndd msjd",
        "main_category": "Mosque",
        "address": "5PR3+XFJ Tanda Masjid ttndd msjd, Tanda, Uttar Pradesh 250223",
        "detailed_address": {
            "ward": null,
            "street": "5PR3+XFJ",
            "city": "Tanda",
            "postal_code": "250223",
            "state": "Uttar Pradesh",
            "country_code": "IN"
        },
        "images": [
            {
                "about": "All",
                "link": "https://lh5.googleusercontent.com/p/AF1QipP5L2VroW56iOkJ3mNfydgOFSsWoEr6NuBwV1VY=w639-h298-k-no"
            }
        ],
        "link": "https://www.google.com/maps/place/Tanda+Masjid+%D9%B9%D8%A7%D9%86%DA%88%D8%A7+%D9%85%D8%B3%D8%AC%D8%AF%E2%80%AD/data=!4m7!3m6!1s0x390c6d03341c8a01:0x6aaccb0f0ca9bdad!8m2!3d29.1924632!4d77.7036344!16s%2Fg%2F11v525vg0s!19sChIJAYocNANtDDkRrb2pDA_LrGo?authuser=0&hl=en&rclk=1",
        "coordinates": {
            "latitude": 29.1924632,
            "longitude": 77.7036344
        }
    },
    {
        "name": "MAHELLA FAKRUDDIN ALI KHAN TANDA KHAN CHOK",
        "main_category": "Mosque",
        "address": "74FW+G3H MAHELLA FAKRUDDIN ALI KHAN TANDA KHAN CHOK, Tanda, Nangal, Uttar Pradesh 250617",
        "detailed_address": {
            "ward": null,
            "street": "74FW+G3H",
            "city": "Tanda, Nangal",
            "postal_code": null,
            "state": "Uttar Pradesh",
            "country_code": "IN"
        },
        "images": [
            {
                "about": "All",
                "link": "https://streetviewpixels-pa.googleapis.com/v1/thumbnail?panoid=V0z_jLeyhG791wXyOeRFtg&cb_client=maps_sv.tactile.gps&w=224&h=298&yaw=298.5924&pitch=0&thumbfov=100"
            },
            {
                "about": "Street View & 360deg",
                "link": "https://streetviewpixels-pa.googleapis.com/v1/thumbnail?panoid=V0z_jLeyhG791wXyOeRFtg&cb_client=maps_sv.tactile.gps&w=224&h=298&yaw=298.5924&pitch=0&thumbfov=100"
            }
        ],
        "link": "https://www.google.com/maps/place/MAHELLA+FAKRUDDIN+ALI+KHAN+TANDA+KHAN+CHOK/data=!4m7!3m6!1s0x390dcde0b3fffc6d:0xd280f6ea1fb682f4!8m2!3d29.2738211!4d77.1452318!16s%2Fg%2F11s42v2_48!19sChIJbfz_s-DNDTkR9IK2H-r2gNI?authuser=0&hl=en&rclk=1",
        "coordinates": {
            "latitude": 29.2738211,
            "longitude": 77.14523179999999
        }
    },
    {
        "name": "madeena masjid",
        "main_category": "Mosque",
        "address": "GMW8+4RC madeena masjid, Mohammadpur Tanda, Uttar Pradesh 244302",
        "detailed_address": {
            "ward": null,
            "street": "GMW8+4RC",
            "city": "Mohammadpur Tanda",
            "postal_code": null,
            "state": "Uttar Pradesh",
            "country_code": "IN"
        },
        "images": [
            {
                "about": "All",
                "link": "https://lh5.googleusercontent.com/p/AF1QipNm3kWdUCT7aA1r1A6JnTqbwCVsG4Nx-tTFfwvh=w296-h298-k-no"
            }
        ],
        "link": "https://www.google.com/maps/place/madeena+masjid/data=!4m7!3m6!1s0x390adf8d404dc611:0xde55af7cb0956e5c!8m2!3d28.5453083!4d78.6670194!16s%2Fg%2F11hbkzlv7q!19sChIJEcZNQI3fCjkRXG6VsHyvVd4?authuser=0&hl=en&rclk=1",
        "coordinates": {
            "latitude": 28.5453083,
            "longitude": 78.6670194
        }
    },
    {
        "name": "Masjid Son Baras",
        "main_category": "Mosque",
        "address": "75C2+CP4 Masjid Son Baras, Tanda - Ramala Rd, Kirthal, Nangal, Uttar Pradesh 250617",
        "detailed_address": {
            "ward": null,
            "street": "75C2+CP4, Tanda - Ramala Rd",
            "city": "Kirthal, Nangal",
            "postal_code": null,
            "state": "Uttar Pradesh",
            "country_code": "IN"
        },
        "images": [
            {
                "about": "All",
                "link": "https://streetviewpixels-pa.googleapis.com/v1/thumbnail?panoid=_9agf9P2fRF2sYxILaFomg&cb_client=maps_sv.tactile.gps&w=224&h=298&yaw=241.21582&pitch=0&thumbfov=100"
            },
            {
                "about": "Street View & 360deg",
                "link": "https://streetviewpixels-pa.googleapis.com/v1/thumbnail?panoid=_9agf9P2fRF2sYxILaFomg&cb_client=maps_sv.tactile.gps&w=224&h=298&yaw=241.21582&pitch=0&thumbfov=100"
            }
        ],
        "link": "https://www.google.com/maps/place/Masjid+Son+Baras/data=!4m7!3m6!1s0x390dcd8e47923fbf:0x4458d5bc4b3b655d!8m2!3d29.2710151!4d77.151832!16s%2Fg%2F11h76kt89p!19sChIJvz-SR47NDTkRXWU7S7zVWEQ?authuser=0&hl=en&rclk=1",
        "coordinates": {
            "latitude": 29.2710151,
            "longitude": 77.151832
        }
    },
    {
        "name": "Jama masjid",
        "main_category": "Mosque",
        "address": "67FF+C4F Jama masjid, Tanda - Ramala Rd, Ramala, Uttar Pradesh 250623",
        "detailed_address": {
            "ward": null,
            "street": "67FF+C4F, Tanda - Ramala Rd",
            "city": "Ramala",
            "postal_code": null,
            "state": "Uttar Pradesh",
            "country_code": "IN"
        },
        "images": [],
        "link": "https://www.google.com/maps/place/Jama+masjid/data=!4m7!3m6!1s0x390c3528669689a7:0xf851ee7a8c7f3c74!8m2!3d29.2235632!4d77.2727909!16s%2Fg%2F11t0y1z7ms!19sChIJp4mWZig1DDkRdDx_jHruUfg?authuser=0&hl=en&rclk=1",
        "coordinates": {
            "latitude": 29.223563199999997,
            "longitude": 77.27279089999999
        }
    },
    {
        "name": "Gujarwala tanda badli",
        "main_category": "Mosque",
        "address": "XX4P+RPQ Gujarwala tanda badli, Sentakhera, Uttar Pradesh 244925",
        "detailed_address": {
            "ward": null,
            "street": "XX4P+RPQ",
            "city": "Sentakhera",
            "postal_code": "244925",
            "state": "Uttar Pradesh",
            "country_code": "IN"
        },
        "images": [],
        "link": "https://www.google.com/maps/place/Gujarwala+tanda+badli/data=!4m7!3m6!1s0x390af56561697ef1:0x6852e61bb6cc2476!8m2!3d28.9570956!4d78.9868645!16s%2Fg%2F11p_125x6s!19sChIJ8X5pYWX1CjkRdiTMthvmUmg?authuser=0&hl=en&rclk=1",
        "coordinates": {
            "latitude": 28.9570956,
            "longitude": 78.9868645
        }
    },
    {
        "name": "Masjid teliyo wali",
        "main_category": "Mosque",
        "address": "XWGQ+7HV Masjid teliyo wali, Unnamed Road, Tanda, Uttar Pradesh 244925",
        "detailed_address": {
            "ward": null,
            "street": "XWGQ+7HV, Unnamed Road",
            "city": "Tanda",
            "postal_code": "244925",
            "state": "Uttar Pradesh",
            "country_code": "IN"
        },
        "images": [
            {
                "about": "All",
                "link": "https://streetviewpixels-pa.googleapis.com/v1/thumbnail?panoid=ukiR4EcuK4ejFQnqFHNOFQ&cb_client=maps_sv.tactile.gps&w=224&h=298&yaw=352.8828&pitch=0&thumbfov=100"
            },
            {
                "about": "Street View & 360deg",
                "link": "https://streetviewpixels-pa.googleapis.com/v1/thumbnail?panoid=ukiR4EcuK4ejFQnqFHNOFQ&cb_client=maps_sv.tactile.gps&w=224&h=298&yaw=352.8828&pitch=0&thumbfov=100"
            }
        ],
        "link": "https://www.google.com/maps/place/Masjid+teliyo+wali/data=!4m7!3m6!1s0x390a5f214d56b951:0xb8147c48858f5698!8m2!3d28.9757308!4d78.9389216!16s%2Fg%2F11klvwdfk1!19sChIJUblWTSFfCjkRmFaPhUh8FLg?authuser=0&hl=en&rclk=1",
        "coordinates": {
            "latitude": 28.975730799999997,
            "longitude": 78.9389216
        }
    },
    {
        "name": "Masjid usman bin affan ahlehadees dhaunra",
        "main_category": "Mosque",
        "address": "HCCC+RM2 Masjid usman bin affan ahlehadees dhaunra, Islam Nagar, Dhaura Tanda, Uttar Pradesh 243202",
        "detailed_address": {
            "ward": "Islam Nagar",
            "street": "HCCC+RM2",
            "city": "Dhaura Tanda",
            "postal_code": "243202",
            "state": "Uttar Pradesh",
            "country_code": "IN"
        },
        "images": [],
        "link": "https://www.google.com/maps/place/Masjid+usman+bin+affan+ahlehadees+dhaunra/data=!4m7!3m6!1s0x39a00bba5d9f6b9d:0xbf1bc6a6877300ce!8m2!3d28.5720197!4d79.4216476!16s%2Fg%2F11svc8tb8g!19sChIJnWufXboLoDkRzgBzh6bGG78?authuser=0&hl=en&rclk=1",
        "coordinates": {
            "latitude": 28.5720197,
            "longitude": 79.4216476
        }
    },
    {
        "name": "Abu Talha Masjid",
        "main_category": "Mosque",
        "address": "HCH8+H63 Abu Talha Masjid, Dhaura Tanda, Uttar Pradesh 243203",
        "detailed_address": {
            "ward": null,
            "street": "HCH8+H63",
            "city": "Dhaura Tanda",
            "postal_code": "243203",
            "state": "Uttar Pradesh",
            "country_code": "IN"
        },
        "images": [],
        "link": "https://www.google.com/maps/place/Abu+Talha+Masjid/data=!4m7!3m6!1s0x39a00be2dfcf060f:0x2d869305af901b83!8m2!3d28.5788553!4d79.4155199!16s%2Fg%2F11krgqq2bx!19sChIJDwbP3-ILoDkRgxuQrwWThi0?authuser=0&hl=en&rclk=1",
        "coordinates": {
            "latitude": 28.578855299999997,
            "longitude": 79.41551989999999
        }
    },
    {
        "name": "SUNNI NOORI MASJID",
        "main_category": "Mosque",
        "address": "J9VF+C8C SUNNI NOORI MASJID, Tanda, Uttar Pradesh 243505",
        "detailed_address": {
            "ward": null,
            "street": "J9VF+C8C",
            "city": "Tanda",
            "postal_code": "243505",
            "state": "Uttar Pradesh",
            "country_code": "IN"
        },
        "images": [],
        "link": "https://www.google.com/maps/place/SUNNI+NOORI+MASJID/data=!4m7!3m6!1s0x390a9f8dfc6e5ce7:0x710c4435a9cade24!8m2!3d28.6435575!4d79.3732509!16s%2Fg%2F11ks3w83sz!19sChIJ51xu_I2fCjkRJN7KqTVEDHE?authuser=0&hl=en&rclk=1",
        "coordinates": {
            "latitude": 28.6435575,
            "longitude": 79.3732509
        }
    },
    {
        "name": "Garbi masjid",
        "main_category": "Mosque",
        "address": "HCM7+6VP Garbi masjid, Dhaura Tanda, Uttar Pradesh 243202",
        "detailed_address": {
            "ward": null,
            "street": "HCM7+6VP",
            "city": "Dhaura Tanda",
            "postal_code": "243202",
            "state": "Uttar Pradesh",
            "country_code": "IN"
        },
        "images": [],
        "link": "https://www.google.com/maps/place/Garbi+masjid/data=!4m7!3m6!1s0x39a00be1c5aea989:0xf8ea5cf86d6b5f18!8m2!3d28.5830761!4d79.4146947!16s%2Fg%2F11kt5v8vk6!19sChIJiamuxeELoDkRGF9rbfhc6vg?authuser=0&hl=en&rclk=1",
        "coordinates": {
            "latitude": 28.5830761,
            "longitude": 79.4146947
        }
    },
    {
        "name": "Masjid fatma urf halwaiyan",
        "main_category": "Mosque",
        "address": "HCF8+XJV Masjid fatma urf halwaiyan, Dhaura Tanda, Uttar Pradesh 243202",
        "detailed_address": {
            "ward": null,
            "street": "HCF8+XJV",
            "city": "Dhaura Tanda",
            "postal_code": "243202",
            "state": "Uttar Pradesh",
            "country_code": "IN"
        },
        "images": [
            {
                "about": "All",
                "link": "https://streetviewpixels-pa.googleapis.com/v1/thumbnail?panoid=tKAH8BPRW2xuz7eE7DPm_g&cb_client=maps_sv.tactile.gps&w=224&h=298&yaw=81.9741&pitch=0&thumbfov=100"
            },
            {
                "about": "Street View & 360deg",
                "link": "https://streetviewpixels-pa.googleapis.com/v1/thumbnail?panoid=tKAH8BPRW2xuz7eE7DPm_g&cb_client=maps_sv.tactile.gps&w=224&h=298&yaw=81.9741&pitch=0&thumbfov=100"
            }
        ],
        "link": "https://www.google.com/maps/place/Masjid+fatma+urf+halwaiyan/data=!4m7!3m6!1s0x39a00b44dae374cf:0xf95edb0150ae5615!8m2!3d28.5749936!4d79.4165504!16s%2Fg%2F11t3_6kbsy!19sChIJz3Tj2kQLoDkRFVauUAHbXvk?authuser=0&hl=en&rclk=1",
        "coordinates": {
            "latitude": 28.5749936,
            "longitude": 79.41655039999999
        }
    },
    {
        "name": "Saheli masjid tanda",
        "main_category": "Place of worship",
        "address": "74GV+3XJ Saheli masjid tanda, Tanda, Nangal, Uttar Pradesh 250617",
        "detailed_address": {
            "ward": null,
            "street": "74GV+3XJ",
            "city": "Tanda, Nangal",
            "postal_code": "250617",
            "state": "Uttar Pradesh",
            "country_code": "IN"
        },
        "images": [],
        "link": "https://www.google.com/maps/place/Saheli+masjid+tanda/data=!4m7!3m6!1s0x390dcd001ec86371:0xb4a06c7631c71d85!8m2!3d29.2752084!4d77.1449004!16s%2Fg%2F11vm0zx83w!19sChIJcWPIHgDNDTkRhR3HMXZsoLQ?authuser=0&hl=en&rclk=1",
        "coordinates": {
            "latitude": 29.2752084,
            "longitude": 77.1449004
        }
    },
    {
        "name": "LAL MASJID MOHALLA BHABBAL PURI",
        "main_category": "Mosque",
        "address": "XWFR+X4M LAL MASJID MOHALLA BHABBAL PURI, Tanda, Uttar Pradesh 244925",
        "detailed_address": {
            "ward": null,
            "street": "XWFR+X4M",
            "city": "Tanda",
            "postal_code": null,
            "state": "Uttar Pradesh",
            "country_code": "IN"
        },
        "images": [
            {
                "about": "All",
                "link": "https://streetviewpixels-pa.googleapis.com/v1/thumbnail?panoid=zT87nA868eJ0WDkihAB5VA&cb_client=maps_sv.tactile.gps&w=224&h=298&yaw=79.249214&pitch=0&thumbfov=100"
            },
            {
                "about": "Street View & 360deg",
                "link": "https://streetviewpixels-pa.googleapis.com/v1/thumbnail?panoid=zT87nA868eJ0WDkihAB5VA&cb_client=maps_sv.tactile.gps&w=224&h=298&yaw=79.249214&pitch=0&thumbfov=100"
            }
        ],
        "link": "https://www.google.com/maps/place/LAL+MASJID+MOHALLA+BHABBAL+PURI/data=!4m7!3m6!1s0x390a5fe93dd446f5:0xc38a1de402295079!8m2!3d28.9749537!4d78.9403353!16s%2Fg%2F11l5hjbhhz!19sChIJ9UbUPelfCjkReVApAuQdisM?authuser=0&hl=en&rclk=1",
        "coordinates": {
            "latitude": 28.9749537,
            "longitude": 78.9403353
        }
    },
    {
        "name": "KHASRA NO 99 MAJEED KHAN KABRISTAN TANDA",
        "main_category": "Mosque",
        "address": "74FV+FXR KHASRA NO 99 MAJEED KHAN KABRISTAN TANDA, Tanda, Nangal, Uttar Pradesh 250617",
        "detailed_address": {
            "ward": null,
            "street": "74FV+FXR",
            "city": "Tanda, Nangal",
            "postal_code": null,
            "state": "Uttar Pradesh",
            "country_code": "IN"
        },
        "images": [
            {
                "about": "All",
                "link": "https://streetviewpixels-pa.googleapis.com/v1/thumbnail?panoid=uh1FDSpGlU9kv2c_MC73sQ&cb_client=maps_sv.tactile.gps&w=224&h=298&yaw=312.1405&pitch=0&thumbfov=100"
            },
            {
                "about": "Street View & 360deg",
                "link": "https://streetviewpixels-pa.googleapis.com/v1/thumbnail?panoid=uh1FDSpGlU9kv2c_MC73sQ&cb_client=maps_sv.tactile.gps&w=224&h=298&yaw=312.1405&pitch=0&thumbfov=100"
            }
        ],
        "link": "https://www.google.com/maps/place/KHASRA+NO+99+MAJEED+KHAN+KABRISTAN+TANDA/data=!4m7!3m6!1s0x390dcde582a22b33:0x6895e0bfd9e11d78!8m2!3d29.2737319!4d77.1448951!16s%2Fg%2F11t4991fny!19sChIJMyuiguXNDTkReB3h2b_glWg?authuser=0&hl=en&rclk=1",
        "coordinates": {
            "latitude": 29.273731899999998,
            "longitude": 77.1448951
        }
    },
    {
        "name": "Umar masjid",
        "main_category": "Mosque",
        "address": "WWFQ+94C Umar masjid, Jhurk Jhundi, Mohabbatganj Tanda, Uttar Pradesh 244925",
        "detailed_address": {
            "ward": null,
            "street": "WWFQ+94C",
            "city": "Jhurk Jhundi, Mohabbatganj Tanda",
            "postal_code": null,
            "state": "Uttar Pradesh",
            "country_code": "IN"
        },
        "images": [],
        "link": "https://www.google.com/maps/place/Umar+masjid/data=!4m7!3m6!1s0x390af5bbe77b4d99:0x100f88821c24018a!8m2!3d28.9234425!4d78.9377778!16s%2Fg%2F11jyx10n_x!19sChIJmU1757v1CjkRigEkHIKIDxA?authuser=0&hl=en&rclk=1",
        "coordinates": {
            "latitude": 28.9234425,
            "longitude": 78.93777779999999
        }
    },
    {
        "name": "Rabiya masjid",
        "main_category": "Mosque",
        "address": "47WC+63M Rabiya masjid, Chandpur, Uttar Pradesh 246725",
        "detailed_address": {
            "ward": null,
            "street": "47WC+63M",
            "city": "Chandpur",
            "postal_code": "246725",
            "state": "Uttar Pradesh",
            "country_code": "IN"
        },
        "images": [
            {
                "about": "All",
                "link": "https://streetviewpixels-pa.googleapis.com/v1/thumbnail?panoid=si4zAbFngm_rWTDijC0XpQ&cb_client=maps_sv.tactile.gps&w=224&h=298&yaw=138.77174&pitch=0&thumbfov=100"
            },
            {
                "about": "Street View & 360deg",
                "link": "https://streetviewpixels-pa.googleapis.com/v1/thumbnail?panoid=si4zAbFngm_rWTDijC0XpQ&cb_client=maps_sv.tactile.gps&w=224&h=298&yaw=138.77174&pitch=0&thumbfov=100"
            }
        ],
        "link": "https://www.google.com/maps/place/Rabiya+masjid/data=!4m7!3m6!1s0x390b9752cdf4f663:0xd798d9325e162d31!8m2!3d29.1455969!4d78.2701645!16s%2Fg%2F11sd2zwxr5!19sChIJY_b0zVKXCzkRMS0WXjLZmNc?authuser=0&hl=en&rclk=1",
        "coordinates": {
            "latitude": 29.145596899999997,
            "longitude": 78.27016449999999
        }
    },
    {
        "name": "Maszid Abu Bakar",
        "main_category": "Mosque",
        "address": "XWHP+RV2 Maszid Abu Bakar, Unnamed Road, Tanda, Uttar Pradesh 244925",
        "detailed_address": {
            "ward": null,
            "street": "XWHP+RV2, Unnamed Road",
            "city": "Tanda, Khajuwa Khera",
            "postal_code": "244925",
            "state": "Uttar Pradesh",
            "country_code": "IN"
        },
        "images": [
            {
                "about": "All",
                "link": "https://streetviewpixels-pa.googleapis.com/v1/thumbnail?panoid=eIapfxpG_XdEwCr8TKneAg&cb_client=maps_sv.tactile.gps&w=224&h=298&yaw=134.50879&pitch=0&thumbfov=100"
            },
            {
                "about": "Street View & 360deg",
                "link": "https://streetviewpixels-pa.googleapis.com/v1/thumbnail?panoid=eIapfxpG_XdEwCr8TKneAg&cb_client=maps_sv.tactile.gps&w=224&h=298&yaw=134.50879&pitch=0&thumbfov=100"
            }
        ],
        "link": "https://www.google.com/maps/place/Maszid+Abu+Bakar/data=!4m7!3m6!1s0x390a5f491c5a5d1d:0x358b7fb1e976e7b8!8m2!3d28.9795153!4d78.9371537!16s%2Fg%2F11g6ymlrpf!19sChIJHV1aHElfCjkRuOd26bF_izU?authuser=0&hl=en&rclk=1",
        "coordinates": {
            "latitude": 28.9795153,
            "longitude": 78.9371537
        }
    },
    {
        "name": "Madina masjid",
        "main_category": "Mosque",
        "address": "Madina masjid, Banhera Tanda, Brampur, Uttarakhand 247656",
        "detailed_address": {
            "ward": null,
            "street": null,
            "city": "Banhera Tanda, Brampur",
            "postal_code": null,
            "state": "Uttarakhand",
            "country_code": "IN"
        },
        "images": [
            {
                "about": "All",
                "link": "https://streetviewpixels-pa.googleapis.com/v1/thumbnail?panoid=uU3zybR2O_it5kcekrUtww&cb_client=maps_sv.tactile.gps&w=224&h=298&yaw=210.39491&pitch=0&thumbfov=100"
            },
            {
                "about": "Street View & 360deg",
                "link": "https://streetviewpixels-pa.googleapis.com/v1/thumbnail?panoid=uU3zybR2O_it5kcekrUtww&cb_client=maps_sv.tactile.gps&w=224&h=298&yaw=210.39491&pitch=0&thumbfov=100"
            }
        ],
        "link": "https://www.google.com/maps/place/Madina+masjid/data=!4m7!3m6!1s0x390eada084020c31:0x68f11859572be37e!8m2!3d29.7828595!4d77.8943317!16s%2Fg%2F11l6mb_mb_!19sChIJMQwChKCtDjkRfuMrV1kY8Wg?authuser=0&hl=en&rclk=1",
        "coordinates": {
            "latitude": 29.782859499999997,
            "longitude": 77.8943317
        }
    },
    {
        "name": "Aaisha masjid tanda",
        "main_category": "Apartment building",
        "address": "7HXV+CVJ Aaisha masjid tanda, Madathi Aht, Uttar Pradesh 247121",
        "detailed_address": {
            "ward": null,
            "street": "7HXV+CVJ",
            "city": "Madathi Aht",
            "postal_code": null,
            "state": "Uttar Pradesh",
            "country_code": "IN"
        },
        "images": [],
        "link": "https://www.google.com/maps/place/Aaisha+masjid+tanda/data=!4m7!3m6!1s0x390edf4b0b3317b9:0x1276c489cf289905!8m2!3d30.2985765!4d77.5946338!16s%2Fg%2F11rst_rr88!19sChIJuRczC0vfDjkRBZkoz4nEdhI?authuser=0&hl=en&rclk=1",
        "coordinates": {
            "latitude": 30.2985765,
            "longitude": 77.5946338
        }
    },
    {
        "name": "Masjid mohalla dusra wali",
        "main_category": "Mosque",
        "address": "W39G+JR8 Masjid mohalla dusra wali, Bhotbaqqal, Uttar Pradesh 244927",
        "detailed_address": {
            "ward": null,
            "street": "W39G+JR8",
            "city": "Bhotbaqqal",
            "postal_code": "244927",
            "state": "Uttar Pradesh",
            "country_code": "IN"
        },
        "images": [],
        "link": "https://www.google.com/maps/place/Masjid+mohalla+dusra+wali/data=!4m7!3m6!1s0x390a8b75a3d1713b:0x8a2988016b4dd21b!8m2!3d28.9190488!4d79.0770723!16s%2Fg%2F11h80x9kv2!19sChIJO3HRo3WLCjkRG9JNawGIKYo?authuser=0&hl=en&rclk=1",
        "coordinates": {
            "latitude": 28.9190488,
            "longitude": 79.0770723
        }
    },
    {
        "name": "MADINA MASJID",
        "main_category": "Mosque",
        "address": "CW86+9WG MADINA MASJID, Kalloli, Uttar Pradesh 203409",
        "detailed_address": {
            "ward": null,
            "street": "CW86+9WG",
            "city": "Kalloli",
            "postal_code": null,
            "state": "Uttar Pradesh",
            "country_code": "IN"
        },
        "images": [
            {
                "about": "All",
                "link": "https://lh5.googleusercontent.com/p/AF1QipOJP_lfMDheO6G86uqQbf5J3U12rVWuIUJpjoQ=w224-h398-k-no"
            },
            {
                "about": "Dome",
                "link": "https://lh5.googleusercontent.com/p/AF1QipPsAkxXcpzoxaheg-hco2QJf2-VRWZlI1CznLo=w224-h398-k-no"
            },
            {
                "about": "Street View & 360deg",
                "link": "https://streetviewpixels-pa.googleapis.com/v1/thumbnail?panoid=pOxy9LRpqUx1qIVijpg_qQ&cb_client=maps_sv.tactile.gps&w=224&h=298&yaw=291.04025&pitch=0&thumbfov=100"
            }
        ],
        "link": "https://www.google.com/maps/place/MADINA+MASJID/data=!4m7!3m6!1s0x390ca154fa314c65:0xf3a103936833c1c5!8m2!3d28.4159317!4d77.912343!16s%2Fg%2F11t57hwx4t!19sChIJZUwx-lShDDkRxcEzaJMDofM?authuser=0&hl=en&rclk=1",
        "coordinates": {
            "latitude": 28.415931699999998,
            "longitude": 77.91234299999999
        }
    },
    {
        "name": "Madni masjid",
        "main_category": "Mosque",
        "address": "65HV+QG5 Madni masjid, Rehra, Uttar Pradesh 246725",
        "detailed_address": {
            "ward": null,
            "street": "65HV+QG5",
            "city": "Rehra",
            "postal_code": "246725",
            "state": "Uttar Pradesh",
            "country_code": "IN"
        },
        "images": [
            {
                "about": "All",
                "link": "https://lh5.googleusercontent.com/p/AF1QipNxo33Zss88jsEU-5RMCYYWGvdF4i-FzJLhnpPY=w418-h298-k-no"
            },
            {
                "about": "Dome",
                "link": "https://lh5.googleusercontent.com/p/AF1QipNxo33Zss88jsEU-5RMCYYWGvdF4i-FzJLhnpPY=w418-h298-k-no"
            },
            {
                "about": "Videos",
                "link": "https://lh5.googleusercontent.com/p/AF1QipM7mC4gu4L7Vr3LeX-ay6V0-OW1Q8DSVTVW4gDT=w224-h398-k-no"
            }
        ],
        "link": "https://www.google.com/maps/place/Madni+masjid/data=!4m7!3m6!1s0x390b9326aaeed6e3:0x5e8049846600fc5d!8m2!3d29.22939!4d78.1938541!16s%2Fg%2F11r6vs_l32!19sChIJ49buqiaTCzkRXfwAZoRJgF4?authuser=0&hl=en&rclk=1",
        "coordinates": {
            "latitude": 29.22939,
            "longitude": 78.1938541
        }
    },
    {
        "name": "Madani masjid",
        "main_category": "Mosque",
        "address": "Madani masjid, Khajra, Uttar Pradesh 244301",
        "detailed_address": {
            "ward": null,
            "street": null,
            "city": "Khajra",
            "postal_code": "244301",
            "state": "Uttar Pradesh",
            "country_code": "IN"
        },
        "images": [
            {
                "about": "All",
                "link": "https://lh5.googleusercontent.com/p/AF1QipNMIniANj4_aCWJQA8n1sWya9cSE_x-fqQs8Deg=w529-h298-k-no"
            },
            {
                "about": "By owner",
                "link": "https://lh5.googleusercontent.com/p/AF1QipO6fb5hJKkjk-_BGIod-ePUcS5-zLF53Vk80VNm=w529-h298-k-no"
            },
            {
                "about": "Videos",
                "link": "https://lh5.googleusercontent.com/p/AF1QipNMIniANj4_aCWJQA8n1sWya9cSE_x-fqQs8Deg=w529-h298-k-no"
            },
            {
                "about": "Street View & 360deg",
                "link": "https://streetviewpixels-pa.googleapis.com/v1/thumbnail?panoid=0H0BVFlGulZxAaIFOK4B1w&cb_client=maps_sv.tactile.gps&w=224&h=298&yaw=69.5508&pitch=0&thumbfov=100"
            }
        ],
        "link": "https://www.google.com/maps/place/Madani+masjid/data=!4m7!3m6!1s0x390ae3c8b44c3d47:0x64a31640c5940e07!8m2!3d28.6823161!4d78.731273!16s%2Fg%2F11rmndy_5n!19sChIJRz1MtMjjCjkRBw6UxUAWo2Q?authuser=0&hl=en&rclk=1",
        "coordinates": {
            "latitude": 28.682316099999998,
            "longitude": 78.731273
        }
    },
    {
        "name": "Masjid",
        "main_category": "Mosque",
        "address": "XCC2+HF5 Masjid, Alampur Kainch, Uttar Pradesh 244251",
        "detailed_address": {
            "ward": null,
            "street": "XCC2+HF5",
            "city": "Alampur Kainch",
            "postal_code": "244251",
            "state": "Uttar Pradesh",
            "country_code": "IN"
        },
        "images": [],
        "link": "https://www.google.com/maps/place/Masjid/data=!4m7!3m6!1s0x390ba7711adea9e7:0xb414e49b62319d9a!8m2!3d28.9713865!4d78.4012448!16s%2Fg%2F11j8zfvppj!19sChIJ56neGnGnCzkRmp0xYpvkFLQ?authuser=0&hl=en&rclk=1",
        "coordinates": {
            "latitude": 28.971386499999998,
            "longitude": 78.4012448
        }
    },
    {
        "name": "Masjid darjiyan",
        "main_category": "Mosque",
        "address": "V76Q+HC5 Masjid darjiyan, Khekra, Uttar Pradesh 250101",
        "detailed_address": {
            "ward": null,
            "street": "V76Q+HC5",
            "city": "Khekra",
            "postal_code": "250101",
            "state": "Uttar Pradesh",
            "country_code": "IN"
        },
        "images": [],
        "link": "https://www.google.com/maps/place/Masjid+darjiyan/data=!4m7!3m6!1s0x390c579729334fd5:0x710b1a0b42a8b46a!8m2!3d28.8613774!4d77.2886222!16s%2Fg%2F11rn0cch0t!19sChIJ1U8zKZdXDDkRarSoQgsaC3E?authuser=0&hl=en&rclk=1",
        "coordinates": {
            "latitude": 28.8613774,
            "longitude": 77.28862219999999
        }
    },
    {
        "name": "Tanda",
        "main_category": null,
        "address": "Tanda, Uttar Pradesh 244236",
        "detailed_address": {
            "ward": null,
            "street": null,
            "city": "Tanda",
            "postal_code": null,
            "state": "Uttar Pradesh",
            "country_code": "IN"
        },
        "images": [
            {
                "about": "All",
                "link": "https://lh5.googleusercontent.com/p/AF1QipMKa7F73O1kzSgSAvT4ZaeW7mc3Tzs-Pzngo8Ia=w224-h473-k-no"
            }
        ],
        "link": "https://www.google.com/maps/place/Tanda/data=!4m7!3m6!1s0x390b0ca51456b9cf:0x5ee6b44718cd26f1!8m2!3d28.8050392!4d78.3063354!16s%2Fg%2F1hhls9ywh!19sChIJz7lWFKUMCzkR8SbNGEe05l4?authuser=0&hl=en&rclk=1",
        "coordinates": {
            "latitude": 28.8050392,
            "longitude": 78.3063354
        }
    }
]