[
    {
        "name": "jama masjid",
        "main_category": "Mosque",
        "address": "634Q+926 jama masjid, Mandalgarh, Rajasthan 311604",
        "detailed_address": {
            "ward": null,
            "street": "634Q+926",
            "city": "Mandalgarh",
            "postal_code": "311604",
            "state": "Rajasthan",
            "country_code": "IN"
        },
        "images": [
            {
                "about": "All",
                "link": "https://streetviewpixels-pa.googleapis.com/v1/thumbnail?panoid=MjWIDSHTpVNsHw42iA0ODQ&cb_client=maps_sv.tactile.gps&w=224&h=298&yaw=358.37732&pitch=0&thumbfov=100"
            },
            {
                "about": "Street View & 360deg",
                "link": "https://streetviewpixels-pa.googleapis.com/v1/thumbnail?panoid=MjWIDSHTpVNsHw42iA0ODQ&cb_client=maps_sv.tactile.gps&w=224&h=298&yaw=358.37732&pitch=0&thumbfov=100"
            }
        ],
        "link": "https://www.google.com/maps/place/jama+masjid/data=!4m7!3m6!1s0x396f4915806e5be5:0xf9389ebdef6a851f!8m2!3d25.2059052!4d75.087517!16s%2Fg%2F11gbwxnccn!19sChIJ5VtugBVJbzkRH4Vq772eOPk?authuser=0&hl=en&rclk=1",
        "coordinates": {
            "latitude": 25.2059052,
            "longitude": 75.08751699999999
        }
    },
    {
        "name": "Madina Masjid",
        "main_category": "Mosque",
        "address": "Madina Masjid, Jogiyabir, Mandalgarh, Rajasthan 311604",
        "detailed_address": {
            "ward": "Jogiyabir",
            "street": null,
            "city": "Mandalgarh",
            "postal_code": null,
            "state": "Rajasthan",
            "country_code": "IN"
        },
        "images": [
            {
                "about": "All",
                "link": "https://lh5.googleusercontent.com/p/AF1QipMRmARFVMdpbAxgcZECgcPAnqVf77hL_zbErDc4=w529-h298-k-no"
            },
            {
                "about": "Videos",
                "link": "https://lh5.googleusercontent.com/p/AF1QipON6AL-dZqwdMqzo6kx_2MrGBkUWK2C1dnR-nCq=w224-h398-k-no"
            }
        ],
        "link": "https://www.google.com/maps/place/Madina+Masjid/data=!4m7!3m6!1s0x396f4910ce18de25:0xe420debd2bb9143a!8m2!3d25.2127432!4d75.0939935!16s%2Fg%2F11h1nccjr!19sChIJJd4YzhBJbzkROhS5K73eIOQ?authuser=0&hl=en&rclk=1",
        "coordinates": {
            "latitude": 25.2127432,
            "longitude": 75.0939935
        }
    },
    {
        "name": "Nuri masjid",
        "main_category": "Mosque",
        "address": "Ward No 13, [no name, Nuri masjid, 1, Mandalgarh, Rajasthan 311604",
        "detailed_address": {
            "ward": null,
            "street": "Ward No 13, [no name, 1",
            "city": "Mandalgarh",
            "postal_code": "311604",
            "state": "Rajasthan",
            "country_code": "IN"
        },
        "images": [],
        "link": "https://www.google.com/maps/place/Nuri+masjid/data=!4m7!3m6!1s0x396f497f1f53cca5:0xb487fa6483bc40eb!8m2!3d25.2049967!4d75.0907212!16s%2Fg%2F11vbpnvx54!19sChIJpcxTH39JbzkR60C8g2T6h7Q?authuser=0&hl=en&rclk=1",
        "coordinates": {
            "latitude": 25.2049967,
            "longitude": 75.09072119999999
        }
    },
    {
        "name": "Noori masjid",
        "main_category": "Mosque",
        "address": "634R+33P Noori masjid, Mandalgarh, Rajasthan 311604",
        "detailed_address": {
            "ward": null,
            "street": "634R+33P",
            "city": "Mandalgarh",
            "postal_code": "311604",
            "state": "Rajasthan",
            "country_code": "IN"
        },
        "images": [],
        "link": "https://www.google.com/maps/place/Noori+masjid/data=!4m7!3m6!1s0x396f49d53f0f6bb5:0x1cc415974ee8fdff!8m2!3d25.2052207!4d75.0902164!16s%2Fg%2F11h7sk3k86!19sChIJtWsPP9VJbzkR__3oTpcVxBw?authuser=0&hl=en&rclk=1",
        "coordinates": {
            "latitude": 25.205220699999998,
            "longitude": 75.0902164
        }
    },
    {
        "name": "Dargah",
        "main_category": "Mosque",
        "address": "53XV+475 Dargah, Mandalgarh, Rajasthan 311604",
        "detailed_address": {
            "ward": null,
            "street": "53XV+475",
            "city": "Mandalgarh",
            "postal_code": "311604",
            "state": "Rajasthan",
            "country_code": "IN"
        },
        "images": [
            {
                "about": "All",
                "link": "https://streetviewpixels-pa.googleapis.com/v1/thumbnail?panoid=ylFv-qaitzmkjvcgd9xljQ&cb_client=maps_sv.tactile.gps&w=224&h=298&yaw=79.05167&pitch=0&thumbfov=100"
            },
            {
                "about": "Street View & 360deg",
                "link": "https://streetviewpixels-pa.googleapis.com/v1/thumbnail?panoid=ylFv-qaitzmkjvcgd9xljQ&cb_client=maps_sv.tactile.gps&w=224&h=298&yaw=79.05167&pitch=0&thumbfov=100"
            }
        ],
        "link": "https://www.google.com/maps/place/Dargah/data=!4m7!3m6!1s0x396f493dbc37f6d5:0x84f8527448e5422c!8m2!3d25.1977566!4d75.0932352!16s%2Fg%2F11jt07cdtd!19sChIJ1fY3vD1JbzkRLELlSHRS-IQ?authuser=0&hl=en&rclk=1",
        "coordinates": {
            "latitude": 25.197756599999998,
            "longitude": 75.0932352
        }
    },
    {
        "name": "Naaadi Wale Baba",
        "main_category": "Mosque",
        "address": "Naaadi Wale Baba, Naadi Wale Baba, Jogiyabir, Mandalgarh, Rajasthan 311604",
        "detailed_address": {
            "ward": "Jogiyabir",
            "street": "Naadi Wale Baba",
            "city": "Mandalgarh",
            "postal_code": null,
            "state": "Rajasthan",
            "country_code": "IN"
        },
        "images": [
            {
                "about": "All",
                "link": "https://lh5.googleusercontent.com/p/AF1QipM8edVCdSyoyZlDLILOkByMcZgHVPAYQjroQJc=w224-h298-k-no"
            }
        ],
        "link": "https://www.google.com/maps/place/Naaadi+Wale+Baba/data=!4m7!3m6!1s0x396f4975d0a26705:0xe1f24373af2ec0bc!8m2!3d25.2087552!4d75.0985198!16s%2Fg%2F11tf2pdnw2!19sChIJBWei0HVJbzkRvMAur3ND8uE?authuser=0&hl=en&rclk=1",
        "coordinates": {
            "latitude": 25.2087552,
            "longitude": 75.09851979999999
        }
    },
    {
        "name": "Jaama masjid",
        "main_category": "Garden",
        "address": "634X+RJV Jaama masjid, Mandalgarh, Rajasthan 311604",
        "detailed_address": {
            "ward": null,
            "street": "634X+RJV",
            "city": "Mandalgarh",
            "postal_code": "311604",
            "state": "Rajasthan",
            "country_code": "IN"
        },
        "images": [
            {
                "about": "All",
                "link": "https://streetviewpixels-pa.googleapis.com/v1/thumbnail?panoid=Wj1GBDLN_0XlpyXjJg5Mlw&cb_client=maps_sv.tactile.gps&w=224&h=298&yaw=195.90506&pitch=0&thumbfov=100"
            },
            {
                "about": "Latest",
                "link": "https://streetviewpixels-pa.googleapis.com/v1/thumbnail?panoid=Wj1GBDLN_0XlpyXjJg5Mlw&cb_client=maps_sv.tactile.gps&w=224&h=298&yaw=195.90506&pitch=0&thumbfov=100"
            },
            {
                "about": "Street View & 360deg",
                "link": "https://streetviewpixels-pa.googleapis.com/v1/thumbnail?panoid=Wj1GBDLN_0XlpyXjJg5Mlw&cb_client=maps_sv.tactile.gps&w=224&h=298&yaw=195.90506&pitch=0&thumbfov=100"
            }
        ],
        "link": "https://www.google.com/maps/place/Jaama+masjid/data=!4m7!3m6!1s0x396f494a3c64d9b9:0x78a6f68ae7cbaec6!8m2!3d25.2071135!4d75.0990488!16s%2Fg%2F11t9v1sfz6!19sChIJudlkPEpJbzkRxq7L54r2png?authuser=0&hl=en&rclk=1",
        "coordinates": {
            "latitude": 25.2071135,
            "longitude": 75.09904879999999
        }
    }
]