[
    {
        "name": "Chand masjii",
        "main_category": "Religious destination",
        "address": "7RPG+4JC Chand masjii, Jaspur, Uttarakhand 244712",
        "detailed_address": {
            "ward": null,
            "street": "7RPG+4JC",
            "city": "Jaspur",
            "postal_code": "244712",
            "state": "Uttarakhand",
            "country_code": "IN"
        },
        "images": [
            {
                "about": "All",
                "link": "https://lh5.googleusercontent.com/p/AF1QipPJyUOikyWqUdTqT1npsWoBdwuAaiCjc9bvx0aW=w224-h298-k-no"
            },
            {
                "about": "Videos",
                "link": "https://lh5.googleusercontent.com/p/AF1QipNPk5A4TXl8iJIFEw-9V3PQc7BpMynk3TAywDIK=w224-h398-k-no"
            }
        ],
        "link": "https://www.google.com/maps/place/Chand+masjii/data=!4m7!3m6!1s0x390a486feeb13059:0x3649e37d920daa5a!8m2!3d29.2853124!4d78.8265025!16s%2Fg%2F11cjpttsbr!19sChIJWTCx7m9ICjkRWqoNkn3jSTY?authuser=0&hl=en&rclk=1",
        "coordinates": {
            "latitude": 29.2853124,
            "longitude": 78.82650249999999
        }
    },
    {
        "name": "JAMA masjid jaspur",
        "main_category": "Mosque",
        "address": "7RGF+PF3 JAMA masjid jaspur, Jaspur, Uttarakhand 244712",
        "detailed_address": {
            "ward": null,
            "street": "7RGF+PF3",
            "city": "Jaspur",
            "postal_code": "244712",
            "state": "Uttarakhand",
            "country_code": "IN"
        },
        "images": [
            {
                "about": "All",
                "link": "https://streetviewpixels-pa.googleapis.com/v1/thumbnail?panoid=boz1GB5equgLeG9bsRX3ZQ&cb_client=maps_sv.tactile.gps&w=224&h=298&yaw=172.29564&pitch=0&thumbfov=100"
            },
            {
                "about": "Street View & 360deg",
                "link": "https://streetviewpixels-pa.googleapis.com/v1/thumbnail?panoid=boz1GB5equgLeG9bsRX3ZQ&cb_client=maps_sv.tactile.gps&w=224&h=298&yaw=172.29564&pitch=0&thumbfov=100"
            }
        ],
        "link": "https://www.google.com/maps/place/JAMA+masjid+jaspur/data=!4m7!3m6!1s0x390a496bc08a5821:0xb19ae5991377d224!8m2!3d29.2767602!4d78.8236565!16s%2Fg%2F11ksnyyw7v!19sChIJIViKwGtJCjkRJNJ3E5nlmrE?authuser=0&hl=en&rclk=1",
        "coordinates": {
            "latitude": 29.2767602,
            "longitude": 78.8236565
        }
    },
    {
        "name": "Nore masjid",
        "main_category": "Mosque",
        "address": "7RMG+43Q Nore masjid, Jaspur, Uttarakhand 244712",
        "detailed_address": {
            "ward": null,
            "street": "7RMG+43Q",
            "city": "Jaspur",
            "postal_code": "244712",
            "state": "Uttarakhand",
            "country_code": "IN"
        },
        "images": [
            {
                "about": "All",
                "link": "https://lh5.googleusercontent.com/p/AF1QipOSSFLX8kVFRX7EDAkwm8ioaq54dMu_kq8b48jN=w224-h298-k-no"
            },
            {
                "about": "Street View & 360deg",
                "link": "https://streetviewpixels-pa.googleapis.com/v1/thumbnail?panoid=U5LOlbvSMqzQ520LOJ96OQ&cb_client=maps_sv.tactile.gps&w=224&h=298&yaw=268.74707&pitch=0&thumbfov=100"
            }
        ],
        "link": "https://www.google.com/maps/place/Nore+masjid/data=!4m7!3m6!1s0x390a4983e2379e45:0xbe0bf5f717e7eda7!8m2!3d29.2828411!4d78.825241!16s%2Fg%2F11vl9df0dm!19sChIJRZ434oNJCjkRp-3nF_f1C74?authuser=0&hl=en&rclk=1",
        "coordinates": {
            "latitude": 29.2828411,
            "longitude": 78.82524099999999
        }
    },
    {
        "name": "nivaarmundii",
        "main_category": "Mosque",
        "address": "7RHG+8MH nivaarmundii, Dhyannagar, Jaspur, Uttarakhand 244712",
        "detailed_address": {
            "ward": "Dhyannagar",
            "street": "7RHG+8MH",
            "city": "Jaspur",
            "postal_code": null,
            "state": "Uttarakhand",
            "country_code": "IN"
        },
        "images": [],
        "link": "https://www.google.com/maps/place/%E0%A4%A8%E0%A4%BF%E0%A4%B5%E0%A4%BE%E0%A4%B0%E0%A5%8D%E0%A4%AE%E0%A5%81%E0%A4%A8%E0%A5%8D%E0%A4%A6%E0%A5%80/data=!4m7!3m6!1s0x390a49d433175eb7:0x8eec86db408274a7!8m2!3d29.2783098!4d78.826744!16s%2Fg%2F11t2fh4m99!19sChIJt14XM9RJCjkRp3SCQNuG7I4?authuser=0&hl=en&rclk=1",
        "coordinates": {
            "latitude": 29.2783098,
            "longitude": 78.82674399999999
        }
    }
]