[
    {
        "name": "Jamali Masjid",
        "main_category": "Mosque",
        "address": "63MP+MVP Jamali Masjid, Manawar, Madhya Pradesh 454446",
        "detailed_address": {
            "ward": null,
            "street": "63MP+MVP",
            "city": "Manawar",
            "postal_code": "454446",
            "state": "Madhya Pradesh",
            "country_code": "IN"
        },
        "images": [
            {
                "about": "All",
                "link": "https://lh5.googleusercontent.com/p/AF1QipOKiijapmQ6aY2fPs0IHGgXYLV5CDDnVzHRWphT=w525-h298-k-no"
            },
            {
                "about": "Street View & 360deg",
                "link": "https://streetviewpixels-pa.googleapis.com/v1/thumbnail?panoid=RJwaSC5OdBbyVB9MGdIE5A&cb_client=maps_sv.tactile.gps&w=224&h=298&yaw=80.21524&pitch=0&thumbfov=100"
            },
            {
                "about": "Videos",
                "link": "https://lh5.googleusercontent.com/p/AF1QipPBrvmucPcEa3YsPAzZSKedAUbXZdyvuK1HUe0J=w525-h298-k-no"
            }
        ],
        "link": "https://www.google.com/maps/place/Jamali+Masjid/data=!4m7!3m6!1s0x396219152998a3af:0x8e8a6f963ba4fcb0!8m2!3d22.234201!4d75.0872136!16s%2Fg%2F11cs5rhb6j!19sChIJr6OYKRUZYjkRsPykO5Zvio4?authuser=0&hl=en&rclk=1",
        "coordinates": {
            "latitude": 22.234201,
            "longitude": 75.0872136
        }
    },
    {
        "name": "Ahle Sunnat Husaini Masjid",
        "main_category": "Mosque",
        "address": "63PM+M9W Ahle Sunnat Husaini Masjid, Teacher's Colony, Manawar, Madhya Pradesh 454446",
        "detailed_address": {
            "ward": "Teacher's Colony",
            "street": "63PM+M9W",
            "city": "Manawar",
            "postal_code": "454446",
            "state": "Madhya Pradesh",
            "country_code": "IN"
        },
        "images": [
            {
                "about": "All",
                "link": "https://lh5.googleusercontent.com/p/AF1QipNwdmeyR5Q0OE549p2byK774qXZPRfh7CX1Dzeg=w224-h397-k-no"
            },
            {
                "about": "Latest",
                "link": "https://lh5.googleusercontent.com/p/AF1QipNwdmeyR5Q0OE549p2byK774qXZPRfh7CX1Dzeg=w224-h397-k-no"
            },
            {
                "about": "Videos",
                "link": "https://lh5.googleusercontent.com/p/AF1QipNwdmeyR5Q0OE549p2byK774qXZPRfh7CX1Dzeg=w224-h397-k-no"
            }
        ],
        "link": "https://www.google.com/maps/place/Ahle+Sunnat+Husaini+Masjid/data=!4m7!3m6!1s0x3962195704acc023:0x27abdbe948a8325d!8m2!3d22.2367365!4d75.0834578!16s%2Fg%2F11gsb8bvb2!19sChIJI8CsBFcZYjkRXTKoSOnbqyc?authuser=0&hl=en&rclk=1",
        "coordinates": {
            "latitude": 22.2367365,
            "longitude": 75.08345779999999
        }
    },
    {
        "name": "Bohara Masjid",
        "main_category": "Mosque",
        "address": "63MP+MV7 Bohara Masjid, Manawar, Madhya Pradesh 454446",
        "detailed_address": {
            "ward": null,
            "street": "63MP+MV7",
            "city": "Manawar",
            "postal_code": "454446",
            "state": "Madhya Pradesh",
            "country_code": "IN"
        },
        "images": [
            {
                "about": "All",
                "link": "https://lh5.googleusercontent.com/p/AF1QipNM4lO8QdadNZMGQEKTKL62RPN_i50iTxH5pjPu=w397-h298-k-no"
            },
            {
                "about": "Street View & 360deg",
                "link": "https://streetviewpixels-pa.googleapis.com/v1/thumbnail?panoid=RJwaSC5OdBbyVB9MGdIE5A&cb_client=maps_sv.tactile.gps&w=224&h=298&yaw=93.68772&pitch=0&thumbfov=100"
            }
        ],
        "link": "https://www.google.com/maps/place/Bohara+Masjid/data=!4m7!3m6!1s0x3962191529700d83:0x390ab9762b7ba658!8m2!3d22.234151!4d75.0871724!16s%2Fg%2F11c1r1fgp6!19sChIJgw1wKRUZYjkRWKZ7K3a5Cjk?authuser=0&hl=en&rclk=1",
        "coordinates": {
            "latitude": 22.234151,
            "longitude": 75.0871724
        }
    },
    {
        "name": "Ahle Sunnat Noore Muhammadi Masjid",
        "main_category": "Mosque",
        "address": "63QP+25C Ahle Sunnat Noore Muhammadi Masjid, Manawar, Madhya Pradesh 454446",
        "detailed_address": {
            "ward": null,
            "street": "63QP+25C",
            "city": "Manawar",
            "postal_code": "454446",
            "state": "Madhya Pradesh",
            "country_code": "IN"
        },
        "images": [
            {
                "about": "All",
                "link": "https://lh5.googleusercontent.com/p/AF1QipN6hUSu2RuFrWG3X9tpzp0mos02ksnauA4e3aYz=w629-h298-k-no"
            },
            {
                "about": "Street View & 360deg",
                "link": "https://streetviewpixels-pa.googleapis.com/v1/thumbnail?panoid=hvUxB-jyuOdXSGODfE5Zkw&cb_client=maps_sv.tactile.gps&w=224&h=298&yaw=35.00887&pitch=0&thumbfov=100"
            }
        ],
        "link": "https://www.google.com/maps/place/Ahle+Sunnat+Noore+Muhammadi+Masjid/data=!4m7!3m6!1s0x3962199fcf4db04b:0x2b0a22417e7410a7!8m2!3d22.2375733!4d75.0854029!16s%2Fg%2F11ffv3dg93!19sChIJS7BNz58ZYjkRpxB0fkEiCis?authuser=0&hl=en&rclk=1",
        "coordinates": {
            "latitude": 22.237573299999998,
            "longitude": 75.08540289999999
        }
    },
    {
        "name": "Munwara Masjid",
        "main_category": "Mosque",
        "address": "Munwara Masjid, E-130, Gali No.6, Third Pusta Main Rd, Jagjeet Nagar, Delhi, 110053",
        "detailed_address": {
            "ward": "Third Pushta, Nayagaon, Jagjeet Nagar, Shahdara",
            "street": "E-130, Gali No.6, Third Pusta Main Rd",
            "city": "Delhi",
            "postal_code": "110053",
            "state": "Delhi",
            "country_code": "IN"
        },
        "images": [],
        "link": "https://www.google.com/maps/place/Munwara+Masjid/data=!4m7!3m6!1s0x390cfc44ec3cee7b:0x6817d8194e44c0a7!8m2!3d28.6861966!4d77.2559837!16s%2Fg%2F12hq6qdwg!19sChIJe-487ET8DDkRp8BEThnYF2g?authuser=0&hl=en&rclk=1",
        "coordinates": {
            "latitude": 28.6861966,
            "longitude": 77.2559837
        }
    }
]