[
    {
        "name": "Jama Masjid Siricilla",
        "main_category": "Mosque",
        "address": "9RQ6+X8V Jama Masjid Siricilla, Shanti Nagar, Sircilla, Telangana 505301",
        "detailed_address": {
            "ward": "Shanti Nagar",
            "street": "9RQ6+X8V",
            "city": "Sircilla",
            "postal_code": "505301",
            "state": "Telangana",
            "country_code": "IN"
        },
        "images": [
            {
                "about": "All",
                "link": "https://lh5.googleusercontent.com/p/AF1QipO0GhQgsQYlkMMj4itYRNnFKKlfhYnLNlD9Q3QZ=w224-h298-k-no"
            },
            {
                "about": "Street View & 360deg",
                "link": "https://lh5.googleusercontent.com/p/AF1QipP1xC9Urk4Fn3jBlTN7vI5dMLat_5ymTbpGARvY=w224-h298-k-no-pi-10-ya179.00002-ro0-fo100"
            },
            {
                "about": "Videos",
                "link": "https://lh5.googleusercontent.com/p/AF1QipP5E3LqsEqnffHcfrr4u2uyIybo-x-UDynxKWs=w224-h398-k-no"
            }
        ],
        "link": "https://www.google.com/maps/place/Jama+Masjid+Siricilla/data=!4m7!3m6!1s0x3bccfc999c51976f:0xcf3924fa09471e43!8m2!3d18.3899921!4d78.8108104!16s%2Fg%2F11d_yb31yk!19sChIJb5dRnJn8zDsRQx5HCfokOc8?authuser=0&hl=en&rclk=1",
        "coordinates": {
            "latitude": 18.3899921,
            "longitude": 78.8108104
        }
    },
    {
        "name": "Mosque",
        "main_category": "Mosque",
        "address": "9RM7+Q6J Mosque, Sircilla, Telangana 505301",
        "detailed_address": {
            "ward": null,
            "street": "9RM7+Q6J",
            "city": "Sircilla",
            "postal_code": "505301",
            "state": "Telangana",
            "country_code": "IN"
        },
        "images": [
            {
                "about": "All",
                "link": "https://lh5.googleusercontent.com/p/AF1QipMcfYnMksxekugNuAquo8_lkmSpLXm5bgQPu9hN=w397-h298-k-no"
            },
            {
                "about": "Street View & 360deg",
                "link": "https://streetviewpixels-pa.googleapis.com/v1/thumbnail?panoid=YNIcV6uTlX8jAwtMkxJYDQ&cb_client=maps_sv.tactile.gps&w=224&h=298&yaw=201.93208&pitch=0&thumbfov=100"
            }
        ],
        "link": "https://www.google.com/maps/place/Mosque/data=!4m7!3m6!1s0x3bccfc9f1cc5ac71:0xea378edce56cd2c7!8m2!3d18.3844559!4d78.8130024!16s%2Fg%2F1q5bp9kvk!19sChIJcazFHJ_8zDsRx9Js5dyON-o?authuser=0&hl=en&rclk=1",
        "coordinates": {
            "latitude": 18.3844559,
            "longitude": 78.8130024
        }
    },
    {
        "name": "Makka Masjid",
        "main_category": "Mosque",
        "address": "9RM5+286 Makka Masjid, Sircilla, Telangana 505301",
        "detailed_address": {
            "ward": null,
            "street": "9RM5+286",
            "city": "Sircilla",
            "postal_code": "505301",
            "state": "Telangana",
            "country_code": "IN"
        },
        "images": [
            {
                "about": "All",
                "link": "https://lh5.googleusercontent.com/p/AF1QipMR_nIO9vyKUgnnFZpbydZpdaGsKh-US69fEVQN=w224-h398-k-no"
            },
            {
                "about": "Dome",
                "link": "https://lh5.googleusercontent.com/p/AF1QipNg7firw1OEWoWUnj7V17_Vle6dhlSgQm6J5god=w224-h398-k-no"
            }
        ],
        "link": "https://www.google.com/maps/place/Makka+Masjid/data=!4m7!3m6!1s0x3bccfc9dbe8b1095:0x5bb87bbf5a6329da!8m2!3d18.3825294!4d78.8082588!16s%2Fg%2F11d_7x4zdn!19sChIJlRCLvp38zDsR2iljWr97uFs?authuser=0&hl=en&rclk=1",
        "coordinates": {
            "latitude": 18.3825294,
            "longitude": 78.80825879999999
        }
    },
    {
        "name": "AL Madeena Mosque",
        "main_category": "Mosque",
        "address": "AL Madeena Mosque, New Bus Stand Rd, B.Y Nagar, Sircilla, Telangana 505301",
        "detailed_address": {
            "ward": "B.Y Nagar",
            "street": "New Bus Stand Rd",
            "city": "Sircilla",
            "postal_code": "505301",
            "state": "Telangana",
            "country_code": "IN"
        },
        "images": [
            {
                "about": "All",
                "link": "https://streetviewpixels-pa.googleapis.com/v1/thumbnail?panoid=hX2ZaX0YORi2B-rVoFzzIQ&cb_client=maps_sv.tactile.gps&w=224&h=298&yaw=349.81223&pitch=0&thumbfov=100"
            },
            {
                "about": "Street View & 360deg",
                "link": "https://streetviewpixels-pa.googleapis.com/v1/thumbnail?panoid=hX2ZaX0YORi2B-rVoFzzIQ&cb_client=maps_sv.tactile.gps&w=224&h=298&yaw=349.81223&pitch=0&thumbfov=100"
            }
        ],
        "link": "https://www.google.com/maps/place/AL+Madeena+Mosque/data=!4m7!3m6!1s0x3bccfc83cf2099a9:0xeaa10c7fa1c1e331!8m2!3d18.383812!4d78.7996075!16s%2Fg%2F1q5bmp0y3!19sChIJqZkgz4P8zDsRMePBoX8Moeo?authuser=0&hl=en&rclk=1",
        "coordinates": {
            "latitude": 18.383812,
            "longitude": 78.7996075
        }
    },
    {
        "name": "Masjid-e-zamzam",
        "main_category": "Mosque",
        "address": "House no 12, Masjid-e-zamzam, 6-2, Ambedkar Nagar, |shiva nagar, Rajanna Sircilla, Sircilla, Telangana 505301",
        "detailed_address": {
            "ward": "Ambedkar Nagar, |shiva nagar, Rajanna Sircilla",
            "street": "House no 12, 6-2",
            "city": "Sircilla",
            "postal_code": "505301",
            "state": "Telangana",
            "country_code": "IN"
        },
        "images": [
            {
                "about": "All",
                "link": "https://lh5.googleusercontent.com/p/AF1QipOb9II8SQqVMnAc_5zib9HYCHA2Sse5LFxW640w=w529-h298-k-no"
            },
            {
                "about": "Street View & 360deg",
                "link": "https://streetviewpixels-pa.googleapis.com/v1/thumbnail?panoid=IuzvHEG487qgPNB9eWhBgQ&cb_client=maps_sv.tactile.gps&w=224&h=298&yaw=210.22577&pitch=0&thumbfov=100"
            }
        ],
        "link": "https://www.google.com/maps/place/Masjid-e-zamzam/data=!4m7!3m6!1s0x3bccfd688a9ba4f3:0xbc18cdf95e3d6e52!8m2!3d18.3878612!4d78.8031493!16s%2Fg%2F11smgkxfsq!19sChIJ86Sbimj9zDsRUm49XvnNGLw?authuser=0&hl=en&rclk=1",
        "coordinates": {
            "latitude": 18.3878612,
            "longitude": 78.8031493
        }
    },
    {
        "name": "masjid e maqbool",
        "main_category": "Mosque",
        "address": "masjid e maqbool, 30, Sircilla, Telangana 505301",
        "detailed_address": {
            "ward": null,
            "street": "30",
            "city": "Sircilla, Mushtipalli",
            "postal_code": "505301",
            "state": "Telangana",
            "country_code": "IN"
        },
        "images": [],
        "link": "https://www.google.com/maps/place/masjid+e+maqbool/data=!4m7!3m6!1s0x3bccfd1f06048d31:0xe94d0638ba4a03a3!8m2!3d18.4018183!4d78.7936999!16s%2Fg%2F11q9qh5fdt!19sChIJMY0EBh_9zDsRowNKujgGTek?authuser=0&hl=en&rclk=1",
        "coordinates": {
            "latitude": 18.4018183,
            "longitude": 78.7936999
        }
    },
    {
        "name": "Muhamadiya masjid",
        "main_category": "Mosque",
        "address": "CR46+J2H Muhamadiya masjid, Chandrampet, Telangana 505301",
        "detailed_address": {
            "ward": null,
            "street": "CR46+J2H",
            "city": "Chandrampet",
            "postal_code": null,
            "state": "Telangana",
            "country_code": "IN"
        },
        "images": [
            {
                "about": "All",
                "link": "https://lh5.googleusercontent.com/p/AF1QipMKn4U3fJ32fk3hZCu-CLbr7208aqfKc1UVNFJg=w529-h298-k-no"
            }
        ],
        "link": "https://www.google.com/maps/place/Muhamadiya+masjid/data=!4m7!3m6!1s0x3bccfdf51020e45d:0xe4e194a38bbcbab8!8m2!3d18.4065529!4d78.810116!16s%2Fg%2F11s_z23cl3!19sChIJXeQgEPX9zDsRuLq8i6OU4eQ?authuser=0&hl=en&rclk=1",
        "coordinates": {
            "latitude": 18.406552899999998,
            "longitude": 78.810116
        }
    }
]