[
    {
        "name": "Badi Masjid",
        "main_category": "Mosque",
        "address": "8C98+JW2 Badi Masjid, Utraula, Uttar Pradesh 271604",
        "detailed_address": {
            "ward": null,
            "street": "8C98+JW2",
            "city": "Utraula",
            "postal_code": "271604",
            "state": "Uttar Pradesh",
            "country_code": "IN"
        },
        "images": [
            {
                "about": "All",
                "link": "https://lh5.googleusercontent.com/p/AF1QipPxIgKuA9cpLhjU6Ug_MLLDCprib8SojoEHlVgN=w224-h298-k-no"
            },
            {
                "about": "Videos",
                "link": "https://lh5.googleusercontent.com/p/AF1QipMEJMllzAiws-NtZK_OiPsegqnMB1-DMFZ9hg8c=w298-h298-k-no"
            }
        ],
        "link": "https://www.google.com/maps/place/Badi+Masjid/data=!4m7!3m6!1s0x399742ecc1eb56bb:0x1983c3d5d46b9771!8m2!3d27.3190144!4d82.4172762!16s%2Fg%2F1hm3707_t!19sChIJu1brwexClzkRcZdr1NXDgxk?authuser=0&hl=en&rclk=1",
        "coordinates": {
            "latitude": 27.3190144,
            "longitude": 82.41727619999999
        }
    },
    {
        "name": "Chand Masjid",
        "main_category": "Mosque",
        "address": "8C79+J2G Chand Masjid, Utraula, Uttar Pradesh 271604",
        "detailed_address": {
            "ward": null,
            "street": "8C79+J2G",
            "city": "Utraula",
            "postal_code": "271604",
            "state": "Uttar Pradesh",
            "country_code": "IN"
        },
        "images": [
            {
                "about": "All",
                "link": "https://lh5.googleusercontent.com/p/AF1QipPj9reyRg4MZnKjNnlYXTyp67r1yEBVPyJsEoPA=w224-h298-k-no"
            },
            {
                "about": "Street View & 360deg",
                "link": "https://streetviewpixels-pa.googleapis.com/v1/thumbnail?panoid=3jIjGWl8Pf_aIg6-H3GJOw&cb_client=maps_sv.tactile.gps&w=224&h=298&yaw=255.022&pitch=0&thumbfov=100"
            }
        ],
        "link": "https://www.google.com/maps/place/Chand+Masjid/data=!4m7!3m6!1s0x399742ee9b0e7605:0x8022a0ebd0f3b1b6!8m2!3d27.314074!4d82.4175865!16s%2Fg%2F1th5gw35!19sChIJBXYOm-5ClzkRtrHz0OugIoA?authuser=0&hl=en&rclk=1",
        "coordinates": {
            "latitude": 27.314073999999998,
            "longitude": 82.4175865
        }
    },
    {
        "name": "Shahjaani Shah Dargah And Mosque",
        "main_category": "Mosque",
        "address": "8C7F+P9G Shahjaani Shah Dargah And Mosque, Utraula, Uttar Pradesh 271604",
        "detailed_address": {
            "ward": null,
            "street": "8C7F+P9G",
            "city": "Utraula",
            "postal_code": "271604",
            "state": "Uttar Pradesh",
            "country_code": "IN"
        },
        "images": [
            {
                "about": "All",
                "link": "https://lh5.googleusercontent.com/p/AF1QipOErf1nK5tsSX8EgPjfbhzmmeNEeikEiyFRdiLM=w298-h298-k-no"
            },
            {
                "about": "Dome",
                "link": "https://lh5.googleusercontent.com/p/AF1QipPeK5KZ5rL7fbTwYc8B6FzIj9D3M-mgAzbLsFTW=w397-h298-k-no"
            },
            {
                "about": "Videos",
                "link": "https://lh5.googleusercontent.com/p/AF1QipMQ2dO-cJJuMV_zAqGBkude3ojDsB3zyyWAlM25=w224-h298-k-no"
            }
        ],
        "link": "https://www.google.com/maps/place/Shahjaani+Shah+Dargah+And+Mosque/data=!4m7!3m6!1s0x399742f19b522209:0x2b0f8b8bec5326d!8m2!3d27.3143043!4d82.4234615!16s%2Fg%2F11f1hrmj80!19sChIJCSJSm_FClzkRbTLFvrj4sAI?authuser=0&hl=en&rclk=1",
        "coordinates": {
            "latitude": 27.3143043,
            "longitude": 82.4234615
        }
    },
    {
        "name": "Madina Masjid",
        "main_category": "Mosque",
        "address": "8CC9+3GP Madina Masjid, Utraula, Uttar Pradesh 271604",
        "detailed_address": {
            "ward": null,
            "street": "8CC9+3GP",
            "city": "Utraula",
            "postal_code": "271604",
            "state": "Uttar Pradesh",
            "country_code": "IN"
        },
        "images": [
            {
                "about": "All",
                "link": "https://lh5.googleusercontent.com/p/AF1QipMI1cZe1mxY0ShY97t2qemU3LEUaHDfHTs1Xw_g=w224-h398-k-no"
            },
            {
                "about": "Dome",
                "link": "https://lh5.googleusercontent.com/p/AF1QipMI1cZe1mxY0ShY97t2qemU3LEUaHDfHTs1Xw_g=w224-h398-k-no"
            }
        ],
        "link": "https://www.google.com/maps/place/Madina+Masjid/data=!4m7!3m6!1s0x399742ed2c7968f3:0xf7fbede6d27006b0!8m2!3d27.3202119!4d82.4188334!16s%2Fg%2F119x0yv9v!19sChIJ82h5LO1ClzkRsAZw0ubt-_c?authuser=0&hl=en&rclk=1",
        "coordinates": {
            "latitude": 27.3202119,
            "longitude": 82.4188334
        }
    },
    {
        "name": "Ghausia Masjid",
        "main_category": "Mosque",
        "address": "8C67+VJ4 Ghausia Masjid, SH 26, Utraula, Uttar Pradesh 271604",
        "detailed_address": {
            "ward": null,
            "street": "8C67+VJ4, SH 26",
            "city": "Utraula",
            "postal_code": null,
            "state": "Uttar Pradesh",
            "country_code": "IN"
        },
        "images": [
            {
                "about": "All",
                "link": "https://lh5.googleusercontent.com/p/AF1QipOakOI8q3C8V5UGT8Ssy2K962qNkSKM5Rj9MC02=w596-h298-k-no"
            },
            {
                "about": "Videos",
                "link": "https://lh5.googleusercontent.com/p/AF1QipMeAWpoV6IxiSJBOPZVufPHwLhRDx1WBw86lYAD=w397-h298-k-no"
            }
        ],
        "link": "https://www.google.com/maps/place/Ghausia+Masjid/data=!4m7!3m6!1s0x399742e919e71daf:0xe1dce1456092a7ae!8m2!3d27.3121415!4d82.4140638!16s%2Fg%2F1ths_w4r!19sChIJrx3nGelClzkRrqeSYEXh3OE?authuser=0&hl=en&rclk=1",
        "coordinates": {
            "latitude": 27.3121415,
            "longitude": 82.4140638
        }
    },
    {
        "name": "Masjid-e-Ali",
        "main_category": "Mosque",
        "address": "8CC3+C39 Masjid-e-Ali, hasmat ali deeh amya, Utraula, Uttar Pradesh 271604",
        "detailed_address": {
            "ward": null,
            "street": "8CC3+C39, hasmat ali deeh amya",
            "city": "Utraula, Purainia Jat",
            "postal_code": "271604",
            "state": "Uttar Pradesh",
            "country_code": "IN"
        },
        "images": [
            {
                "about": "All",
                "link": "https://lh5.googleusercontent.com/p/AF1QipOWDdAGhsFTt8XizKsytSR_spy8NNy2r-ZdUCw=w550-h298-k-no"
            },
            {
                "about": "Dome",
                "link": "https://lh5.googleusercontent.com/p/AF1QipNLvswgPYlQQf7zmdQh-3fbjiMam-XAUTu2xx0=w303-h298-k-no"
            }
        ],
        "link": "https://www.google.com/maps/place/Masjid-e-Ali/data=!4m7!3m6!1s0x399742b88d4b9e45:0x1b7bcf281b5fbfa7!8m2!3d27.321037!4d82.4027415!16s%2Fg%2F11c1xdwwvy!19sChIJRZ5LjbhClzkRp79fGyjPexs?authuser=0&hl=en&rclk=1",
        "coordinates": {
            "latitude": 27.321037,
            "longitude": 82.40274149999999
        }
    },
    {
        "name": "Noori Masjid Gokuli",
        "main_category": "Mosque",
        "address": "Noori Masjid Gokuli, Gokuli Barambhari, Utraula, Uttar Pradesh 271604",
        "detailed_address": {
            "ward": null,
            "street": "Gokuli Barambhari",
            "city": "Utraula, Rampur Murar",
            "postal_code": "271604",
            "state": "Uttar Pradesh",
            "country_code": "IN"
        },
        "images": [
            {
                "about": "All",
                "link": "https://lh5.googleusercontent.com/p/AF1QipP_iEvp0SHVV6Jd8Cnfr1l7NnO5xyXircolo6o9=w224-h485-k-no"
            }
        ],
        "link": "https://www.google.com/maps/place/Noori+Masjid+Gokuli/data=!4m7!3m6!1s0x399743501059b083:0xfaacf2719653c1cb!8m2!3d27.2600911!4d82.3986078!16s%2Fg%2F11f3r70k5k!19sChIJg7BZEFBDlzkRy8FTlnHyrPo?authuser=0&hl=en&rclk=1",
        "coordinates": {
            "latitude": 27.2600911,
            "longitude": 82.3986078
        }
    },
    {
        "name": "Jama Masjid",
        "main_category": "Mosque",
        "address": "8CCC+462 Jama Masjid, Uttar Mohalla,, Utraula, Uttar Pradesh 271604",
        "detailed_address": {
            "ward": "Pahar Bazar",
            "street": "8CCC+462, Uttar Mohalla,",
            "city": "Utraula",
            "postal_code": "271604",
            "state": "Uttar Pradesh",
            "country_code": "IN"
        },
        "images": [
            {
                "about": "All",
                "link": "https://lh5.googleusercontent.com/p/AF1QipMqiMAXczQx_SeMObQ1z_9x4wXEz7gYRbmHVJn-=w529-h298-k-no"
            }
        ],
        "link": "https://www.google.com/maps/place/Jama+Masjid/data=!4m7!3m6!1s0x399742ed523e3f91:0x5f5ef50058461104!8m2!3d27.3202637!4d82.4205149!16s%2Fg%2F11c1wxxsd5!19sChIJkT8-Uu1ClzkRBBFGWAD1Xl8?authuser=0&hl=en&rclk=1",
        "coordinates": {
            "latitude": 27.320263699999998,
            "longitude": 82.4205149
        }
    },
    {
        "name": "Jama MASJID UTRAULA",
        "main_category": "Mosque",
        "address": "8C99+292 Jama MASJID UTRAULA, Utraula, Uttar Pradesh 271604",
        "detailed_address": {
            "ward": null,
            "street": "8C99+292",
            "city": "Utraula",
            "postal_code": "271604",
            "state": "Uttar Pradesh",
            "country_code": "IN"
        },
        "images": [
            {
                "about": "All",
                "link": "https://lh5.googleusercontent.com/p/AF1QipMRZABdZWmAtOudt7mWRefFcg5KOnxWW-LgOcv4=w224-h407-k-no"
            },
            {
                "about": "Videos",
                "link": "https://lh5.googleusercontent.com/p/AF1QipO-9MMvqUjkLaSbJ61GOkagoGuoTK8gN4x0Go8W=w224-h398-k-no"
            }
        ],
        "link": "https://www.google.com/maps/place/Jama+MASJID+UTRAULA/data=!4m7!3m6!1s0x399742ecffffffff:0x2645f5f3ed3e094e!8m2!3d27.3175188!4d82.4183915!16s%2Fg%2F11g9k2jd91!19sChIJ_____-xClzkRTgk-7fP1RSY?authuser=0&hl=en&rclk=1",
        "coordinates": {
            "latitude": 27.3175188,
            "longitude": 82.4183915
        }
    },
    {
        "name": "Taseen Masjid",
        "main_category": "Mosque",
        "address": "Taseen Masjid, Utraula, Amwa Deoria, Uttar Pradesh 271604",
        "detailed_address": {
            "ward": null,
            "street": null,
            "city": "Utraula, Amwa Deoria",
            "postal_code": null,
            "state": "Uttar Pradesh",
            "country_code": "IN"
        },
        "images": [
            {
                "about": "All",
                "link": "https://lh5.googleusercontent.com/p/AF1QipOdcdwcZKzfg3cacPtFdmfdfErGSPfJm8ceVK7g=w436-h298-k-no"
            },
            {
                "about": "Dome",
                "link": "https://lh5.googleusercontent.com/p/AF1QipOdcdwcZKzfg3cacPtFdmfdfErGSPfJm8ceVK7g=w436-h298-k-no"
            },
            {
                "about": "Videos",
                "link": "https://lh5.googleusercontent.com/p/AF1QipNPz0hBZfX09Fi3t1QQnlmywBtNDWw-IeHDbk-C=w224-h398-k-no"
            }
        ],
        "link": "https://www.google.com/maps/place/Taseen+Masjid/data=!4m7!3m6!1s0x399742ec8b0a3edf:0xe27fb3fae952133b!8m2!3d27.3176918!4d82.4168748!16s%2Fg%2F1tfnrdhm!19sChIJ3z4Ki-xClzkROxNS6fqzf-I?authuser=0&hl=en&rclk=1",
        "coordinates": {
            "latitude": 27.3176918,
            "longitude": 82.4168748
        }
    },
    {
        "name": "Bashir Masjid",
        "main_category": "Mosque",
        "address": "8CC8+F75 Bashir Masjid, Arya Nagar, Utraula, Uttar Pradesh 271604",
        "detailed_address": {
            "ward": "Arya Nagar",
            "street": "8CC8+F75",
            "city": "Utraula",
            "postal_code": "271604",
            "state": "Uttar Pradesh",
            "country_code": "IN"
        },
        "images": [
            {
                "about": "All",
                "link": "https://lh5.googleusercontent.com/p/AF1QipPpeihYNzqsO4xlmQK-3gev-w2vylFU4j8LX22z=w224-h299-k-no"
            },
            {
                "about": "Dome",
                "link": "https://lh5.googleusercontent.com/p/AF1QipOfbDuJnIDlAiwfV-Heu_2C1lQ0-UXwbq0oRxae=w298-h298-k-no"
            },
            {
                "about": "Videos",
                "link": "https://lh5.googleusercontent.com/p/AF1QipOPSufXsjKzYbIkDR24ow4oMQqfdm9wl8LajXi7=w224-h399-k-no"
            }
        ],
        "link": "https://www.google.com/maps/place/Bashir+Masjid/data=!4m7!3m6!1s0x3997434fc66a67a5:0x91e823f835492d46!8m2!3d27.321126!4d82.4157254!16s%2Fg%2F11j00rg55g!19sChIJpWdqxk9DlzkRRi1JNfgj6JE?authuser=0&hl=en&rclk=1",
        "coordinates": {
            "latitude": 27.321126,
            "longitude": 82.4157254
        }
    },
    {
        "name": "Noori Masjid",
        "main_category": "Mosque",
        "address": "8C9C+9C4 Noori Masjid, Utraula, Uttar Pradesh 271604",
        "detailed_address": {
            "ward": null,
            "street": "8C9C+9C4",
            "city": "Utraula",
            "postal_code": "271604",
            "state": "Uttar Pradesh",
            "country_code": "IN"
        },
        "images": [
            {
                "about": "All",
                "link": "https://lh5.googleusercontent.com/p/AF1QipMFrZxspPJ6s3gooXEkVTYx7iCHXacg0-qvocSU=w224-h298-k-no"
            }
        ],
        "link": "https://www.google.com/maps/place/Noori+Masjid/data=!4m7!3m6!1s0x399742ed7d5311cd:0x4d2b7c447a971ce4!8m2!3d27.3183856!4d82.4210741!16s%2Fg%2F11fzf4cj7s!19sChIJzRFTfe1ClzkR5ByXekR8K00?authuser=0&hl=en&rclk=1",
        "coordinates": {
            "latitude": 27.3183856,
            "longitude": 82.4210741
        }
    },
    {
        "name": "RAZA MASJID(Mosque)Tedhwa yema",
        "main_category": "Mosque",
        "address": "7937+WFC RAZA MASJID(Mosque)Tedhwa yema, Tedhwa yema, Utraula, Poopah Dever, Uttar Pradesh 271604",
        "detailed_address": {
            "ward": null,
            "street": "7937+WFC, Tedhwa yema",
            "city": "Utraula, Poopah Dever",
            "postal_code": "271604",
            "state": "Uttar Pradesh",
            "country_code": "IN"
        },
        "images": [
            {
                "about": "All",
                "link": "https://lh5.googleusercontent.com/p/AF1QipOL_8Xj2m-5_ivOcc1RdbhtX1JLcmQ69roiefZp=w397-h298-k-no"
            }
        ],
        "link": "https://www.google.com/maps/place/RAZA+MASJID%28Mosque%29Tedhwa+yema/data=!4m7!3m6!1s0x39975d8349d06107:0x8dab9b8858681a7d!8m2!3d27.2548044!4d82.3636487!16s%2Fg%2F11j0xnq37v!19sChIJB2HQSYNdlzkRfRpoWIibq40?authuser=0&hl=en&rclk=1",
        "coordinates": {
            "latitude": 27.254804399999998,
            "longitude": 82.3636487
        }
    },
    {
        "name": "Mirdahaa Masjid mirdh msjd",
        "main_category": "Mosque",
        "address": "8CC9+P4X Mirdahaa Masjid mirdh msjd, Raja Bazar Rd, Utraula, Uttar Pradesh 271604",
        "detailed_address": {
            "ward": null,
            "street": "8CC9+P4X, Raja Bazar Rd",
            "city": "Utraula",
            "postal_code": "271604",
            "state": "Uttar Pradesh",
            "country_code": "IN"
        },
        "images": [
            {
                "about": "All",
                "link": "https://lh5.googleusercontent.com/p/AF1QipMSrH9tm4lytr_qSporOGUcBslODtfFOf12jy-v=w224-h398-k-no"
            },
            {
                "about": "Dome",
                "link": "https://lh5.googleusercontent.com/p/AF1QipM7EKjQpyArEtcbCU-Eo4JmmPQSbxkCkhCgD8_F=w661-h298-k-no"
            },
            {
                "about": "Videos",
                "link": "https://lh5.googleusercontent.com/p/AF1QipO4le8h2DxxOblBFrk1gNoJzJQaECTpcgfEubQj=w529-h298-k-no"
            }
        ],
        "link": "https://www.google.com/maps/place/Mirdahaa+Masjid+%D9%85%D9%90%D8%B1%D8%AF%DB%81%D8%A7+%D9%85%D8%B3%D8%AC%D8%AF%E2%80%AD/data=!4m7!3m6!1s0x399743c55f5987c3:0x84fc7b6df6fb706a!8m2!3d27.3218532!4d82.4178586!16s%2Fg%2F11gy3hs7xt!19sChIJw4dZX8VDlzkRanD79m17_IQ?authuser=0&hl=en&rclk=1",
        "coordinates": {
            "latitude": 27.3218532,
            "longitude": 82.4178586
        }
    },
    {
        "name": "Nizam home",
        "main_category": "Mosque",
        "address": "8CC9+WFM Nizam home, Unnamed Road, Patel Nagar, Utraula, Uttar Pradesh 271604",
        "detailed_address": {
            "ward": "Patel Nagar",
            "street": "8CC9+WFM, Unnamed Road",
            "city": "Utraula",
            "postal_code": "271604",
            "state": "Uttar Pradesh",
            "country_code": "IN"
        },
        "images": [
            {
                "about": "All",
                "link": "https://lh5.googleusercontent.com/p/AF1QipP_0pyyI6TIfuFxOZZJXb8oRf0TR5Iv5AYb9RCv=w529-h298-k-no"
            }
        ],
        "link": "https://www.google.com/maps/place/Nizam+home/data=!4m7!3m6!1s0x399743fe91a4405b:0x53e201fadea2d435!8m2!3d27.3223486!4d82.4186566!16s%2Fg%2F11mw7h31p8!19sChIJW0Ckkf5DlzkRNdSi3voB4lM?authuser=0&hl=en&rclk=1",
        "coordinates": {
            "latitude": 27.322348599999998,
            "longitude": 82.41865659999999
        }
    },
    {
        "name": "Anjuman Muhammadi Masjid",
        "main_category": "Mosque",
        "address": "8CC8+7WG Anjuman Muhammadi Masjid, Amwa Deoria, Utraula, Uttar Pradesh 271604",
        "detailed_address": {
            "ward": null,
            "street": "8CC8+7WG",
            "city": "Amwa Deoria, Utraula",
            "postal_code": "271604",
            "state": "Uttar Pradesh",
            "country_code": "IN"
        },
        "images": [
            {
                "about": "All",
                "link": "https://lh5.googleusercontent.com/p/AF1QipNCYEiskNqGMztpr0l7dJqqVLsi65PvPF9gOdJK=w224-h398-k-no"
            }
        ],
        "link": "https://www.google.com/maps/place/Anjuman+Muhammadi+Masjid/data=!4m7!3m6!1s0x39974380b3d792f5:0xb5783a97b025804!8m2!3d27.3206901!4d82.4173397!16s%2Fg%2F11j4fk_0wy!19sChIJ9ZLXs4BDlzkRBFgCe6mDVws?authuser=0&hl=en&rclk=1",
        "coordinates": {
            "latitude": 27.3206901,
            "longitude": 82.4173397
        }
    },
    {
        "name": "Khurda masjid",
        "main_category": "Mosque",
        "address": "9C73+8X2 Khurda masjid, Unnamed Road, Utraula, Uttar Pradesh 271604",
        "detailed_address": {
            "ward": null,
            "street": "9C73+8X2, Unnamed Road",
            "city": "Utraula",
            "postal_code": "271604",
            "state": "Uttar Pradesh",
            "country_code": "IN"
        },
        "images": [
            {
                "about": "All",
                "link": "https://lh5.googleusercontent.com/p/AF1QipPO8pLNQmY56YhLy4EkpAqRrbDoFPnBA4es6XXS=w224-h298-k-no"
            },
            {
                "about": "Dome",
                "link": "https://lh5.googleusercontent.com/p/AF1QipM6G5veYOkuwi_bMPZNo0Ydb3SVDNhMFMjp5Smx=w224-h298-k-no"
            },
            {
                "about": "Videos",
                "link": "https://lh5.googleusercontent.com/p/AF1QipOZRZfTa3ObZUeFmX0vyZN6vJddlNMRX9bKE3qz=w224-h398-k-no"
            }
        ],
        "link": "https://www.google.com/maps/place/Khurda+masjid/data=!4m7!3m6!1s0x3997697b0d639883:0x7f8554da484f246d!8m2!3d27.3632667!4d82.4048761!16s%2Fg%2F11p9vhz7q2!19sChIJg5hjDXtplzkRbSRPSNpUhX8?authuser=0&hl=en&rclk=1",
        "coordinates": {
            "latitude": 27.3632667,
            "longitude": 82.4048761
        }
    },
    {
        "name": "muhmmdii msjid utraulaa,jnpd blraampur",
        "main_category": "Mosque",
        "address": "8CC7+872 muhmmdii msjid utraulaa,jnpd blraampur, Raja Bazar Rd, near SBI bank, Utraula, Purainia Jat, Uttar Pradesh 271604",
        "detailed_address": {
            "ward": null,
            "street": "8CC7+872, Raja Bazar Rd, near SBI bank",
            "city": "Utraula, Purainia Jat",
            "postal_code": "271604",
            "state": "Uttar Pradesh",
            "country_code": "IN"
        },
        "images": [
            {
                "about": "All",
                "link": "https://lh5.googleusercontent.com/p/AF1QipM9wgsYINenvFbBRQ7lGntEfC2mcJ5JXV2P1MqZ=w224-h497-k-no"
            }
        ],
        "link": "https://www.google.com/maps/place/%E0%A4%AE%E0%A5%81%E0%A4%B9%E0%A4%AE%E0%A5%8D%E0%A4%AE%E0%A4%A6%E0%A5%80+%E0%A4%AE%E0%A4%B8%E0%A5%8D%E0%A4%9C%E0%A4%BF%E0%A4%A6+%E0%A4%89%E0%A4%A4%E0%A4%B0%E0%A5%8C%E0%A4%B2%E0%A4%BE,%E0%A4%9C%E0%A4%A8%E0%A4%AA%E0%A4%A6+%E0%A4%AC%E0%A4%B2%E0%A4%B0%E0%A4%BE%E0%A4%AE%E0%A4%AA%E0%A5%81%E0%A4%B0/data=!4m7!3m6!1s0x399743eaea735a39:0x7ccb191587f2be4!8m2!3d27.3207522!4d82.4131492!16s%2Fg%2F11hzzwfhpb!19sChIJOVpz6upDlzkR5Ct_WJGxzAc?authuser=0&hl=en&rclk=1",
        "coordinates": {
            "latitude": 27.320752199999998,
            "longitude": 82.41314919999999
        }
    },
    {
        "name": "Anjuman Muhammadi Masjid & Madarsa",
        "main_category": "Mosque",
        "address": "8C39+QJ6 Anjuman Muhammadi Masjid & Madarsa, chaprahiya, Utraula, Uttar Pradesh 271604",
        "detailed_address": {
            "ward": "chaprahiya",
            "street": "8C39+QJ6",
            "city": "Utraula",
            "postal_code": null,
            "state": "Uttar Pradesh",
            "country_code": "IN"
        },
        "images": [],
        "link": "https://www.google.com/maps/place/Anjuman+Muhammadi+Masjid+%26+Madarsa/data=!4m7!3m6!1s0x399743b4c7d1db99:0x25e3966e847c62a!8m2!3d27.3044187!4d82.4190202!16s%2Fg%2F11j3553jr1!19sChIJmdvRx7RDlzkRKsZH6GY5XgI?authuser=0&hl=en&rclk=1",
        "coordinates": {
            "latitude": 27.3044187,
            "longitude": 82.41902019999999
        }
    },
    {
        "name": "Sunni juma masjid masjid e gaosia",
        "main_category": "Mosque",
        "address": "8C9R+VGF Sunni juma masjid masjid e gaosia, Arya Nagar, Utraula Rular, Uttar Pradesh 271604",
        "detailed_address": {
            "ward": "Arya Nagar",
            "street": "8C9R+VGF",
            "city": "Utraula Rular",
            "postal_code": "271604",
            "state": "Uttar Pradesh",
            "country_code": "IN"
        },
        "images": [
            {
                "about": "All",
                "link": "https://lh5.googleusercontent.com/p/AF1QipP5sPBIJvZhzdi6ISYoWkhAg-y9wzmeY4JMAgqG=w224-h398-k-no"
            }
        ],
        "link": "https://www.google.com/maps/place/Sunni+juma+masjid+masjid+e+gaosia/data=!4m7!3m6!1s0x399743afd9186201:0x2eb449e59c1e47b3!8m2!3d27.3196953!4d82.4412933!16s%2Fg%2F11pf1_gr0m!19sChIJAWIY2a9DlzkRs0cenOVJtC4?authuser=0&hl=en&rclk=1",
        "coordinates": {
            "latitude": 27.3196953,
            "longitude": 82.4412933
        }
    },
    {
        "name": "NOORI MASJID CHHITARPARA",
        "main_category": "Mosque",
        "address": "7CGX+2VX NOORI MASJID CHHITARPARA, Utraula, Pipra Ram, Uttar Pradesh 271604",
        "detailed_address": {
            "ward": null,
            "street": "7CGX+2VX",
            "city": "Utraula, Pipra Ram",
            "postal_code": "271604",
            "state": "Uttar Pradesh",
            "country_code": "IN"
        },
        "images": [
            {
                "about": "All",
                "link": "https://lh5.googleusercontent.com/p/AF1QipNjE3-vhp9cU0xGtFBTJXahXJlSliYhJ_v3w4YT=w397-h298-k-no"
            },
            {
                "about": "Dome",
                "link": "https://lh5.googleusercontent.com/p/AF1QipNjE3-vhp9cU0xGtFBTJXahXJlSliYhJ_v3w4YT=w397-h298-k-no"
            }
        ],
        "link": "https://www.google.com/maps/place/NOORI+MASJID+CHHITARPARA/data=!4m7!3m6!1s0x3997431accc92101:0xd63e5a4516b0b376!8m2!3d27.275106!4d82.4497209!16s%2Fg%2F11flkcpvrj!19sChIJASHJzBpDlzkRdrOwFkVaPtY?authuser=0&hl=en&rclk=1",
        "coordinates": {
            "latitude": 27.275105999999997,
            "longitude": 82.4497209
        }
    },
    {
        "name": "Masjid ganwariya khurd",
        "main_category": "Mosque",
        "address": "795C+H6P Masjid ganwariya khurd, Ganwariya khurd, Utraula, Majhaua Kand, Uttar Pradesh 271604",
        "detailed_address": {
            "ward": "Ganwariya khurd",
            "street": "795C+H6P",
            "city": "Utraula, Majhaua Kand",
            "postal_code": null,
            "state": "Uttar Pradesh",
            "country_code": "IN"
        },
        "images": [
            {
                "about": "All",
                "link": "https://lh5.googleusercontent.com/p/AF1QipNC98miBGktaOEbbk-rD7DThi9dsqtHuXBNCjP1=w303-h298-k-no"
            },
            {
                "about": "Videos",
                "link": "https://lh5.googleusercontent.com/p/AF1QipNmE2haZOzziFt43V9SACJgbdETalMOiMhcjPF_=w224-h459-k-no"
            }
        ],
        "link": "https://www.google.com/maps/place/Masjid+ganwariya+khurd/data=!4m7!3m6!1s0x39975d8c4db34897:0xc02eb7348aefadd1!8m2!3d27.2589518!4d82.3705873!16s%2Fg%2F11sq4x13ng!19sChIJl0izTYxdlzkR0a3vijS3LsA?authuser=0&hl=en&rclk=1",
        "coordinates": {
            "latitude": 27.2589518,
            "longitude": 82.3705873
        }
    },
    {
        "name": "Masjid",
        "main_category": "Mosque",
        "address": "8C89+VG2 Masjid, Utraula, Uttar Pradesh 271604",
        "detailed_address": {
            "ward": null,
            "street": "8C89+VG2",
            "city": "Utraula",
            "postal_code": "271604",
            "state": "Uttar Pradesh",
            "country_code": "IN"
        },
        "images": [
            {
                "about": "All",
                "link": "https://lh5.googleusercontent.com/p/AF1QipPvbe5flpfPYFf9cvuheQlGBqOI9yHvjJUZnCtB=w397-h298-k-no"
            },
            {
                "about": "Dome",
                "link": "https://lh5.googleusercontent.com/p/AF1QipPvbe5flpfPYFf9cvuheQlGBqOI9yHvjJUZnCtB=w397-h298-k-no"
            }
        ],
        "link": "https://www.google.com/maps/place/Masjid/data=!4m7!3m6!1s0x39974320c8257929:0xe70893309e8180ce!8m2!3d27.3171311!4d82.4187569!16s%2Fg%2F11rkl885nq!19sChIJKXklyCBDlzkRzoCBnjCTCOc?authuser=0&hl=en&rclk=1",
        "coordinates": {
            "latitude": 27.317131099999997,
            "longitude": 82.41875689999999
        }
    },
    {
        "name": "Masjid e Imam Zamana(a.j.t.f)",
        "main_category": "Mosque",
        "address": "8C88+3V2 Masjid e Imam Zamana(a.j.t.f), near Registry Office, Utraula, Uttar Pradesh 271604",
        "detailed_address": {
            "ward": null,
            "street": "8C88+3V2, near Registry Office",
            "city": "Utraula",
            "postal_code": "271604",
            "state": "Uttar Pradesh",
            "country_code": "IN"
        },
        "images": [],
        "link": "https://www.google.com/maps/place/Masjid+e+Imam+Zamana%28a.j.t.f%29/data=!4m7!3m6!1s0x399743ecd4b22a3d:0xf68434e17173e3a!8m2!3d27.3151446!4d82.4171355!16s%2Fg%2F11gxsgv3ln!19sChIJPSqy1OxDlzkROj4XF05DaA8?authuser=0&hl=en&rclk=1",
        "coordinates": {
            "latitude": 27.3151446,
            "longitude": 82.4171355
        }
    },
    {
        "name": "Matiyariya karma masjid",
        "main_category": "Mosque",
        "address": "Matiyariya karma masjid, Matiyariya karma, Utraula, Virda Bania Bhari, Uttar Pradesh 271604",
        "detailed_address": {
            "ward": null,
            "street": "Matiyariya karma",
            "city": "Utraula, Virda Bania Bhari",
            "postal_code": "271604",
            "state": "Uttar Pradesh",
            "country_code": "IN"
        },
        "images": [],
        "link": "https://www.google.com/maps/place/Matiyariya+karma+masjid/data=!4m7!3m6!1s0x39933b4492486f59:0x52c8ae29da4e9817!8m2!3d27.3247456!4d82.4644189!16s%2Fg%2F11sbr60rct!19sChIJWW9IkkQ7kzkRF5hO2imuyFI?authuser=0&hl=en&rclk=1",
        "coordinates": {
            "latitude": 27.3247456,
            "longitude": 82.4644189
        }
    },
    {
        "name": "Aaesha Masjid(aaishaa msjid)",
        "main_category": "Mosque",
        "address": "8C87+PCF Aaesha Masjid(aaishaa msjid), Purainia Jat, Utraula, Uttar Pradesh 271604",
        "detailed_address": {
            "ward": null,
            "street": "8C87+PCF",
            "city": "Purainia Jat, Utraula",
            "postal_code": "271604",
            "state": "Uttar Pradesh",
            "country_code": "IN"
        },
        "images": [],
        "link": "https://www.google.com/maps/place/Aaesha+Masjid%28%E0%A4%86%E0%A4%87%E0%A4%B6%E0%A4%BE+%E0%A4%AE%E0%A4%B8%E0%A5%8D%E0%A4%9C%E0%A4%BF%E0%A4%A6%29/data=!4m7!3m6!1s0x399743f8fb1a1e75:0x53d65eaec3c8fea!8m2!3d27.3168089!4d82.4135418!16s%2Fg%2F11t0q6hrm0!19sChIJdR4a-_hDlzkR6o887OplPQU?authuser=0&hl=en&rclk=1",
        "coordinates": {
            "latitude": 27.316808899999998,
            "longitude": 82.41354179999999
        }
    },
    {
        "name": "Karbla Utraula krblaa utraulaa",
        "main_category": "Mosque",
        "address": "8CC5+RPP Karbla Utraula krblaa utraulaa, Raja Bazar Rd, Tendua Takia, Purainia Jat, Uttar Pradesh 271604",
        "detailed_address": {
            "ward": null,
            "street": "8CC5+RPP, Raja Bazar Rd",
            "city": "Tendua Takia, Purainia Jat",
            "postal_code": "271604",
            "state": "Uttar Pradesh",
            "country_code": "IN"
        },
        "images": [],
        "link": "https://www.google.com/maps/place/Karbla+Utraula+%E0%A4%95%E0%A4%B0%E0%A5%8D%E0%A4%AC%E0%A4%B2%E0%A4%BE+%E0%A4%89%E0%A4%A4%E0%A4%B0%E0%A5%8C%E0%A4%B2%E0%A4%BE/data=!4m7!3m6!1s0x399743c0ef4d925f:0x4bfb4a60203fcf5b!8m2!3d27.3220864!4d82.4093237!16s%2Fg%2F11nmzjq_6x!19sChIJX5JN78BDlzkRW88_IGBK-0s?authuser=0&hl=en&rclk=1",
        "coordinates": {
            "latitude": 27.3220864,
            "longitude": 82.4093237
        }
    },
    {
        "name": "Choti Masjid",
        "main_category": "Place of worship",
        "address": "Choti Masjid, Utraula, Amwa Deoria, Uttar Pradesh 271604",
        "detailed_address": {
            "ward": null,
            "street": null,
            "city": "Utraula, Amwa Deoria",
            "postal_code": null,
            "state": "Uttar Pradesh",
            "country_code": "IN"
        },
        "images": [],
        "link": "https://www.google.com/maps/place/Choti+Masjid/data=!4m7!3m6!1s0x399742ecbcf6d699:0xe704ffa33448b789!8m2!3d27.319117!4d82.41651!16s%2Fg%2F1tq4phnj!19sChIJmdb2vOxClzkRibdINKP_BOc?authuser=0&hl=en&rclk=1",
        "coordinates": {
            "latitude": 27.319117,
            "longitude": 82.41651
        }
    },
    {
        "name": "Gausiya masjid",
        "main_category": "College",
        "address": "8C99+292 Gausiya masjid, Utraula, Uttar Pradesh 271604",
        "detailed_address": {
            "ward": null,
            "street": "8C99+292",
            "city": "Utraula",
            "postal_code": null,
            "state": "Uttar Pradesh",
            "country_code": "IN"
        },
        "images": [],
        "link": "https://www.google.com/maps/place/Gausiya+masjid/data=!4m7!3m6!1s0x399743d8865b8d51:0x4316cd9c2261ea34!8m2!3d27.3175227!4d82.4183836!16s%2Fg%2F11pzwdbxtw!19sChIJUY1bhthDlzkRNOphIpzNFkM?authuser=0&hl=en&rclk=1",
        "coordinates": {
            "latitude": 27.317522699999998,
            "longitude": 82.4183836
        }
    },
    {
        "name": "Shere-e-Raza Masjid Hashimpara",
        "main_category": "Mosque",
        "address": "Shere-e-Raza Masjid Hashimpara, Tehsil, Hashimpra, Post- Chitarapara, Utraula, Uttar Pradesh 271604",
        "detailed_address": {
            "ward": null,
            "street": "Tehsil, Hashimpra, Post- Chitarapara",
            "city": "Utraula, Hasim Para",
            "postal_code": "271604",
            "state": "Uttar Pradesh",
            "country_code": "IN"
        },
        "images": [
            {
                "about": "All",
                "link": "https://streetviewpixels-pa.googleapis.com/v1/thumbnail?panoid=sClSktTlmKyqVBQQB0v75w&cb_client=maps_sv.tactile.gps&w=224&h=298&yaw=74.7761&pitch=0&thumbfov=100"
            },
            {
                "about": "Street View & 360deg",
                "link": "https://streetviewpixels-pa.googleapis.com/v1/thumbnail?panoid=sClSktTlmKyqVBQQB0v75w&cb_client=maps_sv.tactile.gps&w=224&h=298&yaw=74.7761&pitch=0&thumbfov=100"
            }
        ],
        "link": "https://www.google.com/maps/place/Shere-e-Raza+Masjid+Hashimpara/data=!4m7!3m6!1s0x3997432a97a85f8f:0x2c0fb0545610dc8a!8m2!3d27.2728483!4d82.4601662!16s%2Fg%2F11txtrdm34!19sChIJj1-olypDlzkRitwQVlSwDyw?authuser=0&hl=en&rclk=1",
        "coordinates": {
            "latitude": 27.2728483,
            "longitude": 82.4601662
        }
    },
    {
        "name": "Masjid gausul uloom",
        "main_category": "Mosque",
        "address": "89GJ+5QC Masjid gausul uloom, Badahra Kot, Raigaon, Uttar Pradesh 271609",
        "detailed_address": {
            "ward": null,
            "street": "89GJ+5QC",
            "city": "Badahra Kot, Raigaon",
            "postal_code": null,
            "state": "Uttar Pradesh",
            "country_code": "IN"
        },
        "images": [],
        "link": "https://www.google.com/maps/place/Masjid+gausul+uloom/data=!4m7!3m6!1s0x39975d130436b835:0xa29311b86bfe126!8m2!3d27.3254356!4d82.3818998!16s%2Fg%2F11qnvkzh1w!19sChIJNbg2BBNdlzkRJuG_hhsxKQo?authuser=0&hl=en&rclk=1",
        "coordinates": {
            "latitude": 27.3254356,
            "longitude": 82.3818998
        }
    }
]