[
    {
        "name": "TNTJ KALLAKURICHI TOWN BRANCH DISTRICT HEAD QUATERS",
        "main_category": "Mosque",
        "address": "TNTJ KALLAKURICHI TOWN BRANCH DISTRICT HEAD QUATERS, Kottaimedu, Kallakurichi, Tamil Nadu 606213",
        "detailed_address": {
            "ward": "Kottaimedu",
            "street": null,
            "city": "Kallakurichi",
            "postal_code": "606213",
            "state": "Tamil Nadu",
            "country_code": "IN"
        },
        "images": [
            {
                "about": "All",
                "link": "https://lh5.googleusercontent.com/p/AF1QipPmakf1j4BmFX_Rv_NF02aUoYq9j5UcrFHFY47P=w224-h477-k-no"
            },
            {
                "about": "By owner",
                "link": "https://lh5.googleusercontent.com/p/AF1QipP9ORoB6OP0WN534_gWF8KWLJRzWYGN-VVTHiV_=w224-h477-k-no"
            }
        ],
        "link": "https://www.google.com/maps/place/TNTJ+KALLAKURICHI+TOWN+BRANCH+DISTRICT+HEAD+QUATERS/data=!4m7!3m6!1s0x3bab674ec362ede9:0xa53aa148be325624!8m2!3d11.7388159!4d78.9672849!16s%2Fg%2F11t7_cc9f6!19sChIJ6e1iw05nqzsRJFYyvkihOqU?authuser=0&hl=en&rclk=1",
        "coordinates": {
            "latitude": 11.738815899999999,
            "longitude": 78.9672849
        }
    },
    {
        "name": "Al-Hasanath Masjid",
        "main_category": "Mosque",
        "address": "PXR4+R29 Al-Hasanath Masjid, Kallakurichi, Tamil Nadu 606202",
        "detailed_address": {
            "ward": null,
            "street": "PXR4+R29",
            "city": "Kallakurichi",
            "postal_code": "606202",
            "state": "Tamil Nadu",
            "country_code": "IN"
        },
        "images": [
            {
                "about": "All",
                "link": "https://lh5.googleusercontent.com/p/AF1QipMWGc5ymhUAfpNlKsp93bnq0rtUITSvOqv_tnql=w224-h298-k-no"
            },
            {
                "about": "Latest",
                "link": "https://lh5.googleusercontent.com/p/AF1QipMWGc5ymhUAfpNlKsp93bnq0rtUITSvOqv_tnql=w224-h298-k-no"
            },
            {
                "about": "Street View & 360deg",
                "link": "https://streetviewpixels-pa.googleapis.com/v1/thumbnail?panoid=fdDiP9clMKjPYoCjHdUHAQ&cb_client=maps_sv.tactile.gps&w=224&h=298&yaw=343.6908&pitch=0&thumbfov=100"
            }
        ],
        "link": "https://www.google.com/maps/place/Al-Hasanath+Masjid/data=!4m7!3m6!1s0x3bab66ea77305075:0x83a9aac57716c3ab!8m2!3d11.7420354!4d78.9551099!16s%2Fg%2F11c4m3q6q4!19sChIJdVAwd-pmqzsRq8MWd8WqqYM?authuser=0&hl=en&rclk=1",
        "coordinates": {
            "latitude": 11.742035399999999,
            "longitude": 78.9551099
        }
    },
    {
        "name": "Noorul Islam Sunnath Jamath",
        "main_category": "Mosque",
        "address": "PXR2+FMM Noorul Islam Sunnath Jamath, Kesavalu Nagar, V.O.C.Nagar, Kallakurichi, Tamil Nadu 606202",
        "detailed_address": {
            "ward": "Kesavalu Nagar, V.O.C.Nagar",
            "street": "PXR2+FMM",
            "city": "Kallakurichi",
            "postal_code": "606202",
            "state": "Tamil Nadu",
            "country_code": "IN"
        },
        "images": [
            {
                "about": "All",
                "link": "https://lh5.googleusercontent.com/p/AF1QipMAg3Di8iRiKjtORlnAMaQgQvKvWkAtUlYfD02d=w295-h298-k-no"
            },
            {
                "about": "Dome",
                "link": "https://lh5.googleusercontent.com/p/AF1QipO2bhFyoiyGTaBHrFbNN6xHNcDFw_wEyjsSnWCG=w529-h298-k-no"
            }
        ],
        "link": "https://www.google.com/maps/place/Noorul+Islam+Sunnath+Jamath/data=!4m7!3m6!1s0x3bab66eacca2a0fb:0x719bfc5152e2279a!8m2!3d11.7412098!4d78.9516805!16s%2Fg%2F11c15ftq_s!19sChIJ-6CizOpmqzsRmifiUlH8m3E?authuser=0&hl=en&rclk=1",
        "coordinates": {
            "latitude": 11.7412098,
            "longitude": 78.9516805
        }
    },
    {
        "name": "JUMMA MASJID",
        "main_category": "Mosque",
        "address": "PXQ7+4J3 JUMMA MASJID, Raja Nagar, Kallakurichi, Tamil Nadu 606202",
        "detailed_address": {
            "ward": "Raja Nagar",
            "street": "PXQ7+4J3",
            "city": "Kallakurichi",
            "postal_code": "606202",
            "state": "Tamil Nadu",
            "country_code": "IN"
        },
        "images": [
            {
                "about": "All",
                "link": "https://streetviewpixels-pa.googleapis.com/v1/thumbnail?panoid=7zvG9vd92YOvLvTEP8dvNA&cb_client=maps_sv.tactile.gps&w=224&h=298&yaw=240.16605&pitch=0&thumbfov=100"
            },
            {
                "about": "Street View & 360deg",
                "link": "https://streetviewpixels-pa.googleapis.com/v1/thumbnail?panoid=7zvG9vd92YOvLvTEP8dvNA&cb_client=maps_sv.tactile.gps&w=224&h=298&yaw=240.16605&pitch=0&thumbfov=100"
            }
        ],
        "link": "https://www.google.com/maps/place/JUMMA+MASJID/data=!4m7!3m6!1s0x3bab66e60d62d8ff:0x93e3ab3054572362!8m2!3d11.7377538!4d78.9640316!16s%2Fg%2F11g9m4yy9j!19sChIJ_9hiDeZmqzsRYiNXVDCr45M?authuser=0&hl=en&rclk=1",
        "coordinates": {
            "latitude": 11.7377538,
            "longitude": 78.9640316
        }
    },
    {
        "name": "MODERN MASJID",
        "main_category": "Mosque",
        "address": "PXJ4+85R MODERN MASJID, Villanthangal Rd, Kallakurichi, Tamil Nadu 606202",
        "detailed_address": {
            "ward": null,
            "street": "PXJ4+85R, Villanthangal Rd",
            "city": "Kallakurichi",
            "postal_code": "606202",
            "state": "Tamil Nadu",
            "country_code": "IN"
        },
        "images": [],
        "link": "https://www.google.com/maps/place/MODERN+MASJID/data=!4m7!3m6!1s0x3bab66f2740d0013:0x6a91f5bb7290b6d1!8m2!3d11.7308568!4d78.9553873!16s%2Fg%2F11b6t47k0f!19sChIJEwANdPJmqzsR0baQcrv1kWo?authuser=0&hl=en&rclk=1",
        "coordinates": {
            "latitude": 11.7308568,
            "longitude": 78.9553873
        }
    },
    {
        "name": "DARGAH MASJID",
        "main_category": "Mosque",
        "address": "PXR7+RWR DARGAH MASJID, SH6, Kottaimedu, Kallakurichi, Tamil Nadu 606213",
        "detailed_address": {
            "ward": "Kottaimedu",
            "street": "PXR7+RWR, SH6",
            "city": "Kallakurichi",
            "postal_code": "606213",
            "state": "Tamil Nadu",
            "country_code": "IN"
        },
        "images": [],
        "link": "https://www.google.com/maps/place/DARGAH+MASJID/data=!4m7!3m6!1s0x3bab66e78e2cf31d:0x810ddacf41e738da!8m2!3d11.7421142!4d78.9647517!16s%2Fg%2F11b6t56zx8!19sChIJHfMsjudmqzsR2jjnQc_aDYE?authuser=0&hl=en&rclk=1",
        "coordinates": {
            "latitude": 11.7421142,
            "longitude": 78.9647517
        }
    },
    {
        "name": "Samadhya Masjid",
        "main_category": "Mosque",
        "address": "Samadhya Masjid, 48, Kallakurichi - Kachirapalayam Rd, Raja Nagar, Kallakurichi, Tamil Nadu 606202",
        "detailed_address": {
            "ward": "Raja Nagar",
            "street": "48, Kallakurichi - Kachirapalayam Rd",
            "city": "Kallakurichi",
            "postal_code": "606202",
            "state": "Tamil Nadu",
            "country_code": "IN"
        },
        "images": [
            {
                "about": "All",
                "link": "https://lh5.googleusercontent.com/p/AF1QipN4L0THEgnD34oDw1aHoIauZEZStlk7BoY67RZw=w224-h398-k-no"
            },
            {
                "about": "Street View & 360deg",
                "link": "https://streetviewpixels-pa.googleapis.com/v1/thumbnail?panoid=EtMXSxbSq90iRHvb7dLMSg&cb_client=maps_sv.tactile.gps&w=224&h=298&yaw=41.586105&pitch=0&thumbfov=100"
            }
        ],
        "link": "https://www.google.com/maps/place/Samadhya+Masjid/data=!4m7!3m6!1s0x3bab66e9626d2bcb:0xca680fa308beae1!8m2!3d11.7386113!4d78.9571198!16s%2Fg%2F11c1wwxhls!19sChIJyyttYulmqzsR4eqLMPqApgw?authuser=0&hl=en&rclk=1",
        "coordinates": {
            "latitude": 11.738611299999999,
            "longitude": 78.9571198
        }
    },
    {
        "name": "Masjidul Aksa",
        "main_category": "Mosque",
        "address": "Masjidul Aksa, 48, Kallakurichi - Kachirapalayam Rd, Raja Nagar, Kallakurichi, Tamil Nadu 606202",
        "detailed_address": {
            "ward": "Raja Nagar",
            "street": "48, Kallakurichi - Kachirapalayam Rd",
            "city": "Kallakurichi",
            "postal_code": "606202",
            "state": "Tamil Nadu",
            "country_code": "IN"
        },
        "images": [
            {
                "about": "All",
                "link": "https://lh5.googleusercontent.com/p/AF1QipMUsgj-DvDrZb7ktAG3oLz9nEvCgXUE8dFnQvjK=w224-h497-k-no"
            },
            {
                "about": "Videos",
                "link": "https://lh5.googleusercontent.com/p/AF1QipPm30q74iV_gXw2XqNeMd2aVQVBvfJY1c9Sdgc6=w224-h398-k-no"
            }
        ],
        "link": "https://www.google.com/maps/place/Masjidul+Aksa/data=!4m7!3m6!1s0x3bab66e96cf5ce23:0x792a668ee39c1e8c!8m2!3d11.7387265!4d78.9583533!16s%2Fg%2F11c4bc8m6g!19sChIJI871bOlmqzsRjB6c445mKnk?authuser=0&hl=en&rclk=1",
        "coordinates": {
            "latitude": 11.7387265,
            "longitude": 78.9583533
        }
    },
    {
        "name": "Masjidul Ya-Naseeb",
        "main_category": "Mosque",
        "address": "PXP6+WGR Masjidul Ya-Naseeb, Raja Nagar, Kallakurichi, Tamil Nadu 606202",
        "detailed_address": {
            "ward": "Raja Nagar",
            "street": "PXP6+WGR",
            "city": "Kallakurichi",
            "postal_code": "606202",
            "state": "Tamil Nadu",
            "country_code": "IN"
        },
        "images": [
            {
                "about": "All",
                "link": "https://lh5.googleusercontent.com/p/AF1QipORQyg2oS62ltBrWtE99hCf2nRhItilU9PyxeWf=w515-h298-k-no"
            }
        ],
        "link": "https://www.google.com/maps/place/Masjidul+Ya-Naseeb/data=!4m7!3m6!1s0x3bab66e8c98b6111:0x3742b6b41556d9d4!8m2!3d11.7373547!4d78.9612548!16s%2Fg%2F11fx9l8_qj!19sChIJEWGLyehmqzsR1NlWFbS2Qjc?authuser=0&hl=en&rclk=1",
        "coordinates": {
            "latitude": 11.7373547,
            "longitude": 78.96125479999999
        }
    },
    {
        "name": "MSN Towheed Masjid",
        "main_category": "Mosque",
        "address": "PXQ4+WM3 MSN Towheed Masjid, Mamndur Road, V.O.C.Nagar, Kallakurichi, Tamil Nadu 606202",
        "detailed_address": {
            "ward": "V.O.C.Nagar",
            "street": "PXQ4+WM3, Mamndur Road",
            "city": "Kallakurichi",
            "postal_code": "606202",
            "state": "Tamil Nadu",
            "country_code": "IN"
        },
        "images": [
            {
                "about": "All",
                "link": "https://lh5.googleusercontent.com/p/AF1QipNpJEW2Zk5pUFPGUReCMBy11yyFKq-q6KOrNhuW=w224-h298-k-no"
            },
            {
                "about": "Street View & 360deg",
                "link": "https://streetviewpixels-pa.googleapis.com/v1/thumbnail?panoid=XMCUTsF7wn1XzeTgtHPDMA&cb_client=maps_sv.tactile.gps&w=224&h=298&yaw=312.0444&pitch=0&thumbfov=100"
            }
        ],
        "link": "https://www.google.com/maps/place/MSN+Towheed+Masjid/data=!4m7!3m6!1s0x3bab66ea2cf3282b:0x3731c01065b890bd!8m2!3d11.7397725!4d78.9566693!16s%2Fg%2F11f38wswxv!19sChIJKyjzLOpmqzsRvZC4ZRDAMTc?authuser=0&hl=en&rclk=1",
        "coordinates": {
            "latitude": 11.739772499999999,
            "longitude": 78.9566693
        }
    },
    {
        "name": "Juma'h Masjid _jm`@ msjd",
        "main_category": "Mosque",
        "address": "Juma'h Masjid _jm`@ msjd, Bus stand, Kottaimedu, Kallakurichi, Tamil Nadu 606213",
        "detailed_address": {
            "ward": "Kottaimedu",
            "street": "Bus stand",
            "city": "Kallakurichi",
            "postal_code": null,
            "state": "Tamil Nadu",
            "country_code": "IN"
        },
        "images": [
            {
                "about": "All",
                "link": "https://lh5.googleusercontent.com/p/AF1QipMt_aQlB52ZE7jut0wwDJhBy0jxphSzlAreplSn=w224-h497-k-no"
            }
        ],
        "link": "https://www.google.com/maps/place/Juma%27h+Masjid+_%D8%AC%D9%85%D8%B9%D8%A9+%D9%85%D8%B3%D8%AC%D8%AF%E2%80%AD/data=!4m7!3m6!1s0x3bab67bf389c2d67:0x1f8b4e0ee3e58dc!8m2!3d11.7384786!4d78.9643621!16s%2Fg%2F11tmkct9yv!19sChIJZy2cOL9nqzsR3Fg-7uC0-AE?authuser=0&hl=en&rclk=1",
        "coordinates": {
            "latitude": 11.738478599999999,
            "longitude": 78.9643621
        }
    },
    {
        "name": "Madhina masjid",
        "main_category": "Mosque",
        "address": "Madhina masjid, Moraipathai Rd, Kaja Nagar, Kallakurichi, Tamil Nadu 606202",
        "detailed_address": {
            "ward": "Kaja Nagar",
            "street": "Moraipathai Rd",
            "city": "Kallakurichi",
            "postal_code": "606202",
            "state": "Tamil Nadu",
            "country_code": "IN"
        },
        "images": [
            {
                "about": "All",
                "link": "https://streetviewpixels-pa.googleapis.com/v1/thumbnail?panoid=fSrB7hi6a52eX3DgIqEfUQ&cb_client=maps_sv.tactile.gps&w=224&h=298&yaw=57.400684&pitch=0&thumbfov=100"
            },
            {
                "about": "Street View & 360deg",
                "link": "https://streetviewpixels-pa.googleapis.com/v1/thumbnail?panoid=fSrB7hi6a52eX3DgIqEfUQ&cb_client=maps_sv.tactile.gps&w=224&h=298&yaw=57.400684&pitch=0&thumbfov=100"
            }
        ],
        "link": "https://www.google.com/maps/place/Madhina+masjid/data=!4m7!3m6!1s0x3bab6772d5f7edfd:0x651619bc6d5d905!8m2!3d11.741307!4d78.9488325!16s%2Fg%2F11gzrlt36c!19sChIJ_e331XJnqzsRBdnVxpthUQY?authuser=0&hl=en&rclk=1",
        "coordinates": {
            "latitude": 11.741306999999999,
            "longitude": 78.9488325
        }
    },
    {
        "name": "Eid ika Masjid",
        "main_category": "Mosque",
        "address": "Eid ika Masjid, 1a, Kesavalu Nagar, V.O.C.Nagar, Kallakurichi, Tamil Nadu 606202",
        "detailed_address": {
            "ward": "Kesavalu Nagar, V.O.C.Nagar",
            "street": "1a",
            "city": "Kallakurichi",
            "postal_code": "606202",
            "state": "Tamil Nadu",
            "country_code": "IN"
        },
        "images": [
            {
                "about": "All",
                "link": "https://streetviewpixels-pa.googleapis.com/v1/thumbnail?panoid=VH18Wu6mVHUqHW1MePNn1g&cb_client=maps_sv.tactile.gps&w=224&h=298&yaw=202.53743&pitch=0&thumbfov=100"
            },
            {
                "about": "Street View & 360deg",
                "link": "https://streetviewpixels-pa.googleapis.com/v1/thumbnail?panoid=VH18Wu6mVHUqHW1MePNn1g&cb_client=maps_sv.tactile.gps&w=224&h=298&yaw=202.53743&pitch=0&thumbfov=100"
            }
        ],
        "link": "https://www.google.com/maps/place/Eid+ika+Masjid/data=!4m7!3m6!1s0x3bab67bb639be60b:0xfd7f68b014df439e!8m2!3d11.7380677!4d78.9557127!16s%2Fg%2F11fnsxn22j!19sChIJC-abY7tnqzsRnkPfFLBof_0?authuser=0&hl=en&rclk=1",
        "coordinates": {
            "latitude": 11.7380677,
            "longitude": 78.95571269999999
        }
    },
    {
        "name": "Mosque",
        "main_category": "Mosque",
        "address": "PXQ7+5JW Mosque, Sankarapuram, Kallakurichi, Tamil Nadu 606202",
        "detailed_address": {
            "ward": "Sankarapuram",
            "street": "PXQ7+5JW",
            "city": "Kallakurichi",
            "postal_code": "606202",
            "state": "Tamil Nadu",
            "country_code": "IN"
        },
        "images": [
            {
                "about": "All",
                "link": "https://streetviewpixels-pa.googleapis.com/v1/thumbnail?panoid=DRsMan8cmMEGTKrD7k1m1A&cb_client=maps_sv.tactile.gps&w=224&h=298&yaw=240.83897&pitch=0&thumbfov=100"
            },
            {
                "about": "Street View & 360deg",
                "link": "https://streetviewpixels-pa.googleapis.com/v1/thumbnail?panoid=DRsMan8cmMEGTKrD7k1m1A&cb_client=maps_sv.tactile.gps&w=224&h=298&yaw=240.83897&pitch=0&thumbfov=100"
            }
        ],
        "link": "https://www.google.com/maps/place/Mosque/data=!4m7!3m6!1s0x3bab66e61318ffff:0x60d00cc773c8a7f5!8m2!3d11.7379985!4d78.9640769!16s%2Fg%2F11txmzmsmw!19sChIJ__8YE-ZmqzsR9afIc8cM0GA?authuser=0&hl=en&rclk=1",
        "coordinates": {
            "latitude": 11.7379985,
            "longitude": 78.9640769
        }
    },
    {
        "name": "Prayer Hall on the way",
        "main_category": "Mosque",
        "address": "PX93+6VC Prayer Hall on the way, Kallakurichi, Tamil Nadu 606202",
        "detailed_address": {
            "ward": null,
            "street": "PX93+6VC",
            "city": "Kallakurichi",
            "postal_code": "606202",
            "state": "Tamil Nadu",
            "country_code": "IN"
        },
        "images": [
            {
                "about": "All",
                "link": "https://streetviewpixels-pa.googleapis.com/v1/thumbnail?panoid=6Xbb-PspzbY0_OxCnt-Eog&cb_client=maps_sv.tactile.gps&w=224&h=298&yaw=330.079&pitch=0&thumbfov=100"
            },
            {
                "about": "Street View & 360deg",
                "link": "https://streetviewpixels-pa.googleapis.com/v1/thumbnail?panoid=6Xbb-PspzbY0_OxCnt-Eog&cb_client=maps_sv.tactile.gps&w=224&h=298&yaw=330.079&pitch=0&thumbfov=100"
            }
        ],
        "link": "https://www.google.com/maps/place/Prayer+Hall+on+the+way/data=!4m7!3m6!1s0x3bab676ad7700161:0xde7475b47b0421a3!8m2!3d11.7180516!4d78.9546411!16s%2Fg%2F11p5qfjbs1!19sChIJYQFw12pnqzsRoyEEe7R1dN4?authuser=0&hl=en&rclk=1",
        "coordinates": {
            "latitude": 11.718051599999999,
            "longitude": 78.9546411
        }
    }
]