[
    {
        "name": "Pakkir Bava Jumma Masjid",
        "main_category": "Mosque",
        "address": "Pakkir Bava Jumma Masjid, Singampathu, Kalakkad, Tamil Nadu 627501",
        "detailed_address": {
            "ward": "Singampathu",
            "street": null,
            "city": "Kalakkad",
            "postal_code": "627501",
            "state": "Tamil Nadu",
            "country_code": "IN"
        },
        "images": [
            {
                "about": "All",
                "link": "https://lh5.googleusercontent.com/p/AF1QipOSUrWagFdMiWL7m6tpwB2nQtBDuZYUsvk3GIWb=w396-h298-k-no"
            },
            {
                "about": "Dome",
                "link": "https://lh5.googleusercontent.com/p/AF1QipOMgAIt3-ahnilkPoo-vayyrNXqOVKApPbe32ir=w224-h298-k-no"
            }
        ],
        "link": "https://www.google.com/maps/place/Pakkir+Bava+Jumma+Masjid/data=!4m7!3m6!1s0x3b0442740ee86d15:0xc69421b31e33ff4f!8m2!3d8.5196844!4d77.5566667!16s%2Fg%2F1v2dzyms!19sChIJFW3oDnRCBDsRT_8zHrMhlMY?authuser=0&hl=en&rclk=1",
        "coordinates": {
            "latitude": 8.5196844,
            "longitude": 77.5566667
        }
    },
    {
        "name": "Kottai Jumma Masjid",
        "main_category": "Mosque",
        "address": "GH72+JRG Kottai Jumma Masjid, Kovilpathu, Kalakkad, Tamil Nadu 627501",
        "detailed_address": {
            "ward": "Kovilpathu",
            "street": "GH72+JRG",
            "city": "Kalakkad",
            "postal_code": "627501",
            "state": "Tamil Nadu",
            "country_code": "IN"
        },
        "images": [
            {
                "about": "All",
                "link": "https://lh5.googleusercontent.com/p/AF1QipNzpzVvyiU_0rcChBrLYO7ED-uJ1T6Bdf2Bdzdb=w442-h298-k-no"
            }
        ],
        "link": "https://www.google.com/maps/place/Kottai+Jumma+Masjid/data=!4m7!3m6!1s0x3b0442706d00c0dd:0xcdbcec0544c9ede8!8m2!3d8.5140733!4d77.5520839!16s%2Fg%2F1thx70my!19sChIJ3cAAbXBCBDsR6O3JRAXsvM0?authuser=0&hl=en&rclk=1",
        "coordinates": {
            "latitude": 8.5140733,
            "longitude": 77.5520839
        }
    },
    {
        "name": "V R Puram Jumma Masjid",
        "main_category": "Mosque",
        "address": "GH73+5XQ V R Puram Jumma Masjid, Muslim S St, Kalakkad, Tamil Nadu 627501",
        "detailed_address": {
            "ward": null,
            "street": "GH73+5XQ, Muslim S St",
            "city": "Kalakkad",
            "postal_code": "627501",
            "state": "Tamil Nadu",
            "country_code": "IN"
        },
        "images": [
            {
                "about": "All",
                "link": "https://lh5.googleusercontent.com/p/AF1QipN8cy1zDeRXS2EU_6kMn0Fs7pw1P_QxpZMHcGxD=w529-h298-k-no"
            }
        ],
        "link": "https://www.google.com/maps/place/V+R+Puram+Jumma+Masjid/data=!4m7!3m6!1s0x3b04427a0c645e7b:0x5e4259345384b020!8m2!3d8.512953!4d77.5549847!16s%2Fg%2F1td5pq4y!19sChIJe15kDHpCBDsRILCEUzRZQl4?authuser=0&hl=en&rclk=1",
        "coordinates": {
            "latitude": 8.512953,
            "longitude": 77.55498469999999
        }
    },
    {
        "name": "Kovilpathu jumma masjid",
        "main_category": "Mosque",
        "address": "Kovilpathu jumma masjid, 19, South St, Kovilpathu, Kalakkad, Tamil Nadu 627501",
        "detailed_address": {
            "ward": "Kovilpathu",
            "street": "19, South St",
            "city": "Kalakkad",
            "postal_code": "627501",
            "state": "Tamil Nadu",
            "country_code": "IN"
        },
        "images": [
            {
                "about": "All",
                "link": "https://lh5.googleusercontent.com/p/AF1QipMM2yHMYMH-caN959jouLg9y74CMlYgz6c5sAae=w224-h298-k-no"
            },
            {
                "about": "Videos",
                "link": "https://lh5.googleusercontent.com/p/AF1QipODk7BhfLybQNycSEHwTJmy8uVt8kOxt7LtYpkg=w224-h398-k-no"
            }
        ],
        "link": "https://www.google.com/maps/place/Kovilpathu+jumma+masjid/data=!4m7!3m6!1s0x3b04427bd938d2d3:0xc3e140db7de1d13b!8m2!3d8.509738!4d77.5559503!16s%2Fg%2F1tfbr9pz!19sChIJ09I42XtCBDsRO9HhfdtA4cM?authuser=0&hl=en&rclk=1",
        "coordinates": {
            "latitude": 8.509738,
            "longitude": 77.55595029999999
        }
    },
    {
        "name": "Mosque",
        "main_category": "Mosque",
        "address": "GH63+GCR Mosque, Kovilpathu, Kalakkad, Tamil Nadu 627501",
        "detailed_address": {
            "ward": "Kovilpathu",
            "street": "GH63+GCR",
            "city": "Kalakkad",
            "postal_code": "627501",
            "state": "Tamil Nadu",
            "country_code": "IN"
        },
        "images": [],
        "link": "https://www.google.com/maps/place/Mosque/data=!4m7!3m6!1s0x3b044349c26806f1:0xdaef93ea3ba1dae5!8m2!3d8.5113669!4d77.5535156!16s%2Fg%2F11svj4qr11!19sChIJ8QZowklDBDsR5dqhO-qT79o?authuser=0&hl=en&rclk=1",
        "coordinates": {
            "latitude": 8.511366899999999,
            "longitude": 77.5535156
        }
    }
]