[
    {
        "name": "shaahpur msjid",
        "main_category": "Mosque",
        "address": "Q22F+V9W shaahpur msjid, imaam uddiin maarg, Sahpur, shaahpur, Raniganj, Uttar Pradesh 230304",
        "detailed_address": {
            "ward": "shaahpur",
            "street": "Q22F+V9W, imaam uddiin maarg, Sahpur",
            "city": "Raniganj, Sahpur",
            "postal_code": "230304",
            "state": "Uttar Pradesh",
            "country_code": "IN"
        },
        "images": [
            {
                "about": "All",
                "link": "https://lh5.googleusercontent.com/p/AF1QipPwCXi8REFHfByluEmRwGVAnqXhisJSeNPmgECQ=w397-h298-k-no"
            },
            {
                "about": "Videos",
                "link": "https://lh5.googleusercontent.com/p/AF1QipOdTQY3Qua63Ee8jYigNFCXxsDRdImO1-q4pp-7=w529-h298-k-no"
            }
        ],
        "link": "https://www.google.com/maps/place/%E0%A4%B6%E0%A4%BE%E0%A4%B9%E0%A4%AA%E0%A5%81%E0%A4%B0+%E0%A4%AE%E0%A4%B8%E0%A5%8D%E0%A4%9C%E0%A4%BF%E0%A4%A6/data=!4m7!3m6!1s0x399abd2fb99da4d5:0xf33a0a425d8cb05f!8m2!3d25.7522428!4d82.0234675!16s%2Fg%2F11g0kh6yl7!19sChIJ1aSduS-9mjkRX7CMXUIKOvM?authuser=0&hl=en&rclk=1",
        "coordinates": {
            "latitude": 25.752242799999998,
            "longitude": 82.0234675
        }
    },
    {
        "name": "Badi Masjid",
        "main_category": "Mosque",
        "address": "J459+VQ2 Badi Masjid, Raniganj, West Bengal 713347",
        "detailed_address": {
            "ward": null,
            "street": "J459+VQ2",
            "city": "Raniganj",
            "postal_code": "713347",
            "state": "West Bengal",
            "country_code": "IN"
        },
        "images": [
            {
                "about": "All",
                "link": "https://lh5.googleusercontent.com/p/AF1QipPEpnsEcOw8GaS-mx1Ap7MfslzfowLqMJCoZnPT=w529-h298-k-no"
            },
            {
                "about": "Street View & 360deg",
                "link": "https://streetviewpixels-pa.googleapis.com/v1/thumbnail?panoid=J8s31TXCW2WLq15h2iDTbQ&cb_client=maps_sv.tactile.gps&w=224&h=298&yaw=44.83119&pitch=0&thumbfov=100"
            },
            {
                "about": "Videos",
                "link": "https://lh5.googleusercontent.com/p/AF1QipPEpnsEcOw8GaS-mx1Ap7MfslzfowLqMJCoZnPT=w529-h298-k-no"
            }
        ],
        "link": "https://www.google.com/maps/place/Badi+Masjid/data=!4m7!3m6!1s0x39f71113a5b263eb:0x6764c354ab1c2f06!8m2!3d23.6096492!4d87.1193927!16s%2Fg%2F1vkxkp7t!19sChIJ62OypRMR9zkRBi8cq1TDZGc?authuser=0&hl=en&rclk=1",
        "coordinates": {
            "latitude": 23.6096492,
            "longitude": 87.11939269999999
        }
    },
    {
        "name": "Mazar Raniganj",
        "main_category": "Mosque",
        "address": "Mazar Raniganj, Girjapara, Raniganj, West Bengal 713347",
        "detailed_address": {
            "ward": null,
            "street": "Girjapara",
            "city": "Raniganj",
            "postal_code": "713347",
            "state": "West Bengal",
            "country_code": "IN"
        },
        "images": [
            {
                "about": "All",
                "link": "https://lh5.googleusercontent.com/p/AF1QipNFWCi2qlgWGiQxfq57Zpo9VPOLKAT8QdIqKfnr=w397-h298-k-no"
            },
            {
                "about": "Dome",
                "link": "https://lh5.googleusercontent.com/p/AF1QipMZvi_VioQ9g42F-7fn9I65WIV2KaxJaDwienYI=w397-h298-k-no"
            },
            {
                "about": "Videos",
                "link": "https://lh5.googleusercontent.com/p/AF1QipNBTBNK_yBkr8ztQKK2i5gG6pI_i_yVIVHUEn7f=w224-h407-k-no"
            },
            {
                "about": "By owner",
                "link": "https://lh5.googleusercontent.com/p/AF1QipM9oRR4Dc2gRJkaQOJ3cUDaxKH0K57UiYzEK9PG=w224-h298-k-no"
            },
            {
                "about": "Street View & 360deg",
                "link": "https://streetviewpixels-pa.googleapis.com/v1/thumbnail?panoid=8LCl-javoBJhUCh8FGve1Q&cb_client=maps_sv.tactile.gps&w=224&h=298&yaw=213.35956&pitch=0&thumbfov=100"
            }
        ],
        "link": "https://www.google.com/maps/place/Mazar+Raniganj/data=!4m7!3m6!1s0x39f711b511d3406f:0xf13bebbaa0b55336!8m2!3d23.612318!4d87.1256522!16s%2Fg%2F11qnvlq8rd!19sChIJb0DTEbUR9zkRNlO1oLrrO_E?authuser=0&hl=en&rclk=1",
        "coordinates": {
            "latitude": 23.612318,
            "longitude": 87.12565219999999
        }
    },
    {
        "name": "Tarbangla Masjid",
        "main_category": "Mosque",
        "address": "J477+HV7 Tarbangla Masjid, Tarbangla Road, Raniganj, West Bengal 713383",
        "detailed_address": {
            "ward": null,
            "street": "J477+HV7, Tarbangla Road",
            "city": "Raniganj",
            "postal_code": "713383",
            "state": "West Bengal",
            "country_code": "IN"
        },
        "images": [
            {
                "about": "All",
                "link": "https://lh5.googleusercontent.com/p/AF1QipPysQjsN5aTXHw7cJdZR1c-_U2hZAB6gldjcIUh=w224-h298-k-no"
            },
            {
                "about": "Street View & 360deg",
                "link": "https://streetviewpixels-pa.googleapis.com/v1/thumbnail?panoid=rc0HkIU5eBSZtD5Fjt4_Yw&cb_client=maps_sv.tactile.gps&w=224&h=298&yaw=352.25565&pitch=0&thumbfov=100"
            }
        ],
        "link": "https://www.google.com/maps/place/Tarbangla+Masjid/data=!4m7!3m6!1s0x39f71117053b4fbd:0x663ce678204b2de4!8m2!3d23.613908!4d87.1146656!16s%2Fg%2F1hhvpg2xf!19sChIJvU87BRcR9zkR5C1LIHjmPGY?authuser=0&hl=en&rclk=1",
        "coordinates": {
            "latitude": 23.613908,
            "longitude": 87.1146656
        }
    },
    {
        "name": "Girja Para Masjid",
        "main_category": "Mosque",
        "address": "J437+29P Girja Para Masjid, Raniganj, West Bengal 713347",
        "detailed_address": {
            "ward": null,
            "street": "J437+29P",
            "city": "Raniganj",
            "postal_code": null,
            "state": "West Bengal",
            "country_code": "IN"
        },
        "images": [
            {
                "about": "All",
                "link": "https://lh5.googleusercontent.com/p/AF1QipO7R-5RXauCHmjS-EyVExj5n8GN5U9cHqbO6Qxa=w529-h298-k-no"
            },
            {
                "about": "Street View & 360deg",
                "link": "https://streetviewpixels-pa.googleapis.com/v1/thumbnail?panoid=4XBAJ7rc6eIb013qCNRbyw&cb_client=maps_sv.tactile.gps&w=224&h=298&yaw=146.87347&pitch=0&thumbfov=100"
            },
            {
                "about": "Videos",
                "link": "https://lh5.googleusercontent.com/p/AF1QipPrbuRxyZXnnrpQO0iC5YQyqF-Q8wuNnPWjYLOR=w529-h298-k-no"
            }
        ],
        "link": "https://www.google.com/maps/place/Girja+Para+Masjid/data=!4m7!3m6!1s0x39f7110f75a0611f:0xc47439650e0f9a6a!8m2!3d23.6025875!4d87.1134439!16s%2Fg%2F11f3nkfhbg!19sChIJH2GgdQ8R9zkRapoPDmU5dMQ?authuser=0&hl=en&rclk=1",
        "coordinates": {
            "latitude": 23.6025875,
            "longitude": 87.1134439
        }
    },
    {
        "name": "Idgah Masjid",
        "main_category": "Mosque",
        "address": "J47J+R88 Idgah Masjid, Raniganj, West Bengal 713347",
        "detailed_address": {
            "ward": null,
            "street": "J47J+R88",
            "city": "Raniganj",
            "postal_code": "713347",
            "state": "West Bengal",
            "country_code": "IN"
        },
        "images": [
            {
                "about": "All",
                "link": "https://lh5.googleusercontent.com/p/AF1QipPI-AovM8eXL2OVcAP_DOBXO8qfEeSHQSlbJNOe=w224-h298-k-no"
            },
            {
                "about": "Dome",
                "link": "https://lh5.googleusercontent.com/p/AF1QipOCAholofoJiP6DjVucnsCG3UW7gKcN8LBLc71b=w224-h298-k-no"
            }
        ],
        "link": "https://www.google.com/maps/place/Idgah+Masjid/data=!4m7!3m6!1s0x39f71168f3f5a6b3:0x3f97e45071dc39e4!8m2!3d23.6145252!4d87.1308222!16s%2Fg%2F1v2dzy34!19sChIJs6b182gR9zkR5DnccVDklz8?authuser=0&hl=en&rclk=1",
        "coordinates": {
            "latitude": 23.6145252,
            "longitude": 87.1308222
        }
    },
    {
        "name": "Nimcha Masjid",
        "main_category": "Mosque",
        "address": "Nimcha Masjid, 9832946346 nimcha masjid, Raniganj, West Bengal 713339",
        "detailed_address": {
            "ward": null,
            "street": "9832946346 nimcha masjid",
            "city": "Raniganj, Murgathaul",
            "postal_code": "713339",
            "state": "West Bengal",
            "country_code": "IN"
        },
        "images": [
            {
                "about": "All",
                "link": "https://lh5.googleusercontent.com/p/AF1QipN4Zo4NEs_1OMCA10fFlQyTmtw0EEvUspxIg2N_=w224-h298-k-no"
            },
            {
                "about": "Videos",
                "link": "https://lh5.googleusercontent.com/p/AF1QipPQPDIEULD7_rkNEicTJhirfOvV0So0dRGQs0_o=w529-h298-k-no"
            }
        ],
        "link": "https://www.google.com/maps/place/Nimcha+Masjid/data=!4m7!3m6!1s0x39f710baefa3762d:0x7fa852ce14b23ebe!8m2!3d23.6259547!4d87.075965!16s%2Fg%2F11hc_slm1v!19sChIJLXaj77oQ9zkRvj6yFM5SqH8?authuser=0&hl=en&rclk=1",
        "coordinates": {
            "latitude": 23.625954699999998,
            "longitude": 87.075965
        }
    },
    {
        "name": "Moti Masjid",
        "main_category": "Mosque",
        "address": "Moti Masjid, Dr, M.N.Ghose Road, Raniganj, West Bengal 713347",
        "detailed_address": {
            "ward": null,
            "street": "Dr, M.N.Ghose Road",
            "city": "Raniganj",
            "postal_code": "713347",
            "state": "West Bengal",
            "country_code": "IN"
        },
        "images": [
            {
                "about": "All",
                "link": "https://streetviewpixels-pa.googleapis.com/v1/thumbnail?panoid=tQ9kO_azJZ2Al4Uv-9iAUQ&cb_client=maps_sv.tactile.gps&w=224&h=298&yaw=342.57425&pitch=0&thumbfov=100"
            },
            {
                "about": "Street View & 360deg",
                "link": "https://streetviewpixels-pa.googleapis.com/v1/thumbnail?panoid=tQ9kO_azJZ2Al4Uv-9iAUQ&cb_client=maps_sv.tactile.gps&w=224&h=298&yaw=342.57425&pitch=0&thumbfov=100"
            }
        ],
        "link": "https://www.google.com/maps/place/Moti+Masjid/data=!4m7!3m6!1s0x39f71113f4f94ac5:0x46e9d73152098fea!8m2!3d23.6114937!4d87.1184532!16s%2Fg%2F1tgb5s32!19sChIJxUr59BMR9zkR6o8JUjHX6UY?authuser=0&hl=en&rclk=1",
        "coordinates": {
            "latitude": 23.6114937,
            "longitude": 87.11845319999999
        }
    },
    {
        "name": "Nimcha Islamic Kabristan",
        "main_category": "Mosque",
        "address": "J3GG+6PR Nimcha Islamic Kabristan, Murgathaul, West Bengal 713339",
        "detailed_address": {
            "ward": null,
            "street": "J3GG+6PR",
            "city": "Murgathaul",
            "postal_code": "713339",
            "state": "West Bengal",
            "country_code": "IN"
        },
        "images": [
            {
                "about": "All",
                "link": "https://lh5.googleusercontent.com/p/AF1QipNstKIEqCC9s7lf7NIC1uFTvTZXO0Ztw5FhPbM_=w224-h398-k-no"
            },
            {
                "about": "Street View & 360deg",
                "link": "https://streetviewpixels-pa.googleapis.com/v1/thumbnail?panoid=YX2IXWfSD1NfOiVe2IYMBg&cb_client=maps_sv.tactile.gps&w=224&h=298&yaw=241.5018&pitch=0&thumbfov=100"
            }
        ],
        "link": "https://www.google.com/maps/place/Nimcha+Islamic+Kabristan/data=!4m7!3m6!1s0x39f711780bc91b4f:0x29ceb97f9a26e202!8m2!3d23.6256019!4d87.0767536!16s%2Fg%2F11g4dlcp2p!19sChIJTxvJC3gR9zkRAuImmn-5zik?authuser=0&hl=en&rclk=1",
        "coordinates": {
            "latitude": 23.6256019,
            "longitude": 87.07675359999999
        }
    },
    {
        "name": "Masjid Maulvi Sahab",
        "main_category": "Mosque",
        "address": "G7MQ+624 Masjid Maulvi Sahab, Raniganj, Rewa, Madhya Pradesh 486001",
        "detailed_address": {
            "ward": "Raniganj",
            "street": "G7MQ+624",
            "city": "Rewa",
            "postal_code": "486001",
            "state": "Madhya Pradesh",
            "country_code": "IN"
        },
        "images": [
            {
                "about": "All",
                "link": "https://lh5.googleusercontent.com/p/AF1QipMPK2jZQJL3TpFQLG5n9Y_hRBVuGzjvdS7Tu6YL=w224-h298-k-no"
            }
        ],
        "link": "https://www.google.com/maps/place/Masjid+Maulvi+Sahab/data=!4m7!3m6!1s0x39845bb7d361d015:0x9dc8b49c25682978!8m2!3d24.5330158!4d81.2875699!16s%2Fg%2F11dxcptvq0!19sChIJFdBh07dbhDkReCloJZy0yJ0?authuser=0&hl=en&rclk=1",
        "coordinates": {
            "latitude": 24.533015799999998,
            "longitude": 81.2875699
        }
    },
    {
        "name": "Idilpur Jame Masjid",
        "main_category": "Mosque",
        "address": "Q8CQ+9V9 Idilpur Jame Masjid, Raniganj - suri Road, Idilpur, West Bengal 731133",
        "detailed_address": {
            "ward": null,
            "street": "Q8CQ+9V9, Raniganj - suri Road",
            "city": "Idilpur",
            "postal_code": "731133",
            "state": "West Bengal",
            "country_code": "IN"
        },
        "images": [
            {
                "about": "All",
                "link": "https://lh5.googleusercontent.com/p/AF1QipMf7ilMKqVSUPqhVRrlVOnbB90Q9kZyMaRxs2r_=w224-h298-k-no"
            },
            {
                "about": "Videos",
                "link": "https://lh5.googleusercontent.com/p/AF1QipNeHwcTGp1IjBvIYIuh8j8E5a8Ta3VCQHDBLytC=w529-h298-k-no"
            }
        ],
        "link": "https://www.google.com/maps/place/Idilpur+Jame+Masjid/data=!4m7!3m6!1s0x39f74258cf43e875:0xba28edb86b5f5eb2!8m2!3d23.7709087!4d87.3397447!16s%2Fg%2F11c72r4d7v!19sChIJdehDz1hC9zkRsl5fa7jtKLo?authuser=0&hl=en&rclk=1",
        "coordinates": {
            "latitude": 23.7709087,
            "longitude": 87.3397447
        }
    },
    {
        "name": "Raeen Jama Masjid",
        "main_category": "Mosque",
        "address": "R23M+868 Raeen Jama Masjid, Raniganj, Dariyapur, Uttar Pradesh 230304",
        "detailed_address": {
            "ward": null,
            "street": "R23M+868",
            "city": "Raniganj, Dariyapur",
            "postal_code": "230304",
            "state": "Uttar Pradesh",
            "country_code": "IN"
        },
        "images": [],
        "link": "https://www.google.com/maps/place/Raeen+Jama+Masjid/data=!4m7!3m6!1s0x399abd491a3176a3:0x84948fe553b6fb29!8m2!3d25.8032853!4d82.0330639!16s%2Fg%2F11cjjz5fd4!19sChIJo3YxGkm9mjkRKfu2U-WPlIQ?authuser=0&hl=en&rclk=1",
        "coordinates": {
            "latitude": 25.8032853,
            "longitude": 82.0330639
        }
    },
    {
        "name": "JAMA MASJID RANIGANJ",
        "main_category": "Mosque",
        "address": "CHRV+4MW JAMA MASJID RANIGANJ, Raniganj, Bihar 824206",
        "detailed_address": {
            "ward": null,
            "street": "CHRV+4MW",
            "city": "Raniganj",
            "postal_code": "824206",
            "state": "Bihar",
            "country_code": "IN"
        },
        "images": [
            {
                "about": "All",
                "link": "https://lh5.googleusercontent.com/p/AF1QipM5_yy8az0t05GB9Q1Hz9jqrdXvgBXL4iRpnnze=w224-h298-k-no"
            }
        ],
        "link": "https://www.google.com/maps/place/JAMA+MASJID+RANIGANJ/data=!4m7!3m6!1s0x398ceb01491e920d:0x509cd6630c6e01c7!8m2!3d24.440366!4d84.5941965!16s%2Fg%2F11g0zwjnzn!19sChIJDZIeSQHrjDkRxwFuDGPWnFA?authuser=0&hl=en&rclk=1",
        "coordinates": {
            "latitude": 24.440365999999997,
            "longitude": 84.5941965
        }
    },
    {
        "name": "Masjide Bilal",
        "main_category": "Mosque",
        "address": "R24J+999 Masjide Bilal, Raniganj - Rastipur Rd, Dariyapur, Uttar Pradesh 230304",
        "detailed_address": {
            "ward": null,
            "street": "R24J+999, Raniganj - Rastipur Rd",
            "city": "Dariyapur",
            "postal_code": "230304",
            "state": "Uttar Pradesh",
            "country_code": "IN"
        },
        "images": [
            {
                "about": "All",
                "link": "https://lh5.googleusercontent.com/p/AF1QipPizv3OGbeDmW5PRyscf4ppu4WoQtooIJh7Nlfo=w529-h298-k-no"
            },
            {
                "about": "Videos",
                "link": "https://lh5.googleusercontent.com/p/AF1QipOct7ucJB0O9Xv63WhMwNDyHNn9K9KB6s43F5NY=w224-h398-k-no"
            }
        ],
        "link": "https://www.google.com/maps/place/Masjide+Bilal/data=!4m7!3m6!1s0x399abd4f460ad0c5:0x26cf5c914ea1b258!8m2!3d25.8059101!4d82.0309742!16s%2Fg%2F11f3s3czsr!19sChIJxdAKRk-9mjkRWLKhTpFczyY?authuser=0&hl=en&rclk=1",
        "coordinates": {
            "latitude": 25.8059101,
            "longitude": 82.0309742
        }
    },
    {
        "name": "Ansar Jama Masjid",
        "main_category": "Mosque",
        "address": "R23J+2R6 Ansar Jama Masjid, Raniganj, Dariyapur, Uttar Pradesh 230304",
        "detailed_address": {
            "ward": null,
            "street": "R23J+2R6",
            "city": "Raniganj, Dariyapur",
            "postal_code": "230304",
            "state": "Uttar Pradesh",
            "country_code": "IN"
        },
        "images": [
            {
                "about": "All",
                "link": "https://lh5.googleusercontent.com/p/AF1QipO3kUQVsqPbYVKPIG3hptMIKyLYDlAWdrFFz_fg=w529-h298-k-no"
            }
        ],
        "link": "https://www.google.com/maps/place/Ansar+Jama+Masjid/data=!4m7!3m6!1s0x399abd48f99cc93d:0x69680a18b20c7d8e!8m2!3d25.8025472!4d82.0320143!16s%2Fg%2F11c3w8d_j6!19sChIJPcmc-Ui9mjkRjn0MshgKaGk?authuser=0&hl=en&rclk=1",
        "coordinates": {
            "latitude": 25.8025472,
            "longitude": 82.0320143
        }
    },
    {
        "name": "zama masjid",
        "main_category": "Mosque",
        "address": "R25H+3G8 zama masjid, Dariyapur power house Raniganj partapgarh, NH 31, Dariyapur, Uttar Pradesh 230304",
        "detailed_address": {
            "ward": null,
            "street": "R25H+3G8, Dariyapur power house Raniganj partapgarh, NH 31",
            "city": "Dariyapur",
            "postal_code": "230304",
            "state": "Uttar Pradesh",
            "country_code": "IN"
        },
        "images": [
            {
                "about": "All",
                "link": "https://lh5.googleusercontent.com/p/AF1QipNZqORXENDcxSXQxmfga_Mn4LNw-dY33PCABj5H=w224-h398-k-no"
            },
            {
                "about": "Videos",
                "link": "https://lh5.googleusercontent.com/p/AF1QipONHdSL6YOcv8agxcJvJSwflhjvgPB6sQOmvenh=w224-h407-k-no"
            }
        ],
        "link": "https://www.google.com/maps/place/zama+masjid/data=!4m7!3m6!1s0x399abd459c21f237:0xa63053633d5b8343!8m2!3d25.8076571!4d82.0288128!16s%2Fg%2F11c58lw31l!19sChIJN_IhnEW9mjkRQ4NbPWNTMKY?authuser=0&hl=en&rclk=1",
        "coordinates": {
            "latitude": 25.8076571,
            "longitude": 82.0288128
        }
    },
    {
        "name": "Chunbhatti Masjid",
        "main_category": "Mosque",
        "address": "J37G+GG5 Chunbhatti Masjid, Amkula, Raniganj, West Bengal 713339",
        "detailed_address": {
            "ward": null,
            "street": "J37G+GG5",
            "city": "Amkula, Raniganj",
            "postal_code": "713339",
            "state": "West Bengal",
            "country_code": "IN"
        },
        "images": [
            {
                "about": "All",
                "link": "https://lh5.googleusercontent.com/p/AF1QipOfG9JPZ0F9hd-LsGZwoQoiM-cmz0dPiKyo7gTW=w662-h298-k-no"
            }
        ],
        "link": "https://www.google.com/maps/place/Chunbhatti+Masjid/data=!4m7!3m6!1s0x39f71146146e1877:0x26fd0b8bd195bd5a!8m2!3d23.6137695!4d87.0763721!16s%2Fg%2F11fdxrd3tb!19sChIJdxhuFEYR9zkRWr2V0YsL_SY?authuser=0&hl=en&rclk=1",
        "coordinates": {
            "latitude": 23.6137695,
            "longitude": 87.0763721
        }
    },
    {
        "name": "JAMA MASJID",
        "main_category": "Mosque",
        "address": "JAMA MASJID, R368+P26 LACHCHHIPUR, LACHCHHIPUR BAZAR, Raniganj, Uttar Pradesh 230304",
        "detailed_address": {
            "ward": "LACHCHHIPUR BAZAR",
            "street": "R368+P26 LACHCHHIPUR",
            "city": "Raniganj, Lachhipur",
            "postal_code": "230304",
            "state": "Uttar Pradesh",
            "country_code": "IN"
        },
        "images": [
            {
                "about": "All",
                "link": "https://lh5.googleusercontent.com/p/AF1QipNrADrPu7XYpp7Q3Z-9A3KayogXoI3ANctauFFC=w298-h298-k-no"
            },
            {
                "about": "Dome",
                "link": "https://lh5.googleusercontent.com/p/AF1QipNrADrPu7XYpp7Q3Z-9A3KayogXoI3ANctauFFC=w298-h298-k-no"
            },
            {
                "about": "By owner",
                "link": "https://lh5.googleusercontent.com/p/AF1QipOPc5eSi7bAo6txaxpJAZQiqgL5sy7gVfQbbv3p=w397-h298-k-no"
            }
        ],
        "link": "https://www.google.com/maps/place/JAMA+MASJID/data=!4m7!3m6!1s0x399aa2979c3ae155:0x7f91a9754838170b!8m2!3d25.8117991!4d82.0650065!16s%2Fg%2F11gf39yx_j!19sChIJVeE6nJeimjkRCxc4SHWpkX8?authuser=0&hl=en&rclk=1",
        "coordinates": {
            "latitude": 25.811799099999998,
            "longitude": 82.0650065
        }
    },
    {
        "name": "Bansra Masjid",
        "main_category": "Mosque",
        "address": "Bansra Masjid, Bus Stand, Bansra, Banshra, West Bengal 713358",
        "detailed_address": {
            "ward": null,
            "street": "Bus Stand, Bansra",
            "city": "Banshra, Raniganj",
            "postal_code": "713358",
            "state": "West Bengal",
            "country_code": "IN"
        },
        "images": [
            {
                "about": "All",
                "link": "https://lh5.googleusercontent.com/p/AF1QipPQtPbKptvAkLl15MZDu2lce74j6R_2y8-NnVO6=w529-h298-k-no"
            }
        ],
        "link": "https://www.google.com/maps/place/Bansra+Masjid/data=!4m7!3m6!1s0x39f7114941265643:0x3f23139ccaf2db71!8m2!3d23.6405063!4d87.1335571!16s%2Fg%2F11g_zz7qw_!19sChIJQ1YmQUkR9zkRcdvyypwTIz8?authuser=0&hl=en&rclk=1",
        "coordinates": {
            "latitude": 23.6405063,
            "longitude": 87.13355709999999
        }
    },
    {
        "name": "Masjid e kuba deokali purab",
        "main_category": "Shrine",
        "address": "Masjid e kuba deokali purab, Raniganj Shukul Bazar Rd, Deokali, Uttar Pradesh 227816",
        "detailed_address": {
            "ward": null,
            "street": "Raniganj Shukul Bazar Rd",
            "city": "Deokali",
            "postal_code": "227816",
            "state": "Uttar Pradesh",
            "country_code": "IN"
        },
        "images": [
            {
                "about": "All",
                "link": "https://lh5.googleusercontent.com/p/AF1QipNpRi1HZautT5p1r5JHFp2kMJ62YUbDj_F69QUb=w224-h398-k-no"
            },
            {
                "about": "Shrine",
                "link": "https://lh5.googleusercontent.com/p/AF1QipNdTBrIPTmT0YR2cHvUmEoTEUXBPmdGXOvH-yGd=w224-h398-k-no"
            },
            {
                "about": "Videos",
                "link": "https://lh5.googleusercontent.com/p/AF1QipOtiMPJtcLbiT_3IclTEkcXFSSwzUZHoRKHWSRu=w224-h398-k-no"
            },
            {
                "about": "By owner",
                "link": "https://lh5.googleusercontent.com/p/AF1QipOJtWf3gRN-NNZxjClvkp84Kgrri0xShuemfdCK=w645-h298-k-no"
            }
        ],
        "link": "https://www.google.com/maps/place/Masjid+e+kuba+deokali+purab/data=!4m7!3m6!1s0x399a4918d683b551:0x10bd24e8a65552c7!8m2!3d26.491857!4d81.6849013!16s%2Fg%2F11h_zb6x7c!19sChIJUbWD1hhJmjkRx1JVpugkvRA?authuser=0&hl=en&rclk=1",
        "coordinates": {
            "latitude": 26.491857,
            "longitude": 81.68490129999999
        }
    },
    {
        "name": "Jame Masjid",
        "main_category": "Mosque",
        "address": "853G+GW8 Jame Masjid, Raniganj Fakiragram Road, Raniganj, Bherberi, Assam 783345",
        "detailed_address": {
            "ward": null,
            "street": "853G+GW8, Raniganj Fakiragram Road",
            "city": "Raniganj, Bherberi",
            "postal_code": "783345",
            "state": "Assam",
            "country_code": "IN"
        },
        "images": [
            {
                "about": "All",
                "link": "https://lh5.googleusercontent.com/p/AF1QipOkBQSJjv_KTnjIkFFaY76fGoCpZKxHSlaLwUwL=w224-h298-k-no"
            }
        ],
        "link": "https://www.google.com/maps/place/Jame+Masjid/data=!4m7!3m6!1s0x3758649283fd0635:0xbcb18cef61c32fc6!8m2!3d26.303792!4d90.1773299!16s%2Fg%2F11dxbmqvqr!19sChIJNQb9g5JkWDcRxi_DYe-Msbw?authuser=0&hl=en&rclk=1",
        "coordinates": {
            "latitude": 26.303791999999998,
            "longitude": 90.17732989999999
        }
    },
    {
        "name": "msjd Masjid",
        "main_category": "Mosque",
        "address": "FJ3F+CWW msjd Masjid, MDR 154E, Raniganj, Jagdishpur, Uttar Pradesh 227809",
        "detailed_address": {
            "ward": "Raniganj",
            "street": "FJ3F+CWW, MDR 154E",
            "city": "Jagdishpur",
            "postal_code": "227809",
            "state": "Uttar Pradesh",
            "country_code": "IN"
        },
        "images": [
            {
                "about": "All",
                "link": "https://streetviewpixels-pa.googleapis.com/v1/thumbnail?panoid=eQopLV5BF3kUSVWMNBl93w&cb_client=maps_sv.tactile.gps&w=224&h=298&yaw=109.07314&pitch=0&thumbfov=100"
            },
            {
                "about": "Street View & 360deg",
                "link": "https://streetviewpixels-pa.googleapis.com/v1/thumbnail?panoid=eQopLV5BF3kUSVWMNBl93w&cb_client=maps_sv.tactile.gps&w=224&h=298&yaw=109.07314&pitch=0&thumbfov=100"
            }
        ],
        "link": "https://www.google.com/maps/place/%D9%85%D8%B3%D8%AC%D8%AF+Masjid%E2%80%AD/data=!4m7!3m6!1s0x399a4eb5824bcfab:0x35d798f50715f3fb!8m2!3d26.4536005!4d81.6248158!16s%2Fg%2F1hm6869d4!19sChIJq89LgrVOmjkR-_MVB_WY1zU?authuser=0&hl=en&rclk=1",
        "coordinates": {
            "latitude": 26.4536005,
            "longitude": 81.6248158
        }
    },
    {
        "name": "Jame Masjid Raniganj",
        "main_category": "Mosque",
        "address": "J468+QCJ Jame Masjid Raniganj, Raniganj, West Bengal 713347",
        "detailed_address": {
            "ward": null,
            "street": "J468+QCJ",
            "city": "Raniganj",
            "postal_code": "713347",
            "state": "West Bengal",
            "country_code": "IN"
        },
        "images": [],
        "link": "https://www.google.com/maps/place/Jame+Masjid+Raniganj/data=!4m7!3m6!1s0x39f71116ca3afb3d:0xd42587bb0c94127f!8m2!3d23.6119727!4d87.11601!16s%2Fg%2F11c6cx2rlz!19sChIJPfs6yhYR9zkRfxKUDLuHJdQ?authuser=0&hl=en&rclk=1",
        "coordinates": {
            "latitude": 23.6119727,
            "longitude": 87.11601
        }
    },
    {
        "name": "Jama Masjid",
        "main_category": "Mosque",
        "address": "47CM+J32 Jama Masjid, Pachira, Raniganj, Bihar 854334",
        "detailed_address": {
            "ward": null,
            "street": "47CM+J32, Pachira",
            "city": "Raniganj, Pachira",
            "postal_code": "854334",
            "state": "Bihar",
            "country_code": "IN"
        },
        "images": [
            {
                "about": "All",
                "link": "https://lh5.googleusercontent.com/p/AF1QipMKAnKtlsReYfPXquIUCVLR-ywdVuUZknVje4DU=w224-h298-k-no"
            },
            {
                "about": "Videos",
                "link": "https://lh5.googleusercontent.com/p/AF1QipNTlSMYT2UaDwHdEmzm5xba0vyhuumZbVRFbmmu=w330-h298-k-no"
            }
        ],
        "link": "https://www.google.com/maps/place/Jama+Masjid/data=!4m7!3m6!1s0x39ef96a2b9fd7543:0xb424ae3333c279e!8m2!3d26.1215219!4d87.2826264!16s%2Fg%2F11fy55mbpr!19sChIJQ3X9uaKW7zkRnic8M-NKQgs?authuser=0&hl=en&rclk=1",
        "coordinates": {
            "latitude": 26.121521899999998,
            "longitude": 87.2826264
        }
    },
    {
        "name": "Amritnagar Mosque",
        "main_category": "Mosque",
        "address": "Amritnagar Mosque, Amkula, Raniganj, West Bengal 713339",
        "detailed_address": {
            "ward": null,
            "street": null,
            "city": "Amkula, Raniganj",
            "postal_code": "713339",
            "state": "West Bengal",
            "country_code": "IN"
        },
        "images": [
            {
                "about": "All",
                "link": "https://streetviewpixels-pa.googleapis.com/v1/thumbnail?panoid=dGgJFwSoEL2j4jJZRdWmgQ&cb_client=maps_sv.tactile.gps&w=224&h=298&yaw=149.80998&pitch=0&thumbfov=100"
            },
            {
                "about": "By owner",
                "link": "https://lh5.googleusercontent.com/p/AF1QipNyoRpXmWaPhZokD1x3ebGstRvtER64_BGbnn7-=w397-h298-k-no"
            },
            {
                "about": "Street View & 360deg",
                "link": "https://streetviewpixels-pa.googleapis.com/v1/thumbnail?panoid=dGgJFwSoEL2j4jJZRdWmgQ&cb_client=maps_sv.tactile.gps&w=224&h=298&yaw=149.80998&pitch=0&thumbfov=100"
            }
        ],
        "link": "https://www.google.com/maps/place/Amritnagar+Mosque/data=!4m7!3m6!1s0x39f710c25e9c7943:0x6d1df4dbf44cb8d5!8m2!3d23.6188074!4d87.0895902!16s%2Fg%2F11fxdz0dc3!19sChIJQ3mcXsIQ9zkR1bhM9Nv0HW0?authuser=0&hl=en&rclk=1",
        "coordinates": {
            "latitude": 23.618807399999998,
            "longitude": 87.08959019999999
        }
    },
    {
        "name": "Raniganj Masjid",
        "main_category": "Mosque",
        "address": "P5CV+2W5 Raniganj Masjid, Raniganj, Panna, Madhya Pradesh 488001",
        "detailed_address": {
            "ward": "Ranigunj Mohalla",
            "street": "P5CV+2W5, Raniganj",
            "city": "Panna",
            "postal_code": "488001",
            "state": "Madhya Pradesh",
            "country_code": "IN"
        },
        "images": [],
        "link": "https://www.google.com/maps/place/Raniganj+Masjid/data=!4m7!3m6!1s0x398305e6d63c01fb:0x6cda9e239682819a!8m2!3d24.7200174!4d80.1948455!16s%2Fg%2F11gj1j7ng2!19sChIJ-wE81uYFgzkRmoGCliOe2mw?authuser=0&hl=en&rclk=1",
        "coordinates": {
            "latitude": 24.7200174,
            "longitude": 80.1948455
        }
    },
    {
        "name": "Rahmat Masjid",
        "main_category": "Mosque",
        "address": "37V9+597 Rahmat Masjid, Rampur, Bihar 854334",
        "detailed_address": {
            "ward": null,
            "street": "37V9+597",
            "city": "Rampur",
            "postal_code": "854334",
            "state": "Bihar",
            "country_code": "IN"
        },
        "images": [
            {
                "about": "All",
                "link": "https://lh5.googleusercontent.com/p/AF1QipN3KRpsAekF9ykVvNyDjleyaPRKRqiZTZXjwuN3=w528-h298-k-no"
            },
            {
                "about": "Videos",
                "link": "https://lh5.googleusercontent.com/p/AF1QipNmUQ5WjWV2M_iOqU6U-c9ByQdg1m94s5YAwZYf=w224-h395-k-no"
            }
        ],
        "link": "https://www.google.com/maps/place/Rahmat+Masjid/data=!4m7!3m6!1s0x39ef95fc2c139497:0xb2f147973e7c4445!8m2!3d26.0929221!4d87.2684069!16s%2Fg%2F11ghp20njv!19sChIJl5QTLPyV7zkRRUR8PpdH8bI?authuser=0&hl=en&rclk=1",
        "coordinates": {
            "latitude": 26.0929221,
            "longitude": 87.2684069
        }
    },
    {
        "name": "Masjid Raniganj",
        "main_category": "School",
        "address": "596F+33P Masjid Raniganj, Rahta, Pipri Mahar, Uttar Pradesh 225304",
        "detailed_address": {
            "ward": null,
            "street": "596F+33P",
            "city": "Rahta, Pipri Mahar",
            "postal_code": null,
            "state": "Uttar Pradesh",
            "country_code": "IN"
        },
        "images": [],
        "link": "https://www.google.com/maps/place/Masjid+Raniganj/data=!4m7!3m6!1s0x399971bb5385422d:0xc1b5d50f81cf286f!8m2!3d27.1602236!4d81.3727073!16s%2Fg%2F11f3bss6f8!19sChIJLUKFU7txmTkRbyjPgQ_VtcE?authuser=0&hl=en&rclk=1",
        "coordinates": {
            "latitude": 27.1602236,
            "longitude": 81.3727073
        }
    },
    {
        "name": "Monoharpur (Bk.T.P.P.gate 1) Jame Masjid",
        "main_category": "Mosque",
        "address": "RFJ8+J9G Monoharpur (Bk.T.P.P.gate 1) Jame Masjid, Raniganj - Suri Rd, Kachujor, West Bengal 731104",
        "detailed_address": {
            "ward": null,
            "street": "RFJ8+J9G, Raniganj - Suri Rd",
            "city": "Kachujor",
            "postal_code": "731104",
            "state": "West Bengal",
            "country_code": "IN"
        },
        "images": [
            {
                "about": "All",
                "link": "https://lh5.googleusercontent.com/p/AF1QipOd3jq5AQgi2TgdutX0WVTkZ8OU2W6QEaNnUk2A=w224-h398-k-no"
            },
            {
                "about": "Street View & 360deg",
                "link": "https://streetviewpixels-pa.googleapis.com/v1/thumbnail?panoid=ZLj8vsJwua4tiarpzGnNIA&cb_client=maps_sv.tactile.gps&w=224&h=298&yaw=133.1254&pitch=0&thumbfov=100"
            }
        ],
        "link": "https://www.google.com/maps/place/Monoharpur+%28Bk.T.P.P.gate+1%29+Jame+Masjid/data=!4m7!3m6!1s0x39f75fc917bc0ffb:0x9f86a7248a929130!8m2!3d23.8315686!4d87.465952!16s%2Fg%2F11h8c9snrh!19sChIJ-w-8F8lf9zkRMJGSiiSnhp8?authuser=0&hl=en&rclk=1",
        "coordinates": {
            "latitude": 23.8315686,
            "longitude": 87.465952
        }
    },
    {
        "name": "JAMA MASJID RANIGANJ",
        "main_category": "Mosque",
        "address": "JPJH+32P JAMA MASJID RANIGANJ, Raniganj, Kadwa, Bihar 855114",
        "detailed_address": {
            "ward": "Raniganj",
            "street": "JPJH+32P",
            "city": "Kadwa",
            "postal_code": "855114",
            "state": "Bihar",
            "country_code": "IN"
        },
        "images": [
            {
                "about": "All",
                "link": "https://lh5.googleusercontent.com/p/AF1QipMC1RcjNgAUQP01NE9-PhkIZCXISJxTA3JBfT6B=w224-h481-k-no"
            },
            {
                "about": "Street View & 360deg",
                "link": "https://streetviewpixels-pa.googleapis.com/v1/thumbnail?panoid=25MOuwhGvs5ufXFKaF4iyg&cb_client=maps_sv.tactile.gps&w=224&h=298&yaw=262.98752&pitch=0&thumbfov=100"
            }
        ],
        "link": "https://www.google.com/maps/place/JAMA+MASJID+RANIGANJ/data=!4m7!3m6!1s0x39fab3b557ef5259:0x24729f07ad5eaa0f!8m2!3d25.6302159!4d87.7275727!16s%2Fg%2F11mp6ky4g2!19sChIJWVLvV7Wz-jkRD6perQefciQ?authuser=0&hl=en&rclk=1",
        "coordinates": {
            "latitude": 25.6302159,
            "longitude": 87.7275727
        }
    },
    {
        "name": "Raza Masjid Charbi Mohallah",
        "main_category": "Mosque",
        "address": "J429+V29 Raza Masjid Charbi Mohallah, Raniganj, West Bengal 713347",
        "detailed_address": {
            "ward": null,
            "street": "J429+V29",
            "city": "Raniganj",
            "postal_code": "713347",
            "state": "West Bengal",
            "country_code": "IN"
        },
        "images": [
            {
                "about": "All",
                "link": "https://lh5.googleusercontent.com/p/AF1QipMsC6-9OsoNkVOmONCq69rBmTwSuSW-DfkZChUs=w397-h298-k-no"
            }
        ],
        "link": "https://www.google.com/maps/place/Raza+Masjid+Charbi+Mohallah/data=!4m7!3m6!1s0x39f711b05ee9ce11:0x589c6e243a375201!8m2!3d23.6021655!4d87.1176088!16s%2Fg%2F11fp8cs6t_!19sChIJEc7pXrAR9zkRAVI3OiRunFg?authuser=0&hl=en&rclk=1",
        "coordinates": {
            "latitude": 23.602165499999998,
            "longitude": 87.1176088
        }
    },
    {
        "name": "Masjid-e-Taiba",
        "main_category": "Mosque",
        "address": "J46P+72V Masjid-e-Taiba, Baktarnagar, West Bengal 713347",
        "detailed_address": {
            "ward": null,
            "street": "J46P+72V",
            "city": "Baktarnagar",
            "postal_code": null,
            "state": "West Bengal",
            "country_code": "IN"
        },
        "images": [],
        "link": "https://www.google.com/maps/place/Masjid-e-Taiba/data=!4m7!3m6!1s0x39f71117272e98f9:0x4c55501c3c5807b6!8m2!3d23.6107271!4d87.1350399!16s%2Fg%2F11hf8bcj4t!19sChIJ-ZguJxcR9zkRtgdYPBxQVUw?authuser=0&hl=en&rclk=1",
        "coordinates": {
            "latitude": 23.6107271,
            "longitude": 87.1350399
        }
    },
    {
        "name": "raaniigNj durgaa jaagrnn raaniigNj baaraabNkii RDJ Raniganj Durga Jagran Samiti",
        "main_category": "Hindu temple",
        "address": "raaniigNj durgaa jaagrnn raaniigNj baaraabNkii RDJ Raniganj Durga Jagran Samiti, Raniganj Bazar, Pipri Mahar, Uttar Pradesh",
        "detailed_address": {
            "ward": null,
            "street": "Raniganj Bazar",
            "city": "Pipri Mahar",
            "postal_code": null,
            "state": "Uttar Pradesh",
            "country_code": "IN"
        },
        "images": [
            {
                "about": "All",
                "link": "https://lh5.googleusercontent.com/p/AF1QipNfBVy-Q30tLuvaItFVpRCHnOLWLxSZFdB9RNE-=w529-h298-k-no"
            },
            {
                "about": "Temple",
                "link": "https://lh5.googleusercontent.com/p/AF1QipNMKoSKMD-tadVbNlFd5hdMMI-mdU2E9NZkrXj9=w645-h298-k-no"
            },
            {
                "about": "Videos",
                "link": "https://lh5.googleusercontent.com/p/AF1QipNXp2-yc1pRKIDnVQ6It3OSZzWTqXSMHCyvlj1X=w529-h298-k-no"
            },
            {
                "about": "Street View & 360deg",
                "link": "https://streetviewpixels-pa.googleapis.com/v1/thumbnail?panoid=12kqPcSmdzvm4FExdMh-KQ&cb_client=maps_sv.tactile.gps&w=224&h=298&yaw=224.82095&pitch=0&thumbfov=100"
            }
        ],
        "link": "https://www.google.com/maps/place/%E0%A4%B0%E0%A4%BE%E0%A4%A8%E0%A5%80%E0%A4%97%E0%A4%82%E0%A4%9C+%E0%A4%A6%E0%A5%81%E0%A4%B0%E0%A5%8D%E0%A4%97%E0%A4%BE+%E0%A4%9C%E0%A4%BE%E0%A4%97%E0%A4%B0%E0%A4%A3+%E0%A4%B0%E0%A4%BE%E0%A4%A8%E0%A5%80%E0%A4%97%E0%A4%82%E0%A4%9C+%E0%A4%AC%E0%A4%BE%E0%A4%B0%E0%A4%BE%E0%A4%AC%E0%A4%82%E0%A4%95%E0%A5%80+RDJ+Raniganj+Durga+Jagran+Samiti/data=!4m7!3m6!1s0x39997100883ac473:0x5a835e9f2f01f2ea!8m2!3d27.1592798!4d81.3743166!16s%2Fg%2F11s8hjgnbn!19sChIJc8Q6iABxmTkR6vIBL59eg1o?authuser=0&hl=en&rclk=1",
        "coordinates": {
            "latitude": 27.1592798,
            "longitude": 81.3743166
        }
    },
    {
        "name": "R M Masjid Bhikhanpur Raniganj",
        "main_category": "School",
        "address": "FMCX+76V R M Masjid Bhikhanpur Raniganj, Raniganj Rd, Raniganj, Jagdishpur, Daulatpur Lonhat, Uttar Pradesh 227816",
        "detailed_address": {
            "ward": "Raniganj",
            "street": "FMCX+76V, Raniganj Rd",
            "city": "Jagdishpur, Daulatpur Lonhat",
            "postal_code": "227816",
            "state": "Uttar Pradesh",
            "country_code": "IN"
        },
        "images": [
            {
                "about": "All",
                "link": "https://lh5.googleusercontent.com/p/AF1QipN950WOckEVLlnmPOj8anW1xebDsjBGrOoO8nD7=w662-h298-k-no"
            }
        ],
        "link": "https://www.google.com/maps/place/R+M+Masjid+Bhikhanpur+Raniganj/data=!4m7!3m6!1s0x399a4701d45e47dd:0x3bb7d9444dfaffd9!8m2!3d26.4707381!4d81.6980367!16s%2Fg%2F11gn1wgb2w!19sChIJ3Ude1AFHmjkR2f_6TUTZtzs?authuser=0&hl=en&rclk=1",
        "coordinates": {
            "latitude": 26.4707381,
            "longitude": 81.6980367
        }
    },
    {
        "name": "Ranai new masjid",
        "main_category": "Mosque",
        "address": "J48J+4RJ Ranai new masjid, Dr MN Ghosh Rd, Raniganj, West Bengal 713347",
        "detailed_address": {
            "ward": null,
            "street": "J48J+4RJ, Dr MN Ghosh Rd",
            "city": "Raniganj",
            "postal_code": "713347",
            "state": "West Bengal",
            "country_code": "IN"
        },
        "images": [
            {
                "about": "All",
                "link": "https://lh5.googleusercontent.com/p/AF1QipNDQLAgPVM-3gPLFrpVes-dEIVBtSC2n9TKthxC=w224-h495-k-no"
            },
            {
                "about": "Street View & 360deg",
                "link": "https://streetviewpixels-pa.googleapis.com/v1/thumbnail?panoid=UwsU7Fr5mAgNwaO1i1_sKA&cb_client=maps_sv.tactile.gps&w=224&h=298&yaw=35.827396&pitch=0&thumbfov=100"
            },
            {
                "about": "Videos",
                "link": "https://lh5.googleusercontent.com/p/AF1QipN6mdvM_XwP-xIDfpWbRz7fUI5OiC9s8PBpU2OW=w224-h398-k-no"
            }
        ],
        "link": "https://www.google.com/maps/place/Ranai+new+masjid/data=!4m7!3m6!1s0x39f711d139405c83:0x1fce7e9b177f0ec0!8m2!3d23.6153485!4d87.1320172!16s%2Fg%2F11ftb2kxvq!19sChIJg1xAOdER9zkRwA5_F5t-zh8?authuser=0&hl=en&rclk=1",
        "coordinates": {
            "latitude": 23.6153485,
            "longitude": 87.13201719999999
        }
    },
    {
        "name": "Madni Masjid",
        "main_category": "Mosque",
        "address": "G7MQ+7Q8 Madni Masjid, Ghoghar Rd, Raniganj, Rewa, Madhya Pradesh 486001",
        "detailed_address": {
            "ward": "Raniganj",
            "street": "G7MQ+7Q8, Ghoghar Rd",
            "city": "Rewa",
            "postal_code": "486001",
            "state": "Madhya Pradesh",
            "country_code": "IN"
        },
        "images": [
            {
                "about": "All",
                "link": "https://streetviewpixels-pa.googleapis.com/v1/thumbnail?panoid=BXHGzk1EwTj1mH_bSwVRLQ&cb_client=maps_sv.tactile.gps&w=224&h=298&yaw=227.94008&pitch=0&thumbfov=100"
            },
            {
                "about": "Street View & 360deg",
                "link": "https://streetviewpixels-pa.googleapis.com/v1/thumbnail?panoid=BXHGzk1EwTj1mH_bSwVRLQ&cb_client=maps_sv.tactile.gps&w=224&h=298&yaw=227.94008&pitch=0&thumbfov=100"
            }
        ],
        "link": "https://www.google.com/maps/place/Madni+Masjid/data=!4m7!3m6!1s0x39845bfd278fc25f:0xa756b855c8d00b8c!8m2!3d24.5331665!4d81.2894507!16s%2Fg%2F11g0mc3x5h!19sChIJX8KPJ_1bhDkRjAvQyFW4Vqc?authuser=0&hl=en&rclk=1",
        "coordinates": {
            "latitude": 24.5331665,
            "longitude": 81.2894507
        }
    },
    {
        "name": "Masjid Bahar Pur raniganj Amethi up",
        "main_category": "Mosque",
        "address": "HJ2X+3W3 Masjid Bahar Pur raniganj Amethi up, Para, Uttar Pradesh 227816",
        "detailed_address": {
            "ward": null,
            "street": "HJ2X+3W3",
            "city": "Para",
            "postal_code": "227816",
            "state": "Uttar Pradesh",
            "country_code": "IN"
        },
        "images": [
            {
                "about": "All",
                "link": "https://lh5.googleusercontent.com/p/AF1QipPUKSWhr8P-yXNIUeVew_LcfNp-iNf4q-JB6E5S=w224-h398-k-no"
            }
        ],
        "link": "https://www.google.com/maps/place/Masjid+Bahar+Pur+raniganj+Amethi+up/data=!4m7!3m6!1s0x399a49c55dab9475:0xcdc4d68b051197ee!8m2!3d26.5500343!4d81.6488461!16s%2Fg%2F11rcn66jsh!19sChIJdZSrXcVJmjkR7pcRBYvWxM0?authuser=0&hl=en&rclk=1",
        "coordinates": {
            "latitude": 26.5500343,
            "longitude": 81.6488461
        }
    },
    {
        "name": "Masjid e nazeer dhema raniganj",
        "main_category": "School",
        "address": "7965+78W Masjid e nazeer dhema raniganj, Unnamed Road, Dhama Kurmiyan, Uttar Pradesh 228132",
        "detailed_address": {
            "ward": null,
            "street": "7965+78W, Unnamed Road",
            "city": "Dhama Kurmiyan",
            "postal_code": "228132",
            "state": "Uttar Pradesh",
            "country_code": "IN"
        },
        "images": [
            {
                "about": "All",
                "link": "https://lh5.googleusercontent.com/p/AF1QipNa8sVSwke5TcUGlufzQXMBNa7rO-NmhbQCOaoT=w397-h298-k-no"
            }
        ],
        "link": "https://www.google.com/maps/place/Masjid+e+nazeer+dhema+raniganj/data=!4m7!3m6!1s0x399087d1257485c1:0x4cb78db0483fab45!8m2!3d26.2607332!4d82.3583414!16s%2Fg%2F11hj7mc_zd!19sChIJwYV0JdGHkDkRRas_SLCNt0w?authuser=0&hl=en&rclk=1",
        "coordinates": {
            "latitude": 26.260733199999997,
            "longitude": 82.3583414
        }
    },
    {
        "name": "Jama Masjid Ramdev Patti",
        "main_category": "Mosque",
        "address": "Jama Masjid Ramdev Patti, Ramdev Patti, Raniganj, Sahajvar, Uttar Pradesh 230302",
        "detailed_address": {
            "ward": null,
            "street": "Ramdev Patti",
            "city": "Raniganj, Sahajvar",
            "postal_code": "230302",
            "state": "Uttar Pradesh",
            "country_code": "IN"
        },
        "images": [
            {
                "about": "All",
                "link": "https://lh5.googleusercontent.com/p/AF1QipNlna1pyQUB79WunrwhzQU7Z8oBZm0-kxHC_IEY=w369-h298-k-no"
            }
        ],
        "link": "https://www.google.com/maps/place/Jama+Masjid+Ramdev+Patti/data=!4m7!3m6!1s0x399aa30d9fa86039:0x6c055aa2d0233b97!8m2!3d25.8110886!4d82.1170625!16s%2Fg%2F11nxp3cdvj!19sChIJOWConw2jmjkRlzsj0KJaBWw?authuser=0&hl=en&rclk=1",
        "coordinates": {
            "latitude": 25.811088599999998,
            "longitude": 82.1170625
        }
    },
    {
        "name": "jama masjid Markaz hasanpur raniganj jm` msjd mrkhz Hsn pwr rny gnj.,,",
        "main_category": "Mosque",
        "address": "jama masjid Markaz hasanpur raniganj jm` msjd mrkhz Hsn pwr rny gnj.,,, Ward no 14, Teachers Colony, Hasanpur, Raniganj, Bihar 854334",
        "detailed_address": {
            "ward": null,
            "street": "Ward no 14, Teachers Colony, Hasanpur",
            "city": "Raniganj",
            "postal_code": "854334",
            "state": "Bihar",
            "country_code": "IN"
        },
        "images": [
            {
                "about": "All",
                "link": "https://lh5.googleusercontent.com/p/AF1QipNIbQynLwLi5c-PlvbYcWBGE1QAva5bNAtGMeMf=w224-h495-k-no"
            }
        ],
        "link": "https://www.google.com/maps/place/jama+masjid+Markaz+hasanpur+raniganj+%D8%AC%D8%A7%D9%85%D8%B9+%D9%85%D8%B3%D8%AC%D8%AF+%D9%85%D8%B1%DA%A9%D8%A7%D8%B2+%D8%AD%D8%B3%D9%86+%D9%BE%D9%88%D8%B1+%D8%B1%D8%A7%D9%86%DB%8C+%DA%AF%D9%86%D8%AC.,,%E2%80%AD/data=!4m7!3m6!1s0x39ef957463c7036d:0xc8f7af96ff3b98f8!8m2!3d26.0843103!4d87.2370329!16s%2Fg%2F11nng9v6x4!19sChIJbQPHY3SV7zkR-Jg7_5av98g?authuser=0&hl=en&rclk=1",
        "coordinates": {
            "latitude": 26.0843103,
            "longitude": 87.2370329
        }
    },
    {
        "name": "Sufi Masjid",
        "main_category": "Mosque",
        "address": "G7MQ+5JP Sufi Masjid, Raniganj, Rewa, Madhya Pradesh 486001",
        "detailed_address": {
            "ward": "Raniganj",
            "street": "G7MQ+5JP",
            "city": "Rewa",
            "postal_code": "486001",
            "state": "Madhya Pradesh",
            "country_code": "IN"
        },
        "images": [],
        "link": "https://www.google.com/maps/place/Sufi+Masjid/data=!4m7!3m6!1s0x39845b60a572a0e9:0xab4691ae60ba67f0!8m2!3d24.5329545!4d81.289091!16s%2Fg%2F11fn8p09qf!19sChIJ6aBypWBbhDkR8Ge6YK6RRqs?authuser=0&hl=en&rclk=1",
        "coordinates": {
            "latitude": 24.5329545,
            "longitude": 81.289091
        }
    },
    {
        "name": "MADEENA MASJID POORE BADAL",
        "main_category": "Mosque",
        "address": "MADEENA MASJID POORE BADAL, Raniganj, Mahe Mau, Bhikhanpur, Uttar Pradesh 227816",
        "detailed_address": {
            "ward": "Raniganj",
            "street": null,
            "city": "Mahe Mau, Bhikhanpur",
            "postal_code": "227816",
            "state": "Uttar Pradesh",
            "country_code": "IN"
        },
        "images": [
            {
                "about": "All",
                "link": "https://lh5.googleusercontent.com/p/AF1QipOmsSUcrRoK5KfOUBWXcVKFlVRKpifZoGBP4Nlb=w224-h298-k-no"
            }
        ],
        "link": "https://www.google.com/maps/place/MADEENA+MASJID+POORE+BADAL/data=!4m7!3m6!1s0x399a49a7d6a8f75d:0xab7815a6d1ea2455!8m2!3d26.4694346!4d81.6942117!16s%2Fg%2F11nmj25flj!19sChIJXfeo1qdJmjkRVSTq0aYVeKs?authuser=0&hl=en&rclk=1",
        "coordinates": {
            "latitude": 26.4694346,
            "longitude": 81.6942117
        }
    },
    {
        "name": "Masjid",
        "main_category": "Place of worship",
        "address": "Masjid, 227811, Raniganj Shukul Bazar Rd, Mawaiya Rahmat Garh, Uttar Pradesh",
        "detailed_address": {
            "ward": null,
            "street": "227811, Raniganj Shukul Bazar Rd",
            "city": "Mawaiya Rahmat Garh",
            "postal_code": null,
            "state": "Uttar Pradesh",
            "country_code": "IN"
        },
        "images": [
            {
                "about": "All",
                "link": "https://streetviewpixels-pa.googleapis.com/v1/thumbnail?panoid=vuBmOyKiFInNRxhv4HDlDA&cb_client=maps_sv.tactile.gps&w=224&h=298&yaw=115.86688&pitch=0&thumbfov=100"
            },
            {
                "about": "Street View & 360deg",
                "link": "https://streetviewpixels-pa.googleapis.com/v1/thumbnail?panoid=vuBmOyKiFInNRxhv4HDlDA&cb_client=maps_sv.tactile.gps&w=224&h=298&yaw=115.86688&pitch=0&thumbfov=100"
            }
        ],
        "link": "https://www.google.com/maps/place/Masjid/data=!4m7!3m6!1s0x399a344f9cbe2a0b:0x33e5d6f4ce5b737!8m2!3d26.6050184!4d81.573084!16s%2Fg%2F11fxdy_r9t!19sChIJCyq-nE80mjkRN7flTG9dPgM?authuser=0&hl=en&rclk=1",
        "coordinates": {
            "latitude": 26.6050184,
            "longitude": 81.573084
        }
    },
    {
        "name": "Qadri Masjid Gondwa",
        "main_category": "Mosque",
        "address": "XMJ3+X9G Qadri Masjid Gondwa, Gondwa, Raniganj, Kaithula",
        "detailed_address": {
            "ward": "Raniganj",
            "street": "XMJ3+X9G, Gondwa",
            "city": "Kaithula, Gondwa",
            "postal_code": null,
            "state": "Uttar Pradesh",
            "country_code": "IN"
        },
        "images": [],
        "link": "https://www.google.com/maps/place/Qadri+Masjid+Gondwa/data=!4m7!3m6!1s0x399ae5086299eb35:0x808ceeada6a62e5a!8m2!3d25.9824385!4d81.6534563!16s%2Fg%2F11q_2blb7v!19sChIJNeuZYgjlmjkRWi6mpq3ujIA?authuser=0&hl=en&rclk=1",
        "coordinates": {
            "latitude": 25.982438499999997,
            "longitude": 81.6534563
        }
    },
    {
        "name": "Raniganj bajar masjid",
        "main_category": "Mosque",
        "address": "6G58+GVX Raniganj bajar masjid, Materpur, Uttar Pradesh 271903",
        "detailed_address": {
            "ward": null,
            "street": "6G58+GVX",
            "city": "Materpur",
            "postal_code": "271903",
            "state": "Uttar Pradesh",
            "country_code": "IN"
        },
        "images": [],
        "link": "https://www.google.com/maps/place/Raniganj+bajar+masjid/data=!4m7!3m6!1s0x39999f059c4e66af:0x6ad089d65991cab9!8m2!3d27.2088519!4d81.517236!16s%2Fg%2F11j2ywszfl!19sChIJr2ZOnAWfmTkRucqRWdaJ0Go?authuser=0&hl=en&rclk=1",
        "coordinates": {
            "latitude": 27.2088519,
            "longitude": 81.517236
        }
    },
    {
        "name": "MOHAMMADI ZAMA MASJID",
        "main_category": "Mosque",
        "address": "R23P+RJJ MOHAMMADI ZAMA MASJID, Raniganj, Sarai Bharat Rai, Uttar Pradesh 230304",
        "detailed_address": {
            "ward": null,
            "street": "R23P+RJJ",
            "city": "Raniganj, Sarai Bharat Rai",
            "postal_code": "230304",
            "state": "Uttar Pradesh",
            "country_code": "IN"
        },
        "images": [],
        "link": "https://www.google.com/maps/place/MOHAMMADI+ZAMA+MASJID/data=!4m7!3m6!1s0x399abd39503e2039:0xbf2a5dcbf4989227!8m2!3d25.8045952!4d82.0365281!16s%2Fg%2F11h4ggmz3b!19sChIJOSA-UDm9mjkRJ5KY9MtdKr8?authuser=0&hl=en&rclk=1",
        "coordinates": {
            "latitude": 25.804595199999998,
            "longitude": 82.0365281
        }
    },
    {
        "name": "Madina Masjid",
        "main_category": "Mosque",
        "address": "J47J+P5X Madina Masjid, idga para, Dr MN Ghosh Rd, Raniganj, West Bengal 713347",
        "detailed_address": {
            "ward": null,
            "street": "J47J+P5X, idga para, Dr MN Ghosh Rd",
            "city": "Raniganj",
            "postal_code": "713347",
            "state": "West Bengal",
            "country_code": "IN"
        },
        "images": [],
        "link": "https://www.google.com/maps/place/Madina+Masjid/data=!4m7!3m6!1s0x39f71168f0fe6a2f:0xa98f367e2ebb7cb2!8m2!3d23.6143532!4d87.1304829!16s%2Fg%2F11gh2vpscs!19sChIJL2r-8GgR9zkRsny7Ln42j6k?authuser=0&hl=en&rclk=1",
        "coordinates": {
            "latitude": 23.6143532,
            "longitude": 87.13048289999999
        }
    },
    {
        "name": "msjd HDrt bll",
        "main_category": "Mosque",
        "address": "J46G+X2P msjd HDrt bll, Dr MN Ghosh Rd, Raniganj, West Bengal 713347",
        "detailed_address": {
            "ward": null,
            "street": "J46G+X2P, Dr MN Ghosh Rd",
            "city": "Raniganj",
            "postal_code": "713347",
            "state": "West Bengal",
            "country_code": "IN"
        },
        "images": [
            {
                "about": "All",
                "link": "https://streetviewpixels-pa.googleapis.com/v1/thumbnail?panoid=egcrqShPCHoA_TrAT7iUZA&cb_client=maps_sv.tactile.gps&w=224&h=298&yaw=344.9285&pitch=0&thumbfov=100"
            },
            {
                "about": "Street View & 360deg",
                "link": "https://streetviewpixels-pa.googleapis.com/v1/thumbnail?panoid=egcrqShPCHoA_TrAT7iUZA&cb_client=maps_sv.tactile.gps&w=224&h=298&yaw=344.9285&pitch=0&thumbfov=100"
            }
        ],
        "link": "https://www.google.com/maps/place/%D9%85%D8%B3%D8%AC%D8%AF+%D8%AD%D8%B6%D8%B1%D8%AA+%D8%A8%D9%84%D8%A7%D9%84%E2%80%AD/data=!4m7!3m6!1s0x39f7111e7d97d317:0x2bee6586e87803e3!8m2!3d23.6124712!4d87.1250847!16s%2Fg%2F11lrdbz5m0!19sChIJF9OXfR4R9zkR4wN46IZl7is?authuser=0&hl=en&rclk=1",
        "coordinates": {
            "latitude": 23.612471199999998,
            "longitude": 87.1250847
        }
    },
    {
        "name": "msjd mdny 'nSry njr rnyjnj",
        "main_category": "Mosque",
        "address": "36PR+6JJ msjd mdny 'nSry njr rnyjnj, Mohammed Sohrab Ansari Rd, Hasanpur, Raniganj, Bihar 854334",
        "detailed_address": {
            "ward": null,
            "street": "36PR+6JJ, Mohammed Sohrab Ansari Rd",
            "city": "Hasanpur, Raniganj",
            "postal_code": "854334",
            "state": "Bihar",
            "country_code": "IN"
        },
        "images": [
            {
                "about": "All",
                "link": "https://lh5.googleusercontent.com/p/AF1QipMaDLwA70SGxaTZNSr8xFelCNnf9Dsf3HI99DIS=w224-h398-k-no"
            }
        ],
        "link": "https://www.google.com/maps/place/%D9%85%D8%B3%D8%AC%D8%AF+%D9%85%D8%AF%D9%86%D9%8A+%D8%A3%D9%86%D8%B5%D8%A7%D8%B1%D9%8A+%D9%86%D8%AC%D8%A7%D8%B1+%D8%B1%D8%A7%D9%86%D9%8A%D8%AC%D9%86%D8%AC%E2%80%AD/data=!4m7!3m6!1s0x39ef953cc967504d:0xc411989e753fc209!8m2!3d26.0855829!4d87.2415147!16s%2Fg%2F11pwq714fq!19sChIJTVBnyTyV7zkRCcI_dZ6YEcQ?authuser=0&hl=en&rclk=1",
        "coordinates": {
            "latitude": 26.0855829,
            "longitude": 87.2415147
        }
    },
    {
        "name": "Masjid Hazrat-E-Bilal",
        "main_category": "Mosque",
        "address": "J46G+X4W Masjid Hazrat-E-Bilal, Raniganj, West Bengal 713347",
        "detailed_address": {
            "ward": null,
            "street": "J46G+X4W",
            "city": "Raniganj",
            "postal_code": null,
            "state": "West Bengal",
            "country_code": "IN"
        },
        "images": [
            {
                "about": "All",
                "link": "https://lh5.googleusercontent.com/p/AF1QipMZUef5uyQGddmvnhOPEXFM47lDhWdfW1stRs_d=w397-h298-k-no"
            },
            {
                "about": "Street View & 360deg",
                "link": "https://streetviewpixels-pa.googleapis.com/v1/thumbnail?panoid=swOa2Q5vL96jco5LxFTI3A&cb_client=maps_sv.tactile.gps&w=224&h=298&yaw=324.32312&pitch=0&thumbfov=100"
            }
        ],
        "link": "https://www.google.com/maps/place/Masjid+Hazrat-E-Bilal/data=!4m7!3m6!1s0x39f711e8dc435781:0x5c4ffb5d84704ef0!8m2!3d23.6124931!4d87.1253414!16s%2Fg%2F11px1g383y!19sChIJgVdD3OgR9zkR8E5whF37T1w?authuser=0&hl=en&rclk=1",
        "coordinates": {
            "latitude": 23.6124931,
            "longitude": 87.1253414
        }
    },
    {
        "name": "mdrsh shms l`lwm r`ny'y shryf",
        "main_category": "Mosque",
        "address": "J48M+P44 mdrsh shms l`lwm r`ny'y shryf, Ronai asthana mohalla, Raniganj, 713347",
        "detailed_address": {
            "ward": null,
            "street": "J48M+P44, Ronai asthana mohalla",
            "city": "Raniganj",
            "postal_code": "713347",
            "state": "West Bengal",
            "country_code": "IN"
        },
        "images": [],
        "link": "https://www.google.com/maps/place/%D9%85%D8%AF%D8%B1%D8%B3%DB%81+%D8%B4%D9%85%D8%B3+%D8%A7%D9%84%D8%B9%D9%84%D9%88%D9%85+%D8%B1%D8%B9%D9%86%D8%A7%D8%A6%DB%8C+%D8%B4%D8%B1%DB%8C%D9%81%E2%80%AD/data=!4m7!3m6!1s0x39f7113be5aac385:0x4c4454f649b80e30!8m2!3d23.616768!4d87.1328317!16s%2Fg%2F11qqf2fnf1!19sChIJhcOq5TsR9zkRMA64SfZUREw?authuser=0&hl=en&rclk=1",
        "coordinates": {
            "latitude": 23.616768,
            "longitude": 87.1328317
        }
    },
    {
        "name": "Jama Masjid Bansi Najmul Hasan",
        "main_category": "Mosque",
        "address": "Jama Masjid Bansi Najmul Hasan, bansi adhar ganj, Raniganj, Basi Adhar Ganj, Uttar Pradesh 230304",
        "detailed_address": {
            "ward": null,
            "street": "bansi adhar ganj",
            "city": "Raniganj, Basi Adhar Ganj",
            "postal_code": null,
            "state": "Uttar Pradesh",
            "country_code": "IN"
        },
        "images": [
            {
                "about": "All",
                "link": "https://lh5.googleusercontent.com/p/AF1QipMwjtf4B6XSNDXlfA7AiYA1TlOQmz4OpGJTk7GI=w224-h497-k-no"
            },
            {
                "about": "Dome",
                "link": "https://lh5.googleusercontent.com/p/AF1QipMwjtf4B6XSNDXlfA7AiYA1TlOQmz4OpGJTk7GI=w224-h497-k-no"
            }
        ],
        "link": "https://www.google.com/maps/place/Jama+Masjid+Bansi+Najmul+Hasan/data=!4m7!3m6!1s0x399abdbb5358b0c1:0xb2a04dfb250174b6!8m2!3d25.7996712!4d81.9780518!16s%2Fg%2F11gppm62qy!19sChIJwbBYU7u9mjkRtnQBJftNoLI?authuser=0&hl=en&rclk=1",
        "coordinates": {
            "latitude": 25.7996712,
            "longitude": 81.9780518
        }
    },
    {
        "name": "Hussain nagar Imambada",
        "main_category": "Mosque",
        "address": "J47F+HJJ Hussain nagar Imambada, Husain Nagar Rd, Raniganj, West Bengal 713347",
        "detailed_address": {
            "ward": null,
            "street": "J47F+HJJ, Husain Nagar Rd",
            "city": "Raniganj",
            "postal_code": "713347",
            "state": "West Bengal",
            "country_code": "IN"
        },
        "images": [],
        "link": "https://www.google.com/maps/place/Hussain+nagar+Imambada/data=!4m7!3m6!1s0x39f7114441ca28a1:0x5a34940052a74f97!8m2!3d23.6139711!4d87.1240048!16s%2Fg%2F11n7258pxy!19sChIJoSjKQUQR9zkRl0-nUgCUNFo?authuser=0&hl=en&rclk=1",
        "coordinates": {
            "latitude": 23.6139711,
            "longitude": 87.1240048
        }
    },
    {
        "name": "Masjid",
        "main_category": "Mosque",
        "address": "J32G+VJ9 Masjid, Damalia, West Bengal 713339",
        "detailed_address": {
            "ward": null,
            "street": "J32G+VJ9",
            "city": "Damalia",
            "postal_code": null,
            "state": "West Bengal",
            "country_code": "IN"
        },
        "images": [],
        "link": "https://www.google.com/maps/place/Masjid/data=!4m7!3m6!1s0x39f71190943088cd:0xf5a11a17ad246d24!8m2!3d23.602161!4d87.0766061!16s%2Fg%2F11sxx67t77!19sChIJzYgwlJAR9zkRJG0krRcaofU?authuser=0&hl=en&rclk=1",
        "coordinates": {
            "latitude": 23.602161,
            "longitude": 87.07660609999999
        }
    },
    {
        "name": "Eidgah imam bara",
        "main_category": "Mosque",
        "address": "Eidgah imam bara, 9832946346 nimcha masjid, Raniganj, West Bengal 713339",
        "detailed_address": {
            "ward": null,
            "street": "9832946346 nimcha masjid",
            "city": "Raniganj, Murgathaul",
            "postal_code": "713339",
            "state": "West Bengal",
            "country_code": "IN"
        },
        "images": [],
        "link": "https://www.google.com/maps/place/Eidgah+imam+bara/data=!4m7!3m6!1s0x39f711b1ede8ee49:0x9f78ec6495717ead!8m2!3d23.6259768!4d87.0762735!16s%2Fg%2F11fnbf2xdx!19sChIJSe7o7bER9zkRrX5xlWTseJ8?authuser=0&hl=en&rclk=1",
        "coordinates": {
            "latitude": 23.6259768,
            "longitude": 87.0762735
        }
    },
    {
        "name": "Masjid e quba",
        "main_category": "Mosque",
        "address": "FMRM+PXR Masjid e quba, Raniganj Shukul Bazar Rd, Deokali, Uttar Pradesh 227816",
        "detailed_address": {
            "ward": null,
            "street": "FMRM+PXR, Raniganj Shukul Bazar Rd",
            "city": "Deokali",
            "postal_code": "227816",
            "state": "Uttar Pradesh",
            "country_code": "IN"
        },
        "images": [],
        "link": "https://www.google.com/maps/place/Masjid+e+quba/data=!4m7!3m6!1s0x399a490b5471b51f:0xb5e5912937846e5c!8m2!3d26.491857!4d81.6849013!16s%2Fg%2F11q1vpmgts!19sChIJH7VxVAtJmjkRXG6ENymR5bU?authuser=0&hl=en&rclk=1",
        "coordinates": {
            "latitude": 26.491857,
            "longitude": 81.68490129999999
        }
    },
    {
        "name": "Madni Zama Maszid Ansari Muhalla",
        "main_category": "Mosque",
        "address": "Madni Zama Maszid Ansari Muhalla, Raniganj, Bihar 854334",
        "detailed_address": {
            "ward": null,
            "street": null,
            "city": "Raniganj",
            "postal_code": "854334",
            "state": "Bihar",
            "country_code": "IN"
        },
        "images": [
            {
                "about": "All",
                "link": "https://lh5.googleusercontent.com/p/AF1QipPPp2vxjJoTMTZqRoKwWonXIHJgBGEMDLW5VN59=w224-h298-k-no"
            },
            {
                "about": "By owner",
                "link": "https://lh5.googleusercontent.com/p/AF1QipOjW3g12uxLk1YyDmtKcJjZ7V2VhYq1UkIZq7n-=w224-h298-k-no"
            }
        ],
        "link": "https://www.google.com/maps/place/Madni+Zama+Maszid+Ansari+Muhalla/data=!4m7!3m6!1s0x39ef9595512859ab:0xb588acd72b785df!8m2!3d26.0855381!4d87.2415549!16s%2Fg%2F11gfkkfn0k!19sChIJq1koUZWV7zkR34W3cs2KWAs?authuser=0&hl=en&rclk=1",
        "coordinates": {
            "latitude": 26.085538099999997,
            "longitude": 87.2415549
        }
    },
    {
        "name": "MASJID",
        "main_category": "Mosque",
        "address": "FWXV+V9X MASJID, Raniganj, Bihar 854340",
        "detailed_address": {
            "ward": null,
            "street": "FWXV+V9X",
            "city": "Raniganj",
            "postal_code": null,
            "state": "Bihar",
            "country_code": "IN"
        },
        "images": [
            {
                "about": "All",
                "link": "https://streetviewpixels-pa.googleapis.com/v1/thumbnail?panoid=XAiaLRsAnyc1zOlpm80CbA&cb_client=maps_sv.tactile.gps&w=224&h=298&yaw=71.26811&pitch=0&thumbfov=100"
            },
            {
                "about": "Street View & 360deg",
                "link": "https://streetviewpixels-pa.googleapis.com/v1/thumbnail?panoid=XAiaLRsAnyc1zOlpm80CbA&cb_client=maps_sv.tactile.gps&w=224&h=298&yaw=71.26811&pitch=0&thumbfov=100"
            }
        ],
        "link": "https://www.google.com/maps/place/MASJID/data=!4m7!3m6!1s0x39ef036bdd96aa67:0x65199e75c68d23b0!8m2!3d26.4997492!4d86.9434876!16s%2Fg%2F11j0rw9tnw!19sChIJZ6qW3WsD7zkRsCONxnWeGWU?authuser=0&hl=en&rclk=1",
        "coordinates": {
            "latitude": 26.4997492,
            "longitude": 86.9434876
        }
    },
    {
        "name": "Jaama Masjid Nihapur",
        "main_category": "Mosque",
        "address": "FMMW+43M Jaama Masjid Nihapur, Raniganj Shukul Bazar Rd, Nihal Pur, Uttar Pradesh 227816",
        "detailed_address": {
            "ward": null,
            "street": "FMMW+43M, Raniganj Shukul Bazar Rd",
            "city": "Nihal Pur",
            "postal_code": "227816",
            "state": "Uttar Pradesh",
            "country_code": "IN"
        },
        "images": [
            {
                "about": "All",
                "link": "https://streetviewpixels-pa.googleapis.com/v1/thumbnail?panoid=HOxdgYwbQ4xYArw7opl-SA&cb_client=maps_sv.tactile.gps&w=224&h=298&yaw=238.84756&pitch=0&thumbfov=100"
            },
            {
                "about": "Street View & 360deg",
                "link": "https://streetviewpixels-pa.googleapis.com/v1/thumbnail?panoid=HOxdgYwbQ4xYArw7opl-SA&cb_client=maps_sv.tactile.gps&w=224&h=298&yaw=238.84756&pitch=0&thumbfov=100"
            }
        ],
        "link": "https://www.google.com/maps/place/Jaama+Masjid+Nihapur/data=!4m7!3m6!1s0x399a461f6abff26f:0x898767b5145f51ca!8m2!3d26.4828433!4d81.6951789!16s%2Fg%2F11f3jl3yj6!19sChIJb_K_ah9GmjkRylFfFLVnh4k?authuser=0&hl=en&rclk=1",
        "coordinates": {
            "latitude": 26.4828433,
            "longitude": 81.6951789
        }
    },
    {
        "name": "Raniganj Mohammedi masjid",
        "main_category": "Mosque",
        "address": "RMWJ+QMC Raniganj Mohammedi masjid, Gandbas, Bihar 854315",
        "detailed_address": {
            "ward": null,
            "street": "RMWJ+QMC",
            "city": "Gandbas",
            "postal_code": null,
            "state": "Bihar",
            "country_code": "IN"
        },
        "images": [],
        "link": "https://www.google.com/maps/place/Raniganj+Mohammedi+masjid/data=!4m7!3m6!1s0x39e55bf92c12cf9b:0xee57dfdb8858879d!8m2!3d25.8469453!4d87.6816321!16s%2Fg%2F11kqvsh3hp!19sChIJm88SLPlb5TkRnYdYiNvfV-4?authuser=0&hl=en&rclk=1",
        "coordinates": {
            "latitude": 25.846945299999998,
            "longitude": 87.6816321
        }
    },
    {
        "name": "Gausia Jama Masjid",
        "main_category": "Mosque",
        "address": "VW46+9F9 Gausia Jama Masjid, Raniganj, West Bengal 733215",
        "detailed_address": {
            "ward": null,
            "street": "VW46+9F9",
            "city": "Raniganj",
            "postal_code": "733215",
            "state": "West Bengal",
            "country_code": "IN"
        },
        "images": [
            {
                "about": "All",
                "link": "https://lh5.googleusercontent.com/p/AF1QipO2lNxkTdniRfUeS5C5oURCEikSvYwm_S-W4GdJ=w224-h298-k-no"
            }
        ],
        "link": "https://www.google.com/maps/place/Gausia+Jama+Masjid/data=!4m7!3m6!1s0x39e539b77030ce01:0x411e3a95d12c33b2!8m2!3d25.8555249!4d87.912197!16s%2Fg%2F11sdp_75cl!19sChIJAc4wcLc55TkRsjMs0ZU6HkE?authuser=0&hl=en&rclk=1",
        "coordinates": {
            "latitude": 25.8555249,
            "longitude": 87.91219699999999
        }
    },
    {
        "name": "Rajabandh Imambara",
        "main_category": "Mosque",
        "address": "J45C+JJP Rajabandh Imambara, Rajabandh, Raniganj, West Bengal 713347",
        "detailed_address": {
            "ward": "Rajabandh",
            "street": "J45C+JJP",
            "city": "Raniganj",
            "postal_code": "713347",
            "state": "West Bengal",
            "country_code": "IN"
        },
        "images": [
            {
                "about": "All",
                "link": "https://lh5.googleusercontent.com/p/AF1QipPP7IC--JmoByCSDBBj5MDYLNEwPhKA448FJdoZ=w397-h298-k-no"
            }
        ],
        "link": "https://www.google.com/maps/place/Rajabandh+Imambara/data=!4m7!3m6!1s0x39f7111aae022735:0x96e56c84c7f517ce!8m2!3d23.6090814!4d87.1215677!16s%2Fg%2F11qg9_m9jq!19sChIJNScCrhoR9zkRzhf1x4Rs5ZY?authuser=0&hl=en&rclk=1",
        "coordinates": {
            "latitude": 23.609081399999997,
            "longitude": 87.1215677
        }
    },
    {
        "name": "Mohammadiya Jama Masjid Hathethi",
        "main_category": "Mosque",
        "address": "R3RJ+J3P Mohammadiya Jama Masjid Hathethi, Village Hathethi, Post, misiddipur, Raniganj",
        "detailed_address": {
            "ward": "misiddipur",
            "street": "R3RJ+J3P, Village Hathethi, Post",
            "city": "Raniganj, Mishrudeenpur",
            "postal_code": null,
            "state": "Uttar Pradesh",
            "country_code": "IN"
        },
        "images": [
            {
                "about": "All",
                "link": "https://lh5.googleusercontent.com/p/AF1QipOMTMeRiLm6OqAM7f7CMQKhq0o9PVVBANrIAcar=w397-h298-k-no"
            }
        ],
        "link": "https://www.google.com/maps/place/Mohammadiya+Jama+Masjid+Hathethi/data=!4m7!3m6!1s0x399a9908f11f8843:0xfb25f67d041531cd!8m2!3d25.8415876!4d82.0802059!16s%2Fg%2F11rzf5fm6y!19sChIJQ4gf8QiZmjkRzTEVBH32Jfs?authuser=0&hl=en&rclk=1",
        "coordinates": {
            "latitude": 25.8415876,
            "longitude": 82.0802059
        }
    },
    {
        "name": "Aasrafi masjid",
        "main_category": "Mosque",
        "address": "FMJ8+RXR Aasrafi masjid, Pure gauhar raniganj, Jagdishpur",
        "detailed_address": {
            "ward": null,
            "street": "FMJ8+RXR, Pure gauhar raniganj",
            "city": "Jagdishpur, Parwej Pur",
            "postal_code": null,
            "state": "Uttar Pradesh",
            "country_code": "IN"
        },
        "images": [],
        "link": "https://www.google.com/maps/place/Aasrafi+masjid/data=!4m7!3m6!1s0x399a49dd3296debd:0x3b970e279891e331!8m2!3d26.4821207!4d81.6673868!16s%2Fg%2F11rthzkn32!19sChIJvd6WMt1JmjkRMeORmCcOlzs?authuser=0&hl=en&rclk=1",
        "coordinates": {
            "latitude": 26.4821207,
            "longitude": 81.6673868
        }
    },
    {
        "name": "Late Kabir Ali Jamia Masjid",
        "main_category": "Mosque",
        "address": "MGRQ+9R8 Late Kabir Ali Jamia Masjid, Raniganj - Jagannathpur Rd, Raniganj, Bangladesh",
        "detailed_address": {
            "ward": null,
            "street": "MGRQ+9R8, Raniganj - Jagannathpur Rd",
            "city": "Raniganj",
            "postal_code": null,
            "state": null,
            "country_code": "BD"
        },
        "images": [],
        "link": "https://www.google.com/maps/place/Late+Kabir+Ali+Jamia+Masjid/data=!4m7!3m6!1s0x3751172ce09279fd:0xdbfea4b2fd0c7af2!8m2!3d24.690875!4d91.538982!16s%2Fg%2F11txzhf41t!19sChIJ_XmS4CwXUTcR8noM_bKk_ts?authuser=0&hl=en&rclk=1",
        "coordinates": {
            "latitude": 24.690875,
            "longitude": 91.53898199999999
        }
    },
    {
        "name": "Aamna Masjid",
        "main_category": "Mosque",
        "address": "J48G+GQ7 Aamna Masjid, Raniganj, West Bengal 713347",
        "detailed_address": {
            "ward": null,
            "street": "J48G+GQ7",
            "city": "Raniganj",
            "postal_code": "713347",
            "state": "West Bengal",
            "country_code": "IN"
        },
        "images": [],
        "link": "https://www.google.com/maps/place/Aamna+Masjid/data=!4m7!3m6!1s0x39f7113b736a3a69:0xc1079de5bcea65d4!8m2!3d23.6162869!4d87.1269266!16s%2Fg%2F11jdx0gk2s!19sChIJaTpqczsR9zkR1GXqvOWdB8E?authuser=0&hl=en&rclk=1",
        "coordinates": {
            "latitude": 23.6162869,
            "longitude": 87.12692659999999
        }
    },
    {
        "name": "Noor masjid",
        "main_category": "Mosque",
        "address": "R28X+67W Noor masjid, Medhuli kala, Raniganj, Uttar Pradesh",
        "detailed_address": {
            "ward": null,
            "street": "R28X+67W, Medhuli kala",
            "city": "Raniganj, Medhauli Kala",
            "postal_code": null,
            "state": "Uttar Pradesh",
            "country_code": "IN"
        },
        "images": [],
        "link": "https://www.google.com/maps/place/Noor+masjid/data=!4m7!3m6!1s0x399aa3804b28e2f7:0xe3a97bfcd06baef9!8m2!3d25.8156012!4d82.0482052!16s%2Fg%2F11khkh1kz1!19sChIJ9-IoS4CjmjkR-a5r0Px7qeM?authuser=0&hl=en&rclk=1",
        "coordinates": {
            "latitude": 25.8156012,
            "longitude": 82.0482052
        }
    },
    {
        "name": "Daulatpur Badi Masjid",
        "main_category": "Housing society",
        "address": "R23Q+JPQ Daulatpur Badi Masjid, Raniganj, Pure Goliya, Uttar Pradesh 230304",
        "detailed_address": {
            "ward": null,
            "street": "R23Q+JPQ",
            "city": "Raniganj, Pure Goliya",
            "postal_code": null,
            "state": "Uttar Pradesh",
            "country_code": "IN"
        },
        "images": [],
        "link": "https://www.google.com/maps/place/Daulatpur+Badi+Masjid/data=!4m7!3m6!1s0x399abd2f717c7b51:0xc1b28211e56c3c49!8m2!3d25.804099!4d82.0393515!16s%2Fg%2F11td3v4d17!19sChIJUXt8cS-9mjkRSTxs5RGCssE?authuser=0&hl=en&rclk=1",
        "coordinates": {
            "latitude": 25.804098999999997,
            "longitude": 82.0393515
        }
    },
    {
        "name": "Masjid (Kherbari)",
        "main_category": "Mosque",
        "address": "857M+2Q8 Masjid (Kherbari), Mamudpur, Raniganj, Sapatgram, Assam",
        "detailed_address": {
            "ward": "Raniganj",
            "street": "857M+2Q8, Mamudpur",
            "city": "Sapatgram, Barunpara",
            "postal_code": null,
            "state": "Assam",
            "country_code": "IN"
        },
        "images": [],
        "link": "https://www.google.com/maps/place/Masjid+%28Kherbari%29/data=!4m7!3m6!1s0x375865ffd67a9a43:0x28c8f11639e8d616!8m2!3d26.3125302!4d90.1844666!16s%2Fg%2F11jpnwq8h6!19sChIJQ5p61v9lWDcRFtboORbxyCg?authuser=0&hl=en&rclk=1",
        "coordinates": {
            "latitude": 26.312530199999998,
            "longitude": 90.1844666
        }
    }
]