[
    {
        "name": "THOWHEED MOSQUE (TNTJ)",
        "main_category": "Mosque",
        "address": "THOWHEED MOSQUE (TNTJ), 2 STREET,LUCKY SUPER MARKET OPP, Keelavadagarai, Tamil Nadu 625601",
        "detailed_address": {
            "ward": null,
            "street": "2 STREET,LUCKY SUPER MARKET OPP",
            "city": "Keelavadagarai",
            "postal_code": "625601",
            "state": "Tamil Nadu",
            "country_code": "IN"
        },
        "images": [
            {
                "about": "All",
                "link": "https://lh5.googleusercontent.com/p/AF1QipOaMzef5w6Uy-2ED0yAXL282cMQ0R4q9ubYYDQd=w628-h298-k-no"
            }
        ],
        "link": "https://www.google.com/maps/place/THOWHEED+MOSQUE+%28TNTJ%29/data=!4m7!3m6!1s0x3b0769ef56d9759d:0x4b955a438e9f625c!8m2!3d10.1274459!4d77.5501601!16s%2Fg%2F11hcfn26hs!19sChIJnXXZVu9pBzsRXGKfjkNalUs?authuser=0&hl=en&rclk=1",
        "coordinates": {
            "latitude": 10.1274459,
            "longitude": 77.5501601
        }
    },
    {
        "name": "Rahmath Masjid",
        "main_category": "Mosque",
        "address": "4HH4+F72 Rahmath Masjid, Endapuli, Tamil Nadu 625604",
        "detailed_address": {
            "ward": null,
            "street": "4HH4+F72",
            "city": "Endapuli",
            "postal_code": "625604",
            "state": "Tamil Nadu",
            "country_code": "IN"
        },
        "images": [
            {
                "about": "All",
                "link": "https://lh5.googleusercontent.com/p/AF1QipOiMzKnVXtXwa5xd6qS3AWJ-gs1vVO4pUyJ4lmJ=w530-h298-k-no"
            },
            {
                "about": "Street View & 360deg",
                "link": "https://streetviewpixels-pa.googleapis.com/v1/thumbnail?panoid=_itA4NvO7wNt05uWhR5X6g&cb_client=maps_sv.tactile.gps&w=224&h=298&yaw=166.8238&pitch=0&thumbfov=100"
            }
        ],
        "link": "https://www.google.com/maps/place/Rahmath+Masjid/data=!4m7!3m6!1s0x3b0769e6af61e17d:0x605ac8ad7eee7b1b!8m2!3d10.1286483!4d77.5556279!16s%2Fg%2F1wrtb8z1!19sChIJfeFhr-ZpBzsRG3vufq3IWmA?authuser=0&hl=en&rclk=1",
        "coordinates": {
            "latitude": 10.1286483,
            "longitude": 77.55562789999999
        }
    },
    {
        "name": "Al Aqsa Masjid",
        "main_category": "Mosque",
        "address": "4HG2+576 Al Aqsa Masjid, Quaid-e-Millat Nagar, Keelavadagarai, Endapuli, Tamil Nadu 625601",
        "detailed_address": {
            "ward": "Quaid-e-Millat Nagar",
            "street": "4HG2+576",
            "city": "Keelavadagarai, Endapuli",
            "postal_code": "625601",
            "state": "Tamil Nadu",
            "country_code": "IN"
        },
        "images": [
            {
                "about": "All",
                "link": "https://lh5.googleusercontent.com/p/AF1QipN2r5J4deDQAYXYLjehEuo_Z9JWOLWxD8oyQUlR=w529-h298-k-no"
            },
            {
                "about": "Videos",
                "link": "https://lh5.googleusercontent.com/p/AF1QipNPFzuKpBwTiIdYphHtKrAmgi9Kv-IZhLPSfiq5=w529-h298-k-no"
            }
        ],
        "link": "https://www.google.com/maps/place/Al+Aqsa+Masjid/data=!4m7!3m6!1s0x3b0769e580dbffff:0x8444481d78e6e64f!8m2!3d10.1254235!4d77.5506385!16s%2Fg%2F11g8741zvf!19sChIJ___bgOVpBzsRT-bmeB1IRIQ?authuser=0&hl=en&rclk=1",
        "coordinates": {
            "latitude": 10.1254235,
            "longitude": 77.55063849999999
        }
    },
    {
        "name": "rahim Mosque",
        "main_category": "Mosque",
        "address": "rahim Mosque, 18, Katcheri Rd, Thenkarai, Tamil Nadu 625601",
        "detailed_address": {
            "ward": null,
            "street": "18, Katcheri Rd",
            "city": "Thenkarai",
            "postal_code": "625601",
            "state": "Tamil Nadu",
            "country_code": "IN"
        },
        "images": [
            {
                "about": "All",
                "link": "https://lh5.googleusercontent.com/p/AF1QipMmiELAzfrQcJc2BlCaZzost-3a2w7F53MdwS63=w397-h298-k-no"
            }
        ],
        "link": "https://www.google.com/maps/place/rahim+Mosque/data=!4m7!3m6!1s0x3b076992ba1344d9:0xdd151f18e894f43c!8m2!3d10.1229709!4d77.5382193!16s%2Fg%2F11d_9k1nhn!19sChIJ2UQTupJpBzsRPPSU6BgfFd0?authuser=0&hl=en&rclk=1",
        "coordinates": {
            "latitude": 10.1229709,
            "longitude": 77.5382193
        }
    },
    {
        "name": "Thandupalayam pallivasal",
        "main_category": "Mosque",
        "address": "4GFX+333 Thandupalayam pallivasal, Thandu Palayam, Thenkarai, Tamil Nadu 625601",
        "detailed_address": {
            "ward": "Thandu Palayam",
            "street": "4GFX+333",
            "city": "Thenkarai",
            "postal_code": "625601",
            "state": "Tamil Nadu",
            "country_code": "IN"
        },
        "images": [
            {
                "about": "All",
                "link": "https://lh5.googleusercontent.com/p/AF1QipM_arrKvD02AJtBykPOCy6_1G1iNsLPhsqApXRu=w525-h298-k-no"
            },
            {
                "about": "Street View & 360deg",
                "link": "https://streetviewpixels-pa.googleapis.com/v1/thumbnail?panoid=mH6-R0In_Z3xLtiX6On7cA&cb_client=maps_sv.tactile.gps&w=224&h=298&yaw=27.239021&pitch=0&thumbfov=100"
            }
        ],
        "link": "https://www.google.com/maps/place/Thandupalayam+pallivasal/data=!4m7!3m6!1s0x3b0769af0499f551:0x95a55a0e5db33681!8m2!3d10.1226404!4d77.5476871!16s%2Fg%2F11ny1g9ryz!19sChIJUfWZBK9pBzsRgTazXQ5apZU?authuser=0&hl=en&rclk=1",
        "coordinates": {
            "latitude": 10.1226404,
            "longitude": 77.54768709999999
        }
    },
    {
        "name": "Jumma Masjid Genguvarpatty",
        "main_category": "Mosque",
        "address": "4GCV+3GR Jumma Masjid Genguvarpatty, Pallivasal St, Genguvarpatti, Tamil Nadu 625203",
        "detailed_address": {
            "ward": null,
            "street": "4GCV+3GR, Pallivasal St",
            "city": "Genguvarpatti",
            "postal_code": "625203",
            "state": "Tamil Nadu",
            "country_code": "IN"
        },
        "images": [],
        "link": "https://www.google.com/maps/place/Jumma+Masjid+Genguvarpatty/data=!4m7!3m6!1s0x3b07690c1c219e45:0x2978880501bead83!8m2!3d10.1202254!4d77.5437604!16s%2Fg%2F11gr4511y1!19sChIJRZ4hHAxpBzsRg62-AQWIeCk?authuser=0&hl=en&rclk=1",
        "coordinates": {
            "latitude": 10.120225399999999,
            "longitude": 77.5437604
        }
    },
    {
        "name": "Jannathul Masjid firdhouse",
        "main_category": "Mosque",
        "address": "4G8X+CXC Jannathul Masjid firdhouse, Periyakulam, Tamil Nadu 625601",
        "detailed_address": {
            "ward": null,
            "street": "4G8X+CXC",
            "city": "Periyakulam",
            "postal_code": "625601",
            "state": "Tamil Nadu",
            "country_code": "IN"
        },
        "images": [
            {
                "about": "All",
                "link": "https://lh5.googleusercontent.com/p/AF1QipMB9ARTelk7l-jx1MSjgINOOVObEkSTcbausHSN=w529-h298-k-no"
            },
            {
                "about": "Street View & 360deg",
                "link": "https://streetviewpixels-pa.googleapis.com/v1/thumbnail?panoid=HzXpzpn2QGpehNGE1Sw62A&cb_client=maps_sv.tactile.gps&w=224&h=298&yaw=70.591835&pitch=0&thumbfov=100"
            }
        ],
        "link": "https://www.google.com/maps/place/Jannathul+Masjid+firdhouse/data=!4m7!3m6!1s0x3b0769cd8c37e62d:0x34fd448deb614201!8m2!3d10.1160566!4d77.5499022!16s%2Fg%2F11rsd1_k0q!19sChIJLeY3jM1pBzsRAUJh641E_TQ?authuser=0&hl=en&rclk=1",
        "coordinates": {
            "latitude": 10.1160566,
            "longitude": 77.54990219999999
        }
    },
    {
        "name": "Madhina Masjid",
        "main_category": "Mosque",
        "address": "Madhina Masjid, Madhina Masjith, Quaid-e-Millat Nagar, Keelavadagarai, Endapuli, Tamil Nadu 625601",
        "detailed_address": {
            "ward": "Quaid-e-Millat Nagar",
            "street": "Madhina Masjith",
            "city": "Keelavadagarai, Endapuli",
            "postal_code": "625601",
            "state": "Tamil Nadu",
            "country_code": "IN"
        },
        "images": [
            {
                "about": "All",
                "link": "https://lh5.googleusercontent.com/p/AF1QipNLh63IZ-LClnmkk60je3jvu835-KthTkKfRAWP=w397-h298-k-no"
            }
        ],
        "link": "https://www.google.com/maps/place/Madhina+Masjid/data=!4m7!3m6!1s0x3b07696457da13cd:0x8876ff37c1a9ce02!8m2!3d10.1247296!4d77.5513064!16s%2Fg%2F11h6h6ccrv!19sChIJzRPaV2RpBzsRAs6pwTf_dog?authuser=0&hl=en&rclk=1",
        "coordinates": {
            "latitude": 10.1247296,
            "longitude": 77.5513064
        }
    },
    {
        "name": "Makka Masjid",
        "main_category": "Mosque",
        "address": "4GJX+3P4 Makka Masjid, Keelavadagarai, Tamil Nadu 625601",
        "detailed_address": {
            "ward": null,
            "street": "4GJX+3P4",
            "city": "Keelavadagarai",
            "postal_code": "625601",
            "state": "Tamil Nadu",
            "country_code": "IN"
        },
        "images": [],
        "link": "https://www.google.com/maps/place/Makka+Masjid/data=!4m7!3m6!1s0x3b07695b2e7284b5:0x1deba3f7f79259b5!8m2!3d10.1301493!4d77.5493393!16s%2Fg%2F11tjllkkw8!19sChIJtYRyLltpBzsRtVmS9_ej6x0?authuser=0&hl=en&rclk=1",
        "coordinates": {
            "latitude": 10.1301493,
            "longitude": 77.5493393
        }
    },
    {
        "name": "Kailasha bava pallivasal",
        "main_category": "Mosque",
        "address": "Kailasha bava pallivasal, Bus Stand, V.R.B St, Keelavadagarai, Tamil Nadu 625601",
        "detailed_address": {
            "ward": null,
            "street": "Bus Stand, V.R.B St",
            "city": "Keelavadagarai",
            "postal_code": "625601",
            "state": "Tamil Nadu",
            "country_code": "IN"
        },
        "images": [
            {
                "about": "All",
                "link": "https://lh5.googleusercontent.com/p/AF1QipMQTyXEDrh8klZxRN5zoOmEZGjfi4ouX4G7vnur=w447-h298-k-no"
            },
            {
                "about": "Dome",
                "link": "https://lh5.googleusercontent.com/p/AF1QipMQTyXEDrh8klZxRN5zoOmEZGjfi4ouX4G7vnur=w447-h298-k-no"
            },
            {
                "about": "Street View & 360deg",
                "link": "https://streetviewpixels-pa.googleapis.com/v1/thumbnail?panoid=AX5fFiyRb8dA_SjX2bdrYQ&cb_client=maps_sv.tactile.gps&w=224&h=298&yaw=346.94293&pitch=0&thumbfov=100"
            }
        ],
        "link": "https://www.google.com/maps/place/Kailasha+bava+pallivasal/data=!4m7!3m6!1s0x3b076972999ab8cd:0x597428cb8df6719d!8m2!3d10.124328!4d77.5459512!16s%2Fg%2F11j0nfhcll!19sChIJzbiamXJpBzsRnXH2jcsodFk?authuser=0&hl=en&rclk=1",
        "coordinates": {
            "latitude": 10.124328,
            "longitude": 77.54595119999999
        }
    },
    {
        "name": "Vadakarai Nawab Jamia Masjid Periyakulam",
        "main_category": "Mosque",
        "address": "Vadakarai Nawab Jamia Masjid Periyakulam, Nawab Jami-E Masjid, Palace St, Keelavadagarai, Tamil Nadu 625601",
        "detailed_address": {
            "ward": null,
            "street": "Nawab Jami-E Masjid, Palace St",
            "city": "Keelavadagarai",
            "postal_code": "625601",
            "state": "Tamil Nadu",
            "country_code": "IN"
        },
        "images": [
            {
                "about": "All",
                "link": "https://streetviewpixels-pa.googleapis.com/v1/thumbnail?panoid=wA4u_D0an_BiHfEdA0xqYw&cb_client=maps_sv.tactile.gps&w=224&h=298&yaw=206.0454&pitch=0&thumbfov=100"
            },
            {
                "about": "Street View & 360deg",
                "link": "https://streetviewpixels-pa.googleapis.com/v1/thumbnail?panoid=wA4u_D0an_BiHfEdA0xqYw&cb_client=maps_sv.tactile.gps&w=224&h=298&yaw=206.0454&pitch=0&thumbfov=100"
            }
        ],
        "link": "https://www.google.com/maps/place/Vadakarai+Nawab+Jamia+Masjid+Periyakulam/data=!4m7!3m6!1s0x3b0769de7d5488c7:0xe6faaa5ef233c97a!8m2!3d10.1240722!4d77.5463882!16s%2Fg%2F11mnh582r5!19sChIJx4hUfd5pBzsReskz8l6q-uY?authuser=0&hl=en&rclk=1",
        "coordinates": {
            "latitude": 10.124072199999999,
            "longitude": 77.5463882
        }
    },
    {
        "name": "Jamiya mosque",
        "main_category": "Mosque",
        "address": "Jamiya mosque, 125, Pallivasal St, Jayamangalam Post, Periyakulam, Tamil Nadu 625603",
        "detailed_address": {
            "ward": "Jayamangalam Post",
            "street": "125, Pallivasal St",
            "city": "Periyakulam",
            "postal_code": "625603",
            "state": "Tamil Nadu",
            "country_code": "IN"
        },
        "images": [],
        "link": "https://www.google.com/maps/place/Jamiya+mosque/data=!4m7!3m6!1s0x3b0769d0367c6949:0xbe7b2f726083c72b!8m2!3d10.1193504!4d77.5438062!16s%2Fg%2F11shvwdk8q!19sChIJSWl8NtBpBzsRK8eDYHIve74?authuser=0&hl=en&rclk=1",
        "coordinates": {
            "latitude": 10.1193504,
            "longitude": 77.54380619999999
        }
    },
    {
        "name": "Samsudeenmk",
        "main_category": "Mosque",
        "address": "Samsudeenmk, 30.a2.pallivasal.street.vadakarai, Periyakulam, Tamil Nadu 625601",
        "detailed_address": {
            "ward": null,
            "street": "30.a2.pallivasal.street.vadakarai",
            "city": "Periyakulam, Keelavadagarai",
            "postal_code": "625601",
            "state": "Tamil Nadu",
            "country_code": "IN"
        },
        "images": [],
        "link": "https://www.google.com/maps/place/Samsudeenmk/data=!4m7!3m6!1s0x3b0769900c0019bf:0xa6071b3864ffbb97!8m2!3d10.1236434!4d77.5455466!16s%2Fg%2F11sk2wqs4b!19sChIJvxkADJBpBzsRl7v_ZDgbB6Y?authuser=0&hl=en&rclk=1",
        "coordinates": {
            "latitude": 10.123643399999999,
            "longitude": 77.5455466
        }
    },
    {
        "name": "Jami-E Masjid",
        "main_category": "Place of worship",
        "address": "Jami-E Masjid, Muslim St, Thenkarai, Tamil Nadu 625601",
        "detailed_address": {
            "ward": null,
            "street": "Muslim St",
            "city": "Thenkarai",
            "postal_code": "625601",
            "state": "Tamil Nadu",
            "country_code": "IN"
        },
        "images": [],
        "link": "https://www.google.com/maps/place/Jami-E+Masjid/data=!4m7!3m6!1s0x3b0769f235955555:0xe64082937611c831!8m2!3d10.1197304!4d77.5434018!16s%2Fg%2F11sscs6xm4!19sChIJVVWVNfJpBzsRMcgRdpOCQOY?authuser=0&hl=en&rclk=1",
        "coordinates": {
            "latitude": 10.1197304,
            "longitude": 77.5434018
        }
    },
    {
        "name": "Dargah",
        "main_category": "Mosque",
        "address": "4GHX+GMC Dargah, Aishwarya Nagar Street, Keelavadagarai, Tamil Nadu 625601",
        "detailed_address": {
            "ward": null,
            "street": "4GHX+GMC, Aishwarya Nagar Street",
            "city": "Keelavadagarai",
            "postal_code": "625601",
            "state": "Tamil Nadu",
            "country_code": "IN"
        },
        "images": [],
        "link": "https://www.google.com/maps/place/Dargah/data=!4m7!3m6!1s0x3b07692760b79bb1:0x9235f5af4671904a!8m2!3d10.1288018!4d77.5491264!16s%2Fg%2F11lgljtv7r!19sChIJsZu3YCdpBzsRSpBxRq_1NZI?authuser=0&hl=en&rclk=1",
        "coordinates": {
            "latitude": 10.1288018,
            "longitude": 77.54912639999999
        }
    }
]