[
    {
        "name": "Masjid-e-Tur",
        "main_category": "Mosque",
        "address": "Masjid-e-Tur, Masjid, Kinwat, Gokunda, Maharashtra 431811",
        "detailed_address": {
            "ward": null,
            "street": "Masjid",
            "city": "Kinwat, Gokunda",
            "postal_code": "431811",
            "state": "Maharashtra",
            "country_code": "IN"
        },
        "images": [
            {
                "about": "All",
                "link": "https://lh5.googleusercontent.com/p/AF1QipOMvTe2G-zYW-x_VaPO5GLJLVTp56BZJh3XENz-=w224-h298-k-no"
            },
            {
                "about": "Street View & 360deg",
                "link": "https://streetviewpixels-pa.googleapis.com/v1/thumbnail?panoid=QoL77BhPFgQzd1Fo3W2ZQQ&cb_client=maps_sv.tactile.gps&w=224&h=298&yaw=220.7767&pitch=0&thumbfov=100"
            }
        ],
        "link": "https://www.google.com/maps/place/Masjid-e-Tur/data=!4m7!3m6!1s0x3bd23dd54e102abb:0xbdca3bac5a8aa776!8m2!3d19.6069349!4d78.201271!16s%2Fg%2F1tkc5446!19sChIJuyoQTtU90jsRdqeKWqw7yr0?authuser=0&hl=en&rclk=1",
        "coordinates": {
            "latitude": 19.6069349,
            "longitude": 78.20127099999999
        }
    },
    {
        "name": "Masjid E Khizra Sunni Jama Masjid",
        "main_category": "Mosque",
        "address": "J674+G6Q Masjid E Khizra Sunni Jama Masjid, Subhash Nagar, Kinwat, Maharashtra 431804",
        "detailed_address": {
            "ward": "Subhash Nagar",
            "street": "J674+G6Q",
            "city": "Kinwat",
            "postal_code": "431804",
            "state": "Maharashtra",
            "country_code": "IN"
        },
        "images": [
            {
                "about": "All",
                "link": "https://lh5.googleusercontent.com/p/AF1QipNdhLvoqmtCIKZlVbxrf-FepKFKizQTJQpteRXT=w224-h298-k-no"
            },
            {
                "about": "Street View & 360deg",
                "link": "https://lh5.googleusercontent.com/p/AF1QipMiUj8KmoHj4QGTtCqUSvBzzM1H4elTFmuNNuJa=w224-h298-k-no-pi0-ya317-ro-0-fo100"
            }
        ],
        "link": "https://www.google.com/maps/place/Masjid+E+Khizra+Sunni+Jama+Masjid/data=!4m7!3m6!1s0x3bd23e83d9f6d71f:0x7c0ae623534c21c9!8m2!3d19.6138371!4d78.205621!16s%2Fg%2F11dd_ng4cl!19sChIJH9f22YM-0jsRySFMUyPmCnw?authuser=0&hl=en&rclk=1",
        "coordinates": {
            "latitude": 19.613837099999998,
            "longitude": 78.205621
        }
    },
    {
        "name": "Hazrat Baba Ramzan Sha R. Dargha sharif",
        "main_category": "Mosque",
        "address": "Hazrat Baba Ramzan Sha R. Dargha sharif, Republic of, Yogesh Rd, Ramnagar, Kinwat, Maharashtra 431804",
        "detailed_address": {
            "ward": "Ramnagar",
            "street": "Republic of, Yogesh Rd",
            "city": "Kinwat",
            "postal_code": "431804",
            "state": "Maharashtra",
            "country_code": "IN"
        },
        "images": [],
        "link": "https://www.google.com/maps/place/Hazrat+Baba+Ramzan+Sha+R.+Dargha+sharif/data=!4m7!3m6!1s0x3bd23c22491bbbc1:0xfbcdaec48bd103b9!8m2!3d19.6285045!4d78.1945596!16s%2Fg%2F11b6swz7fy!19sChIJwbsbSSI80jsRuQPRi8Suzfs?authuser=0&hl=en&rclk=1",
        "coordinates": {
            "latitude": 19.6285045,
            "longitude": 78.19455959999999
        }
    },
    {
        "name": "Masjid e Aqsa",
        "main_category": "Mosque",
        "address": "J5GX+WCX Masjid e Aqsa, Kinwat, Maharashtra 431804",
        "detailed_address": {
            "ward": null,
            "street": "J5GX+WCX",
            "city": "Kinwat",
            "postal_code": "431804",
            "state": "Maharashtra",
            "country_code": "IN"
        },
        "images": [
            {
                "about": "All",
                "link": "https://lh5.googleusercontent.com/p/AF1QipMOxdRIfzgIglkFCbdFBZcoy2P6m-RA3MP3MfD4=w400-h298-k-no"
            },
            {
                "about": "Videos",
                "link": "https://lh5.googleusercontent.com/p/AF1QipOSMRcfdDFYMPYPmcwVxqNTsb3FJJb_1cORuwO6=w529-h298-k-no"
            }
        ],
        "link": "https://www.google.com/maps/place/Masjid+e+Aqsa/data=!4m7!3m6!1s0x3bd23d77a9bcc8c5:0x70155caedc175fa3!8m2!3d19.6273577!4d78.1986022!16s%2Fg%2F11sn2h014x!19sChIJxci8qXc90jsRo18X3K5cFXA?authuser=0&hl=en&rclk=1",
        "coordinates": {
            "latitude": 19.627357699999997,
            "longitude": 78.1986022
        }
    },
    {
        "name": "masjid-e-Habibiya",
        "main_category": "Mosque",
        "address": "J654+XP3 masjid-e-Habibiya, Habib colony Gokunda, Kinwat, Maharashtra",
        "detailed_address": {
            "ward": "Petkule Nagar",
            "street": "J654+XP3, Habib colony Gokunda",
            "city": "Kinwat",
            "postal_code": null,
            "state": "Maharashtra",
            "country_code": "IN"
        },
        "images": [
            {
                "about": "All",
                "link": "https://lh5.googleusercontent.com/p/AF1QipNGYpykhuaQ_cFfb_GGFgBQjru1UgJiz5b8KiCS=w397-h298-k-no"
            }
        ],
        "link": "https://www.google.com/maps/place/masjid-e-Habibiya/data=!4m7!3m6!1s0x3bd23f7c1f73d34d:0x95874acc674b36e3!8m2!3d19.6098886!4d78.2068024!16s%2Fg%2F11gxrck48m!19sChIJTdNzH3w_0jsR4zZLZ8xKh5U?authuser=0&hl=en&rclk=1",
        "coordinates": {
            "latitude": 19.609888599999998,
            "longitude": 78.2068024
        }
    },
    {
        "name": "Jama Masjid",
        "main_category": "Mosque",
        "address": "Jama Masjid, Kinwat, Maharashtra 431804",
        "detailed_address": {
            "ward": null,
            "street": "Jama Masjid",
            "city": "Kinwat",
            "postal_code": null,
            "state": "Maharashtra",
            "country_code": "IN"
        },
        "images": [
            {
                "about": "All",
                "link": "https://lh5.googleusercontent.com/p/AF1QipOCwD611BhcLEBjVfpDwTnXaT9KbB62yZ6ihBQT=w224-h470-k-no"
            },
            {
                "about": "Videos",
                "link": "https://lh5.googleusercontent.com/p/AF1QipOCwD611BhcLEBjVfpDwTnXaT9KbB62yZ6ihBQT=w224-h470-k-no"
            }
        ],
        "link": "https://www.google.com/maps/place/Jama+Masjid/data=!4m7!3m6!1s0x3bd23d5f611c21ed:0xe3dfe1af4d39177!8m2!3d19.6248434!4d78.1976064!16s%2Fg%2F11s4fhcqqt!19sChIJ7SEcYV890jsRd5HT9Br-PQ4?authuser=0&hl=en&rclk=1",
        "coordinates": {
            "latitude": 19.6248434,
            "longitude": 78.1976064
        }
    },
    {
        "name": "UMAR MASJID",
        "main_category": "Mosque",
        "address": "J675+25M UMAR MASJID, Samta Nagar, Kinwat, Maharashtra 431811",
        "detailed_address": {
            "ward": "Samta Nagar",
            "street": "J675+25M",
            "city": "Kinwat",
            "postal_code": null,
            "state": "Maharashtra",
            "country_code": "IN"
        },
        "images": [
            {
                "about": "All",
                "link": "https://lh5.googleusercontent.com/p/AF1QipMTXykfqtDmDpNqxGEngbrpyQgcwnwcJXPGg9ZZ=w529-h298-k-no"
            }
        ],
        "link": "https://www.google.com/maps/place/UMAR+MASJID/data=!4m7!3m6!1s0x3bd23f2f2dc2177f:0x6bd3570156bc30f1!8m2!3d19.6125989!4d78.207931!16s%2Fg%2F11hz00l1r8!19sChIJfxfCLS8_0jsR8TC8VgFX02s?authuser=0&hl=en&rclk=1",
        "coordinates": {
            "latitude": 19.6125989,
            "longitude": 78.207931
        }
    },
    {
        "name": "Madina Masjid",
        "main_category": "Mosque",
        "address": "J692+FGX Madina Masjid, Sardar khan nagar, Kinwat, Maharashtra 431804",
        "detailed_address": {
            "ward": null,
            "street": "J692+FGX, Sardar khan nagar",
            "city": "Kinwat",
            "postal_code": null,
            "state": "Maharashtra",
            "country_code": "IN"
        },
        "images": [
            {
                "about": "All",
                "link": "https://lh5.googleusercontent.com/p/AF1QipMIhoBn40vFPOHz9yZ7LBeIImB-vib02RF9wWkZ=w268-h298-k-no"
            },
            {
                "about": "Dome",
                "link": "https://lh5.googleusercontent.com/p/AF1QipMIhoBn40vFPOHz9yZ7LBeIImB-vib02RF9wWkZ=w268-h298-k-no"
            }
        ],
        "link": "https://www.google.com/maps/place/Madina+Masjid/data=!4m7!3m6!1s0x3bd23d68eb5a6e97:0x4f2acf266fa6d1b0!8m2!3d19.618727!4d78.2013653!16s%2Fg%2F11fhv3xms7!19sChIJl25a62g90jsRsNGmbybPKk8?authuser=0&hl=en&rclk=1",
        "coordinates": {
            "latitude": 19.618727,
            "longitude": 78.20136529999999
        }
    },
    {
        "name": "Masjid-E- Banu",
        "main_category": "Mosque",
        "address": "J57X+MRP Masjid-E- Banu, Bhokar - Kinwat Rd, Kinwat, Maharashtra 431804",
        "detailed_address": {
            "ward": null,
            "street": "J57X+MRP, Bhokar - Kinwat Rd",
            "city": "Kinwat",
            "postal_code": "431804",
            "state": "Maharashtra",
            "country_code": "IN"
        },
        "images": [
            {
                "about": "All",
                "link": "https://streetviewpixels-pa.googleapis.com/v1/thumbnail?panoid=og5Rnet_ipjJExDQ-tIJQA&cb_client=maps_sv.tactile.gps&w=224&h=298&yaw=266.5734&pitch=0&thumbfov=100"
            },
            {
                "about": "Street View & 360deg",
                "link": "https://streetviewpixels-pa.googleapis.com/v1/thumbnail?panoid=og5Rnet_ipjJExDQ-tIJQA&cb_client=maps_sv.tactile.gps&w=224&h=298&yaw=266.5734&pitch=0&thumbfov=100"
            }
        ],
        "link": "https://www.google.com/maps/place/Masjid-E-+Banu/data=!4m7!3m6!1s0x3bd23d1591869ccd:0x7fab2da50ead4bf8!8m2!3d19.6142044!4d78.1995924!16s%2Fg%2F11h4kk7_bk!19sChIJzZyGkRU90jsR-EutDqUtq38?authuser=0&hl=en&rclk=1",
        "coordinates": {
            "latitude": 19.6142044,
            "longitude": 78.1995924
        }
    },
    {
        "name": "Masjid E Mecca",
        "main_category": "Mosque",
        "address": "J6F2+9X5 Masjid E Mecca, Sai Nagar, Shivajinagar, Kinwat, Maharashtra 431804",
        "detailed_address": {
            "ward": "Sai Nagar, Shivajinagar",
            "street": "J6F2+9X5",
            "city": "Kinwat",
            "postal_code": null,
            "state": "Maharashtra",
            "country_code": "IN"
        },
        "images": [],
        "link": "https://www.google.com/maps/place/Masjid+E+Mecca/data=!4m7!3m6!1s0x3bd23fd4c27941f1:0x712b295b0a699ddd!8m2!3d19.6233994!4d78.2024811!16s%2Fg%2F11g0tq2303!19sChIJ8UF5wtQ_0jsR3Z1pClspK3E?authuser=0&hl=en&rclk=1",
        "coordinates": {
            "latitude": 19.6233994,
            "longitude": 78.2024811
        }
    }
]