[
    {
        "name": "Valicode Juma Masjid",
        "main_category": "Mosque",
        "address": "HXXW+VG2 Valicode Juma Masjid, Nedumangad, Kerala 695541",
        "detailed_address": {
            "ward": null,
            "street": "HXXW+VG2",
            "city": "Nedumangad",
            "postal_code": "695541",
            "state": "Kerala",
            "country_code": "IN"
        },
        "images": [
            {
                "about": "All",
                "link": "https://lh5.googleusercontent.com/p/AF1QipNhkzr3_g7KPVKepSyt-dURPou48BcQev-sISBW=w397-h298-k-no"
            },
            {
                "about": "Videos",
                "link": "https://lh5.googleusercontent.com/p/AF1QipMTKvPzCjbBIyB84Q-5HqZ7rDbPjRXmRJKIKD7b=w224-h398-k-no"
            }
        ],
        "link": "https://www.google.com/maps/place/Valicode+Juma+Masjid/data=!4m7!3m6!1s0x3b05b810ff67dea3:0x2bfc50f7e551cc44!8m2!3d8.5996295!4d76.9962504!16s%2Fg%2F11g65gl6nc!19sChIJo95n_xC4BTsRRMxR5fdQ_Cs?authuser=0&hl=en&rclk=1",
        "coordinates": {
            "latitude": 8.599629499999999,
            "longitude": 76.9962504
        }
    },
    {
        "name": "Puthukulangara Juma Masjid.",
        "main_category": "Mosque",
        "address": "Puthukulangara Juma Masjid., State Highway 3, Nedumangad Hwy, opp. SBI, Nedumangad, Kerala 695541",
        "detailed_address": {
            "ward": null,
            "street": "State Highway 3, Nedumangad Hwy, opp. SBI",
            "city": "Nedumangad",
            "postal_code": "695541",
            "state": "Kerala",
            "country_code": "IN"
        },
        "images": [
            {
                "about": "All",
                "link": "https://lh5.googleusercontent.com/p/AF1QipOxBk0B1_3f6aj0f98A_q8VioefE34ZyY-v3H7O=w224-h298-k-no"
            },
            {
                "about": "Latest",
                "link": "https://streetviewpixels-pa.googleapis.com/v1/thumbnail?panoid=aESBAXCN2IczhrRWIjgFqw&cb_client=maps_sv.tactile.gps&w=224&h=298&yaw=226.60487&pitch=0&thumbfov=100"
            },
            {
                "about": "Street View & 360deg",
                "link": "https://lh5.googleusercontent.com/p/AF1QipNuYleK5Hw7xS55AeXEIXi4cDldsDPN9_JKRqT-=w224-h298-k-no-pi-20-ya336-ro0-fo100"
            }
        ],
        "link": "https://www.google.com/maps/place/Puthukulangara+Juma+Masjid./data=!4m7!3m6!1s0x3b05b7b873c813ff:0xcc70e62d8a2524b3!8m2!3d8.5927228!4d77.0431625!16s%2Fg%2F1pp2vbcs5!19sChIJ_xPIc7i3BTsRsyQlii3mcMw?authuser=0&hl=en&rclk=1",
        "coordinates": {
            "latitude": 8.592722799999999,
            "longitude": 77.0431625
        }
    },
    {
        "name": "Nedumangad Town Juma Masjid.",
        "main_category": "Mosque",
        "address": "J232+9MX Nedumangad Town Juma Masjid., SH3, Pazhavadi, Nedumangad, Kerala 695541",
        "detailed_address": {
            "ward": "Pazhavadi",
            "street": "J232+9MX, SH3",
            "city": "Nedumangad",
            "postal_code": "695541",
            "state": "Kerala",
            "country_code": "IN"
        },
        "images": [
            {
                "about": "All",
                "link": "https://lh5.googleusercontent.com/p/AF1QipOD8_O3Q0iiRy6GdVWQZFLR37wDBUqLmLxMAm-p=w397-h298-k-no"
            },
            {
                "about": "Street View & 360deg",
                "link": "https://streetviewpixels-pa.googleapis.com/v1/thumbnail?panoid=3c-2kxUt3v30OgWI7z8haw&cb_client=maps_sv.tactile.gps&w=224&h=298&yaw=53.300163&pitch=0&thumbfov=100"
            },
            {
                "about": "Videos",
                "link": "https://lh5.googleusercontent.com/p/AF1QipNzWrc9BepR4-7X8d7z8EviTtN0Mz-l4biT31Xo=w224-h398-k-no"
            }
        ],
        "link": "https://www.google.com/maps/place/Nedumangad+Town+Juma+Masjid./data=!4m7!3m6!1s0x3b05b805276658ad:0xd7cf59416d1f647e!8m2!3d8.6034911!4d77.001724!16s%2Fg%2F1tdyjn84!19sChIJrVhmJwW4BTsRfmQfbUFZz9c?authuser=0&hl=en&rclk=1",
        "coordinates": {
            "latitude": 8.6034911,
            "longitude": 77.001724
        }
    },
    {
        "name": "Pathamkallu Juma Masjid",
        "main_category": "Mosque",
        "address": "HXRW+6VV Pathamkallu Juma Masjid, Nedumangad, Kerala 695541",
        "detailed_address": {
            "ward": null,
            "street": "HXRW+6VV",
            "city": "Nedumangad",
            "postal_code": null,
            "state": "Kerala",
            "country_code": "IN"
        },
        "images": [
            {
                "about": "All",
                "link": "https://lh5.googleusercontent.com/p/AF1QipOe0sTEzbBCoAqjFInBZrvJppvjWEbN4uYL5K2P=w305-h298-k-no"
            },
            {
                "about": "Videos",
                "link": "https://lh5.googleusercontent.com/p/AF1QipOLL6piYZWabqbGsZASES-Nkv__YPmdr5o1YHF4=w224-h398-k-no"
            }
        ],
        "link": "https://www.google.com/maps/place/Pathamkallu+Juma+Masjid/data=!4m7!3m6!1s0x3b05b83d6bdbf6c9:0xb01d9fd3bee1929c!8m2!3d8.5906041!4d76.9971808!16s%2Fg%2F11gfm890yg!19sChIJyfbbaz24BTsRnJLhvtOfHbA?authuser=0&hl=en&rclk=1",
        "coordinates": {
            "latitude": 8.5906041,
            "longitude": 76.9971808
        }
    },
    {
        "name": "Masjid Koppam Valicode",
        "main_category": "Mosque",
        "address": "HXXV+67M Masjid Koppam Valicode, Kaipady Rd, Nedumangad, Kerala 695541",
        "detailed_address": {
            "ward": null,
            "street": "HXXV+67M, Kaipady Rd",
            "city": "Nedumangad",
            "postal_code": "695541",
            "state": "Kerala",
            "country_code": "IN"
        },
        "images": [
            {
                "about": "All",
                "link": "https://lh5.googleusercontent.com/p/AF1QipNUyZjSTSzdYyr6CxJm3M029zrv6qEc6aCBJUEB=w529-h298-k-no"
            },
            {
                "about": "Street View & 360deg",
                "link": "https://streetviewpixels-pa.googleapis.com/v1/thumbnail?panoid=UjgEq1QndYsnOegVpBJ9og&cb_client=maps_sv.tactile.gps&w=224&h=298&yaw=270.25247&pitch=0&thumbfov=100"
            }
        ],
        "link": "https://www.google.com/maps/place/Masjid+Koppam+Valicode/data=!4m7!3m6!1s0x3b05b8115ef1b7a9:0x305eb73b45a2cd60!8m2!3d8.5980918!4d76.9931776!16s%2Fg%2F11g9d1_4kg!19sChIJqbfxXhG4BTsRYM2iRTu3XjA?authuser=0&hl=en&rclk=1",
        "coordinates": {
            "latitude": 8.598091799999999,
            "longitude": 76.9931776
        }
    },
    {
        "name": "Muhyudeen Masjid",
        "main_category": "Mosque",
        "address": "JXCX+M87 Muhyudeen Masjid, SH45, Kollamkavu, Nedumangad, Kerala 695541",
        "detailed_address": {
            "ward": "Kollamkavu",
            "street": "JXCX+M87, SH45",
            "city": "Nedumangad",
            "postal_code": "695541",
            "state": "Kerala",
            "country_code": "IN"
        },
        "images": [
            {
                "about": "All",
                "link": "https://lh5.googleusercontent.com/p/AF1QipPCR2eHX4noIxLNMffHj0bGNeA9IU72dbrlXKvS=w397-h298-k-no"
            },
            {
                "about": "Street View & 360deg",
                "link": "https://streetviewpixels-pa.googleapis.com/v1/thumbnail?panoid=kLb-2S-WzcJTWVGoKgcm4A&cb_client=maps_sv.tactile.gps&w=224&h=298&yaw=248.72464&pitch=0&thumbfov=100"
            }
        ],
        "link": "https://www.google.com/maps/place/Muhyudeen+Masjid/data=!4m7!3m6!1s0x3b05c7f7df4fb3bf:0xb3caaebc55671e20!8m2!3d8.6216681!4d76.9982969!16s%2Fg%2F1vd93j30!19sChIJv7NP3_fHBTsRIB5nVbyuyrM?authuser=0&hl=en&rclk=1",
        "coordinates": {
            "latitude": 8.621668099999999,
            "longitude": 76.9982969
        }
    },
    {
        "name": "Kollamkavu Masjid",
        "main_category": "Mosque",
        "address": "J2F2+CMR Kollamkavu Masjid, Kollamkavu, Nedumangad, Kerala 695541",
        "detailed_address": {
            "ward": "Kollamkavu",
            "street": "J2F2+CMR",
            "city": "Nedumangad",
            "postal_code": "695541",
            "state": "Kerala",
            "country_code": "IN"
        },
        "images": [
            {
                "about": "All",
                "link": "https://lh5.googleusercontent.com/p/AF1QipN3ItdI81WX3dgsFxBv_nkXZqeMQbX1VrhRa-4D=w397-h298-k-no"
            },
            {
                "about": "Street View & 360deg",
                "link": "https://streetviewpixels-pa.googleapis.com/v1/thumbnail?panoid=84KFkb-wXKOAWb50pWc2jw&cb_client=maps_sv.tactile.gps&w=224&h=298&yaw=213.27324&pitch=0&thumbfov=100"
            }
        ],
        "link": "https://www.google.com/maps/place/Kollamkavu+Masjid/data=!4m7!3m6!1s0x3b05c7fad63da45f:0x48df9eb99c757514!8m2!3d8.6236144!4d77.001634!16s%2Fg%2F1trqfn0k!19sChIJX6Q91vrHBTsRFHV1nLme30g?authuser=0&hl=en&rclk=1",
        "coordinates": {
            "latitude": 8.6236144,
            "longitude": 77.001634
        }
    },
    {
        "name": "Pazhakutty Mosque",
        "main_category": "Mosque",
        "address": "JX7W+7RW Pazhakutty Mosque, SH45, Pazhakutty, Nedumangad, Kerala 695561",
        "detailed_address": {
            "ward": "Pazhakutty",
            "street": "JX7W+7RW, SH45",
            "city": "Nedumangad",
            "postal_code": "695561",
            "state": "Kerala",
            "country_code": "IN"
        },
        "images": [
            {
                "about": "All",
                "link": "https://lh5.googleusercontent.com/p/AF1QipP9xPfuLVMUcNqqz6Y1Qt4uA3X_J_HOpvlHyTST=w397-h298-k-no"
            },
            {
                "about": "Street View & 360deg",
                "link": "https://streetviewpixels-pa.googleapis.com/v1/thumbnail?panoid=Z_0oua3LwswgPBGppC4QMw&cb_client=maps_sv.tactile.gps&w=224&h=298&yaw=307.27844&pitch=0&thumbfov=100"
            }
        ],
        "link": "https://www.google.com/maps/place/Pazhakutty+Mosque/data=!4m7!3m6!1s0x3b05c7f7df4fb3bf:0x9f046fcbefaa9f9a!8m2!3d8.6132372!4d76.9970783!16s%2Fg%2F1tlbml54!19sChIJv7NP3_fHBTsRmp-q78tvBJ8?authuser=0&hl=en&rclk=1",
        "coordinates": {
            "latitude": 8.6132372,
            "longitude": 76.9970783
        }
    },
    {
        "name": "Kabaradi Makham Perumala, Nedumangad",
        "main_category": "Mosque",
        "address": "Kabaradi Makham Perumala, Nedumangad, Kabaradi valicode, Nedumangad, Kerala 695541",
        "detailed_address": {
            "ward": "Kabaradi valicode",
            "street": null,
            "city": "Nedumangad",
            "postal_code": "695541",
            "state": "Kerala",
            "country_code": "IN"
        },
        "images": [
            {
                "about": "All",
                "link": "https://lh5.googleusercontent.com/p/AF1QipOxlZeEMKZlg4qiJfQo50jsGs_h70K9lbr_DQ14=w529-h298-k-no"
            },
            {
                "about": "Videos",
                "link": "https://lh5.googleusercontent.com/p/AF1QipOxlZeEMKZlg4qiJfQo50jsGs_h70K9lbr_DQ14=w529-h298-k-no"
            }
        ],
        "link": "https://www.google.com/maps/place/Kabaradi+Makham+Perumala,+Nedumangad/data=!4m7!3m6!1s0x3b05b92f5944d9a7:0x20a16172cc412a43!8m2!3d8.5934584!4d77.0014797!16s%2Fg%2F11h57wghx8!19sChIJp9lEWS-5BTsRQypBzHJhoSA?authuser=0&hl=en&rclk=1",
        "coordinates": {
            "latitude": 8.5934584,
            "longitude": 77.00147969999999
        }
    },
    {
        "name": "Markaz Masjid",
        "main_category": "Mosque",
        "address": "JX3X+GQW Markaz Masjid, SH3, Pazhavadi, Nedumangad, Kerala 695541",
        "detailed_address": {
            "ward": "Pazhavadi",
            "street": "JX3X+GQW, SH3",
            "city": "Nedumangad",
            "postal_code": "695541",
            "state": "Kerala",
            "country_code": "IN"
        },
        "images": [
            {
                "about": "All",
                "link": "https://lh5.googleusercontent.com/p/AF1QipO_g8QXxMxneYdafhIBdhfUydi8u9seWP4KEbXy=w224-h398-k-no"
            },
            {
                "about": "Street View & 360deg",
                "link": "https://streetviewpixels-pa.googleapis.com/v1/thumbnail?panoid=Y0WvAVb-b-7Og8FBFt1TRQ&cb_client=maps_sv.tactile.gps&w=224&h=298&yaw=5.9230914&pitch=0&thumbfov=100"
            }
        ],
        "link": "https://www.google.com/maps/place/Markaz+Masjid/data=!4m7!3m6!1s0x3b05b805678fffff:0x68498f87df31a094!8m2!3d8.6038546!4d76.9994518!16s%2Fg%2F11txmzcj_j!19sChIJ__-PZwW4BTsRlKAx34ePSWg?authuser=0&hl=en&rclk=1",
        "coordinates": {
            "latitude": 8.6038546,
            "longitude": 76.9994518
        }
    },
    {
        "name": "Mulamukku Mosque",
        "main_category": "Mosque",
        "address": "HXQQ+8FQ Mulamukku Mosque, Mulamukku, Kaipady Rd, Nedumangad, 695028",
        "detailed_address": {
            "ward": null,
            "street": "HXQQ+8FQ, Mulamukku, Kaipady Rd",
            "city": "Nedumangad, Azhicode",
            "postal_code": "695028",
            "state": "Kerala",
            "country_code": "IN"
        },
        "images": [
            {
                "about": "All",
                "link": "https://streetviewpixels-pa.googleapis.com/v1/thumbnail?panoid=wECz5-DxuYGqNkIRN1XTJw&cb_client=maps_sv.tactile.gps&w=224&h=298&yaw=259.28278&pitch=0&thumbfov=100"
            },
            {
                "about": "Street View & 360deg",
                "link": "https://streetviewpixels-pa.googleapis.com/v1/thumbnail?panoid=wECz5-DxuYGqNkIRN1XTJw&cb_client=maps_sv.tactile.gps&w=224&h=298&yaw=259.28278&pitch=0&thumbfov=100"
            }
        ],
        "link": "https://www.google.com/maps/place/Mulamukku+Mosque/data=!4m7!3m6!1s0x3b05b9f4b0ab8585:0x99993198fe6805d1!8m2!3d8.5883342!4d76.9887482!16s%2Fg%2F11jjzsds5s!19sChIJhYWrsPS5BTsR0QVo_pgxmZk?authuser=0&hl=en&rclk=1",
        "coordinates": {
            "latitude": 8.5883342,
            "longitude": 76.9887482
        }
    },
    {
        "name": "NEDUMANGAD TOWN MUSLIM JAMA-ATH",
        "main_category": "Mosque",
        "address": "NEDUMANGAD TOWN MUSLIM JAMA-ATH, near PULINCHI CHOICE ARTS & SPORTS CLUB, Nedumangad, Kerala 695541",
        "detailed_address": {
            "ward": null,
            "street": "near PULINCHI CHOICE ARTS & SPORTS CLUB",
            "city": "Nedumangad",
            "postal_code": "695541",
            "state": "Kerala",
            "country_code": "IN"
        },
        "images": [],
        "link": "https://www.google.com/maps/place/NEDUMANGAD+TOWN+MUSLIM+JAMA-ATH/data=!4m7!3m6!1s0x3b05b95430f09f39:0x336f818769a3fcc4!8m2!3d8.595994!4d77.0037201!16s%2Fg%2F11n0zdy9v9!19sChIJOZ_wMFS5BTsRxPyjaYeBbzM?authuser=0&hl=en&rclk=1",
        "coordinates": {
            "latitude": 8.595994,
            "longitude": 77.0037201
        }
    },
    {
        "name": "PULINCHI MASJID",
        "main_category": "Mosque",
        "address": "J253+6V2 PULINCHI MASJID, near PULINCHI CHOICE, Pazhavadi, Nedumangad, Kerala 695541",
        "detailed_address": {
            "ward": "Pazhavadi",
            "street": "J253+6V2, near PULINCHI CHOICE",
            "city": "Nedumangad",
            "postal_code": "695541",
            "state": "Kerala",
            "country_code": "IN"
        },
        "images": [],
        "link": "https://www.google.com/maps/place/PULINCHI+MASJID/data=!4m7!3m6!1s0x3b05b99c0bba6f37:0x7220be02e48cd57b!8m2!3d8.6080226!4d77.004626!16s%2Fg%2F11l6thd5vw!19sChIJN2-6C5y5BTsRe9WM5AK-IHI?authuser=0&hl=en&rclk=1",
        "coordinates": {
            "latitude": 8.6080226,
            "longitude": 77.004626
        }
    }
]