[
    {
        "name": "masjid asra",
        "main_category": "Mosque",
        "address": "masjid asra, Area Workshop Mandamarri, Sripathi Nagar, Mandamarri Market, Mandamarri, Telangana 504231",
        "detailed_address": {
            "ward": "Sripathi Nagar, Mandamarri Market",
            "street": "Area Workshop Mandamarri",
            "city": "Mandamarri",
            "postal_code": "504231",
            "state": "Telangana",
            "country_code": "IN"
        },
        "images": [
            {
                "about": "All",
                "link": "https://lh5.googleusercontent.com/p/AF1QipOoG0shmrt74OKfV7QZfriaS5_QlMcr8IVnUTPP=w224-h398-k-no"
            },
            {
                "about": "Street View & 360deg",
                "link": "https://streetviewpixels-pa.googleapis.com/v1/thumbnail?panoid=ZSMdYHrK0q3S5ibRDU3ziQ&cb_client=maps_sv.tactile.gps&w=224&h=298&yaw=329.7253&pitch=0&thumbfov=100"
            }
        ],
        "link": "https://www.google.com/maps/place/masjid+asra/data=!4m7!3m6!1s0x3a32b6b2c1197fcd:0x2ff4d75af9263f7f!8m2!3d18.9813782!4d79.4833177!16s%2Fg%2F11f1wl9rtk!19sChIJzX8ZwbK2MjoRfz8m-VrX9C8?authuser=0&hl=en&rclk=1",
        "coordinates": {
            "latitude": 18.981378199999998,
            "longitude": 79.4833177
        }
    },
    {
        "name": "Masjid Cricket Ground (MCG)",
        "main_category": "Mosque",
        "address": "XFPC+4XX Masjid Cricket Ground (MCG), Mandamarri, Telangana 504231",
        "detailed_address": {
            "ward": null,
            "street": "XFPC+4XX",
            "city": "Mandamarri",
            "postal_code": "504231",
            "state": "Telangana",
            "country_code": "IN"
        },
        "images": [
            {
                "about": "All",
                "link": "https://lh5.googleusercontent.com/p/AF1QipNUCtLgnFYMctEgDyaz3XH08o_qptYrXZTfNSCd=w397-h298-k-no"
            },
            {
                "about": "Videos",
                "link": "https://lh5.googleusercontent.com/p/AF1QipOQM1OU6qUZgsjp5OheJt8t7_ieF0TOTFKD-tDt=w224-h398-k-no"
            }
        ],
        "link": "https://www.google.com/maps/place/Masjid+Cricket+Ground+%28MCG%29/data=!4m7!3m6!1s0x3a32b155ae99a1f7:0x3e7fdba6ca3f5258!8m2!3d18.9853697!4d79.4724889!16s%2Fg%2F124srq232!19sChIJ96GZrlWxMjoRWFI_yqbbfz4?authuser=0&hl=en&rclk=1",
        "coordinates": {
            "latitude": 18.9853697,
            "longitude": 79.4724889
        }
    },
    {
        "name": "Jama Masjid",
        "main_category": "Mosque",
        "address": "XFWC+PP5 Jama Masjid, Burdagudem, Mandamarri, Telangana 504231",
        "detailed_address": {
            "ward": "Burdagudem",
            "street": "XFWC+PP5",
            "city": "Mandamarri",
            "postal_code": null,
            "state": "Telangana",
            "country_code": "IN"
        },
        "images": [
            {
                "about": "All",
                "link": "https://lh5.googleusercontent.com/p/AF1QipNJsD5-oRHL6ociFoZkrwA92KdMo3jmoa-qmIs=w529-h298-k-no"
            },
            {
                "about": "Videos",
                "link": "https://lh5.googleusercontent.com/p/AF1QipPrj3dOvNdB7xGt5GfZrTU5rjydDxKegp1s7mA=w224-h398-k-no"
            }
        ],
        "link": "https://www.google.com/maps/place/Jama+Masjid/data=!4m7!3m6!1s0x3a32b14f6d4b3e0d:0xce6d5abd3ef0fa8!8m2!3d18.9967614!4d79.4718532!16s%2Fg%2F11h1snvp46!19sChIJDT5LbU-xMjoRqA_v06vV5gw?authuser=0&hl=en&rclk=1",
        "coordinates": {
            "latitude": 18.9967614,
            "longitude": 79.4718532
        }
    },
    {
        "name": "Madarsa Darul Uloom & Masjid",
        "main_category": "Mosque",
        "address": "XFJ6+4P Madarsa Darul Uloom & Masjid, Mandamarri, Telangana 504231",
        "detailed_address": {
            "ward": null,
            "street": "XFJ6+4P",
            "city": "Mandamarri",
            "postal_code": null,
            "state": "Telangana",
            "country_code": "IN"
        },
        "images": [
            {
                "about": "All",
                "link": "https://lh5.googleusercontent.com/p/AF1QipN1B8FKJ9B3-E28qkw7QZjeRVlU1rlEEvRl8zWL=w529-h298-k-no"
            },
            {
                "about": "Street View & 360deg",
                "link": "https://streetviewpixels-pa.googleapis.com/v1/thumbnail?panoid=cRVBuq_JUhrHyra9jLJcaw&cb_client=maps_sv.tactile.gps&w=224&h=298&yaw=285.6949&pitch=0&thumbfov=100"
            }
        ],
        "link": "https://www.google.com/maps/place/Madarsa+Darul+Uloom+%26+Masjid/data=!4m7!3m6!1s0x3a32b511d5c57d83:0x823e10e1c224ad84!8m2!3d18.9803731!4d79.461813!16s%2Fg%2F11s1ssg6pz!19sChIJg33F1RG1MjoRhK0kwuEQPoI?authuser=0&hl=en&rclk=1",
        "coordinates": {
            "latitude": 18.980373099999998,
            "longitude": 79.46181299999999
        }
    },
    {
        "name": "Masjid E Amera",
        "main_category": "Mosque",
        "address": "XFMM+59V Masjid E Amera, Mandamarri Market, Mandamarri, Telangana 504231",
        "detailed_address": {
            "ward": "Mandamarri Market",
            "street": "XFMM+59V",
            "city": "Mandamarri",
            "postal_code": "504231",
            "state": "Telangana",
            "country_code": "IN"
        },
        "images": [
            {
                "about": "All",
                "link": "https://streetviewpixels-pa.googleapis.com/v1/thumbnail?panoid=zQx1qSt-DU26WQyIeqV4Pw&cb_client=maps_sv.tactile.gps&w=224&h=298&yaw=121.45043&pitch=0&thumbfov=100"
            },
            {
                "about": "Street View & 360deg",
                "link": "https://streetviewpixels-pa.googleapis.com/v1/thumbnail?panoid=zQx1qSt-DU26WQyIeqV4Pw&cb_client=maps_sv.tactile.gps&w=224&h=298&yaw=121.45043&pitch=0&thumbfov=100"
            }
        ],
        "link": "https://www.google.com/maps/place/Masjid+E+Amera/data=!4m7!3m6!1s0x3a32b1d3d5e76493:0xb6c921baac7e3aee!8m2!3d18.982982!4d79.4834303!16s%2Fg%2F11fd7f9wgh!19sChIJk2Tn1dOxMjoR7jp-rLohybY?authuser=0&hl=en&rclk=1",
        "coordinates": {
            "latitude": 18.982982,
            "longitude": 79.4834303
        }
    },
    {
        "name": "Masjid",
        "main_category": "Mosque",
        "address": "XFGM+R8X Masjid, 2nd Zone, Mandamarri, Telangana 504251",
        "detailed_address": {
            "ward": "2nd Zone",
            "street": "XFGM+R8X",
            "city": "Mandamarri",
            "postal_code": "504251",
            "state": "Telangana",
            "country_code": "IN"
        },
        "images": [
            {
                "about": "All",
                "link": "https://streetviewpixels-pa.googleapis.com/v1/thumbnail?panoid=Y9I8XDdQyYdkbUHXWrcEnQ&cb_client=maps_sv.tactile.gps&w=224&h=298&yaw=329.41306&pitch=0&thumbfov=100"
            },
            {
                "about": "Street View & 360deg",
                "link": "https://streetviewpixels-pa.googleapis.com/v1/thumbnail?panoid=Y9I8XDdQyYdkbUHXWrcEnQ&cb_client=maps_sv.tactile.gps&w=224&h=298&yaw=329.41306&pitch=0&thumbfov=100"
            }
        ],
        "link": "https://www.google.com/maps/place/Masjid/data=!4m7!3m6!1s0x3a32b6b223feaaab:0x22a57634f474edc3!8m2!3d18.9771192!4d79.4833734!16s%2Fg%2F11sscsgn2t!19sChIJq6r-I7K2MjoRw-109DR2pSI?authuser=0&hl=en&rclk=1",
        "coordinates": {
            "latitude": 18.9771192,
            "longitude": 79.48337339999999
        }
    },
    {
        "name": "Qabarastan mandamarri",
        "main_category": "Mosque",
        "address": "XFPC+4XX Qabarastan mandamarri, Mandamarri, Telangana 504231",
        "detailed_address": {
            "ward": null,
            "street": "XFPC+4XX",
            "city": "Mandamarri",
            "postal_code": "504231",
            "state": "Telangana",
            "country_code": "IN"
        },
        "images": [],
        "link": "https://www.google.com/maps/place/Qabarastan+mandamarri/data=!4m7!3m6!1s0x3a32b1400bdebef9:0xf6087d82012c0d93!8m2!3d18.9853207!4d79.4723671!16s%2Fg%2F11t9pc4n35!19sChIJ-b7eC0CxMjoRkw0sAYJ9CPY?authuser=0&hl=en&rclk=1",
        "coordinates": {
            "latitude": 18.9853207,
            "longitude": 79.4723671
        }
    }
]