[
    {
        "name": "Mosque",
        "main_category": "Mosque",
        "address": "XJ52+V66 Mosque, Khichian, Punjab 144211",
        "detailed_address": {
            "ward": null,
            "street": "XJ52+V66",
            "city": "Khichian",
            "postal_code": "144211",
            "state": "Punjab",
            "country_code": "IN"
        },
        "images": [],
        "link": "https://www.google.com/maps/place/Mosque/data=!4m7!3m6!1s0x391b99408813229f:0xbe56b0b68ffbdef!8m2!3d31.9596747!4d75.600525!16s%2Fg%2F11hblmzclw!19sChIJnyITiECZGzkR773_aAtr5Qs?authuser=0&hl=en&rclk=1",
        "coordinates": {
            "latitude": 31.959674699999997,
            "longitude": 75.60052499999999
        }
    },
    {
        "name": "Jai Baba Miran Shah Ji",
        "main_category": "Mosque",
        "address": "XJQ6+RX7 Jai Baba Miran Shah Ji, Vill Mushibpur, Teh, Mukerian, Punjab 144211",
        "detailed_address": {
            "ward": null,
            "street": "XJQ6+RX7, Vill Mushibpur, Teh",
            "city": "Mukerian, Musahibpur",
            "postal_code": "144211",
            "state": "Punjab",
            "country_code": "IN"
        },
        "images": [
            {
                "about": "All",
                "link": "https://lh5.googleusercontent.com/p/AF1QipPv2mKF3huLyWVved5QpsRGcgDEzNOIk1olI-Kd=w224-h298-k-no"
            }
        ],
        "link": "https://www.google.com/maps/place/Jai+Baba+Miran+Shah+Ji/data=!4m7!3m6!1s0x391b9bf52ccc82f9:0xda7fbcd5ce60fd2e!8m2!3d31.989548!4d75.6124208!16s%2Fg%2F11gyxhkd5z!19sChIJ-YLMLPWbGzkRLv1gztW8f9o?authuser=0&hl=en&rclk=1",
        "coordinates": {
            "latitude": 31.989548,
            "longitude": 75.6124208
        }
    },
    {
        "name": "Jama Masjid Mukenyan",
        "main_category": "Mosque",
        "address": "WHXP+CRF Jama Masjid Mukenyan, Kalas, Punjab 144211",
        "detailed_address": {
            "ward": null,
            "street": "WHXP+CRF",
            "city": "Kalas",
            "postal_code": "144211",
            "state": "Punjab",
            "country_code": "IN"
        },
        "images": [
            {
                "about": "All",
                "link": "https://lh5.googleusercontent.com/p/AF1QipP8VEYtN5ES1X1aVgoQMa4UtL9Yvrm8_ushwFyg=w529-h298-k-no"
            }
        ],
        "link": "https://www.google.com/maps/place/Jama+Masjid+Mukenyan/data=!4m7!3m6!1s0x391b991036bbc4d3:0x4809901ce388f73b!8m2!3d31.9485557!4d75.5870467!16s%2Fg%2F11gcxzvsjs!19sChIJ08S7NhCZGzkRO_eI4xyQCUg?authuser=0&hl=en&rclk=1",
        "coordinates": {
            "latitude": 31.9485557,
            "longitude": 75.5870467
        }
    },
    {
        "name": "piir baabaa ruuhaanii khuaajaa kutbdiin srkaar jii",
        "main_category": "Mosque",
        "address": "XPFW+RG8 piir baabaa ruuhaanii khuaajaa kutbdiin srkaar jii, Mukerian - Talwara Rd, Hajipur, Punjab 144221",
        "detailed_address": {
            "ward": null,
            "street": "XPFW+RG8, Mukerian - Talwara Rd",
            "city": "Hajipur",
            "postal_code": "144221",
            "state": "Punjab",
            "country_code": "IN"
        },
        "images": [
            {
                "about": "All",
                "link": "https://lh5.googleusercontent.com/p/AF1QipOyk-A6OvK09cIY_Xir3McO7q8674hcalLbicnd=w397-h298-k-no"
            }
        ],
        "link": "https://www.google.com/maps/place/%E0%A8%AA%E0%A9%80%E0%A8%B0+%E0%A8%AC%E0%A8%BE%E0%A8%AC%E0%A8%BE+%E0%A8%B0%E0%A9%82%E0%A8%B9%E0%A8%BE%E0%A8%A8%E0%A9%80+%E0%A8%96%E0%A9%81%E0%A8%86%E0%A8%9C%E0%A8%BE+%E0%A8%95%E0%A9%81%E0%A8%A4%E0%A8%AC%E0%A8%A6%E0%A9%80%E0%A8%A8+%E0%A8%B8%E0%A8%B0%E0%A8%95%E0%A8%BE%E0%A8%B0+%E0%A8%9C%E0%A9%80/data=!4m7!3m6!1s0x391b75a856db3465:0xc55da0349da0ccd!8m2!3d31.9745365!4d75.7463224!16s%2Fg%2F11mtfrf13n!19sChIJZTTbVqh1GzkRzQzaSQPaVQw?authuser=0&hl=en&rclk=1",
        "coordinates": {
            "latitude": 31.9745365,
            "longitude": 75.7463224
        }
    }
]