[
    {
        "name": "Madina Masjid",
        "main_category": "Mosque",
        "address": "RM6M+428 Madina Masjid, No.3 Dhulapadung T.E., Assam 784505",
        "detailed_address": {
            "ward": null,
            "street": "RM6M+428",
            "city": "No.3 Dhulapadung T.E.",
            "postal_code": "784505",
            "state": "Assam",
            "country_code": "IN"
        },
        "images": [
            {
                "about": "All",
                "link": "https://lh5.googleusercontent.com/p/AF1QipNieI9F9Q7jpKzidlGkVXjUBJKisBbVrU8dyWLg=w529-h298-k-no"
            }
        ],
        "link": "https://www.google.com/maps/place/Madina+Masjid/data=!4m7!3m6!1s0x3744b900e2542863:0x6898d4cb43e86103!8m2!3d26.810123!4d92.681881!16s%2Fg%2F11rss4vlsf!19sChIJYyhU4gC5RDcRA2HoQ8vUmGg?authuser=0&hl=en&rclk=1",
        "coordinates": {
            "latitude": 26.810122999999997,
            "longitude": 92.68188099999999
        }
    },
    {
        "name": "Moti Masjid",
        "main_category": "Mosque",
        "address": "RM8H+R85 Moti Masjid, Samsanghat Road, Rangapara, No.1 Thakurbari T.E., Assam 784505",
        "detailed_address": {
            "ward": null,
            "street": "RM8H+R85, Samsanghat Road",
            "city": "Rangapara, No.1 Thakurbari T.E.",
            "postal_code": "784505",
            "state": "Assam",
            "country_code": "IN"
        },
        "images": [
            {
                "about": "All",
                "link": "https://lh5.googleusercontent.com/p/AF1QipOtA7VIxnsDiT3AmtEXzFZoZok6DseZeqOMqSjX=w224-h298-k-no"
            }
        ],
        "link": "https://www.google.com/maps/place/Moti+Masjid/data=!4m7!3m6!1s0x3744b95702c0f7f7:0x5af3f80409ed950a!8m2!3d26.8170182!4d92.6783582!16s%2Fg%2F11gy2hwsph!19sChIJ9_fAAle5RDcRCpXtCQT481o?authuser=0&hl=en&rclk=1",
        "coordinates": {
            "latitude": 26.8170182,
            "longitude": 92.67835819999999
        }
    },
    {
        "name": "Rangapara Town Mosque",
        "main_category": "Mosque",
        "address": "RMCM+8QP Rangapara Town Mosque, No.1 Thakurbari T.E., Assam 784505",
        "detailed_address": {
            "ward": null,
            "street": "RMCM+8QP",
            "city": "No.1 Thakurbari T.E.",
            "postal_code": null,
            "state": "Assam",
            "country_code": "IN"
        },
        "images": [
            {
                "about": "All",
                "link": "https://lh5.googleusercontent.com/p/AF1QipMVEW3yHKb5OuRWck3CnjAHJwRefnv0_Fr5b2EU=w224-h299-k-no"
            }
        ],
        "link": "https://www.google.com/maps/place/Rangapara+Town+Mosque/data=!4m7!3m6!1s0x3744b9272344d5ed:0xa64c285d198d8bfd!8m2!3d26.8208418!4d92.6844493!16s%2Fg%2F11f3wml378!19sChIJ7dVEIye5RDcR_YuNGV0oTKY?authuser=0&hl=en&rclk=1",
        "coordinates": {
            "latitude": 26.8208418,
            "longitude": 92.6844493
        }
    },
    {
        "name": "NOORI MASJID",
        "main_category": "Association or organization",
        "address": "QPR2+9CX NOORI MASJID, No.2 Dhulapadung T.E., Assam 784505",
        "detailed_address": {
            "ward": null,
            "street": "QPR2+9CX",
            "city": "No.2 Dhulapadung T.E.",
            "postal_code": "784505",
            "state": "Assam",
            "country_code": "IN"
        },
        "images": [
            {
                "about": "All",
                "link": "https://lh5.googleusercontent.com/p/AF1QipPk5rLxW67q3Gkoz61H9gbOSGyl3FxKghPrPGWt=w397-h298-k-no"
            }
        ],
        "link": "https://www.google.com/maps/place/NOORI+MASJID/data=!4m7!3m6!1s0x3744bf4530143f7d:0x3956213eb4bb2aa5!8m2!3d26.7909859!4d92.7010998!16s%2Fg%2F11f5prtt92!19sChIJfT8UMEW_RDcRpSq7tD4hVjk?authuser=0&hl=en&rclk=1",
        "coordinates": {
            "latitude": 26.7909859,
            "longitude": 92.7010998
        }
    }
]