[
    {
        "name": "Hidayatul Islam Masjid And Madrasa",
        "main_category": "Mosque",
        "address": "6XV5+8C4 Hidayatul Islam Masjid And Madrasa, Karamadai, Tamil Nadu 641104",
        "detailed_address": {
            "ward": null,
            "street": "6XV5+8C4",
            "city": "Karamadai",
            "postal_code": "641104",
            "state": "Tamil Nadu",
            "country_code": "IN"
        },
        "images": [
            {
                "about": "All",
                "link": "https://streetviewpixels-pa.googleapis.com/v1/thumbnail?panoid=Bis42vR-pTCgfTq8k5GfwQ&cb_client=maps_sv.tactile.gps&w=224&h=298&yaw=17.424124&pitch=0&thumbfov=100"
            },
            {
                "about": "Street View & 360deg",
                "link": "https://streetviewpixels-pa.googleapis.com/v1/thumbnail?panoid=Bis42vR-pTCgfTq8k5GfwQ&cb_client=maps_sv.tactile.gps&w=224&h=298&yaw=17.424124&pitch=0&thumbfov=100"
            }
        ],
        "link": "https://www.google.com/maps/place/Hidayatul+Islam+Masjid+And+Madrasa/data=!4m7!3m6!1s0x3ba8ee2c2a0d0db9:0x34a73c6c14d35750!8m2!3d11.2432597!4d76.9585833!16s%2Fg%2F11c328tts_!19sChIJuQ0NKizuqDsRUFfTFGw8pzQ?authuser=0&hl=en&rclk=1",
        "coordinates": {
            "latitude": 11.2432597,
            "longitude": 76.9585833
        }
    },
    {
        "name": "Masjidul Ayisha",
        "main_category": "Mosque",
        "address": "6XV5+JJ2 Masjidul Ayisha, Karamadai, Tamil Nadu 641104",
        "detailed_address": {
            "ward": null,
            "street": "6XV5+JJ2",
            "city": "Karamadai",
            "postal_code": "641104",
            "state": "Tamil Nadu",
            "country_code": "IN"
        },
        "images": [
            {
                "about": "All",
                "link": "https://lh5.googleusercontent.com/p/AF1QipNkS0vXYIk8mIMmh5hZ9Y91FHbfgpwWUESg9grj=w224-h298-k-no"
            }
        ],
        "link": "https://www.google.com/maps/place/Masjidul+Ayisha/data=!4m7!3m6!1s0x3ba8ee2dd117087b:0x343d4f4de89dc83a!8m2!3d11.244016!4d76.9590069!16s%2Fg%2F11d_7xyd3y!19sChIJewgX0S3uqDsROsid6E1PPTQ?authuser=0&hl=en&rclk=1",
        "coordinates": {
            "latitude": 11.244016,
            "longitude": 76.95900689999999
        }
    },
    {
        "name": "TNTJ Mosque",
        "main_category": "Mosque",
        "address": "6XW5+47J TNTJ Mosque, Nagapattinam - Coimbatore - Gundlupet Hwy, Karamadai, Tamil Nadu 641104",
        "detailed_address": {
            "ward": null,
            "street": "6XW5+47J, Nagapattinam - Coimbatore - Gundlupet Hwy",
            "city": "Karamadai",
            "postal_code": "641104",
            "state": "Tamil Nadu",
            "country_code": "IN"
        },
        "images": [],
        "link": "https://www.google.com/maps/place/TNTJ+Mosque/data=!4m7!3m6!1s0x3ba8efc7289afa37:0xff8a41d13cdab930!8m2!3d11.2453386!4d76.9581526!16s%2Fg%2F11p3hnrp32!19sChIJN_qaKMfvqDsRMLnaPNFBiv8?authuser=0&hl=en&rclk=1",
        "coordinates": {
            "latitude": 11.2453386,
            "longitude": 76.95815259999999
        }
    }
]