[
    {
        "name": "Jamia Masjid",
        "main_category": "Mosque",
        "address": "H9G4+PXP Jamia Masjid, Mosque St, Maharanipeta, Bobbili, Andhra Pradesh 535558",
        "detailed_address": {
            "ward": "Maharanipeta",
            "street": "H9G4+PXP, Mosque St",
            "city": "Bobbili",
            "postal_code": "535558",
            "state": "Andhra Pradesh",
            "country_code": "IN"
        },
        "images": [
            {
                "about": "All",
                "link": "https://lh5.googleusercontent.com/p/AF1QipP0XL6P5xTLkdNTZGuwtLwsjX0GfrmDbmtfACTi=w397-h298-k-no"
            }
        ],
        "link": "https://www.google.com/maps/place/Jamia+Masjid/data=!4m7!3m6!1s0x3a3b9beb4c909649:0xf7932ea289cc5388!8m2!3d18.5768476!4d83.3574571!16s%2Fg%2F119txd5b6!19sChIJSZaQTOubOzoRiFPMiaIuk_c?authuser=0&hl=en&rclk=1",
        "coordinates": {
            "latitude": 18.5768476,
            "longitude": 83.35745709999999
        }
    },
    {
        "name": "Masjid Abubakar, Seetanagaram",
        "main_category": "Mosque",
        "address": "M9FF+J6P Masjid Abubakar, Seetanagaram, Bobbili-Parvathipuram Rd, Appipeta, Buddipeta, Andhra Pradesh 535546",
        "detailed_address": {
            "ward": "Appipeta",
            "street": "M9FF+J6P, Bobbili-Parvathipuram Rd",
            "city": "Buddipeta",
            "postal_code": "535546",
            "state": "Andhra Pradesh",
            "country_code": "IN"
        },
        "images": [
            {
                "about": "All",
                "link": "https://lh5.googleusercontent.com/p/AF1QipP9M-muVOfC9hrb_On2TeQuZSdI7RUD5fQ7xaQg=w397-h298-k-no"
            },
            {
                "about": "Street View & 360deg",
                "link": "https://streetviewpixels-pa.googleapis.com/v1/thumbnail?panoid=HZNItro-VI7bbm0fxscFww&cb_client=maps_sv.tactile.gps&w=224&h=298&yaw=52.304573&pitch=0&thumbfov=100"
            }
        ],
        "link": "https://www.google.com/maps/place/Masjid+Abubakar,+Seetanagaram/data=!4m7!3m6!1s0x3a3b9d9bf190bc37:0x7b9a3f4df0eaba7a!8m2!3d18.6740925!4d83.3730634!16s%2Fg%2F11c5gc03cq!19sChIJN7yQ8ZudOzoRerrq8E0_mns?authuser=0&hl=en&rclk=1",
        "coordinates": {
            "latitude": 18.6740925,
            "longitude": 83.37306339999999
        }
    },
    {
        "name": "Jama Masjid Bobbili",
        "main_category": "Mosque",
        "address": "H9F5+VJG Jama Masjid Bobbili, Maharanipeta, Bobbili, Andhra Pradesh 535558",
        "detailed_address": {
            "ward": "Maharanipeta",
            "street": "H9F5+VJG",
            "city": "Bobbili",
            "postal_code": "535558",
            "state": "Andhra Pradesh",
            "country_code": "IN"
        },
        "images": [],
        "link": "https://www.google.com/maps/place/Jama+Masjid+Bobbili/data=!4m7!3m6!1s0x3a3b9b951f3a7ab7:0x67387637805ac384!8m2!3d18.5746854!4d83.3590794!16s%2Fg%2F11c1xj4kg7!19sChIJt3o6H5WbOzoRhMNagDd2OGc?authuser=0&hl=en&rclk=1",
        "coordinates": {
            "latitude": 18.5746854,
            "longitude": 83.3590794
        }
    },
    {
        "name": "Jamia masjid",
        "main_category": "Mosque",
        "address": "CMX3+XWR Jamia masjid, Mentipeta, Bobbili, Razam, Andhra Pradesh 532127",
        "detailed_address": {
            "ward": "Mentipeta",
            "street": "CMX3+XWR",
            "city": "Bobbili, Razam",
            "postal_code": null,
            "state": "Andhra Pradesh",
            "country_code": "IN"
        },
        "images": [
            {
                "about": "All",
                "link": "https://streetviewpixels-pa.googleapis.com/v1/thumbnail?panoid=bb_T6MjYhY7_KyADEKp2Ow&cb_client=maps_sv.tactile.gps&w=224&h=298&yaw=182.55997&pitch=0&thumbfov=100"
            },
            {
                "about": "Street View & 360deg",
                "link": "https://streetviewpixels-pa.googleapis.com/v1/thumbnail?panoid=bb_T6MjYhY7_KyADEKp2Ow&cb_client=maps_sv.tactile.gps&w=224&h=298&yaw=182.55997&pitch=0&thumbfov=100"
            }
        ],
        "link": "https://www.google.com/maps/place/Jamia+masjid/data=!4m7!3m6!1s0x3a3c77d593c1323f:0xbc54fea44a878501!8m2!3d18.4499932!4d83.6547557!16s%2Fg%2F11sbw5_55b!19sChIJPzLBk9V3PDoRAYWHSqT-VLw?authuser=0&hl=en&rclk=1",
        "coordinates": {
            "latitude": 18.449993199999998,
            "longitude": 83.6547557
        }
    }
]