[
    {
        "name": "Mau Aima Eid Gah",
        "main_category": "Mosque",
        "address": "Mau Aima Eid Gah, Rasoolpur, Azampur, Mau Aima, Uttar Pradesh 212507",
        "detailed_address": {
            "ward": "Rasoolpur, Azampur",
            "street": null,
            "city": "Mau Aima",
            "postal_code": "212507",
            "state": "Uttar Pradesh",
            "country_code": "IN"
        },
        "images": [
            {
                "about": "All",
                "link": "https://lh5.googleusercontent.com/p/AF1QipMUWfiOPLUQImTjtovaB_teJXm0oo2CU4Qgm6ca=w646-h298-k-no"
            },
            {
                "about": "Videos",
                "link": "https://lh5.googleusercontent.com/p/AF1QipMuE5UTIWf30f7UhiJl5NLYHblBfLhtsSfF58A=w529-h298-k-no"
            }
        ],
        "link": "https://www.google.com/maps/place/Mau+Aima+Eid+Gah/data=!4m7!3m6!1s0x399ab91be1cf51f9:0xf0440650354922c3!8m2!3d25.6929463!4d81.9166622!16s%2Fg%2F11cs6csm70!19sChIJ-VHP4Ru5mjkRwyJJNVAGRPA?authuser=0&hl=en&rclk=1",
        "coordinates": {
            "latitude": 25.6929463,
            "longitude": 81.91666219999999
        }
    },
    {
        "name": "Meda Bibi Masjid",
        "main_category": "Mosque",
        "address": "MWVC+P69 Meda Bibi Masjid, Rasoolpur, Mau Aima, Uttar Pradesh 212507",
        "detailed_address": {
            "ward": "Rasoolpur",
            "street": "MWVC+P69",
            "city": "Mau Aima",
            "postal_code": "212507",
            "state": "Uttar Pradesh",
            "country_code": "IN"
        },
        "images": [],
        "link": "https://www.google.com/maps/place/Meda+Bibi+Masjid/data=!4m7!3m6!1s0x399ab919e392b00b:0x490f4b58479f0bcc!8m2!3d25.6942865!4d81.9206118!16s%2Fg%2F11c2pqpzhk!19sChIJC7CS4xm5mjkRzAufR1hLD0k?authuser=0&hl=en&rclk=1",
        "coordinates": {
            "latitude": 25.6942865,
            "longitude": 81.9206118
        }
    },
    {
        "name": "Jamia Masjid Batha msjd",
        "main_category": "Mosque",
        "address": "MWWM+2JC Jamia Masjid Batha msjd, Kathwer Perwaizpur, Batha, Mau Aima, Uttar Pradesh 212507",
        "detailed_address": {
            "ward": "Kathwer Perwaizpur, Batha",
            "street": "MWWM+2JC",
            "city": "Mau Aima",
            "postal_code": "212507",
            "state": "Uttar Pradesh",
            "country_code": "IN"
        },
        "images": [
            {
                "about": "All",
                "link": "https://lh5.googleusercontent.com/p/AF1QipN7E1U3K2hzVL-jr54ZOWj0y_ro7MDVq8Kz1sHW=w224-h398-k-no"
            },
            {
                "about": "Dome",
                "link": "https://lh5.googleusercontent.com/p/AF1QipO6wNF8OXEUyLllU4wQU8hnYJO5OcvjW2-7_a-9=w529-h298-k-no"
            }
        ],
        "link": "https://www.google.com/maps/place/Jamia+Masjid+Batha+%D9%85%D8%B3%D8%AC%D8%AF%E2%80%AD/data=!4m7!3m6!1s0x399ab9451511fce1:0xc124575854b3977d!8m2!3d25.6950605!4d81.9340158!16s%2Fg%2F11g0hylnks!19sChIJ4fwRFUW5mjkRfZezVFhXJME?authuser=0&hl=en&rclk=1",
        "coordinates": {
            "latitude": 25.6950605,
            "longitude": 81.9340158
        }
    },
    {
        "name": "Gaoshiya Masjid",
        "main_category": "Mosque",
        "address": "MXF7+CC7 Gaoshiya Masjid, Chaq Faijulla Urf Bhauka, Mau Aima, Uttar Pradesh 212507",
        "detailed_address": {
            "ward": null,
            "street": "MXF7+CC7, Chaq Faijulla Urf Bhauka",
            "city": "Mau Aima, Chaq Afzal Urf Poorelila",
            "postal_code": "212507",
            "state": "Uttar Pradesh",
            "country_code": "IN"
        },
        "images": [
            {
                "about": "All",
                "link": "https://lh5.googleusercontent.com/p/AF1QipM59a-f9D8FXgmCU_SjT3PBr6kGj9A1pewFQnDZ=w224-h298-k-no"
            },
            {
                "about": "Videos",
                "link": "https://lh5.googleusercontent.com/p/AF1QipPQ19bHTd_LLf73tHg5BlkeI-L9tfYQ9tMr2COT=w224-h398-k-no"
            }
        ],
        "link": "https://www.google.com/maps/place/Gaoshiya+Masjid/data=!4m7!3m6!1s0x399abba20926e2f3:0x60a02e01b07f9179!8m2!3d25.6735336!4d81.9635356!16s%2Fg%2F11g1f2zzlq!19sChIJ8-ImCaK7mjkReZF_sAEuoGA?authuser=0&hl=en&rclk=1",
        "coordinates": {
            "latitude": 25.6735336,
            "longitude": 81.9635356
        }
    },
    {
        "name": "Masjid Vishambharpur",
        "main_category": "Mosque",
        "address": "MWJQ+XVM Masjid Vishambharpur, Chaq Fatima Urf Madhopur, Uttar Pradesh 212507",
        "detailed_address": {
            "ward": null,
            "street": "MWJQ+XVM",
            "city": "Chaq Fatima Urf Madhopur",
            "postal_code": "212507",
            "state": "Uttar Pradesh",
            "country_code": "IN"
        },
        "images": [
            {
                "about": "All",
                "link": "https://lh5.googleusercontent.com/p/AF1QipNp_77HepnZ4aPAgfMf-HWUP1hOQkI0toIeETCq=w397-h298-k-no"
            },
            {
                "about": "Videos",
                "link": "https://lh5.googleusercontent.com/p/AF1QipPPeehVoEL0t0TRpKXpMdRmM9tGx_IfTQ_nM0s=w529-h298-k-no"
            }
        ],
        "link": "https://www.google.com/maps/place/Masjid+Vishambharpur/data=!4m7!3m6!1s0x399ab9ad46723c65:0x20302dff4ca8a45c!8m2!3d25.6824744!4d81.9396602!16s%2Fg%2F11hdjzsrk2!19sChIJZTxyRq25mjkRXKSoTP8tMCA?authuser=0&hl=en&rclk=1",
        "coordinates": {
            "latitude": 25.6824744,
            "longitude": 81.93966019999999
        }
    },
    {
        "name": "Takiya Masjid",
        "main_category": "Mosque",
        "address": "MWXG+QHP Takiya Masjid, Chack Baher, Mau Aima, Uttar Pradesh 212507",
        "detailed_address": {
            "ward": "Chack Baher",
            "street": "MWXG+QHP",
            "city": "Mau Aima",
            "postal_code": "212507",
            "state": "Uttar Pradesh",
            "country_code": "IN"
        },
        "images": [
            {
                "about": "All",
                "link": "https://lh5.googleusercontent.com/p/AF1QipOyk1-Ymbx-k2r3zRQ5r58YdoMS4inxgO9ifBpd=w330-h298-k-no"
            }
        ],
        "link": "https://www.google.com/maps/place/Takiya+Masjid/data=!4m7!3m6!1s0x399ab93e01d61fb9:0xda54c224d1ffed76!8m2!3d25.6994671!4d81.9264615!16s%2Fg%2F11c5gghqq8!19sChIJuR_WAT65mjkRdu3_0STCVNo?authuser=0&hl=en&rclk=1",
        "coordinates": {
            "latitude": 25.6994671,
            "longitude": 81.9264615
        }
    },
    {
        "name": "Imam Ahmad Raza Masjid Matiyari",
        "main_category": "Mosque",
        "address": "Imam Ahmad Raza Masjid Matiyari, Maniumarpur Road, Cheete Mau, Katra Dayaram, Uttar Pradesh 212507",
        "detailed_address": {
            "ward": null,
            "street": "Maniumarpur Road",
            "city": "Cheete Mau, Katra Dayaram",
            "postal_code": "212507",
            "state": "Uttar Pradesh",
            "country_code": "IN"
        },
        "images": [
            {
                "about": "All",
                "link": "https://lh5.googleusercontent.com/p/AF1QipPDP7ouERlOu_fo1zBH2kGQFCkOEZBvOnHcKbiq=w529-h298-k-no"
            }
        ],
        "link": "https://www.google.com/maps/place/Imam+Ahmad+Raza+Masjid+Matiyari/data=!4m7!3m6!1s0x399ab914408c8c6f:0xec27ffbe1781dc8e!8m2!3d25.6900268!4d81.8900386!16s%2Fg%2F11gnp9crbq!19sChIJb4yMQBS5mjkRjtyBF77_J-w?authuser=0&hl=en&rclk=1",
        "coordinates": {
            "latitude": 25.6900268,
            "longitude": 81.8900386
        }
    },
    {
        "name": "Gulzar E Madina (Chhoti Masjid)",
        "main_category": "Mosque",
        "address": "PW52+G8R Gulzar E Madina (Chhoti Masjid), Ramnager Gansiari, Uttar Pradesh 212507",
        "detailed_address": {
            "ward": null,
            "street": "PW52+G8R",
            "city": "Ramnager Gansiari",
            "postal_code": "212507",
            "state": "Uttar Pradesh",
            "country_code": "IN"
        },
        "images": [
            {
                "about": "All",
                "link": "https://lh5.googleusercontent.com/p/AF1QipNEOTLOdPczzsujWRS7df-miH6YZgxU-yvRf9mk=w224-h398-k-no"
            },
            {
                "about": "Dome",
                "link": "https://lh5.googleusercontent.com/p/AF1QipNEOTLOdPczzsujWRS7df-miH6YZgxU-yvRf9mk=w224-h398-k-no"
            },
            {
                "about": "Street View & 360deg",
                "link": "https://streetviewpixels-pa.googleapis.com/v1/thumbnail?panoid=QTgI2oRF5xGTqR4xVBmBuQ&cb_client=maps_sv.tactile.gps&w=224&h=298&yaw=87.67377&pitch=0&thumbfov=100"
            }
        ],
        "link": "https://www.google.com/maps/place/Gulzar+E+Madina+%28Chhoti+Masjid%29/data=!4m7!3m6!1s0x399ab9de6f814f8d:0xa71b573ee37030e8!8m2!3d25.7088667!4d81.9007534!16s%2Fg%2F11h41hw9d4!19sChIJjU-Bb965mjkR6DBw4z5XG6c?authuser=0&hl=en&rclk=1",
        "coordinates": {
            "latitude": 25.708866699999998,
            "longitude": 81.9007534
        }
    },
    {
        "name": "Masjid rounke Madina",
        "main_category": "Mosque",
        "address": "PWPG+8MF Masjid rounke Madina, Ram Nagar gansiyari mau aima, Gadh Champa, Uttar Pradesh",
        "detailed_address": {
            "ward": null,
            "street": "PWPG+8MF, Ram Nagar gansiyari mau aima",
            "city": "Gadh Champa",
            "postal_code": null,
            "state": "Uttar Pradesh",
            "country_code": "IN"
        },
        "images": [
            {
                "about": "All",
                "link": "https://lh5.googleusercontent.com/p/AF1QipO3o_0gKHfpffvI3OdAyUknncCsPKZLo2mz1hRh=w529-h298-k-no"
            }
        ],
        "link": "https://www.google.com/maps/place/Masjid+rounke+Madina/data=!4m7!3m6!1s0x399abfa01f1f6973:0x528f12344a558ebe!8m2!3d25.7358017!4d81.9266592!16s%2Fg%2F11h6dljlb7!19sChIJc2kfH6C_mjkRvo5VSjQSj1I?authuser=0&hl=en&rclk=1",
        "coordinates": {
            "latitude": 25.7358017,
            "longitude": 81.9266592
        }
    },
    {
        "name": "Mahemau Masjid",
        "main_category": "Mosque",
        "address": "CMXQ+XPC Mahemau Masjid, Mahe Mau, Uttar Pradesh 227816",
        "detailed_address": {
            "ward": null,
            "street": "CMXQ+XPC",
            "city": "Mahe Mau",
            "postal_code": "227816",
            "state": "Uttar Pradesh",
            "country_code": "IN"
        },
        "images": [
            {
                "about": "All",
                "link": "https://lh5.googleusercontent.com/p/AF1QipOlNtTN3lHLDnWQIhwCrwHjtBKufntZKgdfEUMI=w298-h298-k-no"
            },
            {
                "about": "Dome",
                "link": "https://lh5.googleusercontent.com/p/AF1QipO9s8IkJMJ2LfJC5QbW3vHTQKaEMAeNiI-oWeqk=w224-h298-k-no"
            },
            {
                "about": "Videos",
                "link": "https://lh5.googleusercontent.com/p/AF1QipPAgN96_dbIN0CCLZUMHI4thGxqnwZ-5i4Dj-gd=w224-h398-k-no"
            }
        ],
        "link": "https://www.google.com/maps/place/Mahemau+Masjid/data=!4m7!3m6!1s0x399a4f159dc53cbd:0x8d4145f2137fca69!8m2!3d26.4499385!4d81.6892538!16s%2Fg%2F11h5nlqjwg!19sChIJvTzFnRVPmjkRacp_E_JFQY0?authuser=0&hl=en&rclk=1",
        "coordinates": {
            "latitude": 26.4499385,
            "longitude": 81.6892538
        }
    },
    {
        "name": "Khanaow Baba Masjid",
        "main_category": "Mosque",
        "address": "MWX9+9RP Khanaow Baba Masjid, Sarai Atan Urf Naugira, pura miyanji, Mau Aima, Uttar Pradesh 212507",
        "detailed_address": {
            "ward": "Sarai Atan Urf Naugira, pura miyanji",
            "street": "MWX9+9RP",
            "city": "Mau Aima",
            "postal_code": "212507",
            "state": "Uttar Pradesh",
            "country_code": "IN"
        },
        "images": [
            {
                "about": "All",
                "link": "https://lh5.googleusercontent.com/p/AF1QipN4scJVNrt-Dax8xo67RIDhMQ-MMXBGTqK6rKic=w529-h298-k-no"
            },
            {
                "about": "Dome",
                "link": "https://lh5.googleusercontent.com/p/AF1QipO9gYan6zSyz0GUczFISz_c5AniUFuG0XXMOEVt=w397-h298-k-no"
            },
            {
                "about": "Videos",
                "link": "https://lh5.googleusercontent.com/p/AF1QipM7w97ca7OjRqt-JNfFk7PoQmk9swBsP3XClz_h=w529-h298-k-no"
            }
        ],
        "link": "https://www.google.com/maps/place/Khanaow+Baba+Masjid/data=!4m7!3m6!1s0x399ab9180d8d2db7:0x9662d647d87b4484!8m2!3d25.6984575!4d81.9195887!16s%2Fg%2F11c1_w0gzq!19sChIJty2NDRi5mjkRhER72EfWYpY?authuser=0&hl=en&rclk=1",
        "coordinates": {
            "latitude": 25.6984575,
            "longitude": 81.91958869999999
        }
    },
    {
        "name": "Nurani Masjid",
        "main_category": "Mosque",
        "address": "Nurani Masjid, Basdaiya, Uttar Pradesh 212507",
        "detailed_address": {
            "ward": null,
            "street": null,
            "city": "Basdaiya",
            "postal_code": "212507",
            "state": "Uttar Pradesh",
            "country_code": "IN"
        },
        "images": [
            {
                "about": "All",
                "link": "https://lh5.googleusercontent.com/p/AF1QipNZwPnOW8IRSXxK9U-6u9Xx9OGe2QnB0lzHtGQU=w662-h298-k-no"
            }
        ],
        "link": "https://www.google.com/maps/place/Nurani+Masjid/data=!4m7!3m6!1s0x399ab92ea42e21dd:0xae8d3b092ebb3031!8m2!3d25.7160933!4d81.916164!16s%2Fg%2F11gd66ysvb!19sChIJ3SEupC65mjkRMTC7Lgk7ja4?authuser=0&hl=en&rclk=1",
        "coordinates": {
            "latitude": 25.716093299999997,
            "longitude": 81.916164
        }
    },
    {
        "name": "Naugira ka masjid",
        "main_category": "Mosque",
        "address": "MWXW+VQW Naugira ka masjid, Unnamed Road, Anedhi, Uttar Pradesh 212507",
        "detailed_address": {
            "ward": null,
            "street": "MWXW+VQW, Unnamed Road",
            "city": "Anedhi",
            "postal_code": "212507",
            "state": "Uttar Pradesh",
            "country_code": "IN"
        },
        "images": [
            {
                "about": "All",
                "link": "https://lh5.googleusercontent.com/p/AF1QipPFkdDlt1syiuFGuVMpNvQrqGJ0Z-Wg0AQKtj_U=w224-h398-k-no"
            }
        ],
        "link": "https://www.google.com/maps/place/Naugira+ka+masjid/data=!4m7!3m6!1s0x399ab95082d9e90b:0x6d200a8a1ab2c969!8m2!3d25.6997291!4d81.946959!16s%2Fg%2F11kn051whv!19sChIJC-nZglC5mjkRacmyGooKIG0?authuser=0&hl=en&rclk=1",
        "coordinates": {
            "latitude": 25.6997291,
            "longitude": 81.94695899999999
        }
    },
    {
        "name": "Abu Haleem Patti Hafiz Sath Masjid",
        "main_category": "Cafe",
        "address": "MWWF+3FW Abu Haleem Patti Hafiz Sath Masjid, Kathwer Perwaizpur, Mau Aima, Uttar Pradesh 212507",
        "detailed_address": {
            "ward": "Kathwer Perwaizpur",
            "street": "MWWF+3FW",
            "city": "Mau Aima",
            "postal_code": "212507",
            "state": "Uttar Pradesh",
            "country_code": "IN"
        },
        "images": [],
        "link": "https://www.google.com/maps/place/Abu+Haleem+Patti+Hafiz+Sath+Masjid/data=!4m7!3m6!1s0x399ab9bd764414e5:0x7196e4d850c0ee48!8m2!3d25.695243!4d81.9236953!16s%2Fg%2F11j6332z23!19sChIJ5RREdr25mjkRSO7AUNjklnE?authuser=0&hl=en&rclk=1",
        "coordinates": {
            "latitude": 25.695242999999998,
            "longitude": 81.92369529999999
        }
    },
    {
        "name": "Noorani Masjid",
        "main_category": "Mosque",
        "address": "Noorani Masjid, Bagi, Mau Aima, Uttar Pradesh 212507",
        "detailed_address": {
            "ward": null,
            "street": "Bagi",
            "city": "Mau Aima, Chaq Sheyam Urf Poore Hinchha",
            "postal_code": "212507",
            "state": "Uttar Pradesh",
            "country_code": "IN"
        },
        "images": [
            {
                "about": "All",
                "link": "https://lh5.googleusercontent.com/p/AF1QipMtDI-jl_90bBsuwb-zI1lhiu1QZ2iwDEqpTHfR=w224-h298-k-no"
            },
            {
                "about": "By owner",
                "link": "https://lh5.googleusercontent.com/p/AF1QipPPwBeXawHn3UAm0SyvA-WtdWPZujgQgq-aJbR7=w529-h298-k-no"
            }
        ],
        "link": "https://www.google.com/maps/place/Noorani+Masjid/data=!4m7!3m6!1s0x399ab9ae0bc4e903:0xf4772796dbf3c0bc!8m2!3d25.6647303!4d81.9155116!16s%2Fg%2F11g88bpbx0!19sChIJA-nEC665mjkRvMDz25Ynd_Q?authuser=0&hl=en&rclk=1",
        "coordinates": {
            "latitude": 25.6647303,
            "longitude": 81.9155116
        }
    },
    {
        "name": "Badi Masjid",
        "main_category": "Mosque",
        "address": "PV9F+5JF Badi Masjid, jalal pur,, Banka Jalalpur, Mau Aima, Uttar Pradesh 212507",
        "detailed_address": {
            "ward": "Banka Jalalpur",
            "street": "PV9F+5JF, jalal pur,",
            "city": "Mau Aima, Kulhipur",
            "postal_code": "212507",
            "state": "Uttar Pradesh",
            "country_code": "IN"
        },
        "images": [
            {
                "about": "All",
                "link": "https://lh5.googleusercontent.com/p/AF1QipMHRq2qAhPem3jWtqLI_KNp4-o5Z5deZjaejrEG=w529-h298-k-no"
            },
            {
                "about": "Latest",
                "link": "https://lh5.googleusercontent.com/p/AF1QipPjeRBGhSsP1CxLg7_L3CwIhhLQYSYrfRPrv-K8=w529-h298-k-no"
            },
            {
                "about": "Videos",
                "link": "https://lh5.googleusercontent.com/p/AF1QipPjeRBGhSsP1CxLg7_L3CwIhhLQYSYrfRPrv-K8=w529-h298-k-no"
            },
            {
                "about": "Street View & 360deg",
                "link": "https://streetviewpixels-pa.googleapis.com/v1/thumbnail?panoid=d6vacZR0Q72oqji5gxrHKg&cb_client=maps_sv.tactile.gps&w=224&h=298&yaw=280.65845&pitch=0&thumbfov=100"
            }
        ],
        "link": "https://www.google.com/maps/place/Badi+Masjid/data=!4m7!3m6!1s0x399ab8ace369c0ed:0xe636758a32cec7e3!8m2!3d25.7179308!4d81.874053!16s%2Fg%2F11c60jfrnf!19sChIJ7cBp46y4mjkR48fOMop1NuY?authuser=0&hl=en&rclk=1",
        "coordinates": {
            "latitude": 25.717930799999998,
            "longitude": 81.87405299999999
        }
    },
    {
        "name": "Pilkhuwan Mosque",
        "main_category": "Mosque",
        "address": "Pilkhuwan Mosque, Unnamed Road Kanchan pur to baagi road, near railway line..Pilkhuwa, Mau Aima, Uttar Pradesh 212507",
        "detailed_address": {
            "ward": null,
            "street": "Unnamed Road Kanchan pur to baagi road, near railway line..Pilkhuwa",
            "city": "Mau Aima",
            "postal_code": "212507",
            "state": "Uttar Pradesh",
            "country_code": "IN"
        },
        "images": [
            {
                "about": "All",
                "link": "https://lh5.googleusercontent.com/p/AF1QipN29_-tyOyIDrWOqR26k0P0rRaH_X9CpDT676VD=w224-h398-k-no"
            },
            {
                "about": "Dome",
                "link": "https://lh5.googleusercontent.com/p/AF1QipOpQSfMFkFTtG2faxHObN7VLjVselgkhv6UqZos=w224-h298-k-no"
            },
            {
                "about": "Videos",
                "link": "https://lh5.googleusercontent.com/p/AF1QipPzISnsfO127lApMThGDUPvQpflKitByJm4ticP=w224-h398-k-no"
            },
            {
                "about": "By owner",
                "link": "https://lh5.googleusercontent.com/p/AF1QipPr1z77YG51xXe8vZJVD9T56VbxNLXp8yUkFAJb=w224-h298-k-no"
            }
        ],
        "link": "https://www.google.com/maps/place/Pilkhuwan+Mosque/data=!4m7!3m6!1s0x399ab979eee1d381:0x6ba043962540b945!8m2!3d25.6766256!4d81.9074326!16s%2Fg%2F11j7j3vm7y!19sChIJgdPh7nm5mjkRRblAJZZDoGs?authuser=0&hl=en&rclk=1",
        "coordinates": {
            "latitude": 25.676625599999998,
            "longitude": 81.90743259999999
        }
    },
    {
        "name": "Gausiya jama masjid Mani Umar pur",
        "main_category": "Mosque",
        "address": "MVPJ+HQX Gausiya jama masjid Mani Umar pur, Mani Ummarpur, Mohammadpur Sarai Ali, Uttar Pradesh 212507",
        "detailed_address": {
            "ward": null,
            "street": "MVPJ+HQX",
            "city": "Mani Ummarpur, Mohammadpur Sarai Ali",
            "postal_code": "212507",
            "state": "Uttar Pradesh",
            "country_code": "IN"
        },
        "images": [
            {
                "about": "All",
                "link": "https://lh5.googleusercontent.com/p/AF1QipNzh-JbtJZymFS7QQniOBoVDsASx50-ZsvWx--z=w529-h298-k-no"
            },
            {
                "about": "Dome",
                "link": "https://lh5.googleusercontent.com/p/AF1QipPRkQ1fFp8d8KiCE4pNtUP9ewoKLf7xt-we1oI1=w285-h298-k-no"
            },
            {
                "about": "Videos",
                "link": "https://lh5.googleusercontent.com/p/AF1QipNWPH-CLi6mWMT4hQO2XbxQmcnsE-fYtP4OevL-=w224-h397-k-no"
            }
        ],
        "link": "https://www.google.com/maps/place/Gausiya+jama+masjid+Mani+Umar+pur/data=!4m7!3m6!1s0x399ab96c8b1f30b3:0x4787a988b77dcce8!8m2!3d25.6865688!4d81.8820027!16s%2Fg%2F11pysdqs73!19sChIJszAfi2y5mjkR6Mx9t4iph0c?authuser=0&hl=en&rclk=1",
        "coordinates": {
            "latitude": 25.6865688,
            "longitude": 81.8820027
        }
    },
    {
        "name": "Badi Masjid (bdd'ii msjid) Markha Mau",
        "main_category": "Mosque",
        "address": "PV5X+CQR Badi Masjid (bdd'ii msjid) Markha Mau, Markha Mau, Mau Aima, Uttar Pradesh",
        "detailed_address": {
            "ward": null,
            "street": "PV5X+CQR, Markha Mau",
            "city": "Mau Aima",
            "postal_code": null,
            "state": "Uttar Pradesh",
            "country_code": "IN"
        },
        "images": [
            {
                "about": "All",
                "link": "https://lh5.googleusercontent.com/p/AF1QipMRQr-CgP09Zm-wI9lJydGt2QdAR3UIh85d1vy7=w224-h298-k-no"
            }
        ],
        "link": "https://www.google.com/maps/place/Badi+Masjid+%28%E0%A4%AC%E0%A4%A1%E0%A4%BC%E0%A5%80+%E0%A4%AE%E0%A4%B8%E0%A5%8D%E0%A4%9C%E0%A4%BF%E0%A4%A6%29+Markha+Mau/data=!4m7!3m6!1s0x399ab96975fcdf7f:0x1e84df90d8821627!8m2!3d25.7086099!4d81.8994012!16s%2Fg%2F11j4fkztcn!19sChIJf9_8dWm5mjkRJxaC2JDfhB4?authuser=0&hl=en&rclk=1",
        "coordinates": {
            "latitude": 25.7086099,
            "longitude": 81.8994012
        }
    },
    {
        "name": "Madina Masjid-Mustafabaad mdiinaa msjid-mustphaabaad",
        "main_category": "Mosque",
        "address": "MWQC+M55 Madina Masjid-Mustafabaad mdiinaa msjid-mustphaabaad, Rasoolpur, Mau Aima, Uttar Pradesh 212507",
        "detailed_address": {
            "ward": "Rasoolpur",
            "street": "MWQC+M55",
            "city": "Mau Aima",
            "postal_code": "212507",
            "state": "Uttar Pradesh",
            "country_code": "IN"
        },
        "images": [],
        "link": "https://www.google.com/maps/place/Madina+Masjid-Mustafabaad+%E0%A4%AE%E0%A4%A6%E0%A5%80%E0%A4%A8%E0%A4%BE+%E0%A4%AE%E0%A4%B8%E0%A5%8D%E0%A4%9C%E0%A4%BF%E0%A4%A6-%E0%A4%AE%E0%A5%81%E0%A4%B8%E0%A5%8D%E0%A4%A4%E0%A4%AB%E0%A4%BE%E0%A4%AC%E0%A4%BE%E0%A4%A6/data=!4m7!3m6!1s0x399ab9aaa66ad1f7:0x59a0a28e3ddc1f5a!8m2!3d25.6891442!4d81.9204804!16s%2Fg%2F11v0ghvgxn!19sChIJ99Fqpqq5mjkRWh_cPY6ioFk?authuser=0&hl=en&rclk=1",
        "coordinates": {
            "latitude": 25.689144199999998,
            "longitude": 81.9204804
        }
    },
    {
        "name": "Jaama masjid imam ahmad raza r.a sarai khwaja",
        "main_category": "Mosque",
        "address": "MXM5+R2Q Jaama masjid imam ahmad raza r.a sarai khwaja, sarai khwaja, Mau Aima, 212507",
        "detailed_address": {
            "ward": null,
            "street": "MXM5+R2Q, sarai khwaja",
            "city": "Mau Aima, Chaq Fatima Urf Madhopur",
            "postal_code": "212507",
            "state": "Uttar Pradesh",
            "country_code": "IN"
        },
        "images": [
            {
                "about": "All",
                "link": "https://lh5.googleusercontent.com/p/AF1QipNnzviXGOnPlPY9OGRBWAAfbCOjUYMCc-B9xmQx=w224-h298-k-no"
            },
            {
                "about": "Dome",
                "link": "https://lh5.googleusercontent.com/p/AF1QipP8glsITd_k8N_Tpllo280nWoRrOnKaNEjPsTcS=w224-h398-k-no"
            },
            {
                "about": "Videos",
                "link": "https://lh5.googleusercontent.com/p/AF1QipPKiVA753qx1G7NzzXtvaBgx5txYMHeyPsXLlz8=w224-h407-k-no"
            }
        ],
        "link": "https://www.google.com/maps/place/Jaama+masjid+imam+ahmad+raza+r.a+sarai+khwaja/data=!4m7!3m6!1s0x399abb99f1b2fcf3:0x43f9613b84d46682!8m2!3d25.684596!4d81.957614!16s%2Fg%2F11hkdhf15k!19sChIJ8_yy8Zm7mjkRgmbUhDth-UM?authuser=0&hl=en&rclk=1",
        "coordinates": {
            "latitude": 25.684596,
            "longitude": 81.95761399999999
        }
    },
    {
        "name": "Jama Masjid Aamena",
        "main_category": "Mosque",
        "address": "Jama Masjid Aamena, Doman Pura Sajru, Rai Ka Pura, Mau, Uttar Pradesh 275101",
        "detailed_address": {
            "ward": "Rai Ka Pura",
            "street": "Doman Pura Sajru",
            "city": "Mau",
            "postal_code": "275101",
            "state": "Uttar Pradesh",
            "country_code": "IN"
        },
        "images": [
            {
                "about": "All",
                "link": "https://lh5.googleusercontent.com/p/AF1QipN3JDQ40YwZQ8FJ9HX7_AtG4s4W9vQt2vc_v46_=w529-h298-k-no"
            },
            {
                "about": "By owner",
                "link": "https://lh5.googleusercontent.com/p/AF1QipN3JDQ40YwZQ8FJ9HX7_AtG4s4W9vQt2vc_v46_=w529-h298-k-no"
            },
            {
                "about": "Videos",
                "link": "https://lh5.googleusercontent.com/p/AF1QipOn9SKtsgN7Ogo9rOvI_U4DWamiCTSGegyvQz1v=w224-h398-k-no"
            },
            {
                "about": "Street View & 360deg",
                "link": "https://streetviewpixels-pa.googleapis.com/v1/thumbnail?panoid=ZmJiUO03XD_pgb8dLBDpQg&cb_client=maps_sv.tactile.gps&w=224&h=298&yaw=243.61682&pitch=0&thumbfov=100"
            }
        ],
        "link": "https://www.google.com/maps/place/Jama+Masjid+Aamena/data=!4m7!3m6!1s0x39918b0294bb81c1:0x315a2dca5946c330!8m2!3d25.9641994!4d83.5439878!16s%2Fg%2F11g0ldss04!19sChIJwYG7lAKLkTkRMMNGWcotWjE?authuser=0&hl=en&rclk=1",
        "coordinates": {
            "latitude": 25.9641994,
            "longitude": 83.5439878
        }
    },
    {
        "name": "Pakka Talaab Masjid",
        "main_category": "Mosque",
        "address": "MWP9+WR4 Pakka Talaab Masjid, Gadiyani, Uttar Pradesh 212507",
        "detailed_address": {
            "ward": null,
            "street": "MWP9+WR4",
            "city": "Gadiyani",
            "postal_code": "212507",
            "state": "Uttar Pradesh",
            "country_code": "IN"
        },
        "images": [
            {
                "about": "All",
                "link": "https://lh5.googleusercontent.com/p/AF1QipMsTiSs5mVD3VOOk4we35jVHBwLMcHFb6EzfzkW=w529-h298-k-no"
            }
        ],
        "link": "https://www.google.com/maps/place/Pakka+Talaab+Masjid/data=!4m7!3m6!1s0x399ab931db674b07:0x17c36766e81532b7!8m2!3d25.6872619!4d81.9195915!16s%2Fg%2F11j5b1slhv!19sChIJB0tn2zG5mjkRtzIV6GZnwxc?authuser=0&hl=en&rclk=1",
        "coordinates": {
            "latitude": 25.6872619,
            "longitude": 81.9195915
        }
    },
    {
        "name": "Mauaima Markaz Masjid",
        "main_category": "Mosque",
        "address": "MWWC+PG8 Mauaima Markaz Masjid, Sarai Atan Urf Naugira, Mau Aima, Uttar Pradesh 212507",
        "detailed_address": {
            "ward": "Sarai Atan Urf Naugira",
            "street": "MWWC+PG8",
            "city": "Mau Aima",
            "postal_code": "212507",
            "state": "Uttar Pradesh",
            "country_code": "IN"
        },
        "images": [],
        "link": "https://www.google.com/maps/place/Mauaima+Markaz+Masjid/data=!4m7!3m6!1s0x399ab9c874ce4833:0x3d431bdbb231bed!8m2!3d25.6967847!4d81.9213427!16s%2Fg%2F11t_pqslmb!19sChIJM0jOdMi5mjkR7Rsju70x1AM?authuser=0&hl=en&rclk=1",
        "coordinates": {
            "latitude": 25.6967847,
            "longitude": 81.9213427
        }
    },
    {
        "name": "RAHMANI MASJID - rh'maanii msjid",
        "main_category": "Mosque",
        "address": "MWVC+296 RAHMANI MASJID - rh'maanii msjid, Rasoolpur, Mau Aima, Uttar Pradesh 212507",
        "detailed_address": {
            "ward": "Rasoolpur",
            "street": "MWVC+296",
            "city": "Mau Aima",
            "postal_code": "212507",
            "state": "Uttar Pradesh",
            "country_code": "IN"
        },
        "images": [
            {
                "about": "All",
                "link": "https://lh5.googleusercontent.com/p/AF1QipO6XhQMVRpfUy-v1KencezrLCvp5XqZAoD1tV9s=w397-h298-k-no"
            }
        ],
        "link": "https://www.google.com/maps/place/RAHMANI+MASJID+-+%E0%A4%B0%E0%A4%B9%E0%A4%BC%E0%A4%AE%E0%A4%BE%E0%A4%A8%E0%A5%80+%E0%A4%AE%E0%A4%B8%E0%A5%8D%E0%A4%9C%E0%A4%BF%E0%A4%A6/data=!4m7!3m6!1s0x399ab91e5e937a8f:0x7437b7f4be56b919!8m2!3d25.6925336!4d81.9208995!16s%2Fg%2F11st7p_w8r!19sChIJj3qTXh65mjkRGblWvvS3N3Q?authuser=0&hl=en&rclk=1",
        "coordinates": {
            "latitude": 25.692533599999997,
            "longitude": 81.92089949999999
        }
    },
    {
        "name": "Nimhara Masjid",
        "main_category": "Mosque",
        "address": "MWV8+XW5 Nimhara Masjid, Sarai Atan Urf Naugira, Mau Aima, Uttar Pradesh 212507",
        "detailed_address": {
            "ward": "Sarai Atan Urf Naugira",
            "street": "MWV8+XW5",
            "city": "Mau Aima",
            "postal_code": null,
            "state": "Uttar Pradesh",
            "country_code": "IN"
        },
        "images": [],
        "link": "https://www.google.com/maps/place/Nimhara+Masjid/data=!4m7!3m6!1s0x399ab95a215d37cb:0xe91ce97c1fe90c0a!8m2!3d25.6948874!4d81.9173576!16s%2Fg%2F11tnj2z8sc!19sChIJyzddIVq5mjkRCgzpH3zpHOk?authuser=0&hl=en&rclk=1",
        "coordinates": {
            "latitude": 25.6948874,
            "longitude": 81.9173576
        }
    },
    {
        "name": "Nurani Masjid",
        "main_category": "Mosque",
        "address": "MWXC+53H Nurani Masjid, Gadaipur MauAiam, Basdaiya, Uttar Pradesh 212507",
        "detailed_address": {
            "ward": "Sarai Atan Urf Naugira",
            "street": "MWXC+53H, Gadaipur MauAiam",
            "city": "Basdaiya, Mau Aima",
            "postal_code": "212507",
            "state": "Uttar Pradesh",
            "country_code": "IN"
        },
        "images": [],
        "link": "https://www.google.com/maps/place/Nurani+Masjid/data=!4m7!3m6!1s0x399ab9c39ef666a9:0xea9678ad9e716999!8m2!3d25.6979423!4d81.9202463!16s%2Fg%2F11n82bcss3!19sChIJqWb2nsO5mjkRmWlxnq14luo?authuser=0&hl=en&rclk=1",
        "coordinates": {
            "latitude": 25.697942299999998,
            "longitude": 81.9202463
        }
    },
    {
        "name": "Chudiyar Masjid - cudd'iyaar msjid",
        "main_category": "Mosque",
        "address": "MWVC+WWX Chudiyar Masjid - cudd'iyaar msjid, Kathwer Perwaizpur, Mau Aima, Uttar Pradesh 212507",
        "detailed_address": {
            "ward": "Kathwer Perwaizpur",
            "street": "MWVC+WWX",
            "city": "Mau Aima",
            "postal_code": "212507",
            "state": "Uttar Pradesh",
            "country_code": "IN"
        },
        "images": [
            {
                "about": "All",
                "link": "https://lh5.googleusercontent.com/p/AF1QipMUTGhiZ5laj7exw83dfyX06DfYPJqJagCYX819=w224-h398-k-no"
            },
            {
                "about": "Videos",
                "link": "https://lh5.googleusercontent.com/p/AF1QipMUTGhiZ5laj7exw83dfyX06DfYPJqJagCYX819=w224-h398-k-no"
            }
        ],
        "link": "https://www.google.com/maps/place/Chudiyar+Masjid+-+%E0%A4%9A%E0%A5%81%E0%A4%A1%E0%A4%BC%E0%A4%BF%E0%A4%AF%E0%A4%BE%E0%A4%B0+%E0%A4%AE%E0%A4%B8%E0%A5%8D%E0%A4%9C%E0%A4%BF%E0%A4%A6/data=!4m7!3m6!1s0x399ab9e0d3dcccd7:0xce61d8b13dcbaaac!8m2!3d25.6948717!4d81.9223639!16s%2Fg%2F11t_jgb35f!19sChIJ18zc0-C5mjkRrKrLPbHYYc4?authuser=0&hl=en&rclk=1",
        "coordinates": {
            "latitude": 25.6948717,
            "longitude": 81.9223639
        }
    },
    {
        "name": "Noorani Masjid",
        "main_category": "Mosque",
        "address": "MWVC+W3J Noorani Masjid, sadar bazar, Mau Aima, Uttar Pradesh",
        "detailed_address": {
            "ward": "Rasoolpur",
            "street": "MWVC+W3J, sadar bazar",
            "city": "Mau Aima",
            "postal_code": null,
            "state": "Uttar Pradesh",
            "country_code": "IN"
        },
        "images": [],
        "link": "https://www.google.com/maps/place/Noorani+Masjid/data=!4m7!3m6!1s0x399ab919c31be42f:0xdbf91fac2a936b57!8m2!3d25.6948446!4d81.9201493!16s%2Fg%2F11gflwzh42!19sChIJL-Qbwxm5mjkRV2uTKqwf-ds?authuser=0&hl=en&rclk=1",
        "coordinates": {
            "latitude": 25.6948446,
            "longitude": 81.92014929999999
        }
    },
    {
        "name": "Inspector Saeduddin(Dungar Miyan)Masjid inspekttr siid uddiin(ddNgr miyaaN) msjid",
        "main_category": "Mosque",
        "address": "MWVC+FH2 Inspector Saeduddin(Dungar Miyan)Masjid inspekttr siid uddiin(ddNgr miyaaN) msjid, Rasoolpur, Mau Aima, Uttar Pradesh 212507",
        "detailed_address": {
            "ward": "Rasoolpur",
            "street": "MWVC+FH2",
            "city": "Mau Aima",
            "postal_code": "212507",
            "state": "Uttar Pradesh",
            "country_code": "IN"
        },
        "images": [
            {
                "about": "All",
                "link": "https://lh5.googleusercontent.com/p/AF1QipMFfQntwcpIt8-ITABly849vGumpueJkyz-uEsO=w397-h298-k-no"
            }
        ],
        "link": "https://www.google.com/maps/place/Inspector+Saeduddin%28Dungar+Miyan%29Masjid+%E0%A4%87%E0%A4%A8%E0%A5%8D%E0%A4%B8%E0%A5%8D%E0%A4%AA%E0%A5%87%E0%A4%95%E0%A5%8D%E0%A4%9F%E0%A4%B0+%E0%A4%B8%E0%A4%88%E0%A4%A6+%E0%A4%89%E0%A4%A6%E0%A5%8D%E0%A4%A6%E0%A5%80%E0%A4%A8%28%E0%A4%A1%E0%A4%82%E0%A4%97%E0%A4%B0+%E0%A4%AE%E0%A4%BF%E0%A4%AF%E0%A4%BE%E0%A4%82%29+%E0%A4%AE%E0%A4%B8%E0%A5%8D%E0%A4%9C%E0%A4%BF%E0%A4%A6/data=!4m7!3m6!1s0x399ab98f064ae135:0xafbccedb5df08c87!8m2!3d25.6936403!4d81.9213806!16s%2Fg%2F11kjztcqvd!19sChIJNeFKBo-5mjkRh4zwXdvOvK8?authuser=0&hl=en&rclk=1",
        "coordinates": {
            "latitude": 25.6936403,
            "longitude": 81.92138059999999
        }
    },
    {
        "name": "masjid maula ALI ra (kapuri tara) sarai khwaja",
        "main_category": "Mosque",
        "address": "MXM2+PVW masjid maula ALI ra (kapuri tara) sarai khwaja, Chaq Fatima Urf Madhopur, Uttar Pradesh 212507",
        "detailed_address": {
            "ward": null,
            "street": "MXM2+PVW",
            "city": "Chaq Fatima Urf Madhopur",
            "postal_code": "212507",
            "state": "Uttar Pradesh",
            "country_code": "IN"
        },
        "images": [
            {
                "about": "All",
                "link": "https://lh5.googleusercontent.com/p/AF1QipOQVll3Cz8ssrCXJHX-yFsAfnmZoB3uhvPkIuye=w397-h298-k-no"
            }
        ],
        "link": "https://www.google.com/maps/place/masjid+maula+ALI+ra+%28kapuri+tara%29+sarai+khwaja/data=!4m7!3m6!1s0x399ab93f8dd1290f:0x11ac175b2de67dd2!8m2!3d25.6843547!4d81.9521981!16s%2Fg%2F11kxsn6jgc!19sChIJDynRjT-5mjkR0n3mLVsXrBE?authuser=0&hl=en&rclk=1",
        "coordinates": {
            "latitude": 25.6843547,
            "longitude": 81.95219809999999
        }
    },
    {
        "name": "Jama Masjid Momin Nagar",
        "main_category": "Mosque",
        "address": "PWPJ+5V7 Jama Masjid Momin Nagar, Gadh Champa, Uttar Pradesh 212507",
        "detailed_address": {
            "ward": null,
            "street": "PWPJ+5V7",
            "city": "Gadh Champa",
            "postal_code": null,
            "state": "Uttar Pradesh",
            "country_code": "IN"
        },
        "images": [],
        "link": "https://www.google.com/maps/place/Jama+Masjid+Momin+Nagar/data=!4m7!3m6!1s0x399abf1614c458b7:0xc6bd65fb80003425!8m2!3d25.7354076!4d81.9321758!16s%2Fg%2F11gnrlxt43!19sChIJt1jEFBa_mjkRJTQAgPtlvcY?authuser=0&hl=en&rclk=1",
        "coordinates": {
            "latitude": 25.7354076,
            "longitude": 81.9321758
        }
    },
    {
        "name": "Madeena Masjid",
        "main_category": "Mosque",
        "address": "JW7V+FHM Madeena Masjid, Bhane Mau, Uttar Pradesh 212502",
        "detailed_address": {
            "ward": null,
            "street": "JW7V+FHM",
            "city": "Bhane Mau",
            "postal_code": null,
            "state": "Uttar Pradesh",
            "country_code": "IN"
        },
        "images": [],
        "link": "https://www.google.com/maps/place/Madeena+Masjid/data=!4m7!3m6!1s0x399ab7a15a41d4ef:0xc5be7208956af343!8m2!3d25.613713!4d81.9439341!16s%2Fg%2F11s3b40x2p!19sChIJ79RBWqG3mjkRQ_NqlQhyvsU?authuser=0&hl=en&rclk=1",
        "coordinates": {
            "latitude": 25.613712999999997,
            "longitude": 81.94393409999999
        }
    },
    {
        "name": "Jamia masjid cheetemau purwa",
        "main_category": "Mosque",
        "address": "MVX6+RFC Jamia masjid cheetemau purwa, Cheete Mau, Purwa, Uttar Pradesh 212507",
        "detailed_address": {
            "ward": null,
            "street": "MVX6+RFC, Cheete Mau",
            "city": "Purwa, Alawalpur",
            "postal_code": "212507",
            "state": "Uttar Pradesh",
            "country_code": "IN"
        },
        "images": [
            {
                "about": "All",
                "link": "https://lh5.googleusercontent.com/p/AF1QipOfko7rMNyPmpz2EStJ6rTv4Nfxok5eKB7MGiIW=w224-h500-k-no"
            }
        ],
        "link": "https://www.google.com/maps/place/Jamia+masjid+cheetemau+purwa/data=!4m7!3m6!1s0x399ac71718590249:0xc8acc5a48370f414!8m2!3d25.6995696!4d81.8611429!16s%2Fg%2F11jyfhv_jh!19sChIJSQJZGBfHmjkRFPRwg6TFrMg?authuser=0&hl=en&rclk=1",
        "coordinates": {
            "latitude": 25.6995696,
            "longitude": 81.86114289999999
        }
    },
    {
        "name": "JAMA MASJID",
        "main_category": "Mosque",
        "address": "PV6F+JMP JAMA MASJID, Markhamau, Uttar Pradesh 212507",
        "detailed_address": {
            "ward": null,
            "street": "PV6F+JMP",
            "city": "Markhamau",
            "postal_code": null,
            "state": "Uttar Pradesh",
            "country_code": "IN"
        },
        "images": [
            {
                "about": "All",
                "link": "https://lh5.googleusercontent.com/p/AF1QipPCX_lQscYPD4SXc3vsnD0lhSU7Vcpkj580USlI=w224-h298-k-no"
            },
            {
                "about": "Dome",
                "link": "https://lh5.googleusercontent.com/p/AF1QipP4GVaTYfe6KprzwRjNtsAZH5sP1ijrme9hIduW=w224-h298-k-no"
            },
            {
                "about": "Videos",
                "link": "https://lh5.googleusercontent.com/p/AF1QipMeN4Ey3auYBych5g4SSxmLCbR5NYuHal1kMmoN=w224-h398-k-no"
            },
            {
                "about": "Street View & 360deg",
                "link": "https://streetviewpixels-pa.googleapis.com/v1/thumbnail?panoid=U887G3SVlq_Jz7KuaCwXtw&cb_client=maps_sv.tactile.gps&w=224&h=298&yaw=49.67304&pitch=0&thumbfov=100"
            }
        ],
        "link": "https://www.google.com/maps/place/JAMA+MASJID/data=!4m7!3m6!1s0x399ab9b649347617:0xde9b0775495c651e!8m2!3d25.7115962!4d81.8741876!16s%2Fg%2F11fjtqkmrg!19sChIJF3Y0Sba5mjkRHmVcSXUHm94?authuser=0&hl=en&rclk=1",
        "coordinates": {
            "latitude": 25.7115962,
            "longitude": 81.8741876
        }
    },
    {
        "name": "Jama masjid chhite mau (jaamaa msjid)",
        "main_category": "Mosque",
        "address": "MVV7+JRG Jama masjid chhite mau (jaamaa msjid), Chhite mau, Mau Aima, Uttar Pradesh 212507",
        "detailed_address": {
            "ward": null,
            "street": "MVV7+JRG, Chhite mau",
            "city": "Mau Aima, Alawalpur",
            "postal_code": "212507",
            "state": "Uttar Pradesh",
            "country_code": "IN"
        },
        "images": [],
        "link": "https://www.google.com/maps/place/Jama+masjid+chhite+mau+%28%E0%A4%9C%E0%A4%BE%E0%A4%AE%E0%A4%BE+%E0%A4%AE%E0%A4%B8%E0%A5%8D%E0%A4%9C%E0%A4%BF%E0%A4%A6%29/data=!4m7!3m6!1s0x399ac71c5d156f4f:0x50b87570378a4b98!8m2!3d25.6940652!4d81.8645678!16s%2Fg%2F11ny04kttj!19sChIJT28VXRzHmjkRmEuKN3B1uFA?authuser=0&hl=en&rclk=1",
        "coordinates": {
            "latitude": 25.694065199999997,
            "longitude": 81.8645678
        }
    },
    {
        "name": "Saira Masjid saayraa msjid",
        "main_category": "Mosque",
        "address": "MWRC+72C Saira Masjid saayraa msjid, Rasoolpur, Mau Aima, Uttar Pradesh 212507",
        "detailed_address": {
            "ward": "Rasoolpur",
            "street": "MWRC+72C",
            "city": "Mau Aima",
            "postal_code": "212507",
            "state": "Uttar Pradesh",
            "country_code": "IN"
        },
        "images": [
            {
                "about": "All",
                "link": "https://lh5.googleusercontent.com/p/AF1QipMXYFsxTHpclx3BNpqG5ogf5807KgaOJEbExTj4=w224-h398-k-no"
            }
        ],
        "link": "https://www.google.com/maps/place/Saira+Masjid+%E0%A4%B8%E0%A4%BE%E0%A4%AF%E0%A4%B0%E0%A4%BE+%E0%A4%AE%E0%A4%B8%E0%A5%8D%E0%A4%9C%E0%A4%BF%E0%A4%A6/data=!4m7!3m6!1s0x399ab995c85b9d11:0xe4e4244294b65cd5!8m2!3d25.6906983!4d81.9200183!16s%2Fg%2F11v02zphdr!19sChIJEZ1byJW5mjkR1Vy2lEIk5OQ?authuser=0&hl=en&rclk=1",
        "coordinates": {
            "latitude": 25.690698299999998,
            "longitude": 81.9200183
        }
    },
    {
        "name": "Baada Wali Imam Azam Masjid baadd'aa vaalii imaam aaj'm msjid",
        "main_category": "Mosque",
        "address": "MWV9+V83 Baada Wali Imam Azam Masjid baadd'aa vaalii imaam aaj'm msjid, Sarai Atan Urf Naugira, Azampur, Mau Aima, Uttar Pradesh 212507",
        "detailed_address": {
            "ward": "Sarai Atan Urf Naugira, Azampur",
            "street": "MWV9+V83",
            "city": "Mau Aima",
            "postal_code": "212507",
            "state": "Uttar Pradesh",
            "country_code": "IN"
        },
        "images": [],
        "link": "https://www.google.com/maps/place/Baada+Wali+Imam+Azam+Masjid+%E0%A4%AC%E0%A4%BE%E0%A4%A1%E0%A4%BC%E0%A4%BE+%E0%A4%B5%E0%A4%BE%E0%A4%B2%E0%A5%80+%E0%A4%87%E0%A4%AE%E0%A4%BE%E0%A4%AE+%E0%A4%86%E0%A4%9C%E0%A4%BC%E0%A4%AE+%E0%A4%AE%E0%A4%B8%E0%A5%8D%E0%A4%9C%E0%A4%BF%E0%A4%A6/data=!4m7!3m6!1s0x399ab9d1ff421f3f:0xb7d2ba910d99f3f9!8m2!3d25.6946394!4d81.9183078!16s%2Fg%2F11kq4wprrp!19sChIJPx9C_9G5mjkR-fOZDZG60rc?authuser=0&hl=en&rclk=1",
        "coordinates": {
            "latitude": 25.6946394,
            "longitude": 81.9183078
        }
    },
    {
        "name": "karmha",
        "main_category": "Mosque",
        "address": "karmha, 56, Karmha, Uttar Pradesh",
        "detailed_address": {
            "ward": "Sarai Atan Urf Naugira",
            "street": "56, Karmha",
            "city": "Mau Aima",
            "postal_code": null,
            "state": "Uttar Pradesh",
            "country_code": "IN"
        },
        "images": [
            {
                "about": "All",
                "link": "https://lh5.googleusercontent.com/p/AF1QipOuuVTiZMFTwzYs96IDZUW57fRxDo2a-82Scp6I=w224-h298-k-no"
            }
        ],
        "link": "https://www.google.com/maps/place/karmha/data=!4m7!3m6!1s0x399ab9410c349227:0xaa03da10837cdec9!8m2!3d25.6979422!4d81.9202463!16s%2Fg%2F11h434vzy3!19sChIJJ5I0DEG5mjkRyd58gxDaA6o?authuser=0&hl=en&rclk=1",
        "coordinates": {
            "latitude": 25.6979422,
            "longitude": 81.9202463
        }
    },
    {
        "name": "Baihrana Masjid bairhnaa msjid",
        "main_category": "Mosque",
        "address": "MWVG+P4R Baihrana Masjid bairhnaa msjid, Kathwer Perwaizpur, Bairhana, Mau Aima, Uttar Pradesh 212507",
        "detailed_address": {
            "ward": "Kathwer Perwaizpur",
            "street": "MWVG+P4R",
            "city": "Bairhana, Mau Aima",
            "postal_code": null,
            "state": "Uttar Pradesh",
            "country_code": "IN"
        },
        "images": [],
        "link": "https://www.google.com/maps/place/Baihrana+Masjid+%E0%A4%AC%E0%A5%88%E0%A4%B0%E0%A4%B9%E0%A4%A8%E0%A4%BE+%E0%A4%AE%E0%A4%B8%E0%A5%8D%E0%A4%9C%E0%A4%BF%E0%A4%A6/data=!4m7!3m6!1s0x399ab93fd489ab2d:0x2037b0c15a5b5037!8m2!3d25.6943547!4d81.9252622!16s%2Fg%2F11stb52bmz!19sChIJLauJ1D-5mjkRN1BbWsGwNyA?authuser=0&hl=en&rclk=1",
        "coordinates": {
            "latitude": 25.694354699999998,
            "longitude": 81.92526219999999
        }
    },
    {
        "name": "Masjid Al Bukhari",
        "main_category": "Mosque",
        "address": "MWWF+3MG Masjid Al Bukhari, Madarsa Gulistan E Niswa Road, Mirzapur Chauhari, Raniganj, Uttar Pradesh 230304",
        "detailed_address": {
            "ward": "Kathwer Perwaizpur",
            "street": "MWWF+3MG, Madarsa Gulistan E Niswa Road, Mirzapur Chauhari",
            "city": "Raniganj, Mau Aima",
            "postal_code": "230304",
            "state": "Uttar Pradesh",
            "country_code": "IN"
        },
        "images": [],
        "link": "https://www.google.com/maps/place/Masjid+Al+Bukhari/data=!4m7!3m6!1s0x399ab967c1acc535:0x8aff89d2b1c2e0c4!8m2!3d25.6951977!4d81.9241884!16s%2Fg%2F11skwrjmr7!19sChIJNcWswWe5mjkRxODCsdKJ_4o?authuser=0&hl=en&rclk=1",
        "coordinates": {
            "latitude": 25.695197699999998,
            "longitude": 81.92418839999999
        }
    },
    {
        "name": "Mohammad Pur masjid",
        "main_category": "Mosque",
        "address": "MVRW+QH Mohammad Pur masjid, Katra Dayaram, Uttar Pradesh 212507",
        "detailed_address": {
            "ward": null,
            "street": "MVRW+QH",
            "city": "Katra Dayaram",
            "postal_code": null,
            "state": "Uttar Pradesh",
            "country_code": "IN"
        },
        "images": [
            {
                "about": "All",
                "link": "https://streetviewpixels-pa.googleapis.com/v1/thumbnail?panoid=jBp7otxLA4OK4oE-hSrCdw&cb_client=maps_sv.tactile.gps&w=224&h=298&yaw=203.11703&pitch=0&thumbfov=100"
            },
            {
                "about": "Street View & 360deg",
                "link": "https://streetviewpixels-pa.googleapis.com/v1/thumbnail?panoid=jBp7otxLA4OK4oE-hSrCdw&cb_client=maps_sv.tactile.gps&w=224&h=298&yaw=203.11703&pitch=0&thumbfov=100"
            }
        ],
        "link": "https://www.google.com/maps/place/Mohammad+Pur+masjid/data=!4m7!3m6!1s0x399ab999142897a9:0x8959f27f9d036f8d!8m2!3d25.6931698!4d81.896827!16s%2Fg%2F11ssz6h9y1!19sChIJqZcoFJm5mjkRjW8DnX_yWYk?authuser=0&hl=en&rclk=1",
        "coordinates": {
            "latitude": 25.6931698,
            "longitude": 81.896827
        }
    }
]