[
    {
        "name": "Jama Masjid Azamgarh.",
        "main_category": "Mosque",
        "address": "35CM+282 Jama Masjid Azamgarh., Takia, Azamgarh, Uttar Pradesh 276001",
        "detailed_address": {
            "ward": "Takia",
            "street": "35CM+282",
            "city": "Azamgarh",
            "postal_code": "276001",
            "state": "Uttar Pradesh",
            "country_code": "IN"
        },
        "images": [
            {
                "about": "All",
                "link": "https://lh5.googleusercontent.com/p/AF1QipOvOKTzExl3fLYuk98XHYlbcuCwZYmYfMZjBw3L=w529-h298-k-no"
            },
            {
                "about": "Dome",
                "link": "https://lh5.googleusercontent.com/p/AF1QipPtmU9roKQV7O0iXeTeGj3K0oWlBpDRdEM0RgsU=w397-h298-k-no"
            },
            {
                "about": "Videos",
                "link": "https://lh5.googleusercontent.com/p/AF1QipPxhNRZDwNNZ01b2a3lbjeBwAYKBfDn2YrBjtT7=w541-h298-k-no"
            }
        ],
        "link": "https://www.google.com/maps/place/Jama+Masjid+Azamgarh./data=!4m7!3m6!1s0x3991a34ace555c17:0x9368ad61fb69b043!8m2!3d26.0700207!4d83.183268!16s%2Fg%2F11g8_5_ss2!19sChIJF1xVzkqjkTkRQ7Bp-2GtaJM?authuser=0&hl=en&rclk=1",
        "coordinates": {
            "latitude": 26.070020699999997,
            "longitude": 83.183268
        }
    },
    {
        "name": "Tedhiya Masjid",
        "main_category": "Mosque",
        "address": "1st floor, Tedhiya Masjid, 182, Pandit Dindayal Upadhyaya Marg, near Kuraishiya School, Mukeriganj, Azamgarh, Uttar Pradesh 276001",
        "detailed_address": {
            "ward": "Mukeriganj",
            "street": "1st floor, Tedhiya Masjid, 182, Pandit Dindayal Upadhyaya Marg, near Kuraishiya School",
            "city": "Azamgarh",
            "postal_code": "276001",
            "state": "Uttar Pradesh",
            "country_code": "IN"
        },
        "images": [
            {
                "about": "All",
                "link": "https://lh5.googleusercontent.com/p/AF1QipN1Dg2YyV_7LeqFZLD2mi05v-LA3ioHO7x-KjFJ=w529-h298-k-no"
            },
            {
                "about": "Street View & 360deg",
                "link": "https://streetviewpixels-pa.googleapis.com/v1/thumbnail?panoid=d8qWnEF9fMAfKtGqIwSCrQ&cb_client=maps_sv.tactile.gps&w=224&h=298&yaw=26.646677&pitch=0&thumbfov=100"
            }
        ],
        "link": "https://www.google.com/maps/place/Tedhiya+Masjid/data=!4m7!3m6!1s0x3991a335ca69ee45:0xb5e62c6d314a20b7!8m2!3d26.074411!4d83.1888302!16s%2Fg%2F11dz5c7_9y!19sChIJRe5pyjWjkTkRtyBKMW0s5rU?authuser=0&hl=en&rclk=1",
        "coordinates": {
            "latitude": 26.074410999999998,
            "longitude": 83.1888302
        }
    },
    {
        "name": "Home",
        "main_category": "Mosque",
        "address": "Home, Kot, Azamgarh, Uttar Pradesh 276001",
        "detailed_address": {
            "ward": "Kot",
            "street": null,
            "city": "Azamgarh",
            "postal_code": "276001",
            "state": "Uttar Pradesh",
            "country_code": "IN"
        },
        "images": [
            {
                "about": "All",
                "link": "https://lh5.googleusercontent.com/p/AF1QipN8cARF32kd4AeecG1cNV66VBKeiiiHSaZZYshZ=w333-h298-k-no"
            }
        ],
        "link": "https://www.google.com/maps/place/Home/data=!4m7!3m6!1s0x3991bccad040ff19:0x5594b323d824e00!8m2!3d26.069684!4d83.1886584!16s%2Fg%2F11c5_kz0fp!19sChIJGf9A0Mq8kTkRAE6CPTJLWQU?authuser=0&hl=en&rclk=1",
        "coordinates": {
            "latitude": 26.069684,
            "longitude": 83.1886584
        }
    },
    {
        "name": "Jama Masjid jm` msjd",
        "main_category": "Mosque",
        "address": "Jama Masjid jm` msjd, Jama Masjid, SH 30, Takia, Azamgarh, Uttar Pradesh 276001",
        "detailed_address": {
            "ward": "Takia",
            "street": "Jama Masjid, SH 30",
            "city": "Azamgarh",
            "postal_code": "276001",
            "state": "Uttar Pradesh",
            "country_code": "IN"
        },
        "images": [
            {
                "about": "All",
                "link": "https://lh5.googleusercontent.com/p/AF1QipMyMe76M8yICYcsoHawwbRmKtozr5TvPLFe2v60=w397-h298-k-no"
            },
            {
                "about": "Videos",
                "link": "https://lh5.googleusercontent.com/p/AF1QipN9X941mCTvdxx4NlCgzSG9xOYQ0nuPXxV4ZCb7=w224-h398-k-no"
            }
        ],
        "link": "https://www.google.com/maps/place/Jama+Masjid+%D8%AC%D8%A7%D9%85%D8%B9+%D9%85%D8%B3%D8%AC%D8%AF%E2%80%AD/data=!4m7!3m6!1s0x3991a34b2c1cb0f3:0xc53e0d143c28b29f!8m2!3d26.0699966!4d83.1833558!16s%2Fg%2F11c0pz8rcw!19sChIJ87AcLEujkTkRn7IoPBQNPsU?authuser=0&hl=en&rclk=1",
        "coordinates": {
            "latitude": 26.0699966,
            "longitude": 83.1833558
        }
    },
    {
        "name": "Majid E Bilal Sidhari",
        "main_category": "Mosque",
        "address": "25WR+M27 Majid E Bilal Sidhari, Mau Rd, near New Bridge, Sidhari, Azamgarh, Uttar Pradesh 276001",
        "detailed_address": {
            "ward": "Sidhari",
            "street": "25WR+M27, Mau Rd, near New Bridge",
            "city": "Azamgarh",
            "postal_code": "276001",
            "state": "Uttar Pradesh",
            "country_code": "IN"
        },
        "images": [
            {
                "about": "All",
                "link": "https://lh5.googleusercontent.com/p/AF1QipM6ya1wrNiRnzFV8lASDXgAF_ge917jhY-nVTlJ=w397-h298-k-no"
            },
            {
                "about": "Street View & 360deg",
                "link": "https://streetviewpixels-pa.googleapis.com/v1/thumbnail?panoid=yzHAztYGZTsFAl6eptWJlw&cb_client=maps_sv.tactile.gps&w=224&h=298&yaw=186.77159&pitch=0&thumbfov=100"
            },
            {
                "about": "Videos",
                "link": "https://lh5.googleusercontent.com/p/AF1QipNcwZg8KKZEDynGBwpW8YOliQlgqkcYU7-DOtt6=w529-h298-k-no"
            }
        ],
        "link": "https://www.google.com/maps/place/Majid+E+Bilal+Sidhari/data=!4m7!3m6!1s0x3991bcc1d92b3e67:0x32f97ae341d75bc2!8m2!3d26.046653!4d83.1900592!16s%2Fg%2F11df0pljfg!19sChIJZz4r2cG8kTkRwlvXQeN6-TI?authuser=0&hl=en&rclk=1",
        "coordinates": {
            "latitude": 26.046653,
            "longitude": 83.1900592
        }
    },
    {
        "name": "Mosque Al Ansaar",
        "main_category": "Mosque",
        "address": "Mosque Al Ansaar, 182, Pandit Dindayal Upadhyaya Marg, Mukeriganj, Azamgarh, Uttar Pradesh 276001",
        "detailed_address": {
            "ward": "Mukeriganj",
            "street": "182, Pandit Dindayal Upadhyaya Marg",
            "city": "Azamgarh",
            "postal_code": "276001",
            "state": "Uttar Pradesh",
            "country_code": "IN"
        },
        "images": [
            {
                "about": "All",
                "link": "https://lh5.googleusercontent.com/p/AF1QipN41CPKiPH6GrEAXQcFC0GRO6Zjzbf80lcczA6u=w447-h298-k-no"
            }
        ],
        "link": "https://www.google.com/maps/place/Mosque+Al+Ansaar/data=!4m7!3m6!1s0x3991a33703519689:0xef7ea2ccf6664869!8m2!3d26.0721089!4d83.1893811!16s%2Fg%2F11b6q1_xvg!19sChIJiZZRAzejkTkRaUhm9syifu8?authuser=0&hl=en&rclk=1",
        "coordinates": {
            "latitude": 26.0721089,
            "longitude": 83.18938109999999
        }
    },
    {
        "name": "Jama Masjid",
        "main_category": "Mosque",
        "address": "35CR+MQ6 Jama Masjid, Bazbahadur, Azamgarh, Uttar Pradesh 276001",
        "detailed_address": {
            "ward": "Bazbahadur",
            "street": "35CR+MQ6",
            "city": "Azamgarh",
            "postal_code": "276001",
            "state": "Uttar Pradesh",
            "country_code": "IN"
        },
        "images": [
            {
                "about": "All",
                "link": "https://lh5.googleusercontent.com/p/AF1QipNxxU3Cxt-YOZ5io_8qP4vzNuIywCkcYluKLcn-=w397-h298-k-no"
            }
        ],
        "link": "https://www.google.com/maps/place/Jama+Masjid/data=!4m7!3m6!1s0x3991a333608b0be7:0xd2317dc870e8e769!8m2!3d26.0716578!4d83.1918896!16s%2Fg%2F11dyqrhf7b!19sChIJ5wuLYDOjkTkRaefocMh9MdI?authuser=0&hl=en&rclk=1",
        "coordinates": {
            "latitude": 26.0716578,
            "longitude": 83.1918896
        }
    },
    {
        "name": "Juma Masjid Rahmat Nagar",
        "main_category": "Mosque",
        "address": "35HR+JX2 Juma Masjid Rahmat Nagar, Rahmat Nagar, Purai Ghulami, Azamgarh, Uttar Pradesh 276001",
        "detailed_address": {
            "ward": "Rahmat Nagar, Purai Ghulami",
            "street": "35HR+JX2",
            "city": "Azamgarh",
            "postal_code": "276001",
            "state": "Uttar Pradesh",
            "country_code": "IN"
        },
        "images": [
            {
                "about": "All",
                "link": "https://lh5.googleusercontent.com/p/AF1QipPSlXNPoFlOByPFI0uyJAXysF3iUaenjLokk8GX=w397-h298-k-no"
            },
            {
                "about": "Street View & 360deg",
                "link": "https://streetviewpixels-pa.googleapis.com/v1/thumbnail?panoid=Kdxb_z89rnHn2YGjc8aHmA&cb_client=maps_sv.tactile.gps&w=224&h=298&yaw=11.007719&pitch=0&thumbfov=100"
            }
        ],
        "link": "https://www.google.com/maps/place/Juma+Masjid+Rahmat+Nagar/data=!4m7!3m6!1s0x3991a330d8186b53:0x2d9885575c0fad98!8m2!3d26.0790062!4d83.1923825!16s%2Fg%2F11dxq2h15m!19sChIJU2sY2DCjkTkRmK0PXFeFmC0?authuser=0&hl=en&rclk=1",
        "coordinates": {
            "latitude": 26.0790062,
            "longitude": 83.1923825
        }
    },
    {
        "name": "Mosque msjd",
        "main_category": "Mosque",
        "address": "25X9+M76 Mosque msjd, Paranapur, Karimuddinpur, Uttar Pradesh 276001",
        "detailed_address": {
            "ward": "Paranapur",
            "street": "25X9+M76",
            "city": "Karimuddinpur",
            "postal_code": "276001",
            "state": "Uttar Pradesh",
            "country_code": "IN"
        },
        "images": [
            {
                "about": "All",
                "link": "https://lh5.googleusercontent.com/p/AF1QipNLTybWp416x81dYT9ejOZAExZ0_mmztsCWRyOh=w224-h398-k-no"
            },
            {
                "about": "Street View & 360deg",
                "link": "https://streetviewpixels-pa.googleapis.com/v1/thumbnail?panoid=eE8Qi5nwtegGQVtKsZnbZw&cb_client=maps_sv.tactile.gps&w=224&h=298&yaw=287.35226&pitch=0&thumbfov=100"
            }
        ],
        "link": "https://www.google.com/maps/place/Mosque+%D9%85%D8%B3%D8%AC%D8%AF%E2%80%AD/data=!4m7!3m6!1s0x3991bca11ac733bf:0x46d3d0e868de466b!8m2!3d26.0491692!4d83.168141!16s%2Fg%2F11dfnqqmqk!19sChIJvzPHGqG8kTkRa0beaOjQ00Y?authuser=0&hl=en&rclk=1",
        "coordinates": {
            "latitude": 26.049169199999998,
            "longitude": 83.16814099999999
        }
    },
    {
        "name": "Baagh Meer Petu Mosque",
        "main_category": "Mosque",
        "address": "359P+93X Baagh Meer Petu Mosque, Farashtola, Azamgarh, Uttar Pradesh 276001",
        "detailed_address": {
            "ward": "Farashtola",
            "street": "359P+93X",
            "city": "Azamgarh",
            "postal_code": "276001",
            "state": "Uttar Pradesh",
            "country_code": "IN"
        },
        "images": [],
        "link": "https://www.google.com/maps/place/Baagh+Meer+Petu+Mosque/data=!4m7!3m6!1s0x3991bcb5411aa5df:0x9b4cdc0215434be8!8m2!3d26.0684947!4d83.1852461!16s%2Fg%2F1thgffc6!19sChIJ36UaQbW8kTkR6EtDFQLcTJs?authuser=0&hl=en&rclk=1",
        "coordinates": {
            "latitude": 26.0684947,
            "longitude": 83.1852461
        }
    },
    {
        "name": "Masjid E Ayesha Badarka",
        "main_category": "Mosque",
        "address": "35GH+2HC Masjid E Ayesha Badarka, Badarka, Azamgarh, Uttar Pradesh 276001",
        "detailed_address": {
            "ward": "Badarka",
            "street": "35GH+2HC",
            "city": "Azamgarh",
            "postal_code": "276001",
            "state": "Uttar Pradesh",
            "country_code": "IN"
        },
        "images": [
            {
                "about": "All",
                "link": "https://lh5.googleusercontent.com/p/AF1QipM0SPDR8fS5b8auVlFqh8H2Fnzw_c5Rg6BVJYVW=w224-h398-k-no"
            },
            {
                "about": "Street View & 360deg",
                "link": "https://streetviewpixels-pa.googleapis.com/v1/thumbnail?panoid=7sS1BxQiQBoCp3VFzxVBGQ&cb_client=maps_sv.tactile.gps&w=224&h=298&yaw=126.138214&pitch=0&thumbfov=100"
            }
        ],
        "link": "https://www.google.com/maps/place/Masjid+E+Ayesha+Badarka/data=!4m7!3m6!1s0x3991a34c28b5b671:0x314a3050626f92b9!8m2!3d26.0750679!4d83.1788902!16s%2Fg%2F11fz2rj27x!19sChIJcba1KEyjkTkRuZJvYlAwSjE?authuser=0&hl=en&rclk=1",
        "coordinates": {
            "latitude": 26.0750679,
            "longitude": 83.1788902
        }
    },
    {
        "name": "Masjid Umar",
        "main_category": "Mosque",
        "address": "35FP+JM3 Masjid Umar, Pakri Kala, Jalandhari, Azamgarh, Uttar Pradesh 276001",
        "detailed_address": {
            "ward": "Pakri Kala, Jalandhari",
            "street": "35FP+JM3",
            "city": "Azamgarh",
            "postal_code": "276001",
            "state": "Uttar Pradesh",
            "country_code": "IN"
        },
        "images": [
            {
                "about": "All",
                "link": "https://lh5.googleusercontent.com/p/AF1QipOV_mrMmrrZD2335tkGWeTst0Q5BSv1GrKLIuMs=w224-h302-k-no"
            }
        ],
        "link": "https://www.google.com/maps/place/Masjid+Umar/data=!4m7!3m6!1s0x3991a3358c7fd115:0x246ae269aecde99c!8m2!3d26.0740104!4d83.1866761!16s%2Fg%2F1tgdlzp2!19sChIJFdF_jDWjkTkRnOnNrmniaiQ?authuser=0&hl=en&rclk=1",
        "coordinates": {
            "latitude": 26.0740104,
            "longitude": 83.1866761
        }
    },
    {
        "name": "Bus Stop Mosque",
        "main_category": "Mosque",
        "address": "353F+4PQ Bus Stop Mosque, Civil Lines, Azamgarh, Uttar Pradesh 276001",
        "detailed_address": {
            "ward": "Civil Lines",
            "street": "353F+4PQ",
            "city": "Azamgarh",
            "postal_code": "276001",
            "state": "Uttar Pradesh",
            "country_code": "IN"
        },
        "images": [
            {
                "about": "All",
                "link": "https://lh5.googleusercontent.com/p/AF1QipNrnvpyG6J5TQ5okssgkvlMCtYj6B0r3mS2Ur8q=w529-h298-k-no"
            },
            {
                "about": "Street View & 360deg",
                "link": "https://streetviewpixels-pa.googleapis.com/v1/thumbnail?panoid=JA-so8oNdQyr7PkBbWyLiw&cb_client=maps_sv.tactile.gps&w=224&h=298&yaw=36.00492&pitch=0&thumbfov=100"
            }
        ],
        "link": "https://www.google.com/maps/place/Bus+Stop+Mosque/data=!4m7!3m6!1s0x3991bca4be8c64bf:0x56f5e616ff324f53!8m2!3d26.0528351!4d83.1743631!16s%2Fg%2F11fz2jh2l5!19sChIJv2SMvqS8kTkRU08y_xbm9VY?authuser=0&hl=en&rclk=1",
        "coordinates": {
            "latitude": 26.0528351,
            "longitude": 83.1743631
        }
    },
    {
        "name": "Ansar Masjid",
        "main_category": "Mosque",
        "address": "35HQ+MV2 Ansar Masjid, Harra ki chungi, Mukeriganj, Sadar,Utter pradesh, Azamgarh, Uttar Pradesh 276001",
        "detailed_address": {
            "ward": "Purai Ghulami",
            "street": "35HQ+MV2, Harra ki chungi, Mukeriganj, Sadar,Utter pradesh",
            "city": "Azamgarh",
            "postal_code": "276001",
            "state": "Uttar Pradesh",
            "country_code": "IN"
        },
        "images": [
            {
                "about": "All",
                "link": "https://lh5.googleusercontent.com/p/AF1QipPAtvQdiKjY8Bt_OjMpOCItLqZJzr7SV8XJzP6s=w397-h298-k-no"
            },
            {
                "about": "Street View & 360deg",
                "link": "https://streetviewpixels-pa.googleapis.com/v1/thumbnail?panoid=XHJOCB6HGVPsumv3JVJ5Kg&cb_client=maps_sv.tactile.gps&w=224&h=298&yaw=285.1514&pitch=0&thumbfov=100"
            }
        ],
        "link": "https://www.google.com/maps/place/Ansar+Masjid/data=!4m7!3m6!1s0x3991a3371b5daa8f:0x617d83e7dc0ec35!8m2!3d26.0791402!4d83.1896463!16s%2Fg%2F11c2np7snk!19sChIJj6pdGzejkTkRNezAfT7YFwY?authuser=0&hl=en&rclk=1",
        "coordinates": {
            "latitude": 26.079140199999998,
            "longitude": 83.18964629999999
        }
    },
    {
        "name": "Masjid Usman Ghani",
        "main_category": "Mosque",
        "address": "35CV+555 Masjid Usman Ghani, Kot, Azamgarh, Uttar Pradesh 276001",
        "detailed_address": {
            "ward": "Kot",
            "street": "35CV+555",
            "city": "Azamgarh",
            "postal_code": "276001",
            "state": "Uttar Pradesh",
            "country_code": "IN"
        },
        "images": [
            {
                "about": "All",
                "link": "https://lh5.googleusercontent.com/p/AF1QipP6pUoE4aIPJvYMTcHlG0JtAmhaws5HjgtiGi_m=w529-h298-k-no"
            }
        ],
        "link": "https://www.google.com/maps/place/Masjid+Usman+Ghani/data=!4m7!3m6!1s0x3991a3334a6d4d4d:0x14f98a504870f2f3!8m2!3d26.070392!4d83.1929884!16s%2Fg%2F11g8bbrpdb!19sChIJTU1tSjOjkTkR8_JwSFCK-RQ?authuser=0&hl=en&rclk=1",
        "coordinates": {
            "latitude": 26.070392,
            "longitude": 83.19298839999999
        }
    },
    {
        "name": "Jama Masjid Shekhpura",
        "main_category": "Mosque",
        "address": "36G6+X6R Jama Masjid Shekhpura, Sheikhpura, Azamgarh, Sespura, Uttar Pradesh 276001",
        "detailed_address": {
            "ward": "Sheikhpura",
            "street": "36G6+X6R",
            "city": "Azamgarh, Sespura",
            "postal_code": "276001",
            "state": "Uttar Pradesh",
            "country_code": "IN"
        },
        "images": [
            {
                "about": "All",
                "link": "https://lh5.googleusercontent.com/p/AF1QipMFU6sW_acumPqxTUqxZzlY4gNVrhDVYlxXiEEV=w397-h298-k-no"
            }
        ],
        "link": "https://www.google.com/maps/place/Jama+Masjid+Shekhpura/data=!4m7!3m6!1s0x3991a2d687ebab05:0x33d94b8b679f84aa!8m2!3d26.0774776!4d83.2105153!16s%2Fg%2F11ddxwdwtj!19sChIJBavrh9aikTkRqoSfZ4tL2TM?authuser=0&hl=en&rclk=1",
        "coordinates": {
            "latitude": 26.077477599999998,
            "longitude": 83.2105153
        }
    },
    {
        "name": "Noorul Uloom , Mosque",
        "main_category": "Mosque",
        "address": "35CW+6MC Noorul Uloom , Mosque, Dharmunala, Azamgarh, Uttar Pradesh 276001",
        "detailed_address": {
            "ward": "Dharmunala",
            "street": "35CW+6MC",
            "city": "Azamgarh",
            "postal_code": "276001",
            "state": "Uttar Pradesh",
            "country_code": "IN"
        },
        "images": [
            {
                "about": "All",
                "link": "https://lh5.googleusercontent.com/p/AF1QipPWV-u5bDCcBZyibGT7CxctLwWN3si0O_F77UEk=w428-h298-k-no"
            },
            {
                "about": "Street View & 360deg",
                "link": "https://streetviewpixels-pa.googleapis.com/v1/thumbnail?panoid=RYBIJnnKdArNmsKQV4djYw&cb_client=maps_sv.tactile.gps&w=224&h=298&yaw=254.50272&pitch=0&thumbfov=100"
            }
        ],
        "link": "https://www.google.com/maps/place/Noorul+Uloom+,+Mosque/data=!4m7!3m6!1s0x3991a332ab878d71:0x25488eb9a4365c50!8m2!3d26.0705676!4d83.1966355!16s%2Fg%2F11ggr6rqpw!19sChIJcY2HqzKjkTkRUFw2pLmOSCU?authuser=0&hl=en&rclk=1",
        "coordinates": {
            "latitude": 26.0705676,
            "longitude": 83.1966355
        }
    },
    {
        "name": "Umar Farooq Masjid",
        "main_category": "Mosque",
        "address": "Umar Farooq Masjid, 182, Pandit Dindayal Upadhyaya Marg, Rahmat Nagar, Mukeriganj, Azamgarh, Uttar Pradesh 276001",
        "detailed_address": {
            "ward": "Rahmat Nagar, Mukeriganj",
            "street": "182, Pandit Dindayal Upadhyaya Marg",
            "city": "Azamgarh",
            "postal_code": "276001",
            "state": "Uttar Pradesh",
            "country_code": "IN"
        },
        "images": [
            {
                "about": "All",
                "link": "https://lh5.googleusercontent.com/p/AF1QipPBBxe-gBfue-i94fI3uJA-LxHF67hHolGOVleO=w397-h298-k-no"
            },
            {
                "about": "Street View & 360deg",
                "link": "https://streetviewpixels-pa.googleapis.com/v1/thumbnail?panoid=9J98Uhh-anm3K1-I4-OLAQ&cb_client=maps_sv.tactile.gps&w=224&h=298&yaw=247.78604&pitch=0&thumbfov=100"
            }
        ],
        "link": "https://www.google.com/maps/place/Umar+Farooq+Masjid/data=!4m7!3m6!1s0x3991a33725e50b97:0x5ea2c42418841fc4!8m2!3d26.079142!4d83.1896866!16s%2Fg%2F11c5843s9g!19sChIJlwvlJTejkTkRxB-EGCTEol4?authuser=0&hl=en&rclk=1",
        "coordinates": {
            "latitude": 26.079141999999997,
            "longitude": 83.1896866
        }
    },
    {
        "name": "Darul Aman Masjid",
        "main_category": "Mosque",
        "address": "35JW+738 Darul Aman Masjid, Azamgarh, Uttar Pradesh 276001",
        "detailed_address": {
            "ward": null,
            "street": "35JW+738",
            "city": "Azamgarh",
            "postal_code": null,
            "state": "Uttar Pradesh",
            "country_code": "IN"
        },
        "images": [
            {
                "about": "All",
                "link": "https://streetviewpixels-pa.googleapis.com/v1/thumbnail?panoid=xW8U5zG1Ny9aI6sTFbNXLw&cb_client=maps_sv.tactile.gps&w=224&h=298&yaw=244.33752&pitch=0&thumbfov=100"
            },
            {
                "about": "Street View & 360deg",
                "link": "https://streetviewpixels-pa.googleapis.com/v1/thumbnail?panoid=xW8U5zG1Ny9aI6sTFbNXLw&cb_client=maps_sv.tactile.gps&w=224&h=298&yaw=244.33752&pitch=0&thumbfov=100"
            }
        ],
        "link": "https://www.google.com/maps/place/Darul+Aman+Masjid/data=!4m7!3m6!1s0x3991a321a144f687:0x7bf7dd0375ed7618!8m2!3d26.0806712!4d83.1952092!16s%2Fg%2F11f6cphljh!19sChIJh_ZEoSGjkTkRGHbtdQPd93s?authuser=0&hl=en&rclk=1",
        "coordinates": {
            "latitude": 26.080671199999998,
            "longitude": 83.1952092
        }
    },
    {
        "name": "Eidgah",
        "main_category": "Mosque",
        "address": "35CG+W8J Eidgah, Badarka, Kodar Ajamatpur, Uttar Pradesh 276001",
        "detailed_address": {
            "ward": "Badarka",
            "street": "35CG+W8J",
            "city": "Kodar Ajamatpur",
            "postal_code": "276001",
            "state": "Uttar Pradesh",
            "country_code": "IN"
        },
        "images": [
            {
                "about": "All",
                "link": "https://streetviewpixels-pa.googleapis.com/v1/thumbnail?panoid=-ChwP-CZSTgQkqPJnyo6Vw&cb_client=maps_sv.tactile.gps&w=224&h=298&yaw=10.907331&pitch=0&thumbfov=100"
            },
            {
                "about": "Street View & 360deg",
                "link": "https://streetviewpixels-pa.googleapis.com/v1/thumbnail?panoid=-ChwP-CZSTgQkqPJnyo6Vw&cb_client=maps_sv.tactile.gps&w=224&h=298&yaw=10.907331&pitch=0&thumbfov=100"
            },
            {
                "about": "Videos",
                "link": "https://lh5.googleusercontent.com/p/AF1QipOa2iPDw4HwcQz6SOSCrd5p27hRMyaz51Fwkxhm=w529-h298-k-no"
            }
        ],
        "link": "https://www.google.com/maps/place/Eidgah/data=!4m7!3m6!1s0x3991a34d7feaf6d7:0xb0617a56e85a9f80!8m2!3d26.0723438!4d83.1757518!16s%2Fg%2F11d_75bhqg!19sChIJ1_bqf02jkTkRgJ9a6FZ6YbA?authuser=0&hl=en&rclk=1",
        "coordinates": {
            "latitude": 26.0723438,
            "longitude": 83.1757518
        }
    },
    {
        "name": "Jama Masjid jm` msjd",
        "main_category": "Mosque",
        "address": "362J+HXP Jama Masjid jm` msjd, Mahalia, Uttar Pradesh 276406",
        "detailed_address": {
            "ward": null,
            "street": "362J+HXP",
            "city": "Mahalia",
            "postal_code": "276406",
            "state": "Uttar Pradesh",
            "country_code": "IN"
        },
        "images": [
            {
                "about": "All",
                "link": "https://lh5.googleusercontent.com/p/AF1QipPVhqV_lyd7ThKAawjNuJ57zHo2K724U9XKOhbn=w224-h407-k-no"
            },
            {
                "about": "Videos",
                "link": "https://lh5.googleusercontent.com/p/AF1QipMVcGKKQzr4xCoJbK1hoWX1sZH-IKj5ylX9r3r9=w224-h407-k-no"
            }
        ],
        "link": "https://www.google.com/maps/place/Jama+Masjid+%D8%AC%D8%A7%D9%85%D8%B9+%D9%85%D8%B3%D8%AC%D8%AF%E2%80%AD/data=!4m7!3m6!1s0x3991bdc69421cfa1:0x21b9c9790f9476ee!8m2!3d26.05147!4d83.232455!16s%2Fg%2F11gl1gptf5!19sChIJoc8hlMa9kTkR7naUD3nJuSE?authuser=0&hl=en&rclk=1",
        "coordinates": {
            "latitude": 26.05147,
            "longitude": 83.232455
        }
    },
    {
        "name": "Masjid E Huda",
        "main_category": "Mosque",
        "address": "35FM+953 Masjid E Huda, Paharpur, Azamgarh, Uttar Pradesh 276001",
        "detailed_address": {
            "ward": "Paharpur",
            "street": "35FM+953",
            "city": "Azamgarh",
            "postal_code": "276001",
            "state": "Uttar Pradesh",
            "country_code": "IN"
        },
        "images": [
            {
                "about": "All",
                "link": "https://lh5.googleusercontent.com/p/AF1QipPrum8bxYHH6wNXc42ChkxeCY0FwPOwYz8487Dl=w224-h298-k-no"
            },
            {
                "about": "Street View & 360deg",
                "link": "https://lh5.googleusercontent.com/p/AF1QipPB-XfzI2Su6mjifkk3LUz6zKxiHI4Vhxpn18lT=w224-h298-k-no-pi-20-ya320-ro-0-fo100"
            }
        ],
        "link": "https://www.google.com/maps/place/Masjid+E+Huda/data=!4m7!3m6!1s0x3991a326c2f37c7f:0x7fa8806b0692e37d!8m2!3d26.0733836!4d83.1829259!16s%2Fg%2F11gtpxklyl!19sChIJf3zzwiajkTkRfeOSBmuAqH8?authuser=0&hl=en&rclk=1",
        "coordinates": {
            "latitude": 26.0733836,
            "longitude": 83.1829259
        }
    },
    {
        "name": "Masjid Police Line Campus",
        "main_category": "Mosque",
        "address": "353M+CQ6 Masjid Police Line Campus, Marhaya, Azamgarh, Uttar Pradesh 276001",
        "detailed_address": {
            "ward": "Marhaya",
            "street": "353M+CQ6",
            "city": "Azamgarh",
            "postal_code": "276001",
            "state": "Uttar Pradesh",
            "country_code": "IN"
        },
        "images": [],
        "link": "https://www.google.com/maps/place/Masjid+Police+Line+Campus/data=!4m7!3m6!1s0x3991bcb8c2ac65f7:0xbed29b1360d1f86d!8m2!3d26.0535383!4d83.184402!16s%2Fg%2F11c808z5vx!19sChIJ92Wswri8kTkRbfjRYBOb0r4?authuser=0&hl=en&rclk=1",
        "coordinates": {
            "latitude": 26.0535383,
            "longitude": 83.18440199999999
        }
    },
    {
        "name": "Ataala Masjid",
        "main_category": "Mosque",
        "address": "Ataala Masjid, 276001, Katra Road, Sarai Mubarak, Uttar Pradesh",
        "detailed_address": {
            "ward": "Dal Singar",
            "street": "276001, Katra Road",
            "city": "Sarai Mubarak, Kodar Ajamatpur",
            "postal_code": null,
            "state": "Uttar Pradesh",
            "country_code": "IN"
        },
        "images": [
            {
                "about": "All",
                "link": "https://lh5.googleusercontent.com/p/AF1QipOtcpm5LThr3c4thCdD_rHuWfp21z_0xmU4DrHp=w529-h298-k-no"
            }
        ],
        "link": "https://www.google.com/maps/place/Ataala+Masjid/data=!4m7!3m6!1s0x3991bcb357dd4477:0xd54b010240bdb5bc!8m2!3d26.0689373!4d83.1809651!16s%2Fg%2F11gbwymsmc!19sChIJd0TdV7O8kTkRvLW9QAIBS9U?authuser=0&hl=en&rclk=1",
        "coordinates": {
            "latitude": 26.068937299999998,
            "longitude": 83.1809651
        }
    },
    {
        "name": "Jama masjid jm` msjd",
        "main_category": "Mosque",
        "address": "35JP+655 Jama masjid jm` msjd, Billariya Ki Chungi, Pura Jodhi, Azamgarh, Uttar Pradesh 276001",
        "detailed_address": {
            "ward": "Pura Jodhi",
            "street": "35JP+655, Billariya Ki Chungi",
            "city": "Azamgarh",
            "postal_code": "276001",
            "state": "Uttar Pradesh",
            "country_code": "IN"
        },
        "images": [
            {
                "about": "All",
                "link": "https://lh5.googleusercontent.com/p/AF1QipPbhSQN40IFHQuF8G5hqEOwAn9YjG6_Gyv3pp2g=w224-h298-k-no"
            }
        ],
        "link": "https://www.google.com/maps/place/Jama+masjid+%D8%AC%D8%A7%D9%85%D8%B9+%D9%85%D8%B3%D8%AC%D8%AF%E2%80%AD/data=!4m7!3m6!1s0x3991a3a4feba6b0d:0x299e2c80a5739548!8m2!3d26.0805179!4d83.1855!16s%2Fg%2F11j8qt6r70!19sChIJDWu6_qSjkTkRSJVzpYAsnik?authuser=0&hl=en&rclk=1",
        "coordinates": {
            "latitude": 26.0805179,
            "longitude": 83.18549999999999
        }
    },
    {
        "name": "Mosque msjd",
        "main_category": "Mosque",
        "address": "35GP+WXG Mosque msjd, Unnamed Road, Mukeriganj, Azamgarh, Uttar Pradesh 276001",
        "detailed_address": {
            "ward": "Mukeriganj",
            "street": "35GP+WXG, Unnamed Road",
            "city": "Azamgarh",
            "postal_code": "276001",
            "state": "Uttar Pradesh",
            "country_code": "IN"
        },
        "images": [],
        "link": "https://www.google.com/maps/place/Mosque+%D9%85%D8%B3%D8%AC%D8%AF%E2%80%AD/data=!4m7!3m6!1s0x3991a3de9e871825:0xcaff73684dffae49!8m2!3d26.0773086!4d83.1874588!16s%2Fg%2F11ghdr2njh!19sChIJJRiHnt6jkTkRSa7_TWhz_8o?authuser=0&hl=en&rclk=1",
        "coordinates": {
            "latitude": 26.0773086,
            "longitude": 83.1874588
        }
    },
    {
        "name": "Jama Masjid jm` msjd",
        "main_category": "Mosque",
        "address": "26XJ+65V Jama Masjid jm` msjd, Jamuri, Sardarpur Rajput, Uttar Pradesh 276406",
        "detailed_address": {
            "ward": null,
            "street": "26XJ+65V",
            "city": "Jamuri, Sardarpur Rajput",
            "postal_code": null,
            "state": "Uttar Pradesh",
            "country_code": "IN"
        },
        "images": [
            {
                "about": "All",
                "link": "https://lh5.googleusercontent.com/p/AF1QipPfZh5zE82pzNfvnMmroHWFIxtyaB5UH3mRVnnH=w224-h298-k-no"
            },
            {
                "about": "Videos",
                "link": "https://lh5.googleusercontent.com/p/AF1QipMkYL4POos6nvnG7oVmpOy46xp1gygUXJ1fIVob=w224-h398-k-no"
            }
        ],
        "link": "https://www.google.com/maps/place/Jama+Masjid+%D8%AC%D8%A7%D9%85%D8%B9+%D9%85%D8%B3%D8%AC%D8%AF%E2%80%AD/data=!4m7!3m6!1s0x3991bd6aa196982d:0xaa682bd499b19172!8m2!3d26.0481184!4d83.2304321!16s%2Fg%2F11gg986ftp!19sChIJLZiWoWq9kTkRcpGxmdQraKo?authuser=0&hl=en&rclk=1",
        "coordinates": {
            "latitude": 26.0481184,
            "longitude": 83.2304321
        }
    },
    {
        "name": "Masjid msjd",
        "main_category": "Mosque",
        "address": "25WM+4QC Masjid msjd, Ghosi, Azamgarh, Uttar Pradesh 276001",
        "detailed_address": {
            "ward": "Ghosi",
            "street": "25WM+4QC",
            "city": "Azamgarh",
            "postal_code": "276001",
            "state": "Uttar Pradesh",
            "country_code": "IN"
        },
        "images": [
            {
                "about": "All",
                "link": "https://streetviewpixels-pa.googleapis.com/v1/thumbnail?panoid=vE6Ni7IX3vxqmFiW7C9Yqw&cb_client=maps_sv.tactile.gps&w=224&h=298&yaw=322.64304&pitch=0&thumbfov=100"
            },
            {
                "about": "Street View & 360deg",
                "link": "https://streetviewpixels-pa.googleapis.com/v1/thumbnail?panoid=vE6Ni7IX3vxqmFiW7C9Yqw&cb_client=maps_sv.tactile.gps&w=224&h=298&yaw=322.64304&pitch=0&thumbfov=100"
            }
        ],
        "link": "https://www.google.com/maps/place/Masjid+%D9%85%D8%B3%D8%AC%D8%AF%E2%80%AD/data=!4m7!3m6!1s0x3991bda9b2324c2d:0x8d3133214af333d5!8m2!3d26.0453071!4d83.1843969!16s%2Fg%2F11gmgczq06!19sChIJLUwysqm9kTkR1TPzSiEzMY0?authuser=0&hl=en&rclk=1",
        "coordinates": {
            "latitude": 26.0453071,
            "longitude": 83.1843969
        }
    },
    {
        "name": "Muslim Masjid mslm msjd",
        "main_category": "Mosque",
        "address": "258H+QGG Muslim Masjid mslm msjd, Haidarabad Urf Chhawara, Azamgarh, Uttar Pradesh 276128",
        "detailed_address": {
            "ward": null,
            "street": "258H+QGG",
            "city": "Haidarabad Urf Chhawara, Azamgarh",
            "postal_code": "276128",
            "state": "Uttar Pradesh",
            "country_code": "IN"
        },
        "images": [
            {
                "about": "All",
                "link": "https://lh5.googleusercontent.com/p/AF1QipMUzJykDxFKmwQBuyWUi4-2DOHJTxokyreZU89c=w528-h298-k-no"
            }
        ],
        "link": "https://www.google.com/maps/place/Muslim+Masjid+%D9%85%D8%B3%D9%84%D9%85+%D9%85%D8%B3%D8%AC%D8%AF%E2%80%AD/data=!4m7!3m6!1s0x3991bc638426a7d9:0xcc9749b1bb229d5e!8m2!3d26.0169295!4d83.1788244!16s%2Fg%2F11hcds6_g_!19sChIJ2acmhGO8kTkRXp0iu7FJl8w?authuser=0&hl=en&rclk=1",
        "coordinates": {
            "latitude": 26.0169295,
            "longitude": 83.1788244
        }
    },
    {
        "name": "Masjid Mosque Civil Lines Near Nagar Palika",
        "main_category": "Mosque",
        "address": "Masjid Mosque Civil Lines Near Nagar Palika, Alka Hotel Building, Nagar Palika, Shanti Nagar, Azamgarh, Uttar Pradesh 276001",
        "detailed_address": {
            "ward": "Shanti Nagar",
            "street": "Alka Hotel Building, Nagar Palika",
            "city": "Azamgarh",
            "postal_code": "276001",
            "state": "Uttar Pradesh",
            "country_code": "IN"
        },
        "images": [
            {
                "about": "All",
                "link": "https://streetviewpixels-pa.googleapis.com/v1/thumbnail?panoid=V3SBBTzaEKVKgRgD_y-G1A&cb_client=maps_sv.tactile.gps&w=224&h=298&yaw=333.1128&pitch=0&thumbfov=100"
            },
            {
                "about": "Street View & 360deg",
                "link": "https://streetviewpixels-pa.googleapis.com/v1/thumbnail?panoid=V3SBBTzaEKVKgRgD_y-G1A&cb_client=maps_sv.tactile.gps&w=224&h=298&yaw=333.1128&pitch=0&thumbfov=100"
            }
        ],
        "link": "https://www.google.com/maps/place/Masjid+Mosque+Civil+Lines+Near+Nagar+Palika/data=!4m7!3m6!1s0x3991bd461772dedf:0x795a40733e1fa126!8m2!3d26.0570368!4d83.1824786!16s%2Fg%2F11p9swmx1d!19sChIJ395yF0a9kTkRJqEfPnNAWnk?authuser=0&hl=en&rclk=1",
        "coordinates": {
            "latitude": 26.0570368,
            "longitude": 83.1824786
        }
    },
    {
        "name": "Masjid Al Noor",
        "main_category": "Mosque",
        "address": "26XH+CJ4 Masjid Al Noor, Jamuri, Sardarpur Rajput, Uttar Pradesh 276406",
        "detailed_address": {
            "ward": null,
            "street": "26XH+CJ4",
            "city": "Jamuri, Sardarpur Rajput",
            "postal_code": null,
            "state": "Uttar Pradesh",
            "country_code": "IN"
        },
        "images": [
            {
                "about": "All",
                "link": "https://lh5.googleusercontent.com/p/AF1QipPSzM5os9nOWU5_mhZPliHAWEFiosuWXYdb7AK6=w529-h298-k-no"
            },
            {
                "about": "Dome",
                "link": "https://lh5.googleusercontent.com/p/AF1QipPSzM5os9nOWU5_mhZPliHAWEFiosuWXYdb7AK6=w529-h298-k-no"
            }
        ],
        "link": "https://www.google.com/maps/place/Masjid+Al+Noor/data=!4m7!3m6!1s0x3991bd3fff0d5563:0xb7f86cc6932dcc08!8m2!3d26.0485171!4d83.2290712!16s%2Fg%2F11hchty6gh!19sChIJY1UN_z-9kTkRCMwtk8Zs-Lc?authuser=0&hl=en&rclk=1",
        "coordinates": {
            "latitude": 26.048517099999998,
            "longitude": 83.22907119999999
        }
    },
    {
        "name": "Masjid Bag Lakhraon",
        "main_category": "Mosque",
        "address": "3598+M48 Masjid Bag Lakhraon, Haraiya, Uttar Pradesh 276001",
        "detailed_address": {
            "ward": null,
            "street": "3598+M48",
            "city": "Haraiya",
            "postal_code": "276001",
            "state": "Uttar Pradesh",
            "country_code": "IN"
        },
        "images": [
            {
                "about": "All",
                "link": "https://lh5.googleusercontent.com/p/AF1QipOwd_0bzAJJt3lQQWpF37e9PfFXA7I-lEd-NMpW=w224-h398-k-no"
            },
            {
                "about": "Dome",
                "link": "https://lh5.googleusercontent.com/p/AF1QipOkNAYs9erJ7NpZ7gxYNbjgT7cTWxkFZTZUMfin=w224-h485-k-no"
            },
            {
                "about": "Videos",
                "link": "https://lh5.googleusercontent.com/p/AF1QipM2pemwXeBvPCiYnXTb-8Bk_Tkj6f-WoMWjGZDT=w224-h398-k-no"
            },
            {
                "about": "Street View & 360deg",
                "link": "https://streetviewpixels-pa.googleapis.com/v1/thumbnail?panoid=ULu75jU4UjYUZs7dbvio9w&cb_client=maps_sv.tactile.gps&w=224&h=298&yaw=230.4483&pitch=0&thumbfov=100"
            }
        ],
        "link": "https://www.google.com/maps/place/Masjid+Bag+Lakhraon/data=!4m7!3m6!1s0x3991a32ca035a5b9:0xbd3e7918de050610!8m2!3d26.0691632!4d83.1653182!16s%2Fg%2F11qn7h40tq!19sChIJuaU1oCyjkTkREAYF3hh5Pr0?authuser=0&hl=en&rclk=1",
        "coordinates": {
            "latitude": 26.0691632,
            "longitude": 83.1653182
        }
    },
    {
        "name": "Masjid Shibli Nomani msjd shbly n`mny",
        "main_category": "Mosque",
        "address": "35GM+GGM Masjid Shibli Nomani msjd shbly n`mny, Mukeriganj, Azamgarh, Uttar Pradesh 276001",
        "detailed_address": {
            "ward": "Mukeriganj",
            "street": "35GM+GGM",
            "city": "Azamgarh",
            "postal_code": "276001",
            "state": "Uttar Pradesh",
            "country_code": "IN"
        },
        "images": [
            {
                "about": "All",
                "link": "https://lh5.googleusercontent.com/p/AF1QipPXwuYuBYu7sPTYkJ3hrfdon1W5l_wnkOpB7JpE=w224-h299-k-no"
            },
            {
                "about": "Street View & 360deg",
                "link": "https://lh5.googleusercontent.com/p/AF1QipPHF9w1bhl1TMAQa7v4ma0RKgBnAihx2RmAxeTb=w224-h298-k-no-pi-0.112540185-ya239.88745-ro0-fo100"
            }
        ],
        "link": "https://www.google.com/maps/place/Masjid+Shibli+Nomani+%D9%85%D8%B3%D8%AC%D8%AF+%D8%B4%D8%A8%D9%84%DB%8C+%D9%86%D8%B9%D9%85%D8%A7%D9%86%DB%8C%E2%80%AD/data=!4m7!3m6!1s0x3991a34982c9b8ad:0xc3ff07255dbfdd70!8m2!3d26.0763349!4d83.1838001!16s%2Fg%2F11g8_q4pg8!19sChIJrbjJgkmjkTkRcN2_XSUH_8M?authuser=0&hl=en&rclk=1",
        "coordinates": {
            "latitude": 26.0763349,
            "longitude": 83.1838001
        }
    },
    {
        "name": "Karenhua Masjid",
        "main_category": "Mosque",
        "address": "4539+6MF Karenhua Masjid, Karendua, Uttar Pradesh 276135",
        "detailed_address": {
            "ward": null,
            "street": "4539+6MF",
            "city": "Karendua",
            "postal_code": null,
            "state": "Uttar Pradesh",
            "country_code": "IN"
        },
        "images": [
            {
                "about": "All",
                "link": "https://lh5.googleusercontent.com/p/AF1QipOHtdCqq8ckOMbO7_CPt-34uZDKzZogqnPgy6y7=w645-h298-k-no"
            }
        ],
        "link": "https://www.google.com/maps/place/Karenhua+Masjid/data=!4m7!3m6!1s0x3991a3afe8896873:0xbbde751f101f01e4!8m2!3d26.1030707!4d83.16916!16s%2Fg%2F11j2cn81pf!19sChIJc2iJ6K-jkTkR5AEfEB913rs?authuser=0&hl=en&rclk=1",
        "coordinates": {
            "latitude": 26.1030707,
            "longitude": 83.16915999999999
        }
    },
    {
        "name": "Aziziya Bagh Wali Jama Masjid",
        "main_category": "Mosque",
        "address": "35FM+4P5 Aziziya Bagh Wali Jama Masjid, Paharpur, Azamgarh, Uttar Pradesh 276001",
        "detailed_address": {
            "ward": "Paharpur",
            "street": "35FM+4P5",
            "city": "Azamgarh",
            "postal_code": "276001",
            "state": "Uttar Pradesh",
            "country_code": "IN"
        },
        "images": [
            {
                "about": "All",
                "link": "https://lh5.googleusercontent.com/p/AF1QipNWUYqtpFHfZY4SV4IiS731Ob4Vj65T-CpjfrE5=w678-h298-k-no"
            }
        ],
        "link": "https://www.google.com/maps/place/Aziziya+Bagh+Wali+Jama+Masjid/data=!4m7!3m6!1s0x3991a3314aabe9bb:0x4f5ca647d23b064b!8m2!3d26.0727512!4d83.1843507!16s%2Fg%2F11kwstrv8b!19sChIJu-mrSjGjkTkRSwY70kemXE8?authuser=0&hl=en&rclk=1",
        "coordinates": {
            "latitude": 26.0727512,
            "longitude": 83.1843507
        }
    },
    {
        "name": "Jama Masjid",
        "main_category": "Mosque",
        "address": "3629+C34 Jama Masjid, Noorudeenpur, Azamgarh, Uttar Pradesh 276001",
        "detailed_address": {
            "ward": null,
            "street": "3629+C34",
            "city": "Noorudeenpur, Azamgarh",
            "postal_code": null,
            "state": "Uttar Pradesh",
            "country_code": "IN"
        },
        "images": [
            {
                "about": "All",
                "link": "https://lh5.googleusercontent.com/p/AF1QipNxsDhskWi30wNqku05OjRGoeNWEP6-2vqumO8=w224-h298-k-no"
            },
            {
                "about": "Street View & 360deg",
                "link": "https://streetviewpixels-pa.googleapis.com/v1/thumbnail?panoid=nlXqf2ZrZ43o89yHzM1ZVw&cb_client=maps_sv.tactile.gps&w=224&h=298&yaw=359.06448&pitch=0&thumbfov=100"
            }
        ],
        "link": "https://www.google.com/maps/place/Jama+Masjid/data=!4m7!3m6!1s0x3991bde2ca69df75:0x1974f25cbee56efd!8m2!3d26.0510187!4d83.2176969!16s%2Fg%2F11r418n76r!19sChIJdd9pyuK9kTkR_W7lvlzydBk?authuser=0&hl=en&rclk=1",
        "coordinates": {
            "latitude": 26.0510187,
            "longitude": 83.21769689999999
        }
    },
    {
        "name": "Purani Masjid",
        "main_category": "Mosque",
        "address": "36H5+9JH Purani Masjid, Sheikhpura, Azamgarh, Sespura, Uttar Pradesh 276001",
        "detailed_address": {
            "ward": "Sheikhpura",
            "street": "36H5+9JH",
            "city": "Azamgarh, Sespura",
            "postal_code": "276001",
            "state": "Uttar Pradesh",
            "country_code": "IN"
        },
        "images": [
            {
                "about": "All",
                "link": "https://lh5.googleusercontent.com/p/AF1QipPaU78s8ZQW5SKIKY1Q1vkUfuuOsYoU5I38FPLB=w224-h313-k-no"
            }
        ],
        "link": "https://www.google.com/maps/place/Purani+Masjid/data=!4m7!3m6!1s0x3991a30b9b60b677:0x1f56a23aa32aa9b8!8m2!3d26.0784334!4d83.2091053!16s%2Fg%2F11h7cld6g2!19sChIJd7ZgmwujkTkRuKkqozqiVh8?authuser=0&hl=en&rclk=1",
        "coordinates": {
            "latitude": 26.078433399999998,
            "longitude": 83.20910529999999
        }
    },
    {
        "name": "Dugdugwa - Badi Masjid",
        "main_category": "Mosque",
        "address": "25PR+H4W Dugdugwa - Badi Masjid, Hydel Colony, Dugdugwa, Jamalpur Baz Bahadur, Uttar Pradesh 276001",
        "detailed_address": {
            "ward": "Hydel Colony",
            "street": "25PR+H4W",
            "city": "Dugdugwa, Jamalpur Baz Bahadur",
            "postal_code": "276001",
            "state": "Uttar Pradesh",
            "country_code": "IN"
        },
        "images": [
            {
                "about": "All",
                "link": "https://lh5.googleusercontent.com/p/AF1QipOe2ON5HYm8wvB1Yv28TCvezZGRcorIh3nHK_yh=w529-h298-k-no"
            }
        ],
        "link": "https://www.google.com/maps/place/Dugdugwa+-+Badi+Masjid/data=!4m7!3m6!1s0x3991bd208f6bda7f:0xa9c4644913ff9456!8m2!3d26.0364375!4d83.1903491!16s%2Fg%2F11n1j720mc!19sChIJf9prjyC9kTkRVpT_E0lkxKk?authuser=0&hl=en&rclk=1",
        "coordinates": {
            "latitude": 26.036437499999998,
            "longitude": 83.19034909999999
        }
    },
    {
        "name": "Ahle Hadees Masjid",
        "main_category": "Mosque",
        "address": "35CP+VCF Ahle Hadees Masjid, Rajesultanpur - Azamgarh Rd, Chakla, Azamgarh, Uttar Pradesh 276001",
        "detailed_address": {
            "ward": "Chakla",
            "street": "35CP+VCF, Rajesultanpur - Azamgarh Rd",
            "city": "Azamgarh",
            "postal_code": "276001",
            "state": "Uttar Pradesh",
            "country_code": "IN"
        },
        "images": [],
        "link": "https://www.google.com/maps/place/Ahle+Hadees+Masjid/data=!4m7!3m6!1s0x3991a3bd2a011f8f:0x9f5328b96949c9f3!8m2!3d26.0721826!4d83.1860421!16s%2Fg%2F11h422yklk!19sChIJjx8BKr2jkTkR88lJabkoU58?authuser=0&hl=en&rclk=1",
        "coordinates": {
            "latitude": 26.072182599999998,
            "longitude": 83.1860421
        }
    },
    {
        "name": "Jama Masjid",
        "main_category": "Place of worship",
        "address": "Jama Masjid, Vittal Ghat, 359G+57F, Kundigarh, Azamgarh, Uttar Pradesh 276001",
        "detailed_address": {
            "ward": "Basaeka",
            "street": "Vittal Ghat, 359G+57F, Kundigarh",
            "city": "Azamgarh, Araji Man Kunwar",
            "postal_code": "276001",
            "state": "Uttar Pradesh",
            "country_code": "IN"
        },
        "images": [
            {
                "about": "All",
                "link": "https://lh5.googleusercontent.com/p/AF1QipPxM1Vu0tMt-5FEIP5udTfYf1Rpx1nj8RWSxLPK=w397-h298-k-no"
            }
        ],
        "link": "https://www.google.com/maps/place/Jama+Masjid/data=!4m7!3m6!1s0x3991bd1995fbc2cd:0xd024e21f81916b2e!8m2!3d26.0678637!4d83.1762811!16s%2Fg%2F11s1rct2z0!19sChIJzcL7lRm9kTkRLmuRgR_iJNA?authuser=0&hl=en&rclk=1",
        "coordinates": {
            "latitude": 26.0678637,
            "longitude": 83.1762811
        }
    },
    {
        "name": "Muhammadi Jamia Masjid mHmdy jm` msjd",
        "main_category": "Mosque",
        "address": "36JX+2MQ Muhammadi Jamia Masjid mHmdy jm` msjd, Bamhaur, Uttar Pradesh 276406",
        "detailed_address": {
            "ward": null,
            "street": "36JX+2MQ",
            "city": "Bamhaur",
            "postal_code": "276406",
            "state": "Uttar Pradesh",
            "country_code": "IN"
        },
        "images": [
            {
                "about": "All",
                "link": "https://streetviewpixels-pa.googleapis.com/v1/thumbnail?panoid=1A080lgUIQe0PxoUddIF3w&cb_client=maps_sv.tactile.gps&w=224&h=298&yaw=36.372154&pitch=0&thumbfov=100"
            },
            {
                "about": "Street View & 360deg",
                "link": "https://streetviewpixels-pa.googleapis.com/v1/thumbnail?panoid=1A080lgUIQe0PxoUddIF3w&cb_client=maps_sv.tactile.gps&w=224&h=298&yaw=36.372154&pitch=0&thumbfov=100"
            }
        ],
        "link": "https://www.google.com/maps/place/Muhammadi+Jamia+Masjid+%D9%85%D8%AD%D9%85%D8%AF%DB%8C+%D8%AC%D8%A7%D9%85%D8%B9+%D9%85%D8%B3%D8%AC%D8%AF%E2%80%AD/data=!4m7!3m6!1s0x3991a33b93b4d089:0xcbfade94a489e8db!8m2!3d26.0800915!4d83.2492293!16s%2Fg%2F11h0m3pd9h!19sChIJidC0kzujkTkR2-iJpJTe-ss?authuser=0&hl=en&rclk=1",
        "coordinates": {
            "latitude": 26.080091499999998,
            "longitude": 83.2492293
        }
    },
    {
        "name": "Jama Masjid",
        "main_category": "Mosque",
        "address": "25PP+3RR Jama Masjid, Hydel Colony, Jamalpur Baz Bahadur, Uttar Pradesh 276001",
        "detailed_address": {
            "ward": "Hydel Colony",
            "street": "25PP+3RR",
            "city": "Jamalpur Baz Bahadur",
            "postal_code": "276001",
            "state": "Uttar Pradesh",
            "country_code": "IN"
        },
        "images": [
            {
                "about": "All",
                "link": "https://lh5.googleusercontent.com/p/AF1QipOVoG9f3NWpFVxm0mp4YlConqhf-dP24R53VyqU=w298-h298-k-no"
            },
            {
                "about": "Street View & 360deg",
                "link": "https://streetviewpixels-pa.googleapis.com/v1/thumbnail?panoid=bkH4nBFupD9pXXrUOsOdWA&cb_client=maps_sv.tactile.gps&w=224&h=298&yaw=354.54742&pitch=0&thumbfov=100"
            },
            {
                "about": "Videos",
                "link": "https://lh5.googleusercontent.com/p/AF1QipOl_J5HZ0jp7CLZYfKgrH51oiudlYw60AsNy0_I=w224-h398-k-no"
            }
        ],
        "link": "https://www.google.com/maps/place/Jama+Masjid/data=!4m7!3m6!1s0x3991bd1489f156a7:0xce9d36b23f7f55a0!8m2!3d26.0352305!4d83.1870101!16s%2Fg%2F11r3lfx5z8!19sChIJp1bxiRS9kTkRoFV_P7I2nc4?authuser=0&hl=en&rclk=1",
        "coordinates": {
            "latitude": 26.035230499999997,
            "longitude": 83.1870101
        }
    },
    {
        "name": "Gausiya masjid",
        "main_category": "Mosque",
        "address": "359P+5CC Gausiya masjid, Farashtola, Azamgarh, Uttar Pradesh 276001",
        "detailed_address": {
            "ward": "Farashtola",
            "street": "359P+5CC",
            "city": "Azamgarh",
            "postal_code": "276001",
            "state": "Uttar Pradesh",
            "country_code": "IN"
        },
        "images": [
            {
                "about": "All",
                "link": "https://lh5.googleusercontent.com/p/AF1QipP_9JUdA3zTHhy61bcBLGSHU_Qv6owcIoFdqwS2=w224-h298-k-no"
            }
        ],
        "link": "https://www.google.com/maps/place/Gausiya+masjid/data=!4m7!3m6!1s0x3991bd2b2f1cc1bd:0x2112ba80ecfed065!8m2!3d26.0679493!4d83.186001!16s%2Fg%2F11jfpmj8cf!19sChIJvcEcLyu9kTkRZdD-7IC6EiE?authuser=0&hl=en&rclk=1",
        "coordinates": {
            "latitude": 26.0679493,
            "longitude": 83.18600099999999
        }
    },
    {
        "name": "Sunni mohammadiya masjid",
        "main_category": "Mosque",
        "address": "25GM+MGW Sunni mohammadiya masjid, Gaurdih Khalsa, Uttar Pradesh 276001",
        "detailed_address": {
            "ward": null,
            "street": "25GM+MGW",
            "city": "Gaurdih Khalsa",
            "postal_code": null,
            "state": "Uttar Pradesh",
            "country_code": "IN"
        },
        "images": [
            {
                "about": "All",
                "link": "https://lh5.googleusercontent.com/p/AF1QipMdGj2mAiHifXqdhy0jOP-C9afmgx5n87pJAdky=w224-h485-k-no"
            },
            {
                "about": "Street View & 360deg",
                "link": "https://streetviewpixels-pa.googleapis.com/v1/thumbnail?panoid=jHr-n013-f0hmyuBVJKE4Q&cb_client=maps_sv.tactile.gps&w=224&h=298&yaw=261.6937&pitch=0&thumbfov=100"
            }
        ],
        "link": "https://www.google.com/maps/place/Sunni+mohammadiya+masjid/data=!4m7!3m6!1s0x3991bd13b538d587:0x18fdcf8c6f3fadcf!8m2!3d26.0267446!4d83.1838238!16s%2Fg%2F11r0xj37d6!19sChIJh9U4tRO9kTkRz60_b4zP_Rg?authuser=0&hl=en&rclk=1",
        "coordinates": {
            "latitude": 26.026744599999997,
            "longitude": 83.1838238
        }
    },
    {
        "name": "Masjid Umar Farooq r.a.",
        "main_category": "Mosque",
        "address": "Masjid Umar Farooq r.a., Friends Colonyd, Badarka, Azamgarh, Kodar Ajamatpur, Uttar Pradesh 276001",
        "detailed_address": {
            "ward": "Badarka",
            "street": "Friends Colonyd",
            "city": "Azamgarh, Kodar Ajamatpur",
            "postal_code": "276001",
            "state": "Uttar Pradesh",
            "country_code": "IN"
        },
        "images": [
            {
                "about": "All",
                "link": "https://lh5.googleusercontent.com/p/AF1QipOM2wAIxWYuVK1sOXoSL2EGrPGnm0KBn_hO74AR=w224-h397-k-no"
            }
        ],
        "link": "https://www.google.com/maps/place/Masjid+Umar+Farooq+r.a./data=!4m7!3m6!1s0x3991a37bb9990029:0x71b962691fc82b9a!8m2!3d26.0733714!4d83.1768903!16s%2Fg%2F11hzltmksp!19sChIJKQCZuXujkTkRmivIH2liuXE?authuser=0&hl=en&rclk=1",
        "coordinates": {
            "latitude": 26.0733714,
            "longitude": 83.1768903
        }
    },
    {
        "name": "juma masjid shahgarh",
        "main_category": "Mosque",
        "address": "26V9+8WV juma masjid shahgarh, Shahgarh, Baithauli, Uttar Pradesh 276406",
        "detailed_address": {
            "ward": null,
            "street": "26V9+8WV",
            "city": "Shahgarh, Baithauli",
            "postal_code": "276406",
            "state": "Uttar Pradesh",
            "country_code": "IN"
        },
        "images": [
            {
                "about": "All",
                "link": "https://streetviewpixels-pa.googleapis.com/v1/thumbnail?panoid=OHOixmyndyWmrW4m_phY4Q&cb_client=maps_sv.tactile.gps&w=224&h=298&yaw=302.15652&pitch=0&thumbfov=100"
            },
            {
                "about": "Street View & 360deg",
                "link": "https://streetviewpixels-pa.googleapis.com/v1/thumbnail?panoid=OHOixmyndyWmrW4m_phY4Q&cb_client=maps_sv.tactile.gps&w=224&h=298&yaw=302.15652&pitch=0&thumbfov=100"
            }
        ],
        "link": "https://www.google.com/maps/place/juma+masjid+shahgarh/data=!4m7!3m6!1s0x3991bd6d95b65d4f:0x90a1791ce2552eb8!8m2!3d26.0433553!4d83.219804!16s%2Fg%2F11kqp010vg!19sChIJT122lW29kTkRuC5V4hx5oZA?authuser=0&hl=en&rclk=1",
        "coordinates": {
            "latitude": 26.043355299999998,
            "longitude": 83.219804
        }
    },
    {
        "name": "Masjid Umar Al Khattab",
        "main_category": "Mosque",
        "address": "Masjid Umar Al Khattab, Pura Jodhi, Azamgarh, Uttar Pradesh 276001",
        "detailed_address": {
            "ward": "Pura Jodhi",
            "street": null,
            "city": "Azamgarh",
            "postal_code": "276001",
            "state": "Uttar Pradesh",
            "country_code": "IN"
        },
        "images": [
            {
                "about": "All",
                "link": "https://lh5.googleusercontent.com/p/AF1QipOq0Kyk7dSr89Rs7LGnZHL_2heKGFH-W7HHagU9=w224-h314-k-no"
            },
            {
                "about": "By owner",
                "link": "https://lh5.googleusercontent.com/p/AF1QipONA11vEZ7JDzz9NTKoCx15tDEX993xUOdriXYQ=w224-h398-k-no"
            },
            {
                "about": "Videos",
                "link": "https://lh5.googleusercontent.com/p/AF1QipMLZPyIdiuuVEM09jbqIXXegAVg4zRzAMAt51Rt=w224-h398-k-no"
            }
        ],
        "link": "https://www.google.com/maps/place/Masjid+Umar+Al+Khattab/data=!4m7!3m6!1s0x3991a334137a362f:0x99485eaf17c1f54f!8m2!3d26.0749949!4d83.1881057!16s%2Fg%2F11jxwf6l0h!19sChIJLzZ6EzSjkTkRT_XBF69eSJk?authuser=0&hl=en&rclk=1",
        "coordinates": {
            "latitude": 26.0749949,
            "longitude": 83.1881057
        }
    },
    {
        "name": "Masjid Khuda Baksh",
        "main_category": "Mosque",
        "address": "35CM+WC7 Masjid Khuda Baksh, Paharpur, Azamgarh, Uttar Pradesh 276001",
        "detailed_address": {
            "ward": "Paharpur",
            "street": "35CM+WC7",
            "city": "Azamgarh",
            "postal_code": "276001",
            "state": "Uttar Pradesh",
            "country_code": "IN"
        },
        "images": [],
        "link": "https://www.google.com/maps/place/Masjid+Khuda+Baksh/data=!4m7!3m6!1s0x3991a3aa52297013:0x83ef84e572405683!8m2!3d26.0722918!4d83.1835394!16s%2Fg%2F11rcty7xz7!19sChIJE3ApUqqjkTkRg1ZAcuWE74M?authuser=0&hl=en&rclk=1",
        "coordinates": {
            "latitude": 26.0722918,
            "longitude": 83.1835394
        }
    },
    {
        "name": "Masjid-e-Hakeem",
        "main_category": "Mosque",
        "address": "35CQ+CF3 Masjid-e-Hakeem, Kote Qila Rd, Kot, Azamgarh, Uttar Pradesh 276001",
        "detailed_address": {
            "ward": "Kot",
            "street": "35CQ+CF3, Kote Qila Rd",
            "city": "Azamgarh",
            "postal_code": "276001",
            "state": "Uttar Pradesh",
            "country_code": "IN"
        },
        "images": [
            {
                "about": "All",
                "link": "https://lh5.googleusercontent.com/p/AF1QipM7fGOD2L7w47_ynTbxYpCenk5eS8AzTsdNb68N=w397-h298-k-no"
            }
        ],
        "link": "https://www.google.com/maps/place/Masjid-e-Hakeem/data=!4m7!3m6!1s0x3991a318dad8bdd9:0xebd0d5a9c76f510f!8m2!3d26.071018!4d83.1886791!16s%2Fg%2F11fthjqjhc!19sChIJ2b3Y2hijkTkRD1Fvx6nV0Os?authuser=0&hl=en&rclk=1",
        "coordinates": {
            "latitude": 26.071018,
            "longitude": 83.1886791
        }
    },
    {
        "name": "Masjid Pathanpura chhatwara",
        "main_category": "Mosque",
        "address": "258G+8W Masjid Pathanpura chhatwara, Azamgarh, Abu Saeedpur, Uttar Pradesh 276128",
        "detailed_address": {
            "ward": null,
            "street": "258G+8W",
            "city": "Azamgarh, Abu Saeedpur",
            "postal_code": null,
            "state": "Uttar Pradesh",
            "country_code": "IN"
        },
        "images": [
            {
                "about": "All",
                "link": "https://lh5.googleusercontent.com/p/AF1QipOLHKUrQKgHiZGkCADwkU5-ww2XTBam2fv9yiT7=w224-h298-k-no"
            }
        ],
        "link": "https://www.google.com/maps/place/Masjid+Pathanpura+chhatwara/data=!4m7!3m6!1s0x3991bd30c5f1d6f9:0xb9e9f4da24fa578!8m2!3d26.0156199!4d83.1771731!16s%2Fg%2F11q4m4mjl2!19sChIJ-dbxxTC9kTkReKVPok2fngs?authuser=0&hl=en&rclk=1",
        "coordinates": {
            "latitude": 26.015619899999997,
            "longitude": 83.17717309999999
        }
    },
    {
        "name": "IMAMIA MASJID",
        "main_category": "Mosque",
        "address": "343Q+R22 IMAMIA MASJID, Unnamed Road, Bhaduli, Uttar Pradesh 276001",
        "detailed_address": {
            "ward": null,
            "street": "343Q+R22, Unnamed Road",
            "city": "Bhaduli",
            "postal_code": "276001",
            "state": "Uttar Pradesh",
            "country_code": "IN"
        },
        "images": [
            {
                "about": "All",
                "link": "https://lh5.googleusercontent.com/p/AF1QipOM7X1G3x70W8eACATKvr-HXoCwyQQ0MrzHMTi5=w224-h298-k-no"
            },
            {
                "about": "Dome",
                "link": "https://lh5.googleusercontent.com/p/AF1QipN1kdIY1fjqm2LZxmScqQh2gn7FZnlt_9gU9MJZ=w224-h398-k-no"
            }
        ],
        "link": "https://www.google.com/maps/place/IMAMIA+MASJID/data=!4m7!3m6!1s0x3991bb562c37507b:0xe87f3b33ea40418f!8m2!3d26.0545062!4d83.137506!16s%2Fg%2F11fkr1d1lx!19sChIJe1A3LFa7kTkRj0FA6jM7f-g?authuser=0&hl=en&rclk=1",
        "coordinates": {
            "latitude": 26.0545062,
            "longitude": 83.137506
        }
    },
    {
        "name": "Sardar khan Jama Masjid",
        "main_category": "Mosque",
        "address": "35FR+669 Sardar khan Jama Masjid, Bazbahadur, Azamgarh, Uttar Pradesh 276001",
        "detailed_address": {
            "ward": "Bazbahadur",
            "street": "35FR+669",
            "city": "Azamgarh",
            "postal_code": "276001",
            "state": "Uttar Pradesh",
            "country_code": "IN"
        },
        "images": [
            {
                "about": "All",
                "link": "https://lh5.googleusercontent.com/p/AF1QipOxoukpk8WoWrHmBj8i06iiZJ85rhrfCqzAFbPu=w397-h298-k-no"
            },
            {
                "about": "Street View & 360deg",
                "link": "https://streetviewpixels-pa.googleapis.com/v1/thumbnail?panoid=Ze9Q2dLIl6Hf89rdVnYPjw&cb_client=maps_sv.tactile.gps&w=224&h=298&yaw=225.65019&pitch=0&thumbfov=100"
            }
        ],
        "link": "https://www.google.com/maps/place/Sardar+khan+Jama+Masjid/data=!4m7!3m6!1s0x3991a3e97665d631:0xe3bc432f3206580b!8m2!3d26.073032!4d83.1905938!16s%2Fg%2F11s9llhrrt!19sChIJMdZldumjkTkRC1gGMi9DvOM?authuser=0&hl=en&rclk=1",
        "coordinates": {
            "latitude": 26.073031999999998,
            "longitude": 83.1905938
        }
    },
    {
        "name": "Jumma Masjid",
        "main_category": "Mosque",
        "address": "25GJ+CGR Jumma Masjid, Harbanshpur, Sarai Sadi, Uttar Pradesh 276001",
        "detailed_address": {
            "ward": "Harbanshpur",
            "street": "25GJ+CGR",
            "city": "Sarai Sadi",
            "postal_code": "276001",
            "state": "Uttar Pradesh",
            "country_code": "IN"
        },
        "images": [],
        "link": "https://www.google.com/maps/place/Jumma+Masjid/data=!4m7!3m6!1s0x3991bd80d630f8a5:0x23bbbb66fdf77363!8m2!3d26.0261047!4d83.1812524!16s%2Fg%2F11nn3j2v3q!19sChIJpfgw1oC9kTkRY3P3_Wa7uyM?authuser=0&hl=en&rclk=1",
        "coordinates": {
            "latitude": 26.026104699999998,
            "longitude": 83.18125239999999
        }
    },
    {
        "name": "Daftari Masjid",
        "main_category": "Mosque",
        "address": "35CP+FXC Daftari Masjid, Chakla, Azamgarh, Uttar Pradesh 276001",
        "detailed_address": {
            "ward": "Chakla",
            "street": "35CP+FXC",
            "city": "Azamgarh",
            "postal_code": "276001",
            "state": "Uttar Pradesh",
            "country_code": "IN"
        },
        "images": [
            {
                "about": "All",
                "link": "https://lh5.googleusercontent.com/p/AF1QipPG9gyTWiRF_IVOY9Re4wwILJk3OApIax1SB216=w224-h298-k-no"
            },
            {
                "about": "Videos",
                "link": "https://lh5.googleusercontent.com/p/AF1QipO3lLlF_mWwZfov4wBmKYyL1O1f688kg6nu3S0P=w224-h398-k-no"
            }
        ],
        "link": "https://www.google.com/maps/place/Daftari+Masjid/data=!4m7!3m6!1s0x3991a36d56b59181:0x341c26f31309c253!8m2!3d26.0711802!4d83.187395!16s%2Fg%2F11p13pmd6m!19sChIJgZG1Vm2jkTkRU8IJE_MmHDQ?authuser=0&hl=en&rclk=1",
        "coordinates": {
            "latitude": 26.0711802,
            "longitude": 83.187395
        }
    },
    {
        "name": "Masjid",
        "main_category": "Mosque",
        "address": "454Q+PGV Masjid, Naamdarpur, Uttar Pradesh 276135",
        "detailed_address": {
            "ward": null,
            "street": "454Q+PGV",
            "city": "Naamdarpur",
            "postal_code": null,
            "state": "Uttar Pradesh",
            "country_code": "IN"
        },
        "images": [
            {
                "about": "All",
                "link": "https://streetviewpixels-pa.googleapis.com/v1/thumbnail?panoid=c2_q_KrMqmvK-c9Yh-v01w&cb_client=maps_sv.tactile.gps&w=224&h=298&yaw=326.50513&pitch=0&thumbfov=100"
            },
            {
                "about": "Street View & 360deg",
                "link": "https://streetviewpixels-pa.googleapis.com/v1/thumbnail?panoid=c2_q_KrMqmvK-c9Yh-v01w&cb_client=maps_sv.tactile.gps&w=224&h=298&yaw=326.50513&pitch=0&thumbfov=100"
            }
        ],
        "link": "https://www.google.com/maps/place/Masjid/data=!4m7!3m6!1s0x3991a3d26d79c0ad:0x33a33cac6a10708c!8m2!3d26.1068645!4d83.1887833!16s%2Fg%2F11pbvxml8v!19sChIJrcB5bdKjkTkRjHAQaqw8ozM?authuser=0&hl=en&rclk=1",
        "coordinates": {
            "latitude": 26.1068645,
            "longitude": 83.1887833
        }
    },
    {
        "name": "Mohabbatpur Masjid",
        "main_category": "Mosque",
        "address": "366V+2VV Mohabbatpur Masjid, Azamgarh-Mubarakpur Rd, Azamgarh, Nibi Bujurg, Uttar Pradesh 270061",
        "detailed_address": {
            "ward": null,
            "street": "366V+2VV, Azamgarh-Mubarakpur Rd",
            "city": "Azamgarh, Nibi Bujurg",
            "postal_code": "270061",
            "state": "Uttar Pradesh",
            "country_code": "IN"
        },
        "images": [
            {
                "about": "All",
                "link": "https://lh5.googleusercontent.com/p/AF1QipNnIePNtV8p8uIvcclHvE5nWo0Bn8JbHbDbtehQ=w529-h298-k-no"
            },
            {
                "about": "Street View & 360deg",
                "link": "https://streetviewpixels-pa.googleapis.com/v1/thumbnail?panoid=XKK4aRszDEAAkjrr26FjEw&cb_client=maps_sv.tactile.gps&w=224&h=298&yaw=139.4161&pitch=0&thumbfov=100"
            },
            {
                "about": "Videos",
                "link": "https://lh5.googleusercontent.com/p/AF1QipPHiAD5ftzyH0EI8fiAqHGoma2WqnhjzBmZ55Op=w224-h389-k-no"
            }
        ],
        "link": "https://www.google.com/maps/place/Mohabbatpur+Masjid/data=!4m7!3m6!1s0x3991bd2e506d5697:0x5ffdd44196d23089!8m2!3d26.0601171!4d83.2446638!16s%2Fg%2F11rc73h2zn!19sChIJl1ZtUC69kTkRiTDSlkHU_V8?authuser=0&hl=en&rclk=1",
        "coordinates": {
            "latitude": 26.0601171,
            "longitude": 83.2446638
        }
    },
    {
        "name": "Jama Masjid",
        "main_category": "Mosque",
        "address": "259J+HRW Jama Masjid, Chandeshwar, Azamgarh, Uttar Pradesh 276128",
        "detailed_address": {
            "ward": "Chandeshwar",
            "street": "259J+HRW",
            "city": "Azamgarh",
            "postal_code": "276128",
            "state": "Uttar Pradesh",
            "country_code": "IN"
        },
        "images": [
            {
                "about": "All",
                "link": "https://streetviewpixels-pa.googleapis.com/v1/thumbnail?panoid=2zYEbkFohd3bdNbZBgNIgw&cb_client=maps_sv.tactile.gps&w=224&h=298&yaw=129.64865&pitch=0&thumbfov=100"
            },
            {
                "about": "Street View & 360deg",
                "link": "https://streetviewpixels-pa.googleapis.com/v1/thumbnail?panoid=2zYEbkFohd3bdNbZBgNIgw&cb_client=maps_sv.tactile.gps&w=224&h=298&yaw=129.64865&pitch=0&thumbfov=100"
            }
        ],
        "link": "https://www.google.com/maps/place/Jama+Masjid/data=!4m7!3m6!1s0x3991bd829c7aa619:0x5760fa6b91ef5342!8m2!3d26.0189866!4d83.1820653!16s%2Fg%2F11pb176mg1!19sChIJGaZ6nIK9kTkRQlPvkWv6YFc?authuser=0&hl=en&rclk=1",
        "coordinates": {
            "latitude": 26.018986599999998,
            "longitude": 83.18206529999999
        }
    },
    {
        "name": "Jalandhari masjid",
        "main_category": "Mosque",
        "address": "Jalandhari masjid, takiya link qurais school new coloney jalandhri 219, Chakla, Azamgarh, Uttar Pradesh 276001",
        "detailed_address": {
            "ward": "Chakla",
            "street": "takiya link qurais school new coloney jalandhri 219",
            "city": "Azamgarh",
            "postal_code": "276001",
            "state": "Uttar Pradesh",
            "country_code": "IN"
        },
        "images": [],
        "link": "https://www.google.com/maps/place/Jalandhari+masjid/data=!4m7!3m6!1s0x3991a31e85d84dc1:0x44c8513d5088cf5c!8m2!3d26.0725146!4d83.1873824!16s%2Fg%2F11k1g8l78k!19sChIJwU3YhR6jkTkRXM-IUD1RyEQ?authuser=0&hl=en&rclk=1",
        "coordinates": {
            "latitude": 26.072514599999998,
            "longitude": 83.18738239999999
        }
    },
    {
        "name": "Badi Masjid",
        "main_category": "Mosque",
        "address": "35CH+QF2 Badi Masjid, Baderqua, Basaeka, Azamgarh, Uttar Pradesh 276001",
        "detailed_address": {
            "ward": "Basaeka",
            "street": "35CH+QF2, Baderqua",
            "city": "Azamgarh, Kodar Ajamatpur",
            "postal_code": "276001",
            "state": "Uttar Pradesh",
            "country_code": "IN"
        },
        "images": [],
        "link": "https://www.google.com/maps/place/Badi+Masjid/data=!4m7!3m6!1s0x3991a3362db95651:0x19ab63a1320099a9!8m2!3d26.0718942!4d83.1786419!16s%2Fg%2F11rhwct2z0!19sChIJUVa5LTajkTkRqZkAMqFjqxk?authuser=0&hl=en&rclk=1",
        "coordinates": {
            "latitude": 26.0718942,
            "longitude": 83.1786419
        }
    },
    {
        "name": "Masjid E Aisha",
        "main_category": "Mosque",
        "address": "35CJ+7HH Masjid E Aisha, Unnamed Road, Dal Singar, Azamgarh, Uttar Pradesh 276001",
        "detailed_address": {
            "ward": "Dal Singar",
            "street": "35CJ+7HH, Unnamed Road",
            "city": "Azamgarh",
            "postal_code": "276001",
            "state": "Uttar Pradesh",
            "country_code": "IN"
        },
        "images": [],
        "link": "https://www.google.com/maps/place/Masjid+E+Aisha/data=!4m7!3m6!1s0x3991a38022c9e57d:0xb59a500da6e037e2!8m2!3d26.0706769!4d83.1814944!16s%2Fg%2F11fd458fsk!19sChIJfeXJIoCjkTkR4jfgpg1QmrU?authuser=0&hl=en&rclk=1",
        "coordinates": {
            "latitude": 26.0706769,
            "longitude": 83.18149439999999
        }
    },
    {
        "name": "Masjid Faizane Aala Hazrat",
        "main_category": "Mosque",
        "address": "35CQ+RR7 Masjid Faizane Aala Hazrat, Bazbahadur, Azamgarh, Uttar Pradesh 276001",
        "detailed_address": {
            "ward": "Bazbahadur",
            "street": "35CQ+RR7",
            "city": "Azamgarh",
            "postal_code": "276001",
            "state": "Uttar Pradesh",
            "country_code": "IN"
        },
        "images": [
            {
                "about": "All",
                "link": "https://lh5.googleusercontent.com/p/AF1QipO4aND1G8dkruailm-p5pTlfgQYwRCKJ3orcMaY=w397-h298-k-no"
            }
        ],
        "link": "https://www.google.com/maps/place/Masjid+Faizane+Aala+Hazrat/data=!4m7!3m6!1s0x3991a3d72fdf7141:0xe756d94313db17ee!8m2!3d26.0720563!4d83.189504!16s%2Fg%2F11kj81rqc1!19sChIJQXHfL9ejkTkR7hfbE0PZVuc?authuser=0&hl=en&rclk=1",
        "coordinates": {
            "latitude": 26.0720563,
            "longitude": 83.189504
        }
    },
    {
        "name": "Jama Masjid Maharajpur",
        "main_category": "Mosque",
        "address": "4555+8C6 Jama Masjid Maharajpur, Sehda, Uttar Pradesh 276135",
        "detailed_address": {
            "ward": null,
            "street": "4555+8C6",
            "city": "Sehda",
            "postal_code": "276135",
            "state": "Uttar Pradesh",
            "country_code": "IN"
        },
        "images": [
            {
                "about": "All",
                "link": "https://lh5.googleusercontent.com/p/AF1QipPyyLxhKXeZl6Nj2EG6N4Md11tAXwbf1H21M1hi=w224-h298-k-no"
            },
            {
                "about": "By owner",
                "link": "https://lh5.googleusercontent.com/p/AF1QipP80a9h0qwORcaLHOpw3tyj-3Bl8SSbxGMXIqod=w224-h485-k-no"
            },
            {
                "about": "Street View & 360deg",
                "link": "https://lh5.googleusercontent.com/p/AF1QipOOgat1eZCzLfCcdFLYbD4pnE7aAmVcGQ0c7400=w224-h298-k-no-pi-10-ya281-ro-0-fo100"
            }
        ],
        "link": "https://www.google.com/maps/place/Jama+Masjid+Maharajpur/data=!4m7!3m6!1s0x3991a51e3dcb7543:0x32bd3db2fd298890!8m2!3d26.1082554!4d83.1584687!16s%2Fg%2F11t9w0hvt3!19sChIJQ3XLPR6lkTkRkIgp_bI9vTI?authuser=0&hl=en&rclk=1",
        "coordinates": {
            "latitude": 26.108255399999997,
            "longitude": 83.1584687
        }
    },
    {
        "name": "Masjid",
        "main_category": "Mosque",
        "address": "357M+R8R Masjid, kurnditola, Azamgarh, Uttar Pradesh 276001",
        "detailed_address": {
            "ward": "kurnditola",
            "street": "357M+R8R, kurnditola",
            "city": "Azamgarh",
            "postal_code": "276001",
            "state": "Uttar Pradesh",
            "country_code": "IN"
        },
        "images": [
            {
                "about": "All",
                "link": "https://lh5.googleusercontent.com/p/AF1QipPMOwMFaaf0CnbxSHMPJUpFTnXW8cMoHG3GtvQ4=w224-h398-k-no"
            },
            {
                "about": "Street View & 360deg",
                "link": "https://streetviewpixels-pa.googleapis.com/v1/thumbnail?panoid=m_2cZ0oL4GKq1jBcqEtV6Q&cb_client=maps_sv.tactile.gps&w=224&h=298&yaw=355.3721&pitch=0&thumbfov=100"
            }
        ],
        "link": "https://www.google.com/maps/place/Masjid/data=!4m7!3m6!1s0x3991bd2fbbacb4cd:0xa9fa63c255b16d31!8m2!3d26.0646089!4d83.1832496!16s%2Fg%2F11y1cgcyw0!19sChIJzbSsuy-9kTkRMW2xVcJj-qk?authuser=0&hl=en&rclk=1",
        "coordinates": {
            "latitude": 26.0646089,
            "longitude": 83.1832496
        }
    },
    {
        "name": "Belal Masjid",
        "main_category": "Mosque",
        "address": "35HP+GX3 Belal Masjid, Lala Lajpatrai Marg, Mukeriganj, Azamgarh, Uttar Pradesh 276001",
        "detailed_address": {
            "ward": "Mukeriganj",
            "street": "35HP+GX3, Lala Lajpatrai Marg",
            "city": "Azamgarh",
            "postal_code": "276001",
            "state": "Uttar Pradesh",
            "country_code": "IN"
        },
        "images": [],
        "link": "https://www.google.com/maps/place/Belal+Masjid/data=!4m7!3m6!1s0x3991a315b5f1059b:0x953a6a117393b962!8m2!3d26.0787569!4d83.1874218!16s%2Fg%2F11fjv4h5bp!19sChIJmwXxtRWjkTkRYrmTcxFqOpU?authuser=0&hl=en&rclk=1",
        "coordinates": {
            "latitude": 26.0787569,
            "longitude": 83.1874218
        }
    },
    {
        "name": "Al-Saif Masjid",
        "main_category": "Mosque",
        "address": "3597+JQ3 Al-Saif Masjid, Bag Lakhram, Haraiya, Uttar Pradesh 276001",
        "detailed_address": {
            "ward": null,
            "street": "3597+JQ3",
            "city": "Bag Lakhram, Haraiya",
            "postal_code": null,
            "state": "Uttar Pradesh",
            "country_code": "IN"
        },
        "images": [
            {
                "about": "All",
                "link": "https://lh5.googleusercontent.com/p/AF1QipOOg8WkE-mAzUR_Z7ox9rgKNhT9NM6ujAFl3ggq=w224-h398-k-no"
            }
        ],
        "link": "https://www.google.com/maps/place/Al-Saif+Masjid/data=!4m7!3m6!1s0x3991a55485d0596f:0x2e66beb9630cbf42!8m2!3d26.0690076!4d83.1644296!16s%2Fg%2F11t189_skh!19sChIJb1nQhVSlkTkRQr8MY7m-Zi4?authuser=0&hl=en&rclk=1",
        "coordinates": {
            "latitude": 26.0690076,
            "longitude": 83.16442959999999
        }
    },
    {
        "name": "Choti Masjid",
        "main_category": "Mosque",
        "address": "35HR+PGP Choti Masjid, Rahmat Nagar, Purai Ghulami, Azamgarh, Uttar Pradesh 276001",
        "detailed_address": {
            "ward": "Rahmat Nagar, Purai Ghulami",
            "street": "35HR+PGP",
            "city": "Azamgarh",
            "postal_code": "276001",
            "state": "Uttar Pradesh",
            "country_code": "IN"
        },
        "images": [
            {
                "about": "All",
                "link": "https://streetviewpixels-pa.googleapis.com/v1/thumbnail?panoid=GF_ryP3t9MvnkeXsw4LRKw&cb_client=maps_sv.tactile.gps&w=224&h=298&yaw=295.60956&pitch=0&thumbfov=100"
            },
            {
                "about": "Street View & 360deg",
                "link": "https://streetviewpixels-pa.googleapis.com/v1/thumbnail?panoid=GF_ryP3t9MvnkeXsw4LRKw&cb_client=maps_sv.tactile.gps&w=224&h=298&yaw=295.60956&pitch=0&thumbfov=100"
            }
        ],
        "link": "https://www.google.com/maps/place/Choti+Masjid/data=!4m7!3m6!1s0x3991a361dc8276ad:0xd699a1982dda3382!8m2!3d26.0793348!4d83.1913272!16s%2Fg%2F11kqdsbqcl!19sChIJrXaC3GGjkTkRgjPaLZihmdY?authuser=0&hl=en&rclk=1",
        "coordinates": {
            "latitude": 26.079334799999998,
            "longitude": 83.19132719999999
        }
    },
    {
        "name": "Babuan Masjid",
        "main_category": "Place of worship",
        "address": "25WR+8F7 Babuan Masjid, Babuan St, Sidhari, Azamgarh, Uttar Pradesh 276001",
        "detailed_address": {
            "ward": "Sidhari",
            "street": "25WR+8F7, Babuan St",
            "city": "Azamgarh",
            "postal_code": "276001",
            "state": "Uttar Pradesh",
            "country_code": "IN"
        },
        "images": [
            {
                "about": "All",
                "link": "https://streetviewpixels-pa.googleapis.com/v1/thumbnail?panoid=XImh-NQT8XKF6BNFsEVYng&cb_client=maps_sv.tactile.gps&w=224&h=298&yaw=255.71997&pitch=0&thumbfov=100"
            },
            {
                "about": "Street View & 360deg",
                "link": "https://streetviewpixels-pa.googleapis.com/v1/thumbnail?panoid=XImh-NQT8XKF6BNFsEVYng&cb_client=maps_sv.tactile.gps&w=224&h=298&yaw=255.71997&pitch=0&thumbfov=100"
            }
        ],
        "link": "https://www.google.com/maps/place/Babuan+Masjid/data=!4m7!3m6!1s0x3991bd7d2466eca3:0xa74f1263935b5a2b!8m2!3d26.0457618!4d83.1911561!16s%2Fg%2F11t_z1x613!19sChIJo-xmJH29kTkRK1pbk2MST6c?authuser=0&hl=en&rclk=1",
        "coordinates": {
            "latitude": 26.045761799999998,
            "longitude": 83.1911561
        }
    },
    {
        "name": "Noor masjid",
        "main_category": "Mosque",
        "address": "House No, Noor masjid, Shafimanzil Mansoor Ali (Advocate, 106, Palhani, Paharpur, Azamgarh, Uttar Pradesh 276001",
        "detailed_address": {
            "ward": "Palhani, Paharpur",
            "street": "House No, Shafimanzil Mansoor Ali (Advocate, 106",
            "city": "Azamgarh",
            "postal_code": "276001",
            "state": "Uttar Pradesh",
            "country_code": "IN"
        },
        "images": [
            {
                "about": "All",
                "link": "https://lh5.googleusercontent.com/p/AF1QipMr6ipEpkbzKAFHTqfhfI7JJdus7ztMaOoixYSP=w224-h298-k-no"
            }
        ],
        "link": "https://www.google.com/maps/place/Noor+masjid/data=!4m7!3m6!1s0x3991a3cd17668fe7:0x55e1f36046d6cc4a!8m2!3d26.0737388!4d83.1844415!16s%2Fg%2F11ts_6s4bv!19sChIJ549mF82jkTkRSszWRmDz4VU?authuser=0&hl=en&rclk=1",
        "coordinates": {
            "latitude": 26.073738799999997,
            "longitude": 83.18444149999999
        }
    },
    {
        "name": "Shia jama masjid",
        "main_category": "Mosque",
        "address": "342G+X84 Shia jama masjid, Shivli, Uttar Pradesh 276001",
        "detailed_address": {
            "ward": null,
            "street": "342G+X84",
            "city": "Shivli",
            "postal_code": "276001",
            "state": "Uttar Pradesh",
            "country_code": "IN"
        },
        "images": [
            {
                "about": "All",
                "link": "https://streetviewpixels-pa.googleapis.com/v1/thumbnail?panoid=RTC3qCCeSJtYu2Eh0yXw5Q&cb_client=maps_sv.tactile.gps&w=224&h=298&yaw=11.180047&pitch=0&thumbfov=100"
            },
            {
                "about": "Street View & 360deg",
                "link": "https://streetviewpixels-pa.googleapis.com/v1/thumbnail?panoid=RTC3qCCeSJtYu2Eh0yXw5Q&cb_client=maps_sv.tactile.gps&w=224&h=298&yaw=11.180047&pitch=0&thumbfov=100"
            }
        ],
        "link": "https://www.google.com/maps/place/Shia+jama+masjid/data=!4m7!3m6!1s0x3991bbbafa1a2d93:0xb317d4975e73fe17!8m2!3d26.052382!4d83.1258295!16s%2Fg%2F11s0vjvhnc!19sChIJky0a-rq7kTkRF_5zXpfUF7M?authuser=0&hl=en&rclk=1",
        "coordinates": {
            "latitude": 26.052381999999998,
            "longitude": 83.1258295
        }
    },
    {
        "name": "Eid Gaah Sidhari `ydgh sdhry",
        "main_category": "Mosque",
        "address": "25XR+25M Eid Gaah Sidhari `ydgh sdhry, Sidhari, Azamgarh, Uttar Pradesh 276001",
        "detailed_address": {
            "ward": "Sidhari",
            "street": "25XR+25M",
            "city": "Azamgarh",
            "postal_code": "276001",
            "state": "Uttar Pradesh",
            "country_code": "IN"
        },
        "images": [
            {
                "about": "All",
                "link": "https://lh5.googleusercontent.com/p/AF1QipMwv1D2Dnt8XM15HQCMhpGv4i06bDIPwMWyPTQW=w224-h398-k-no"
            },
            {
                "about": "Videos",
                "link": "https://lh5.googleusercontent.com/p/AF1QipM07wfmzl_zkCxqDToQ1RVuAk7jiygfUlxohw4d=w224-h398-k-no"
            }
        ],
        "link": "https://www.google.com/maps/place/Eid+Gaah+Sidhari+%D8%B9%DB%8C%D8%AF%DA%AF%D8%A7%DB%81+%D8%B3%D8%AF%DA%BE%D8%A7%D8%B1%DB%8C%E2%80%AD/data=!4m7!3m6!1s0x3991bd427a678fb3:0x57016be6de357488!8m2!3d26.0475885!4d83.1904287!16s%2Fg%2F11fl9hhdhs!19sChIJs49nekK9kTkRiHQ13uZrAVc?authuser=0&hl=en&rclk=1",
        "coordinates": {
            "latitude": 26.0475885,
            "longitude": 83.1904287
        }
    },
    {
        "name": "Jama Masjid Millat Nagar, Azamgarh",
        "main_category": "Mosque",
        "address": "35FH+XGG Jama Masjid Millat Nagar, Azamgarh, Millat Nagar, Arazibag, Azamgarh, Uttar Pradesh 276001",
        "detailed_address": {
            "ward": "Millat Nagar, Arazibag",
            "street": "35FH+XGG",
            "city": "Azamgarh",
            "postal_code": "276001",
            "state": "Uttar Pradesh",
            "country_code": "IN"
        },
        "images": [
            {
                "about": "All",
                "link": "https://streetviewpixels-pa.googleapis.com/v1/thumbnail?panoid=ryW2x7gTmbwleYtkAwt0aQ&cb_client=maps_sv.tactile.gps&w=224&h=298&yaw=151.16937&pitch=0&thumbfov=100"
            },
            {
                "about": "Street View & 360deg",
                "link": "https://streetviewpixels-pa.googleapis.com/v1/thumbnail?panoid=ryW2x7gTmbwleYtkAwt0aQ&cb_client=maps_sv.tactile.gps&w=224&h=298&yaw=151.16937&pitch=0&thumbfov=100"
            }
        ],
        "link": "https://www.google.com/maps/place/Jama+Masjid+Millat+Nagar,+Azamgarh/data=!4m7!3m6!1s0x3991a3077378f685:0xc20ff2e9d87c47e5!8m2!3d26.0749468!4d83.1788307!16s%2Fg%2F11tmdckk94!19sChIJhfZ4cwejkTkR5Ud82OnyD8I?authuser=0&hl=en&rclk=1",
        "coordinates": {
            "latitude": 26.0749468,
            "longitude": 83.17883069999999
        }
    },
    {
        "name": "Sidhari Jama Masjid",
        "main_category": "Mosque",
        "address": "25VQ+7M4 Sidhari Jama Masjid, Ghosi, Azamgarh, Uttar Pradesh 276001",
        "detailed_address": {
            "ward": "Ghosi",
            "street": "25VQ+7M4",
            "city": "Azamgarh",
            "postal_code": "276001",
            "state": "Uttar Pradesh",
            "country_code": "IN"
        },
        "images": [],
        "link": "https://www.google.com/maps/place/Sidhari+Jama+Masjid/data=!4m7!3m6!1s0x3991bd33fe47074f:0x9eebab933266e0f2!8m2!3d26.0431494!4d83.1891998!16s%2Fg%2F11pb173s9y!19sChIJTwdH_jO9kTkR8uBmMpOr654?authuser=0&hl=en&rclk=1",
        "coordinates": {
            "latitude": 26.043149399999997,
            "longitude": 83.1891998
        }
    },
    {
        "name": "msjd bll",
        "main_category": "Mosque",
        "address": "35GR+HQP msjd bll, Mahtab Road, Purai Ghulami, Azamgarh, Uttar Pradesh 276001",
        "detailed_address": {
            "ward": "Purai Ghulami",
            "street": "35GR+HQP, Mahtab Road",
            "city": "Azamgarh",
            "postal_code": "276001",
            "state": "Uttar Pradesh",
            "country_code": "IN"
        },
        "images": [],
        "link": "https://www.google.com/maps/place/%D9%85%D8%B3%D8%AC%D8%AF+%D8%A8%D9%84%D8%A7%D9%84%E2%80%AD/data=!4m7!3m6!1s0x3991a3528f365f87:0x7eebc31b35fb40b7!8m2!3d26.0764606!4d83.1919463!16s%2Fg%2F11py6g7rn6!19sChIJh182j1KjkTkRt0D7NRvD634?authuser=0&hl=en&rclk=1",
        "coordinates": {
            "latitude": 26.076460599999997,
            "longitude": 83.1919463
        }
    },
    {
        "name": "Mughal Masjid",
        "main_category": "Mosque",
        "address": "359P+VMC Mughal Masjid, Sita Ram, Azamgarh, Uttar Pradesh 276001",
        "detailed_address": {
            "ward": "Sita Ram",
            "street": "359P+VMC",
            "city": "Azamgarh",
            "postal_code": "276001",
            "state": "Uttar Pradesh",
            "country_code": "IN"
        },
        "images": [],
        "link": "https://www.google.com/maps/place/Mughal+Masjid/data=!4m7!3m6!1s0x3991bdb35bd41ee3:0x4551ec528ae7efe5!8m2!3d26.0696836!4d83.1866425!16s%2Fg%2F11s301gtwb!19sChIJ4x7UW7O9kTkR5e_nilLsUUU?authuser=0&hl=en&rclk=1",
        "coordinates": {
            "latitude": 26.069683599999998,
            "longitude": 83.18664249999999
        }
    },
    {
        "name": "Masjid",
        "main_category": "Mosque",
        "address": "256H+RPX Masjid, Haidarabad Urf Chhawara, Azamgarh, Uttar Pradesh 276128",
        "detailed_address": {
            "ward": null,
            "street": "256H+RPX",
            "city": "Haidarabad Urf Chhawara, Azamgarh",
            "postal_code": "276128",
            "state": "Uttar Pradesh",
            "country_code": "IN"
        },
        "images": [],
        "link": "https://www.google.com/maps/place/Masjid/data=!4m7!3m6!1s0x3991bd68ab7c55e5:0xf5da6bc1c8f0f212!8m2!3d26.0121052!4d83.1793641!16s%2Fg%2F11rsql_fkx!19sChIJ5VV8q2i9kTkREvLwyMFr2vU?authuser=0&hl=en&rclk=1",
        "coordinates": {
            "latitude": 26.0121052,
            "longitude": 83.1793641
        }
    },
    {
        "name": "Masjid Dr. Surayya",
        "main_category": "Mosque",
        "address": "35FR+JJ9 Masjid Dr. Surayya, Purai Ghulami, Azamgarh, Uttar Pradesh 276001",
        "detailed_address": {
            "ward": "Purai Ghulami",
            "street": "35FR+JJ9",
            "city": "Azamgarh",
            "postal_code": "276001",
            "state": "Uttar Pradesh",
            "country_code": "IN"
        },
        "images": [],
        "link": "https://www.google.com/maps/place/Masjid+Dr.+Surayya/data=!4m7!3m6!1s0x3991a323e4c02ce9:0x671e78c70d3d10e9!8m2!3d26.0740293!4d83.1916086!16s%2Fg%2F11t27l47lv!19sChIJ6SzA5COjkTkR6RA9Dcd4Hmc?authuser=0&hl=en&rclk=1",
        "coordinates": {
            "latitude": 26.0740293,
            "longitude": 83.1916086
        }
    },
    {
        "name": "EK MINAR MASJID",
        "main_category": "Mosque",
        "address": "34FX+R7R EK MINAR MASJID, Chak Inami, Azamgarh, Uttar Pradesh 276001",
        "detailed_address": {
            "ward": null,
            "street": "34FX+R7R",
            "city": "Chak Inami, Azamgarh",
            "postal_code": "276001",
            "state": "Uttar Pradesh",
            "country_code": "IN"
        },
        "images": [
            {
                "about": "All",
                "link": "https://streetviewpixels-pa.googleapis.com/v1/thumbnail?panoid=yRvNXXOAGy1y9DXwsx_QdA&cb_client=maps_sv.tactile.gps&w=224&h=298&yaw=114.26832&pitch=0&thumbfov=100"
            },
            {
                "about": "Street View & 360deg",
                "link": "https://streetviewpixels-pa.googleapis.com/v1/thumbnail?panoid=yRvNXXOAGy1y9DXwsx_QdA&cb_client=maps_sv.tactile.gps&w=224&h=298&yaw=114.26832&pitch=0&thumbfov=100"
            }
        ],
        "link": "https://www.google.com/maps/place/EK+MINAR+MASJID/data=!4m7!3m6!1s0x3991a5e8170b041f:0xd1d1ab016023dd1d!8m2!3d26.074612!4d83.1481485!16s%2Fg%2F11kc6c44hk!19sChIJHwQLF-ilkTkRHd0jYAGr0dE?authuser=0&hl=en&rclk=1",
        "coordinates": {
            "latitude": 26.074612,
            "longitude": 83.14814849999999
        }
    },
    {
        "name": "Masjid e belaal",
        "main_category": "Mosque",
        "address": "35CH+JQM Masjid e belaal, Badarka, Azamgarh, Uttar Pradesh 276001",
        "detailed_address": {
            "ward": "Badarka",
            "street": "35CH+JQM",
            "city": "Azamgarh",
            "postal_code": "276001",
            "state": "Uttar Pradesh",
            "country_code": "IN"
        },
        "images": [],
        "link": "https://www.google.com/maps/place/Masjid+e+belaal/data=!4m7!3m6!1s0x3991a329108b3155:0x191e67013f2b80cc!8m2!3d26.0715951!4d83.1794179!16s%2Fg%2F11nxpb65fx!19sChIJVTGLECmjkTkRzIArPwFnHhk?authuser=0&hl=en&rclk=1",
        "coordinates": {
            "latitude": 26.0715951,
            "longitude": 83.17941789999999
        }
    },
    {
        "name": "Azamgarh",
        "main_category": "Mosque",
        "address": "Azamgarh, 64, Jalandhari, Azamgarh, Uttar Pradesh 276001",
        "detailed_address": {
            "ward": "Jalandhari",
            "street": "64",
            "city": "Azamgarh",
            "postal_code": "276001",
            "state": "Uttar Pradesh",
            "country_code": "IN"
        },
        "images": [],
        "link": "https://www.google.com/maps/place/Azamgarh/data=!4m7!3m6!1s0x3991a353676c267f:0x84549a2d34997cc6!8m2!3d26.0735084!4d83.1877067!16s%2Fg%2F11v19bxsty!19sChIJfyZsZ1OjkTkRxnyZNC2aVIQ?authuser=0&hl=en&rclk=1",
        "coordinates": {
            "latitude": 26.073508399999998,
            "longitude": 83.18770669999999
        }
    },
    {
        "name": "JAMA MASJID DALAL GHAT",
        "main_category": "Mosque",
        "address": "359Q+P95 JAMA MASJID DALAL GHAT, Kot, Azamgarh, Uttar Pradesh 276001",
        "detailed_address": {
            "ward": "Kot",
            "street": "359Q+P95",
            "city": "Azamgarh",
            "postal_code": "276001",
            "state": "Uttar Pradesh",
            "country_code": "IN"
        },
        "images": [],
        "link": "https://www.google.com/maps/place/JAMA+MASJID+DALAL+GHAT/data=!4m7!3m6!1s0x3991bd9a3e4ae481:0x295c761e2c4459b2!8m2!3d26.0694602!4d83.1885305!16s%2Fg%2F11l5tf4xxs!19sChIJgeRKPpq9kTkRsllELB52XCk?authuser=0&hl=en&rclk=1",
        "coordinates": {
            "latitude": 26.069460199999998,
            "longitude": 83.1885305
        }
    },
    {
        "name": "Chhoti Masjid chhwtty msjd",
        "main_category": "Mosque",
        "address": "26V9+FMG Chhoti Masjid chhwtty msjd, Chhoti Masjid, Shahgarh, Uttar Pradesh 276001",
        "detailed_address": {
            "ward": null,
            "street": "26V9+FMG, Chhoti Masjid, Shahgarh",
            "city": "Baithauli, Azamgarh",
            "postal_code": "276001",
            "state": "Uttar Pradesh",
            "country_code": "IN"
        },
        "images": [
            {
                "about": "All",
                "link": "https://lh5.googleusercontent.com/p/AF1QipOJtubr4I6RP4Y-6y3jJCp1yX2NASrFqrdQ7QkH=w224-h298-k-no"
            },
            {
                "about": "Videos",
                "link": "https://lh5.googleusercontent.com/p/AF1QipOZv8v0ScsnzHcji2o1MNcDTn4g6FXzdrq80SXO=w224-h398-k-no"
            }
        ],
        "link": "https://www.google.com/maps/place/Chhoti+Masjid+%DA%86%DA%BE%D9%88%D9%B9%DB%8C+%D9%85%D8%B3%D8%AC%D8%AF%E2%80%AD/data=!4m7!3m6!1s0x3991bd68e12aa1e5:0x14325e46b7dfe924!8m2!3d26.0436812!4d83.2192074!16s%2Fg%2F11gr0vkr5t!19sChIJ5aEq4Wi9kTkRJOnft0ZeMhQ?authuser=0&hl=en&rclk=1",
        "coordinates": {
            "latitude": 26.043681199999998,
            "longitude": 83.2192074
        }
    },
    {
        "name": "NURANI MASJID",
        "main_category": "Mosque",
        "address": "35CR+925 NURANI MASJID, Quila Road, near Moin Kirana Store, Kot, Azamgarh, Uttar Pradesh 276001",
        "detailed_address": {
            "ward": "Kot",
            "street": "35CR+925, Quila Road, near Moin Kirana Store",
            "city": "Azamgarh",
            "postal_code": "276001",
            "state": "Uttar Pradesh",
            "country_code": "IN"
        },
        "images": [],
        "link": "https://www.google.com/maps/place/NURANI+MASJID/data=!4m7!3m6!1s0x3991a332ed6b7f43:0xb33c729379e47605!8m2!3d26.0708801!4d83.1901144!16s%2Fg%2F11vhfw4_l9!19sChIJQ39r7TKjkTkRBXbkeZNyPLM?authuser=0&hl=en&rclk=1",
        "coordinates": {
            "latitude": 26.0708801,
            "longitude": 83.1901144
        }
    },
    {
        "name": "Gurutola Masjid",
        "main_category": "Mosque",
        "address": "359J+227 Gurutola Masjid, GuruTola, Azamgarh, Araji Man Kunwar, Uttar Pradesh 276001",
        "detailed_address": {
            "ward": "GuruTola",
            "street": "359J+227",
            "city": "Azamgarh, Araji Man Kunwar",
            "postal_code": "276001",
            "state": "Uttar Pradesh",
            "country_code": "IN"
        },
        "images": [],
        "link": "https://www.google.com/maps/place/Gurutola+Masjid/data=!4m7!3m6!1s0x3991bdf561d688e9:0xf711ec0541c2e4c6!8m2!3d26.0675354!4d83.1800468!16s%2Fg%2F11kmqby9pv!19sChIJ6YjWYfW9kTkRxuTCQQXsEfc?authuser=0&hl=en&rclk=1",
        "coordinates": {
            "latitude": 26.0675354,
            "longitude": 83.1800468
        }
    },
    {
        "name": "EIDGAH MASJID SHEKHPURA",
        "main_category": "Mosque",
        "address": "36H5+9XH EIDGAH MASJID SHEKHPURA, Sheikhpura, Azamgarh, Sespura, Uttar Pradesh 276001",
        "detailed_address": {
            "ward": "Sheikhpura",
            "street": "36H5+9XH",
            "city": "Azamgarh, Sespura",
            "postal_code": "276001",
            "state": "Uttar Pradesh",
            "country_code": "IN"
        },
        "images": [
            {
                "about": "All",
                "link": "https://lh5.googleusercontent.com/p/AF1QipPNWye4j26qpWCFVd3Qemp2L06F6I0yhT4Qllsp=w529-h298-k-no"
            }
        ],
        "link": "https://www.google.com/maps/place/EIDGAH+MASJID+SHEKHPURA/data=!4m7!3m6!1s0x3991a34c66f1f8a7:0x70678a50f986ca65!8m2!3d26.078438!4d83.2099738!16s%2Fg%2F11fsnqpfgx!19sChIJp_jxZkyjkTkRZcqG-VCKZ3A?authuser=0&hl=en&rclk=1",
        "coordinates": {
            "latitude": 26.078438,
            "longitude": 83.2099738
        }
    },
    {
        "name": "Samshabad jama masjid",
        "main_category": "Mosque",
        "address": "35FP+HC7 Samshabad jama masjid, Pakri Kala, Pura Jodhi, Azamgarh, Uttar Pradesh 276001",
        "detailed_address": {
            "ward": "Pakri Kala, Pura Jodhi",
            "street": "35FP+HC7",
            "city": "Azamgarh",
            "postal_code": null,
            "state": "Uttar Pradesh",
            "country_code": "IN"
        },
        "images": [
            {
                "about": "All",
                "link": "https://streetviewpixels-pa.googleapis.com/v1/thumbnail?panoid=P8z7m8ITnhFoyaQIuzmf8A&cb_client=maps_sv.tactile.gps&w=224&h=298&yaw=120.01126&pitch=0&thumbfov=100"
            },
            {
                "about": "Street View & 360deg",
                "link": "https://streetviewpixels-pa.googleapis.com/v1/thumbnail?panoid=P8z7m8ITnhFoyaQIuzmf8A&cb_client=maps_sv.tactile.gps&w=224&h=298&yaw=120.01126&pitch=0&thumbfov=100"
            }
        ],
        "link": "https://www.google.com/maps/place/Samshabad+jama+masjid/data=!4m7!3m6!1s0x3991a3b3dde2ff89:0x1276b41b5998122b!8m2!3d26.073924!4d83.186061!16s%2Fg%2F11s2lndxnb!19sChIJif_i3bOjkTkRKxKYWRu0dhI?authuser=0&hl=en&rclk=1",
        "coordinates": {
            "latitude": 26.073923999999998,
            "longitude": 83.186061
        }
    },
    {
        "name": "Furqan Hospital Gali-Inside Masjid (Teacher's Colony)",
        "main_category": "Mosque",
        "address": "35HM+CP2 Furqan Hospital Gali-Inside Masjid (Teacher's Colony), Unnamed Road, Mukeriganj, Azamgarh, Uttar Pradesh 276001",
        "detailed_address": {
            "ward": "Mukeriganj",
            "street": "35HM+CP2, Unnamed Road",
            "city": "Azamgarh",
            "postal_code": "276001",
            "state": "Uttar Pradesh",
            "country_code": "IN"
        },
        "images": [
            {
                "about": "All",
                "link": "https://streetviewpixels-pa.googleapis.com/v1/thumbnail?panoid=sJycwi5fLmkAgOFijQyThg&cb_client=maps_sv.tactile.gps&w=224&h=298&yaw=223.39687&pitch=0&thumbfov=100"
            },
            {
                "about": "Street View & 360deg",
                "link": "https://streetviewpixels-pa.googleapis.com/v1/thumbnail?panoid=sJycwi5fLmkAgOFijQyThg&cb_client=maps_sv.tactile.gps&w=224&h=298&yaw=223.39687&pitch=0&thumbfov=100"
            }
        ],
        "link": "https://www.google.com/maps/place/Furqan+Hospital+Gali-Inside+Masjid+%28Teacher%27s+Colony%29/data=!4m7!3m6!1s0x3991a399724d021b:0x61a3189764da1533!8m2!3d26.078507!4d83.1842601!16s%2Fg%2F11jjq0msfd!19sChIJGwJNcpmjkTkRMxXaZJcYo2E?authuser=0&hl=en&rclk=1",
        "coordinates": {
            "latitude": 26.078507,
            "longitude": 83.1842601
        }
    },
    {
        "name": "Noor Jama Masjid (Bhaduli)",
        "main_category": "Mosque",
        "address": "342Q+P57 Noor Jama Masjid (Bhaduli), Bhaduli, Uttar Pradesh 276001",
        "detailed_address": {
            "ward": null,
            "street": "342Q+P57",
            "city": "Bhaduli",
            "postal_code": "276001",
            "state": "Uttar Pradesh",
            "country_code": "IN"
        },
        "images": [
            {
                "about": "All",
                "link": "https://streetviewpixels-pa.googleapis.com/v1/thumbnail?panoid=bTgmcZMuYEnfc8-LT2L2xw&cb_client=maps_sv.tactile.gps&w=224&h=298&yaw=342.23843&pitch=0&thumbfov=100"
            },
            {
                "about": "Street View & 360deg",
                "link": "https://streetviewpixels-pa.googleapis.com/v1/thumbnail?panoid=bTgmcZMuYEnfc8-LT2L2xw&cb_client=maps_sv.tactile.gps&w=224&h=298&yaw=342.23843&pitch=0&thumbfov=100"
            }
        ],
        "link": "https://www.google.com/maps/place/Noor+Jama+Masjid+%28Bhaduli%29/data=!4m7!3m6!1s0x3991bb55bf5be3d5:0xc0d0e283b134525!8m2!3d26.051783!4d83.1379232!16s%2Fg%2F11ng76z9hj!19sChIJ1eNbv1W7kTkRJUUTOygODQw?authuser=0&hl=en&rclk=1",
        "coordinates": {
            "latitude": 26.051783,
            "longitude": 83.1379232
        }
    },
    {
        "name": "Masjid-E-Bilal",
        "main_category": "Mosque",
        "address": "343P+48C Masjid-E-Bilal, Bhaduli, Uttar Pradesh 276001",
        "detailed_address": {
            "ward": null,
            "street": "343P+48C",
            "city": "Bhaduli",
            "postal_code": "276001",
            "state": "Uttar Pradesh",
            "country_code": "IN"
        },
        "images": [
            {
                "about": "All",
                "link": "https://streetviewpixels-pa.googleapis.com/v1/thumbnail?panoid=4ig_Oq3YD0sAnsmCWGlaqg&cb_client=maps_sv.tactile.gps&w=224&h=298&yaw=124.82766&pitch=0&thumbfov=100"
            },
            {
                "about": "Street View & 360deg",
                "link": "https://streetviewpixels-pa.googleapis.com/v1/thumbnail?panoid=4ig_Oq3YD0sAnsmCWGlaqg&cb_client=maps_sv.tactile.gps&w=224&h=298&yaw=124.82766&pitch=0&thumbfov=100"
            }
        ],
        "link": "https://www.google.com/maps/place/Masjid-E-Bilal/data=!4m7!3m6!1s0x3991bb454d369fcb:0x402999fd6d2cf931!8m2!3d26.0528095!4d83.1357785!16s%2Fg%2F11t_zwzz14!19sChIJy582TUW7kTkRMfksbf2ZKUA?authuser=0&hl=en&rclk=1",
        "coordinates": {
            "latitude": 26.0528095,
            "longitude": 83.1357785
        }
    }
]