[
    {
        "name": "Markaz Nandyal, Jamia Masjid.",
        "main_category": "Mosque",
        "address": "Markaz Nandyal, Jamia Masjid., Fort St, Nadigadda, Sri Potti Sriramulu Colony, Srinivasa Nagar, Nandyala, Andhra Pradesh 518501",
        "detailed_address": {
            "ward": "Nadigadda, Sri Potti Sriramulu Colony, Srinivasa Nagar",
            "street": "Fort St",
            "city": "Nandyala",
            "postal_code": "518501",
            "state": "Andhra Pradesh",
            "country_code": "IN"
        },
        "images": [
            {
                "about": "All",
                "link": "https://lh5.googleusercontent.com/p/AF1QipP0hm_59CTpU2DzXMeZAAym4WwIIIZZiApqBR8S=w529-h298-k-no"
            },
            {
                "about": "Dome",
                "link": "https://lh5.googleusercontent.com/p/AF1QipNFu58MNpfNRKdmXLt88DH8UXZIsUCi1jalQW5N=w224-h473-k-no"
            },
            {
                "about": "Videos",
                "link": "https://lh5.googleusercontent.com/p/AF1QipMhCvwrbPOJzHb9NkFQr_PBVzlNydQryVmI7c-y=w224-h398-k-no"
            },
            {
                "about": "Street View & 360deg",
                "link": "https://streetviewpixels-pa.googleapis.com/v1/thumbnail?panoid=2yBlg3j4S_lmcEJHsQ5LZQ&cb_client=maps_sv.tactile.gps&w=224&h=298&yaw=350.27402&pitch=0&thumbfov=100"
            }
        ],
        "link": "https://www.google.com/maps/place/Markaz+Nandyal,+Jamia+Masjid./data=!4m7!3m6!1s0x3bb5adf9041bc6c7:0xc0c4d317137dd19d!8m2!3d15.4903114!4d78.4888165!16s%2Fg%2F11gk3fpcrz!19sChIJx8YbBPmttTsRndF9ExfTxMA?authuser=0&hl=en&rclk=1",
        "coordinates": {
            "latitude": 15.4903114,
            "longitude": 78.4888165
        }
    },
    {
        "name": "Masjid-e-Badar",
        "main_category": "Mosque",
        "address": "FFPP+Q28 Masjid-e-Badar, Telugu Peta, Nandyala, Andhra Pradesh 518501",
        "detailed_address": {
            "ward": "Telugu Peta",
            "street": "FFPP+Q28",
            "city": "Nandyala",
            "postal_code": "518501",
            "state": "Andhra Pradesh",
            "country_code": "IN"
        },
        "images": [
            {
                "about": "All",
                "link": "https://lh5.googleusercontent.com/p/AF1QipNdQqAyE3cZ3mpphuWx80IU-s6bg3FBTiZ1AbDz=w224-h298-k-no"
            }
        ],
        "link": "https://www.google.com/maps/place/Masjid-e-Badar/data=!4m7!3m6!1s0x3bb5ad519545e2b7:0x5989801111a930c9!8m2!3d15.4869027!4d78.4850811!16s%2Fg%2F11c30_r7f3!19sChIJt-JFlVGttTsRyTCpERGAiVk?authuser=0&hl=en&rclk=1",
        "coordinates": {
            "latitude": 15.4869027,
            "longitude": 78.4850811
        }
    },
    {
        "name": "masjid-E-khizar",
        "main_category": "Mosque",
        "address": "FFRR+R3P masjid-E-khizar, Nadigadda, Nabi Nagar, Nandyala, Andhra Pradesh 518501",
        "detailed_address": {
            "ward": "Nabi Nagar, Sri Potti Sriramulu Colony, Srinivasa Nagar",
            "street": "FFRR+R3P, Nadigadda",
            "city": "Nandyala",
            "postal_code": "518501",
            "state": "Andhra Pradesh",
            "country_code": "IN"
        },
        "images": [
            {
                "about": "All",
                "link": "https://lh5.googleusercontent.com/p/AF1QipPqRN2pHA-7I282UH8Zs9ke8w0aPnkuGtu76NeF=w318-h298-k-no"
            },
            {
                "about": "Street View & 360deg",
                "link": "https://streetviewpixels-pa.googleapis.com/v1/thumbnail?panoid=nj0zmhzCS0Flk62aFyngHQ&cb_client=maps_sv.tactile.gps&w=224&h=298&yaw=51.086777&pitch=0&thumbfov=100"
            }
        ],
        "link": "https://www.google.com/maps/place/masjid-E-khizar/data=!4m7!3m6!1s0x3bb5ad45b30eda85:0x2c42e7200beba765!8m2!3d15.4920842!4d78.4901895!16s%2Fg%2F11bt_jbjq7!19sChIJhdoOs0WttTsRZafrCyDnQiw?authuser=0&hl=en&rclk=1",
        "coordinates": {
            "latitude": 15.492084199999999,
            "longitude": 78.4901895
        }
    },
    {
        "name": "Noorani Masjid",
        "main_category": "Mosque",
        "address": "FFGG+7QP Noorani Masjid, Masid center, Deva Nagar Colony, Nandyala, Andhra Pradesh 518501",
        "detailed_address": {
            "ward": "Deva Nagar Colony",
            "street": "FFGG+7QP Masid center",
            "city": "Nandyala",
            "postal_code": "518501",
            "state": "Andhra Pradesh",
            "country_code": "IN"
        },
        "images": [
            {
                "about": "All",
                "link": "https://lh5.googleusercontent.com/p/AF1QipPo9Ba9mFZQQmT3L2nh3KFUPmPfH2I4_6od6BzI=w224-h398-k-no"
            },
            {
                "about": "Street View & 360deg",
                "link": "https://streetviewpixels-pa.googleapis.com/v1/thumbnail?panoid=1sL4-NkajjpZrNgqerJ_4g&cb_client=maps_sv.tactile.gps&w=224&h=298&yaw=234.47786&pitch=0&thumbfov=100"
            }
        ],
        "link": "https://www.google.com/maps/place/Noorani+Masjid/data=!4m7!3m6!1s0x3bb452aa60b08f29:0x5ecc8c36ae520bcb!8m2!3d15.4757103!4d78.4766201!16s%2Fg%2F11c31qg8wj!19sChIJKY-wYKpStDsRywtSrjaMzF4?authuser=0&hl=en&rclk=1",
        "coordinates": {
            "latitude": 15.4757103,
            "longitude": 78.47662009999999
        }
    },
    {
        "name": "Masjid E Mubarak Ahle hadees",
        "main_category": "Mosque",
        "address": "FFHG+WG2 Masjid E Mubarak Ahle hadees, Railway Station Rd, Haneef Nagar, Srinivasa Nagar, Nandyala, Andhra Pradesh 518501",
        "detailed_address": {
            "ward": "Haneef Nagar, Srinivasa Nagar",
            "street": "FFHG+WG2, Railway Station Rd",
            "city": "Nandyala",
            "postal_code": "518501",
            "state": "Andhra Pradesh",
            "country_code": "IN"
        },
        "images": [
            {
                "about": "All",
                "link": "https://lh5.googleusercontent.com/p/AF1QipOq-F41nOri9mwbxirZYx3Xo0_HvuOtru74aaIU=w397-h298-k-no"
            }
        ],
        "link": "https://www.google.com/maps/place/Masjid+E+Mubarak+Ahle+hadees/data=!4m7!3m6!1s0x3bb5ad55494b3437:0x67da3c26144629ba!8m2!3d15.4797681!4d78.4762611!16s%2Fg%2F11b7lhgxxs!19sChIJNzRLSVWttTsRuilGFCY82mc?authuser=0&hl=en&rclk=1",
        "coordinates": {
            "latitude": 15.4797681,
            "longitude": 78.4762611
        }
    },
    {
        "name": "Nayee Masjid",
        "main_category": "Mosque",
        "address": "FFQM+J3Q Nayee Masjid, Byrmal St, Telugu Peta, Nandyala, Andhra Pradesh 518501",
        "detailed_address": {
            "ward": "Telugu Peta",
            "street": "FFQM+J3Q, Byrmal St",
            "city": "Nandyala",
            "postal_code": "518501",
            "state": "Andhra Pradesh",
            "country_code": "IN"
        },
        "images": [
            {
                "about": "All",
                "link": "https://lh5.googleusercontent.com/p/AF1QipPwu04Nb9IbZ2O64Rxb_OWGryd-ETrBOSrlb4Ml=w224-h485-k-no"
            },
            {
                "about": "Street View & 360deg",
                "link": "https://streetviewpixels-pa.googleapis.com/v1/thumbnail?panoid=OLVT3RM9mqSi3_qmTu-hhQ&cb_client=maps_sv.tactile.gps&w=224&h=298&yaw=168.76382&pitch=0&thumbfov=100"
            },
            {
                "about": "Videos",
                "link": "https://lh5.googleusercontent.com/p/AF1QipPhhafs93aQ38pGM0haUdtH1Cd23yzmACzlKE1O=w224-h398-k-no"
            }
        ],
        "link": "https://www.google.com/maps/place/Nayee+Masjid/data=!4m7!3m6!1s0x3bb5ad50ef3f47bd:0x74be6a78851a8fd3!8m2!3d15.4890905!4d78.4827216!16s%2Fg%2F1tdqrzww!19sChIJvUc_71CttTsR048ahXhqvnQ?authuser=0&hl=en&rclk=1",
        "coordinates": {
            "latitude": 15.4890905,
            "longitude": 78.48272159999999
        }
    },
    {
        "name": "Masjid E Swaliheen",
        "main_category": "Mosque",
        "address": "FFRQ+J27 Masjid E Swaliheen, bypass road, Nadigadda, Sri Potti Sriramulu Colony, Telugu Peta, Nandyala, Andhra Pradesh 518501",
        "detailed_address": {
            "ward": "Nadigadda, Sri Potti Sriramulu Colony, Telugu Peta",
            "street": "FFRQ+J27, bypass road",
            "city": "Nandyala",
            "postal_code": "518501",
            "state": "Andhra Pradesh",
            "country_code": "IN"
        },
        "images": [
            {
                "about": "All",
                "link": "https://lh5.googleusercontent.com/p/AF1QipM_nD61NXYXJmhOvXYxAlFrBWjSTFo1n5lcl78=w224-h320-k-no"
            },
            {
                "about": "Dome",
                "link": "https://lh5.googleusercontent.com/p/AF1QipPisXw_3l0hLAQrnG1pCtp06p5cyO8k8AFDbv_H=w224-h298-k-no"
            },
            {
                "about": "Street View & 360deg",
                "link": "https://streetviewpixels-pa.googleapis.com/v1/thumbnail?panoid=QvkZu-3nVm501Iq76IR-Gg&cb_client=maps_sv.tactile.gps&w=224&h=298&yaw=29.078598&pitch=0&thumbfov=100"
            }
        ],
        "link": "https://www.google.com/maps/place/Masjid+E+Swaliheen/data=!4m7!3m6!1s0x3bb5ad455890458f:0x28fab44eba958cd8!8m2!3d15.4915353!4d78.4875355!16s%2Fg%2F11b6hmsh1p!19sChIJj0WQWEWttTsR2IyVuk60-ig?authuser=0&hl=en&rclk=1",
        "coordinates": {
            "latitude": 15.491535299999999,
            "longitude": 78.48753549999999
        }
    },
    {
        "name": "Masjid E Dabara",
        "main_category": "Mosque",
        "address": "FFPG+C6F Masjid E Dabara, Srinivasa Nagar, Nandyala, Andhra Pradesh 518501",
        "detailed_address": {
            "ward": "Srinivasa Nagar",
            "street": "FFPG+C6F",
            "city": "Nandyala",
            "postal_code": "518501",
            "state": "Andhra Pradesh",
            "country_code": "IN"
        },
        "images": [
            {
                "about": "All",
                "link": "https://lh5.googleusercontent.com/p/AF1QipMIwVN1qLHhAdFvIn88-gEAPKIbsAEgFQiCm7Ul=w224-h326-k-no"
            },
            {
                "about": "Street View & 360deg",
                "link": "https://streetviewpixels-pa.googleapis.com/v1/thumbnail?panoid=4_Qgm_dMHFBJ_KJrBv9n9A&cb_client=maps_sv.tactile.gps&w=224&h=298&yaw=191.79936&pitch=0&thumbfov=100"
            }
        ],
        "link": "https://www.google.com/maps/place/Masjid+E+Dabara/data=!4m7!3m6!1s0x3bb5ad561c69615b:0x80f2b7b3948708be!8m2!3d15.4860668!4d78.475551!16s%2Fg%2F11b6j4d3vw!19sChIJW2FpHFattTsRvgiHlLO38oA?authuser=0&hl=en&rclk=1",
        "coordinates": {
            "latitude": 15.4860668,
            "longitude": 78.475551
        }
    },
    {
        "name": "Chowk Masjid",
        "main_category": "Mosque",
        "address": "FFRP+423 Chowk Masjid, Main Bazar Rd, Telugu Peta, Nandyala, Andhra Pradesh 518501",
        "detailed_address": {
            "ward": "Telugu Peta",
            "street": "FFRP+423, Main Bazar Rd",
            "city": "Nandyala",
            "postal_code": "518501",
            "state": "Andhra Pradesh",
            "country_code": "IN"
        },
        "images": [
            {
                "about": "All",
                "link": "https://lh5.googleusercontent.com/p/AF1QipOTXUUzdc_jmauhA-uPQR38WJhYUvbE_v418O4_=w397-h298-k-no"
            }
        ],
        "link": "https://www.google.com/maps/place/Chowk+Masjid/data=!4m7!3m6!1s0x3bb5ad506c9feb01:0x557fcc025c8ce4d4!8m2!3d15.4902545!4d78.485046!16s%2Fg%2F11c3k6f6x9!19sChIJAeufbFCttTsR1OSMXALMf1U?authuser=0&hl=en&rclk=1",
        "coordinates": {
            "latitude": 15.490254499999999,
            "longitude": 78.485046
        }
    },
    {
        "name": "Jamiya Masjid",
        "main_category": "Mosque",
        "address": "FF7P+M33 Jamiya Masjid, Gopal Nagar, Nandyala, Andhra Pradesh 518501",
        "detailed_address": {
            "ward": "Gopal Nagar",
            "street": "FF7P+M33",
            "city": "Nandyala",
            "postal_code": "518501",
            "state": "Andhra Pradesh",
            "country_code": "IN"
        },
        "images": [
            {
                "about": "All",
                "link": "//lh3.googleusercontent.com/IQ1owyo7-_WPYMkxb_sEFCHgD9nibvtOw7Ir7v5l7jFqwpUUmQKR4AsPlkbp1J3J=w529-h298-k-no"
            },
            {
                "about": "Street View & 360deg",
                "link": "https://streetviewpixels-pa.googleapis.com/v1/thumbnail?panoid=njg6kSXuDK_7o74o1BepdQ&cb_client=maps_sv.tactile.gps&w=224&h=298&yaw=90.438034&pitch=0&thumbfov=100"
            }
        ],
        "link": "https://www.google.com/maps/place/Jamiya+Masjid/data=!4m7!3m6!1s0x3bb452a4e93100b3:0x308a48f9fa106886!8m2!3d15.4641453!4d78.4851758!16s%2Fg%2F11csrnpypt!19sChIJswAx6aRStDsRhmgQ-vlIijA?authuser=0&hl=en&rclk=1",
        "coordinates": {
            "latitude": 15.464145299999998,
            "longitude": 78.4851758
        }
    },
    {
        "name": "Masjid-E-Madina",
        "main_category": "Mosque",
        "address": "FF9J+8F9 Masjid-E-Madina, Sadiq Nagar, Nandyala, Andhra Pradesh 518501",
        "detailed_address": {
            "ward": "Sadiq Nagar",
            "street": "FF9J+8F9",
            "city": "Nandyala",
            "postal_code": "518501",
            "state": "Andhra Pradesh",
            "country_code": "IN"
        },
        "images": [
            {
                "about": "All",
                "link": "https://lh5.googleusercontent.com/p/AF1QipNEMzrJijAUV0ps0282FtviA-JZdKaa3TFDmj1B=w224-h298-k-no"
            }
        ],
        "link": "https://www.google.com/maps/place/Masjid-E-Madina/data=!4m7!3m6!1s0x3bb452af54277e0d:0xe87bb1e342f91cb4!8m2!3d15.4682846!4d78.4812429!16s%2Fg%2F11c5r5bm4v!19sChIJDX4nVK9StDsRtBz5QuOxe-g?authuser=0&hl=en&rclk=1",
        "coordinates": {
            "latitude": 15.468284599999999,
            "longitude": 78.4812429
        }
    },
    {
        "name": "Masjid E Abubakar",
        "main_category": "Mosque",
        "address": "FFGF+HF3 Masjid E Abubakar, Unnamed Road, Deva Nagar Colony, Nandyala, Andhra Pradesh 518501",
        "detailed_address": {
            "ward": "Deva Nagar Colony",
            "street": "FFGF+HF3, Unnamed Road",
            "city": "Nandyala",
            "postal_code": "518501",
            "state": "Andhra Pradesh",
            "country_code": "IN"
        },
        "images": [
            {
                "about": "All",
                "link": "https://lh5.googleusercontent.com/p/AF1QipNHqfr5NHDicBbopxByK85Ne-3AJsuUdRNqkguh=w224-h487-k-no"
            },
            {
                "about": "Street View & 360deg",
                "link": "https://streetviewpixels-pa.googleapis.com/v1/thumbnail?panoid=kaYi6V5QsU0TX0dAvUJERQ&cb_client=maps_sv.tactile.gps&w=224&h=298&yaw=246.64322&pitch=0&thumbfov=100"
            },
            {
                "about": "Videos",
                "link": "https://lh5.googleusercontent.com/p/AF1QipM3WPzSxWKpenEHQNynLPfwi1663qa2C05j0W7A=w243-h298-k-no"
            }
        ],
        "link": "https://www.google.com/maps/place/Masjid+E+Abubakar/data=!4m7!3m6!1s0x3bb44d550aab458f:0xe3016df0ecfb2d84!8m2!3d15.4763848!4d78.473669!16s%2Fg%2F11fzfd8pkg!19sChIJj0WrClVNtDsRhC377PBtAeM?authuser=0&hl=en&rclk=1",
        "coordinates": {
            "latitude": 15.4763848,
            "longitude": 78.473669
        }
    },
    {
        "name": "Subhan Masjid",
        "main_category": "Mosque",
        "address": "Subhan Masjid, 518501, Saleem Nagar, Srinivasa Nagar, Nandyala, Andhra Pradesh 518501",
        "detailed_address": {
            "ward": "Saleem Nagar, Srinivasa Nagar",
            "street": "518501",
            "city": "Nandyala",
            "postal_code": "518501",
            "state": "Andhra Pradesh",
            "country_code": "IN"
        },
        "images": [
            {
                "about": "All",
                "link": "https://lh5.googleusercontent.com/p/AF1QipMFGKWJg1IFtZxR7VR1eid7IChRiRzlbozoCoCv=w224-h298-k-no"
            }
        ],
        "link": "https://www.google.com/maps/place/Subhan+Masjid/data=!4m7!3m6!1s0x3bb5ad558a1fca85:0x97ab67612f70f300!8m2!3d15.4832521!4d78.4752753!16s%2Fg%2F11ddyk09rl!19sChIJhcofilWttTsRAPNwL2Fnq5c?authuser=0&hl=en&rclk=1",
        "coordinates": {
            "latitude": 15.4832521,
            "longitude": 78.47527529999999
        }
    },
    {
        "name": "Masjid E Rasool",
        "main_category": "Mosque",
        "address": "Masjid E Rasool, 518501, Municipal Employee Colony, SBI Colony, Nandyala, Andhra Pradesh 518501",
        "detailed_address": {
            "ward": "Municipal Employee Colony, SBI Colony",
            "street": "518501",
            "city": "Nandyala",
            "postal_code": "518501",
            "state": "Andhra Pradesh",
            "country_code": "IN"
        },
        "images": [
            {
                "about": "All",
                "link": "https://lh5.googleusercontent.com/p/AF1QipNA1TU8RdguOWUodrLqbE-jdiK_kX02sSxL-1K8=w397-h298-k-no"
            }
        ],
        "link": "https://www.google.com/maps/place/Masjid+E+Rasool/data=!4m7!3m6!1s0x3bb452b217ea9ec9:0x5471686fb9233599!8m2!3d15.4749867!4d78.4879088!16s%2Fg%2F11c31081zy!19sChIJyZ7qF7JStDsRmTUjuW9ocVQ?authuser=0&hl=en&rclk=1",
        "coordinates": {
            "latitude": 15.474986699999999,
            "longitude": 78.4879088
        }
    },
    {
        "name": "Masjid-e-Lathifia",
        "main_category": "Mosque",
        "address": "Masjid-e-Lathifia, Balaji Complex, Salim Nagar, Nandyala, Andhra Pradesh 518501",
        "detailed_address": {
            "ward": "Salim Nagar",
            "street": "Balaji Complex",
            "city": "Nandyala",
            "postal_code": "518501",
            "state": "Andhra Pradesh",
            "country_code": "IN"
        },
        "images": [
            {
                "about": "All",
                "link": "https://lh5.googleusercontent.com/p/AF1QipNBa5bA6JoWQNeTYDDhHrfJCF9J90FAznFUWfbN=w529-h298-k-no"
            },
            {
                "about": "Street View & 360deg",
                "link": "https://streetviewpixels-pa.googleapis.com/v1/thumbnail?panoid=n2dDblE1KQ71wmDYsOhz1g&cb_client=maps_sv.tactile.gps&w=224&h=298&yaw=172.40578&pitch=0&thumbfov=100"
            }
        ],
        "link": "https://www.google.com/maps/place/Masjid-e-Lathifia/data=!4m7!3m6!1s0x3bb5ad4d0b5e4c13:0x147345a42e8a7099!8m2!3d15.4824881!4d78.4880625!16s%2Fg%2F11bccgg5hv!19sChIJE0xeC02ttTsRmXCKLqRFcxQ?authuser=0&hl=en&rclk=1",
        "coordinates": {
            "latitude": 15.4824881,
            "longitude": 78.4880625
        }
    },
    {
        "name": "Autonagar Mosque Nandyal",
        "main_category": "Mosque",
        "address": "FCJR+M93 Autonagar Mosque Nandyal, Kurnool - Nandyal Rd, Andhra Pradesh 518112",
        "detailed_address": {
            "ward": null,
            "street": "FCJR+M93, Kurnool - Nandyal Rd",
            "city": null,
            "postal_code": "518112",
            "state": "Andhra Pradesh",
            "country_code": "IN"
        },
        "images": [
            {
                "about": "All",
                "link": "https://lh5.googleusercontent.com/p/AF1QipNKDgFF-zi5p_IIbziJVwOmV4TN0qpBC8ZWWLKc=w529-h298-k-no"
            }
        ],
        "link": "https://www.google.com/maps/place/Autonagar+Mosque+Nandyal/data=!4m7!3m6!1s0x3bb5b2d275018129:0xad83d82b2d305c5b!8m2!3d15.4816448!4d78.4409217!16s%2Fg%2F11fzbvjcp7!19sChIJKYEBddKytTsRW1wwLSvYg60?authuser=0&hl=en&rclk=1",
        "coordinates": {
            "latitude": 15.4816448,
            "longitude": 78.44092169999999
        }
    },
    {
        "name": "Masjid E Qhuraish",
        "main_category": "Mosque",
        "address": "FFRP+2JF Masjid E Qhuraish, Gandhi Chowk Rd, Telugu Peta, Nandyala, Andhra Pradesh 518501",
        "detailed_address": {
            "ward": "Telugu Peta",
            "street": "FFRP+2JF, Gandhi Chowk Rd",
            "city": "Nandyala",
            "postal_code": null,
            "state": "Andhra Pradesh",
            "country_code": "IN"
        },
        "images": [
            {
                "about": "All",
                "link": "https://lh5.googleusercontent.com/p/AF1QipOWmvYisMphZ9RtVL22ptYOYdtNycxw2mDSQ5aG=w529-h298-k-no"
            },
            {
                "about": "Street View & 360deg",
                "link": "https://streetviewpixels-pa.googleapis.com/v1/thumbnail?panoid=s8IizOdxPug88mVS7JVxCA&cb_client=maps_sv.tactile.gps&w=224&h=298&yaw=250.68196&pitch=0&thumbfov=100"
            }
        ],
        "link": "https://www.google.com/maps/place/Masjid+E+Qhuraish/data=!4m7!3m6!1s0x3bb5ad4fdde98401:0x5849e91ed3683699!8m2!3d15.4900623!4d78.4865513!16s%2Fg%2F11b7gqbxx6!19sChIJAYTp3U-ttTsRmTZo0x7pSVg?authuser=0&hl=en&rclk=1",
        "coordinates": {
            "latitude": 15.4900623,
            "longitude": 78.4865513
        }
    },
    {
        "name": "MASJID-E-FATHIMA",
        "main_category": "Mosque",
        "address": "MASJID-E-FATHIMA, Fathima Nagar, Jagajjanani Nagar, Nandyala, Andhra Pradesh 518501",
        "detailed_address": {
            "ward": "Salim Nagar",
            "street": "Fathima Nagar, Jagajjanani Nagar",
            "city": "Nandyala",
            "postal_code": "518501",
            "state": "Andhra Pradesh",
            "country_code": "IN"
        },
        "images": [
            {
                "about": "All",
                "link": "https://lh5.googleusercontent.com/p/AF1QipPDt4Q8gzO0F1OEKPmFZ6yNpgxRP-o8Ie_cAs4i=w529-h298-k-no"
            },
            {
                "about": "Street View & 360deg",
                "link": "https://streetviewpixels-pa.googleapis.com/v1/thumbnail?panoid=BqOAB7IJ9_4tCzQYBaCySw&cb_client=maps_sv.tactile.gps&w=224&h=298&yaw=165.45998&pitch=0&thumbfov=100"
            }
        ],
        "link": "https://www.google.com/maps/place/MASJID-E-FATHIMA/data=!4m7!3m6!1s0x3bb5ad4619bb8751:0xf51ee78c00aa2c19!8m2!3d15.4923689!4d78.4934192!16s%2Fg%2F11c17b1w2m!19sChIJUYe7GUattTsRGSyqAIznHvU?authuser=0&hl=en&rclk=1",
        "coordinates": {
            "latitude": 15.492368899999999,
            "longitude": 78.49341919999999
        }
    },
    {
        "name": "Masjid E Antikota",
        "main_category": "Mosque",
        "address": "FFQV+R4V Masjid E Antikota, Telugu Peta, Nandyala, Andhra Pradesh 518501",
        "detailed_address": {
            "ward": "Telugu Peta",
            "street": "FFQV+R4V",
            "city": "Nandyala",
            "postal_code": "518501",
            "state": "Andhra Pradesh",
            "country_code": "IN"
        },
        "images": [
            {
                "about": "All",
                "link": "https://streetviewpixels-pa.googleapis.com/v1/thumbnail?panoid=1KqK5aWsLDzbRYX2dZrPMQ&cb_client=maps_sv.tactile.gps&w=224&h=298&yaw=99.844345&pitch=0&thumbfov=100"
            },
            {
                "about": "Dome",
                "link": "https://lh5.googleusercontent.com/p/AF1QipPPEDfCCmE9arCe3xd79sOlCH5955ynG-1DLVwk=w224-h298-k-no"
            },
            {
                "about": "Street View & 360deg",
                "link": "https://streetviewpixels-pa.googleapis.com/v1/thumbnail?panoid=1KqK5aWsLDzbRYX2dZrPMQ&cb_client=maps_sv.tactile.gps&w=224&h=298&yaw=99.844345&pitch=0&thumbfov=100"
            }
        ],
        "link": "https://www.google.com/maps/place/Masjid+E+Antikota/data=!4m7!3m6!1s0x3bb5ad48cfd18595:0x9768ab1f78c212b8!8m2!3d15.4896106!4d78.4927993!16s%2Fg%2F11b7ztn0q2!19sChIJlYXRz0ittTsRuBLCeB-raJc?authuser=0&hl=en&rclk=1",
        "coordinates": {
            "latitude": 15.489610599999999,
            "longitude": 78.4927993
        }
    },
    {
        "name": "Masjid E Kauser",
        "main_category": "Mosque",
        "address": "FFC8+3MR Masjid E Kauser, ISLAMPETA, Moolasagaram, Nandyala, Andhra Pradesh 518501",
        "detailed_address": {
            "ward": "Moolasagaram",
            "street": "FFC8+3MR, ISLAMPETA",
            "city": "Nandyala",
            "postal_code": "518501",
            "state": "Andhra Pradesh",
            "country_code": "IN"
        },
        "images": [
            {
                "about": "All",
                "link": "https://lh5.googleusercontent.com/p/AF1QipM33YTt1M9iMhZyLpOwrgjrmwDccLwpqGPGq_m6=w224-h298-k-no"
            },
            {
                "about": "Street View & 360deg",
                "link": "https://streetviewpixels-pa.googleapis.com/v1/thumbnail?panoid=KyzOrOrRGG3p5tnABaVCNw&cb_client=maps_sv.tactile.gps&w=224&h=298&yaw=242.02852&pitch=0&thumbfov=100"
            }
        ],
        "link": "https://www.google.com/maps/place/Masjid+E+Kauser/data=!4m7!3m6!1s0x3bb44d51aa98af51:0x53f4c7dedba2e81!8m2!3d15.470239!4d78.4666264!16s%2Fg%2F11bx8k1mdt!19sChIJUa-YqlFNtDsRgS667X1MPwU?authuser=0&hl=en&rclk=1",
        "coordinates": {
            "latitude": 15.470239,
            "longitude": 78.4666264
        }
    },
    {
        "name": "Maqbul E Alam Masjid",
        "main_category": "Mosque",
        "address": "FF9R+9WG Maqbul E Alam Masjid, NGO Colony, Nandyala, Andhra Pradesh 518502",
        "detailed_address": {
            "ward": "NGO Colony",
            "street": "FF9R+9WG",
            "city": "Nandyala",
            "postal_code": "518502",
            "state": "Andhra Pradesh",
            "country_code": "IN"
        },
        "images": [
            {
                "about": "All",
                "link": "https://lh5.googleusercontent.com/p/AF1QipORBviJaaMrgdSwC1gXk8K7n3HYW51EmrrxmV_P=w397-h298-k-no"
            },
            {
                "about": "Dome",
                "link": "https://lh5.googleusercontent.com/p/AF1QipPLRmVTdGkJQ67Pw2SSikpMbfpZ9qfilw0Del8I=w298-h298-k-no"
            }
        ],
        "link": "https://www.google.com/maps/place/Maqbul+E+Alam+Masjid/data=!4m7!3m6!1s0x3bb452b9ff74096b:0x2dd3953bf53a881!8m2!3d15.468443!4d78.4923423!16s%2Fg%2F11fzfbvkqk!19sChIJawl0_7lStDsRgahTv1M53QI?authuser=0&hl=en&rclk=1",
        "coordinates": {
            "latitude": 15.468442999999999,
            "longitude": 78.49234229999999
        }
    },
    {
        "name": "Masjid-e-Ali",
        "main_category": "Mosque",
        "address": "Masjid-e-Ali, 518501, Grameena Bank Staff Colony, Sadiq Nagar, Nandyala, Andhra Pradesh 518501",
        "detailed_address": {
            "ward": "Grameena Bank Staff Colony, Sadiq Nagar",
            "street": "518501",
            "city": "Nandyala",
            "postal_code": "518501",
            "state": "Andhra Pradesh",
            "country_code": "IN"
        },
        "images": [
            {
                "about": "All",
                "link": "https://lh5.googleusercontent.com/p/AF1QipMx7Selkv_lwbdkRc_zKVwTmSDyNQxLViChUfi5=w224-h398-k-no"
            },
            {
                "about": "Street View & 360deg",
                "link": "https://streetviewpixels-pa.googleapis.com/v1/thumbnail?panoid=v8Nv_orT8q5zFcBHoXoRwQ&cb_client=maps_sv.tactile.gps&w=224&h=298&yaw=233.00903&pitch=0&thumbfov=100"
            },
            {
                "about": "Videos",
                "link": "https://lh5.googleusercontent.com/p/AF1QipP1ZcYf6KuDeVq1yP2Vub_KkFea_zIgViQLbArm=w224-h398-k-no"
            }
        ],
        "link": "https://www.google.com/maps/place/Masjid-e-Ali/data=!4m7!3m6!1s0x3bb452a83e4f7b4b:0xbf64d7061aca0cde!8m2!3d15.4693578!4d78.476363!16s%2Fg%2F11c30x9qmb!19sChIJS3tPPqhStDsR3gzKGgbXZL8?authuser=0&hl=en&rclk=1",
        "coordinates": {
            "latitude": 15.4693578,
            "longitude": 78.47636299999999
        }
    },
    {
        "name": "Masjid-E-Huda",
        "main_category": "Mosque",
        "address": "FFHP+235 Masjid-E-Huda, Nagula Katta, Nandyala, Andhra Pradesh 518501",
        "detailed_address": {
            "ward": "Nagula Katta",
            "street": "FFHP+235, Nagula Katta",
            "city": "Nandyala",
            "postal_code": "518501",
            "state": "Andhra Pradesh",
            "country_code": "IN"
        },
        "images": [
            {
                "about": "All",
                "link": "https://lh5.googleusercontent.com/p/AF1QipNZfhT5EWtD9pUKnmB375U_gyQ4czGszo10b0Iv=w224-h298-k-no"
            },
            {
                "about": "Street View & 360deg",
                "link": "https://streetviewpixels-pa.googleapis.com/v1/thumbnail?panoid=ieR8f7vZb437_KZCohOSrg&cb_client=maps_sv.tactile.gps&w=224&h=298&yaw=266.00497&pitch=0&thumbfov=100"
            }
        ],
        "link": "https://www.google.com/maps/place/Masjid-E-Huda/data=!4m7!3m6!1s0x3bb452ad72ef39f1:0x846c3d43a4257d2a!8m2!3d15.4775095!4d78.4852492!16s%2Fg%2F11cs31pt0d!19sChIJ8Tnvcq1StDsRKn0lpEM9bIQ?authuser=0&hl=en&rclk=1",
        "coordinates": {
            "latitude": 15.4775095,
            "longitude": 78.4852492
        }
    },
    {
        "name": "Masjid-E-Usma-E-Ghani",
        "main_category": "Mosque",
        "address": "FFPR+4WH Masjid-E-Usma-E-Ghani, Farook Nagar, Salim Nagar, Nandyala, Andhra Pradesh 518501",
        "detailed_address": {
            "ward": "Farook Nagar, Salim Nagar",
            "street": "FFPR+4WH",
            "city": "Nandyala",
            "postal_code": "518501",
            "state": "Andhra Pradesh",
            "country_code": "IN"
        },
        "images": [
            {
                "about": "All",
                "link": "https://streetviewpixels-pa.googleapis.com/v1/thumbnail?panoid=wdPJe-DBWYxH0KZN75Bttg&cb_client=maps_sv.tactile.gps&w=224&h=298&yaw=173.44553&pitch=0&thumbfov=100"
            },
            {
                "about": "Street View & 360deg",
                "link": "https://streetviewpixels-pa.googleapis.com/v1/thumbnail?panoid=wdPJe-DBWYxH0KZN75Bttg&cb_client=maps_sv.tactile.gps&w=224&h=298&yaw=173.44553&pitch=0&thumbfov=100"
            }
        ],
        "link": "https://www.google.com/maps/place/Masjid-E-Usma-E-Ghani/data=!4m7!3m6!1s0x3bb5ad4bfc79655b:0x71a5f7177c71c04e!8m2!3d15.4853088!4d78.4923447!16s%2Fg%2F11c5t3xmft!19sChIJW2V5_EuttTsRTsBxfBf3pXE?authuser=0&hl=en&rclk=1",
        "coordinates": {
            "latitude": 15.485308799999999,
            "longitude": 78.49234469999999
        }
    },
    {
        "name": "Masjid-E-Arafat",
        "main_category": "Mosque",
        "address": "Masjid-E-Arafat, 22/208, Kota Street, Jagajanani Nagar, Sri Potti Sriramulu Colony, Srinivasa Nagar, Kota St, Jagajanani Nagar, Sri Potti Sriramulu Colony, Srinivasa Nagar, Nandyala, Andhra Pradesh 518501",
        "detailed_address": {
            "ward": "Jagajanani Nagar, Sri Potti Sriramulu Colony, Srinivasa Nagar",
            "street": "22/208, Kota Street, Jagajanani Nagar, Sri Potti Sriramulu Colony, Srinivasa Nagar, Kota St",
            "city": "Nandyala",
            "postal_code": "518501",
            "state": "Andhra Pradesh",
            "country_code": "IN"
        },
        "images": [
            {
                "about": "All",
                "link": "https://lh5.googleusercontent.com/p/AF1QipNnyp_RCv77mjy3ZO2choHeckeZU8fMnZc3lspM=w224-h398-k-no"
            },
            {
                "about": "Videos",
                "link": "https://lh5.googleusercontent.com/p/AF1QipMmkvhIbZNFISgQ8cnj9R62vUaZUTxRdznvXXBH=w224-h497-k-no"
            }
        ],
        "link": "https://www.google.com/maps/place/Masjid-E-Arafat/data=!4m7!3m6!1s0x3bb5ad4f5d197bbf:0x656b28d3ae1758fd!8m2!3d15.4914099!4d78.4911994!16s%2Fg%2F11csrvn7sr!19sChIJv3sZXU-ttTsR_VgXrtMoa2U?authuser=0&hl=en&rclk=1",
        "coordinates": {
            "latitude": 15.491409899999999,
            "longitude": 78.4911994
        }
    },
    {
        "name": "Masjid-E-Mohammedia Ahle Hadees",
        "main_category": "Mosque",
        "address": "FFC8+HRX Masjid-E-Mohammedia Ahle Hadees, Moolasagaram, Nandyala, Andhra Pradesh 518502",
        "detailed_address": {
            "ward": "Moolasagaram",
            "street": "FFC8+HRX",
            "city": "Nandyala",
            "postal_code": "518502",
            "state": "Andhra Pradesh",
            "country_code": "IN"
        },
        "images": [
            {
                "about": "All",
                "link": "https://lh5.googleusercontent.com/p/AF1QipM0IbkWcuuUyhSuwF0SxEGkQXm4YVtZK_ml8lHL=w224-h298-k-no"
            },
            {
                "about": "Dome",
                "link": "https://lh5.googleusercontent.com/p/AF1QipPMuGz7POEhuIVaSTvgw1tSN8psrnUZ8Uxtru9Z=w224-h398-k-no"
            },
            {
                "about": "Street View & 360deg",
                "link": "https://streetviewpixels-pa.googleapis.com/v1/thumbnail?panoid=D-1NtBgTPBzeilW6s4gk5A&cb_client=maps_sv.tactile.gps&w=224&h=298&yaw=228.96669&pitch=0&thumbfov=100"
            }
        ],
        "link": "https://www.google.com/maps/place/Masjid-E-Mohammedia+Ahle+Hadees/data=!4m7!3m6!1s0x3bb44d510c87ea31:0x12f4855bffb9592d!8m2!3d15.4714998!4d78.4670986!16s%2Fg%2F1tks4sbr!19sChIJMeqHDFFNtDsRLVm5_1uF9BI?authuser=0&hl=en&rclk=1",
        "coordinates": {
            "latitude": 15.4714998,
            "longitude": 78.4670986
        }
    },
    {
        "name": "Masjid E Hamza",
        "main_category": "Mosque",
        "address": "Masjid E Hamza, 518501, Saleem Nagar, Srinivasa Nagar, Nandyala, Andhra Pradesh 518501",
        "detailed_address": {
            "ward": "Saleem Nagar, Srinivasa Nagar",
            "street": "518501",
            "city": "Nandyala",
            "postal_code": "518501",
            "state": "Andhra Pradesh",
            "country_code": "IN"
        },
        "images": [
            {
                "about": "All",
                "link": "https://lh5.googleusercontent.com/p/AF1QipPmPCZ963wIInlF6WUJdyX_J5iHqME9xrhXvdVP=w397-h298-k-no"
            }
        ],
        "link": "https://www.google.com/maps/place/Masjid+E+Hamza/data=!4m7!3m6!1s0x3bb5b2aa445ea16d:0x4c0acdf0f7687463!8m2!3d15.4829996!4d78.4732842!16s%2Fg%2F11c1plnq9y!19sChIJbaFeRKqytTsRY3Ro9_DNCkw?authuser=0&hl=en&rclk=1",
        "coordinates": {
            "latitude": 15.4829996,
            "longitude": 78.4732842
        }
    },
    {
        "name": "Masjid E Kubra",
        "main_category": "Mosque",
        "address": "FFCJ+9VW Masjid E Kubra, Sadiq Nagar, Nandyala, Andhra Pradesh 518501",
        "detailed_address": {
            "ward": "Sadiq Nagar",
            "street": "FFCJ+9VW",
            "city": "Nandyala",
            "postal_code": "518501",
            "state": "Andhra Pradesh",
            "country_code": "IN"
        },
        "images": [
            {
                "about": "All",
                "link": "https://lh5.googleusercontent.com/p/AF1QipOYdMKJigTrCNZAXNfYgFhyPaBE9fZ66Zsd2F10=w224-h298-k-no"
            },
            {
                "about": "Street View & 360deg",
                "link": "https://streetviewpixels-pa.googleapis.com/v1/thumbnail?panoid=_gRxzc2qBjzdLinEwb3AtQ&cb_client=maps_sv.tactile.gps&w=224&h=298&yaw=188.94606&pitch=0&thumbfov=100"
            }
        ],
        "link": "https://www.google.com/maps/place/Masjid+E+Kubra/data=!4m7!3m6!1s0x3bb452aedf807f65:0x74b534030272a5a6!8m2!3d15.4709834!4d78.4822015!16s%2Fg%2F11hbgr6mzn!19sChIJZX-A365StDsRpqVyAgM0tXQ?authuser=0&hl=en&rclk=1",
        "coordinates": {
            "latitude": 15.4709834,
            "longitude": 78.4822015
        }
    },
    {
        "name": "Masjid E Makkah",
        "main_category": "Mosque",
        "address": "FFCQ+R56 Masjid E Makkah, Viswanagar, near Royal Studio and suppliers, Nandyala, Andhra Pradesh 518501",
        "detailed_address": {
            "ward": "viswanagar, Lalitanagar",
            "street": "FFCQ+R56, Viswanagar, near Royal Studio and suppliers",
            "city": "Nandyala",
            "postal_code": "518501",
            "state": "Andhra Pradesh",
            "country_code": "IN"
        },
        "images": [
            {
                "about": "All",
                "link": "//lh6.googleusercontent.com/AMkP9hu9Y16xQ4PCAilogL_Kv4uUI7Vcsxxpwt2HlJA3KpYswvJcUMeRbBQ8_E6h=w529-h298-k-no"
            },
            {
                "about": "Street View & 360deg",
                "link": "https://streetviewpixels-pa.googleapis.com/v1/thumbnail?panoid=DCpgOpgWENX37b8eYHi7_g&cb_client=maps_sv.tactile.gps&w=224&h=298&yaw=258.11813&pitch=0&thumbfov=100"
            }
        ],
        "link": "https://www.google.com/maps/place/Masjid+E+Makkah/data=!4m7!3m6!1s0x3bb452b1b875c77d:0x234df8779ee67c2d!8m2!3d15.4720342!4d78.4878828!16s%2Fg%2F11byzdfmzp!19sChIJfcd1uLFStDsRLXzmnnf4TSM?authuser=0&hl=en&rclk=1",
        "coordinates": {
            "latitude": 15.4720342,
            "longitude": 78.4878828
        }
    },
    {
        "name": "Masjid - E - Ayesha",
        "main_category": "Mosque",
        "address": "FFGJ+4V4 Masjid - E - Ayesha, Near SHRAMADANAM Bridge, Nandyala, Andhra Pradesh 518502",
        "detailed_address": {
            "ward": "Deva Nagar Colony",
            "street": "FFGJ+4V4, Near SHRAMADANAM Bridge",
            "city": "Nandyala",
            "postal_code": "518502",
            "state": "Andhra Pradesh",
            "country_code": "IN"
        },
        "images": [
            {
                "about": "All",
                "link": "//lh6.googleusercontent.com/tbdlEhgwqZGJGlWildQ53irljRDzqJxv0smeALGxi4ab_if5NNRkZeiRKLEXiYOw=w529-h298-k-no"
            },
            {
                "about": "Street View & 360deg",
                "link": "https://streetviewpixels-pa.googleapis.com/v1/thumbnail?panoid=ui4ZeiUem7zEexI26FS7fA&cb_client=maps_sv.tactile.gps&w=224&h=298&yaw=45.94205&pitch=0&thumbfov=100"
            }
        ],
        "link": "https://www.google.com/maps/place/Masjid+-+E+-+Ayesha/data=!4m7!3m6!1s0x3bb452ac15644c1d:0x483d98b32b4f921b!8m2!3d15.4752722!4d78.4822099!16s%2Fg%2F11c1_v6_kz!19sChIJHUxkFaxStDsRG5JPK7OYPUg?authuser=0&hl=en&rclk=1",
        "coordinates": {
            "latitude": 15.4752722,
            "longitude": 78.4822099
        }
    },
    {
        "name": "Baba Faqruddin Mosque",
        "main_category": "Mosque",
        "address": "FF7V+Q69 Baba Faqruddin Mosque, Gopal Nagar, Nandyala, Andhra Pradesh 518502",
        "detailed_address": {
            "ward": "Gopal Nagar",
            "street": "FF7V+Q69",
            "city": "Nandyala",
            "postal_code": "518502",
            "state": "Andhra Pradesh",
            "country_code": "IN"
        },
        "images": [
            {
                "about": "All",
                "link": "https://lh5.googleusercontent.com/p/AF1QipOG_9Dm7vyh0i016MGb8_ea601UNi-xyivDnWVo=w529-h298-k-no"
            }
        ],
        "link": "https://www.google.com/maps/place/Baba+Faqruddin+Mosque/data=!4m7!3m6!1s0x3bb452b96e93da53:0xb7ddcb3a7d67c927!8m2!3d15.4644244!4d78.4931157!16s%2Fg%2F11dynyh6yd!19sChIJU9qTbrlStDsRJ8lnfTrL3bc?authuser=0&hl=en&rclk=1",
        "coordinates": {
            "latitude": 15.464424399999999,
            "longitude": 78.49311569999999
        }
    },
    {
        "name": "Majid-A-Umar",
        "main_category": "Mosque",
        "address": "FF7X+R9H Majid-A-Umar, Ponnapuramcolony, lalitha, Ponnapuram Colony, Lalitanagar, Nandyala, Andhra Pradesh 518502",
        "detailed_address": {
            "ward": "Ponnapuram Colony, Lalitanagar",
            "street": "FF7X+R9H, Ponnapuramcolony, lalitha",
            "city": "Nandyala",
            "postal_code": "518502",
            "state": "Andhra Pradesh",
            "country_code": "IN"
        },
        "images": [
            {
                "about": "All",
                "link": "https://lh5.googleusercontent.com/p/AF1QipO7OrWCjv3ETambHgepVKjW5kstNowN74MFpDTN=w475-h298-k-no"
            },
            {
                "about": "Street View & 360deg",
                "link": "https://streetviewpixels-pa.googleapis.com/v1/thumbnail?panoid=0UUjc-KctwepJAgc6A-lMA&cb_client=maps_sv.tactile.gps&w=224&h=298&yaw=272.0106&pitch=0&thumbfov=100"
            }
        ],
        "link": "https://www.google.com/maps/place/Majid-A-Umar/data=!4m7!3m6!1s0x3bb452c75d73df93:0x3ba1d54957ea1123!8m2!3d15.464567!4d78.4984856!16s%2Fg%2F11gb3lv1zn!19sChIJk99zXcdStDsRIxHqV0nVoTs?authuser=0&hl=en&rclk=1",
        "coordinates": {
            "latitude": 15.464566999999999,
            "longitude": 78.4984856
        }
    },
    {
        "name": "Sunni Masjid",
        "main_category": "Mosque",
        "address": "FCR8+G63 Sunni Masjid, near shantiram medical hospital nandyal kurnool distric andhra pradesh, Kowlur",
        "detailed_address": {
            "ward": null,
            "street": "FCR8+G63, near shantiram medical hospital nandyal kurnool distric andhra pradesh",
            "city": "Kowlur",
            "postal_code": null,
            "state": "Andhra Pradesh",
            "country_code": "IN"
        },
        "images": [
            {
                "about": "All",
                "link": "https://streetviewpixels-pa.googleapis.com/v1/thumbnail?panoid=IYaanmQyjthp7gaCszm8HQ&cb_client=maps_sv.tactile.gps&w=224&h=298&yaw=266.91986&pitch=0&thumbfov=100"
            },
            {
                "about": "Street View & 360deg",
                "link": "https://streetviewpixels-pa.googleapis.com/v1/thumbnail?panoid=IYaanmQyjthp7gaCszm8HQ&cb_client=maps_sv.tactile.gps&w=224&h=298&yaw=266.91986&pitch=0&thumbfov=100"
            }
        ],
        "link": "https://www.google.com/maps/place/Sunni+Masjid/data=!4m7!3m6!1s0x3bb5b33b07e33e5f:0x1421fa3da84ad4f8!8m2!3d15.4912652!4d78.4155527!16s%2Fg%2F11b6hwm9wr!19sChIJXz7jBzuztTsR-NRKqD36IRQ?authuser=0&hl=en&rclk=1",
        "coordinates": {
            "latitude": 15.491265199999999,
            "longitude": 78.41555269999999
        }
    },
    {
        "name": "Jamiya Majid",
        "main_category": "Mosque",
        "address": "CFF3+5Q6 Jamiya Majid, Kanala, Andhra Pradesh 518593",
        "detailed_address": {
            "ward": null,
            "street": "CFF3+5Q6",
            "city": "Kanala",
            "postal_code": "518593",
            "state": "Andhra Pradesh",
            "country_code": "IN"
        },
        "images": [
            {
                "about": "All",
                "link": "https://lh5.googleusercontent.com/p/AF1QipOxF_f3GIlnsNqNCAL5fv22c-7AdEe7L6pA5P8B=w224-h373-k-no"
            },
            {
                "about": "Street View & 360deg",
                "link": "https://streetviewpixels-pa.googleapis.com/v1/thumbnail?panoid=ooN2unkgq2UAzZEzkfmpXw&cb_client=maps_sv.tactile.gps&w=224&h=298&yaw=296.30597&pitch=0&thumbfov=100"
            }
        ],
        "link": "https://www.google.com/maps/place/Jamiya+Majid/data=!4m7!3m6!1s0x3bb44d985bb1f291:0xeb584bfaa66dda4c!8m2!3d15.4229244!4d78.4543901!16s%2Fg%2F11bw2frvf0!19sChIJkfKxW5hNtDsRTNptpvpLWOs?authuser=0&hl=en&rclk=1",
        "coordinates": {
            "latitude": 15.4229244,
            "longitude": 78.4543901
        }
    },
    {
        "name": "Masjid E Khuba",
        "main_category": "Mosque",
        "address": "FF6P+9J5 Masjid E Khuba, Kurnool - Ongole Main Rd, Raitu Nagar, Nandyala, Andhra Pradesh 518502",
        "detailed_address": {
            "ward": "Raitu Nagar",
            "street": "FF6P+9J5, Kurnool - Ongole Main Rd",
            "city": "Nandyala",
            "postal_code": "518502",
            "state": "Andhra Pradesh",
            "country_code": "IN"
        },
        "images": [
            {
                "about": "All",
                "link": "https://lh5.googleusercontent.com/p/AF1QipNNjMDidKllu66SG_a6CLEAbe3I3IfEykn1MGuG=w529-h298-k-no"
            },
            {
                "about": "Street View & 360deg",
                "link": "https://streetviewpixels-pa.googleapis.com/v1/thumbnail?panoid=7vnTeXq6m-oYxp3xmONTDQ&cb_client=maps_sv.tactile.gps&w=224&h=298&yaw=21.354607&pitch=0&thumbfov=100"
            }
        ],
        "link": "https://www.google.com/maps/place/Masjid+E+Khuba/data=!4m7!3m6!1s0x3bb452bccb4f8f87:0xcf7a475a137e607d!8m2!3d15.4608836!4d78.4865966!16s%2Fg%2F11c5wxbwq2!19sChIJh49Py7xStDsRfWB-E1pHes8?authuser=0&hl=en&rclk=1",
        "coordinates": {
            "latitude": 15.460883599999999,
            "longitude": 78.4865966
        }
    },
    {
        "name": "Masjid E Abu-Hanifa",
        "main_category": "Mosque",
        "address": "FFRV+4JW Masjid E Abu-Hanifa, near essar petrol bunk., Nandyala, Andhra Pradesh",
        "detailed_address": {
            "ward": "Salim Nagar",
            "street": "FFRV+4JW, near essar petrol bunk.",
            "city": "Nandyala",
            "postal_code": null,
            "state": "Andhra Pradesh",
            "country_code": "IN"
        },
        "images": [
            {
                "about": "All",
                "link": "https://lh5.googleusercontent.com/p/AF1QipPAsdypLuhbJm81tUY9Q2eCpRs8EBuuFr8jlmrg=w298-h298-k-no"
            },
            {
                "about": "Dome",
                "link": "https://lh5.googleusercontent.com/p/AF1QipMWXvwS6UoQgH3vaOCJzXIUvb03O_5EuSUi120U=w224-h298-k-no"
            },
            {
                "about": "Videos",
                "link": "https://lh5.googleusercontent.com/p/AF1QipP0-zJSUT3ksGmenqkR5jhi5H8Ejm7KIS3oqepP=w224-h398-k-no"
            }
        ],
        "link": "https://www.google.com/maps/place/Masjid+E+Abu-Hanifa/data=!4m7!3m6!1s0x3bb5ad48eccc0435:0x6b05de16d1509d05!8m2!3d15.4903508!4d78.4940762!16s%2Fg%2F11d_8842p2!19sChIJNQTM7EittTsRBZ1Q0RbeBWs?authuser=0&hl=en&rclk=1",
        "coordinates": {
            "latitude": 15.4903508,
            "longitude": 78.4940762
        }
    },
    {
        "name": "Beersheba Prayer House",
        "main_category": "Church",
        "address": "Beersheba Prayer House, Masjid, Municipal Office back side Land mark:Backside of Dabarala, Nandyala, Andhra Pradesh 518501",
        "detailed_address": {
            "ward": "Srinivasa Nagar",
            "street": "Masjid, Municipal Office back side Land mark:Backside of Dabarala",
            "city": "Nandyala",
            "postal_code": "518501",
            "state": "Andhra Pradesh",
            "country_code": "IN"
        },
        "images": [
            {
                "about": "All",
                "link": "https://lh5.googleusercontent.com/p/AF1QipMt1V47yWXXORjjazdjK6TERSxbmsUWkeLbTyMO=w647-h298-k-no"
            },
            {
                "about": "By owner",
                "link": "https://lh5.googleusercontent.com/p/AF1QipNJlCBmaD68l2jn3RgVUIMgUcw-yWk-X5sg5DiN=w529-h298-k-no"
            }
        ],
        "link": "https://www.google.com/maps/place/Beersheba+Prayer+House/data=!4m7!3m6!1s0x3bb5b2a9efe299a7:0x471a36939752dcdd!8m2!3d15.4857623!4d78.4745294!16s%2Fg%2F11bwkglvv7!19sChIJp5ni76mytTsR3dxSl5M2Gkc?authuser=0&hl=en&rclk=1",
        "coordinates": {
            "latitude": 15.4857623,
            "longitude": 78.4745294
        }
    },
    {
        "name": "Masjid E Inamul Hasan",
        "main_category": "Mosque",
        "address": "Masjid E Inamul Hasan, 518501, A.K.B.S Colony, Sai Baba nagar, Nandyala, Andhra Pradesh 518501",
        "detailed_address": {
            "ward": "A.K.B.S Colony, Sai Baba nagar",
            "street": "518501",
            "city": "Nandyala",
            "postal_code": "518501",
            "state": "Andhra Pradesh",
            "country_code": "IN"
        },
        "images": [
            {
                "about": "All",
                "link": "https://lh5.googleusercontent.com/p/AF1QipPg_RPL99qybzDzQsmqloBJSz7zycU2RetGBLig=w529-h298-k-no"
            }
        ],
        "link": "https://www.google.com/maps/place/Masjid+E+Inamul+Hasan/data=!4m7!3m6!1s0x3bb452aa3b89f287:0x37e4691cdb7fd04!8m2!3d15.4745689!4d78.4769753!16s%2Fg%2F11gcml4jn_!19sChIJh_KJO6pStDsRBP23zZFGfgM?authuser=0&hl=en&rclk=1",
        "coordinates": {
            "latitude": 15.4745689,
            "longitude": 78.47697529999999
        }
    },
    {
        "name": "Jamiya Masjid",
        "main_category": "Mosque",
        "address": "CGWC+2FV Jamiya Masjid, Ayyalur, Andhra Pradesh 518502",
        "detailed_address": {
            "ward": null,
            "street": "CGWC+2FV",
            "city": "Ayyalur",
            "postal_code": "518502",
            "state": "Andhra Pradesh",
            "country_code": "IN"
        },
        "images": [
            {
                "about": "All",
                "link": "https://lh5.googleusercontent.com/p/AF1QipNII_af0I4Syfv4IKurPfuEciijkJGGiUi-wegu=w397-h298-k-no"
            },
            {
                "about": "Dome",
                "link": "https://lh5.googleusercontent.com/p/AF1QipMZHnJgXrfcI5bHH5ZXZl7rGAKzgng1sXp5kLsF=w662-h298-k-no"
            },
            {
                "about": "Street View & 360deg",
                "link": "https://streetviewpixels-pa.googleapis.com/v1/thumbnail?panoid=EQe1km2xX9FPo9ThX5glPQ&cb_client=maps_sv.tactile.gps&w=224&h=298&yaw=219.62114&pitch=0&thumbfov=100"
            }
        ],
        "link": "https://www.google.com/maps/place/Jamiya+Masjid/data=!4m7!3m6!1s0x3bb453029a88f733:0xf2d779776e15868b!8m2!3d15.4451064!4d78.5211596!16s%2Fg%2F11g62ymk64!19sChIJM_eImgJTtDsRi4YVbnd51_I?authuser=0&hl=en&rclk=1",
        "coordinates": {
            "latitude": 15.445106399999998,
            "longitude": 78.52115959999999
        }
    },
    {
        "name": "masjid-e-ameena",
        "main_category": "Mosque",
        "address": "FFVQ+8V2 masjid-e-ameena, Unnamed Road, Nandyal, Sri Potti Sriramulu Colony, Srinivasa Nagar, Nandyala, Andhra Pradesh 518501",
        "detailed_address": {
            "ward": "Nabi Nagar, Sri Potti Sriramulu Colony, Srinivasa Nagar",
            "street": "FFVQ+8V2, Unnamed Road, Nandyal",
            "city": "Nandyala",
            "postal_code": "518501",
            "state": "Andhra Pradesh",
            "country_code": "IN"
        },
        "images": [],
        "link": "https://www.google.com/maps/place/masjid-e-ameena/data=!4m7!3m6!1s0x3bb5ad45a10f2e1b:0x8c20f09e26337f2!8m2!3d15.4932728!4d78.489626!16s%2Fg%2F11dym7l4p_!19sChIJGy4PoUWttTsR8jdj4gkPwgg?authuser=0&hl=en&rclk=1",
        "coordinates": {
            "latitude": 15.4932728,
            "longitude": 78.489626
        }
    },
    {
        "name": "Masjid-E-Siddiqui",
        "main_category": "Mosque",
        "address": "FF9Q+625 Masjid-E-Siddiqui, Gopal Nagar, Nandyala, Andhra Pradesh",
        "detailed_address": {
            "ward": "Gopal Nagar",
            "street": "FF9Q+625",
            "city": "Nandyala",
            "postal_code": null,
            "state": "Andhra Pradesh",
            "country_code": "IN"
        },
        "images": [
            {
                "about": "All",
                "link": "https://lh5.googleusercontent.com/p/AF1QipPULXHMHIdr-cNWNq0yL2LtRpsfrlMyCOMPD-aH=w529-h298-k-no"
            },
            {
                "about": "Street View & 360deg",
                "link": "https://streetviewpixels-pa.googleapis.com/v1/thumbnail?panoid=4oBGHWGjgitfY0bgJzlS0Q&cb_client=maps_sv.tactile.gps&w=224&h=298&yaw=261.06766&pitch=0&thumbfov=100"
            }
        ],
        "link": "https://www.google.com/maps/place/Masjid-E-Siddiqui/data=!4m7!3m6!1s0x3bb452baa400dc51:0x105e95b2fa3c76eb!8m2!3d15.4680139!4d78.4876166!16s%2Fg%2F11cs3xrtqc!19sChIJUdwApLpStDsR63Y8-rKVXhA?authuser=0&hl=en&rclk=1",
        "coordinates": {
            "latitude": 15.468013899999999,
            "longitude": 78.4876166
        }
    },
    {
        "name": "Masjid E Bilaal",
        "main_category": "Mosque",
        "address": "FFMP+G88 Masjid E Bilaal, Bilal Nagar, Srinivasa Nagar, Nandyala, Andhra Pradesh 518501",
        "detailed_address": {
            "ward": "Srinivasa Nagar",
            "street": "FFMP+G88, Bilal Nagar",
            "city": "Nandyala",
            "postal_code": "518501",
            "state": "Andhra Pradesh",
            "country_code": "IN"
        },
        "images": [
            {
                "about": "All",
                "link": "https://lh5.googleusercontent.com/p/AF1QipNGOIFfvHjoA8n6yc6oRYAOUGkWQyuUDNtEt7wK=w529-h298-k-no"
            }
        ],
        "link": "https://www.google.com/maps/place/Masjid+E+Bilaal/data=!4m7!3m6!1s0x3bb5ad5534afe01b:0x4836d254be5090dc!8m2!3d15.4837899!4d78.4858232!16s%2Fg%2F11g8677vnv!19sChIJG-CvNFWttTsR3JBQvlTSNkg?authuser=0&hl=en&rclk=1",
        "coordinates": {
            "latitude": 15.4837899,
            "longitude": 78.4858232
        }
    },
    {
        "name": "Sarware Kounine Masjid",
        "main_category": "Mosque",
        "address": "Sarware Kounine Masjid, 4-415, Municipal Highschool Road, Nadigadda, Municipal Highschool Rd, Nadigadda, Sri Potti Sriramulu Colony, Srinivasa Nagar, Nandyala, Andhra Pradesh 518501",
        "detailed_address": {
            "ward": "Nadigadda, Sri Potti Sriramulu Colony, Srinivasa Nagar",
            "street": "4-415, Municipal Highschool Road, Nadigadda, Municipal Highschool Rd",
            "city": "Nandyala",
            "postal_code": "518501",
            "state": "Andhra Pradesh",
            "country_code": "IN"
        },
        "images": [
            {
                "about": "All",
                "link": "https://lh5.googleusercontent.com/p/AF1QipN38KHg1FnIzREgIWgM2QjclRWpVIZhbux-Vvmm=w224-h298-k-no"
            }
        ],
        "link": "https://www.google.com/maps/place/Sarware+Kounine+Masjid/data=!4m7!3m6!1s0x3bb5ad5ab6c813dd:0xb1444fb8f7356607!8m2!3d15.49251!4d78.486112!16s%2Fg%2F11c7w0qx9r!19sChIJ3RPItlqttTsRB2Y197hPRLE?authuser=0&hl=en&rclk=1",
        "coordinates": {
            "latitude": 15.49251,
            "longitude": 78.48611199999999
        }
    },
    {
        "name": "Masjid E Markaz",
        "main_category": "Mosque",
        "address": "CFPW+6GG Masjid E Markaz, Chabolu, Andhra Pradesh 518502",
        "detailed_address": {
            "ward": null,
            "street": "CFPW+6GG",
            "city": "Chabolu",
            "postal_code": "518502",
            "state": "Andhra Pradesh",
            "country_code": "IN"
        },
        "images": [
            {
                "about": "All",
                "link": "https://lh5.googleusercontent.com/p/AF1QipMUPugMnPuXu__YdMQmvlO_41vJ55OKoIxHM9fu=w224-h398-k-no"
            },
            {
                "about": "Street View & 360deg",
                "link": "https://streetviewpixels-pa.googleapis.com/v1/thumbnail?panoid=7Ch53sJAbqOE1OWoimWiRw&cb_client=maps_sv.tactile.gps&w=224&h=298&yaw=170.67992&pitch=0&thumbfov=100"
            }
        ],
        "link": "https://www.google.com/maps/place/Masjid+E+Markaz/data=!4m7!3m6!1s0x3bb4528a94e3d14f:0x95ff675f62e59eb9!8m2!3d15.4355528!4d78.4963136!16s%2Fg%2F11gff49f6q!19sChIJT9HjlIpStDsRuZ7lYl9n_5U?authuser=0&hl=en&rclk=1",
        "coordinates": {
            "latitude": 15.4355528,
            "longitude": 78.4963136
        }
    },
    {
        "name": "Muzzammil Masjid",
        "main_category": "Mosque",
        "address": "FFQR+G7W Muzzammil Masjid, Gudipati Gadda St, Telugu Peta, Nandyala, Andhra Pradesh 518501",
        "detailed_address": {
            "ward": "Telugu Peta",
            "street": "FFQR+G7W, Gudipati Gadda St",
            "city": "Nandyala",
            "postal_code": "518501",
            "state": "Andhra Pradesh",
            "country_code": "IN"
        },
        "images": [],
        "link": "https://www.google.com/maps/place/Muzzammil+Masjid/data=!4m7!3m6!1s0x3bb5ad4f1fb0161f:0xd94958fc8af29d6d!8m2!3d15.4888648!4d78.4907064!16s%2Fg%2F11b70kmdsc!19sChIJHxawH0-ttTsRbZ3yivxYSdk?authuser=0&hl=en&rclk=1",
        "coordinates": {
            "latitude": 15.4888648,
            "longitude": 78.4907064
        }
    },
    {
        "name": "Masjid E Sa'eed",
        "main_category": "Mosque",
        "address": "FFHJ+V94 Masjid E Sa'eed, near Polytechnic college, Padmavathi Nagar, Nandyala, Andhra Pradesh 518501",
        "detailed_address": {
            "ward": "Padmavathi Nagar",
            "street": "FFHJ+V94, near Polytechnic college",
            "city": "Nandyala",
            "postal_code": null,
            "state": "Andhra Pradesh",
            "country_code": "IN"
        },
        "images": [
            {
                "about": "All",
                "link": "https://lh5.googleusercontent.com/p/AF1QipPF4s90vWdaKfnkWNKNEqjai6IvMSo3PllijS5c=w224-h298-k-no"
            }
        ],
        "link": "https://www.google.com/maps/place/Masjid+E+Sa%27eed/data=!4m7!3m6!1s0x3bb453c1a92eca33:0x73752d46f1b28d9e!8m2!3d15.4796429!4d78.4809648!16s%2Fg%2F11f9_mx1sv!19sChIJM8ouqcFTtDsRno2y8UYtdXM?authuser=0&hl=en&rclk=1",
        "coordinates": {
            "latitude": 15.4796429,
            "longitude": 78.4809648
        }
    },
    {
        "name": "MASJEED-E-ALI",
        "main_category": "Mosque",
        "address": "FFW7+33J MASJEED-E-ALI, S R B C Colony, Moolasagaram Rural, Andhra Pradesh 518511",
        "detailed_address": {
            "ward": "S R B C Colony",
            "street": "FFW7+33J",
            "city": "Moolasagaram Rural",
            "postal_code": "518511",
            "state": "Andhra Pradesh",
            "country_code": "IN"
        },
        "images": [
            {
                "about": "All",
                "link": "https://lh5.googleusercontent.com/p/AF1QipOs7ahFJcLJYsrrkWL9xQrW0W2GGlYWGLNzCWYK=w224-h298-k-no"
            },
            {
                "about": "Street View & 360deg",
                "link": "https://streetviewpixels-pa.googleapis.com/v1/thumbnail?panoid=zrIOHMuTdRzsvXUBO1LljA&cb_client=maps_sv.tactile.gps&w=224&h=298&yaw=192.54482&pitch=0&thumbfov=100"
            }
        ],
        "link": "https://www.google.com/maps/place/MASJEED-E-ALI/data=!4m7!3m6!1s0x3bb5b2bb5ccb9865:0xbfb17202f1b665bf!8m2!3d15.495217!4d78.462656!16s%2Fg%2F11c2k29363!19sChIJZZjLXLuytTsRv2W28QJysb8?authuser=0&hl=en&rclk=1",
        "coordinates": {
            "latitude": 15.495216999999998,
            "longitude": 78.462656
        }
    },
    {
        "name": "Masjid e Ali",
        "main_category": "Mosque",
        "address": "FFRC+WX4 Masjid e Ali, Moolasagaram Rural, Andhra Pradesh 518511",
        "detailed_address": {
            "ward": null,
            "street": "FFRC+WX4",
            "city": "Moolasagaram Rural",
            "postal_code": "518511",
            "state": "Andhra Pradesh",
            "country_code": "IN"
        },
        "images": [
            {
                "about": "All",
                "link": "https://lh5.googleusercontent.com/p/AF1QipPoLVHQ2v8qp0tRBRMbz0792salg5y_0kJ-hq25=w529-h298-k-no"
            },
            {
                "about": "Street View & 360deg",
                "link": "https://streetviewpixels-pa.googleapis.com/v1/thumbnail?panoid=WYcaXoqtEW7AbyCBxqj77g&cb_client=maps_sv.tactile.gps&w=224&h=298&yaw=124.97576&pitch=0&thumbfov=100"
            }
        ],
        "link": "https://www.google.com/maps/place/Masjid+e+Ali/data=!4m7!3m6!1s0x3bb5b2a7b5188025:0xef6cf19299abb372!8m2!3d15.492259!4d78.4724417!16s%2Fg%2F11g6p6g8kt!19sChIJJYAYtaeytTsRcrOrmZLxbO8?authuser=0&hl=en&rclk=1",
        "coordinates": {
            "latitude": 15.492258999999999,
            "longitude": 78.47244169999999
        }
    },
    {
        "name": "MASJID - E - MUHAMMADIYA",
        "main_category": "Mosque",
        "address": "MASJID - E - MUHAMMADIYA, Mohammadiya masjid, Nadigadda, Sri Potti Sriramulu Colony, Telugu Peta, Nandyala, Andhra Pradesh 518501",
        "detailed_address": {
            "ward": "Nadigadda, Sri Potti Sriramulu Colony, Telugu Peta",
            "street": "Mohammadiya masjid",
            "city": "Nandyala",
            "postal_code": "518501",
            "state": "Andhra Pradesh",
            "country_code": "IN"
        },
        "images": [
            {
                "about": "All",
                "link": "https://lh5.googleusercontent.com/p/AF1QipPH9nyfo-v-Xe08ZwBfUVLoPpYU9A4zhEqNonJR=w224-h497-k-no"
            }
        ],
        "link": "https://www.google.com/maps/place/MASJID+-+E+-+MUHAMMADIYA/data=!4m7!3m6!1s0x3bb5ad5104e64b47:0xf46312829fb20594!8m2!3d15.4942965!4d78.4891327!16s%2Fg%2F11h1dsl84t!19sChIJR0vmBFGttTsRlAWyn4ISY_Q?authuser=0&hl=en&rclk=1",
        "coordinates": {
            "latitude": 15.494296499999999,
            "longitude": 78.4891327
        }
    },
    {
        "name": "Masjid Al Furqaan",
        "main_category": "Mosque",
        "address": "FFVM+546 Masjid Al Furqaan, qabarstan purana eidgah bhimavaram road, Nandyal Bus Stand Rd, Sri Potti Sriramulu Colony, Srinivasa Nagar, Nandyala, Andhra Pradesh 518501",
        "detailed_address": {
            "ward": "Sri Potti Sriramulu Colony, Srinivasa Nagar",
            "street": "FFVM+546, qabarstan purana eidgah bhimavaram road, Nandyal Bus Stand Rd",
            "city": "Nandyala",
            "postal_code": "518501",
            "state": "Andhra Pradesh",
            "country_code": "IN"
        },
        "images": [
            {
                "about": "All",
                "link": "https://lh5.googleusercontent.com/p/AF1QipOXQKIiSrvU4tvyKFKQPV2arCisxjrkn32_sBRT=w224-h398-k-no"
            },
            {
                "about": "Street View & 360deg",
                "link": "https://streetviewpixels-pa.googleapis.com/v1/thumbnail?panoid=Rq8nsQU85vsw0RYT4tL4dA&cb_client=maps_sv.tactile.gps&w=224&h=298&yaw=331.19766&pitch=0&thumbfov=100"
            },
            {
                "about": "Videos",
                "link": "https://lh5.googleusercontent.com/p/AF1QipOYLPT1Ia8mrWZiB1AeRAKu3rjt2CtUK4Vny-On=w224-h398-k-no"
            }
        ],
        "link": "https://www.google.com/maps/place/Masjid+Al+Furqaan/data=!4m7!3m6!1s0x3bb5ad5a43ba2e61:0x248174019a3a99a!8m2!3d15.4929028!4d78.4827679!16s%2Fg%2F11cn3sg870!19sChIJYS66Q1qttTsRmqmjGUAXSAI?authuser=0&hl=en&rclk=1",
        "coordinates": {
            "latitude": 15.4929028,
            "longitude": 78.4827679
        }
    },
    {
        "name": "Masjid-E-Saddekhan",
        "main_category": "Mosque",
        "address": "HC5F+64W Masjid-E-Saddekhan, Rasullada, Andhra Pradesh 518511",
        "detailed_address": {
            "ward": null,
            "street": "HC5F+64W",
            "city": "Rasullada",
            "postal_code": "518511",
            "state": "Andhra Pradesh",
            "country_code": "IN"
        },
        "images": [
            {
                "about": "All",
                "link": "https://lh5.googleusercontent.com/p/AF1QipM_FNWfhOQea-n0q1u-swLGEyUVLka7Bc1pgDVt=w529-h298-k-no"
            },
            {
                "about": "Street View & 360deg",
                "link": "https://streetviewpixels-pa.googleapis.com/v1/thumbnail?panoid=8jUOEnGEU1ldn8tB2S5lbw&cb_client=maps_sv.tactile.gps&w=224&h=298&yaw=232.76614&pitch=0&thumbfov=100"
            }
        ],
        "link": "https://www.google.com/maps/place/Masjid-E-Saddekhan/data=!4m7!3m6!1s0x3bb5b3a1c0de3493:0x45d7e1b2e62a90d2!8m2!3d15.5581094!4d78.4228268!16s%2Fg%2F11h4gvrrc8!19sChIJkzTewKGztTsR0pAq5rLh10U?authuser=0&hl=en&rclk=1",
        "coordinates": {
            "latitude": 15.5581094,
            "longitude": 78.4228268
        }
    },
    {
        "name": "Masjid e khan-khah (anjuman masjid)",
        "main_category": "Mosque",
        "address": "Masjid e khan-khah (anjuman masjid), Bus Station, Nandyal Bus Stand Rd, Arundhi Nagar, Telugu Peta, Nandyala, Andhra Pradesh 518501",
        "detailed_address": {
            "ward": "Arundhi Nagar, Telugu Peta",
            "street": "Bus Station, Nandyal Bus Stand Rd",
            "city": "Nandyala",
            "postal_code": "518501",
            "state": "Andhra Pradesh",
            "country_code": "IN"
        },
        "images": [
            {
                "about": "All",
                "link": "https://lh5.googleusercontent.com/p/AF1QipNc5FBrUJ6IKAZQntikP2paiC0Rb2EBukb5H6U0=w529-h298-k-no"
            }
        ],
        "link": "https://www.google.com/maps/place/Masjid+e+khan-khah+%28anjuman+masjid%29/data=!4m7!3m6!1s0x3bb5adf2963335ab:0xa4490349fa7d92ff!8m2!3d15.4896704!4d78.4807394!16s%2Fg%2F11fwwvp45l!19sChIJqzUzlvKttTsR_5J9-kkDSaQ?authuser=0&hl=en&rclk=1",
        "coordinates": {
            "latitude": 15.4896704,
            "longitude": 78.48073939999999
        }
    },
    {
        "name": "Masjid E Firdous",
        "main_category": "Mosque",
        "address": "FF8M+38H Masjid E Firdous, Sadiq Nagar, Nandyala, Andhra Pradesh 518501",
        "detailed_address": {
            "ward": "Sadiq Nagar",
            "street": "FF8M+38H",
            "city": "Nandyala",
            "postal_code": "518501",
            "state": "Andhra Pradesh",
            "country_code": "IN"
        },
        "images": [
            {
                "about": "All",
                "link": "https://lh5.googleusercontent.com/p/AF1QipOYX6afsu6kRzp4-qy1ZJRC8nYkcAL1Fz-yAkJI=w529-h298-k-no"
            },
            {
                "about": "Street View & 360deg",
                "link": "https://streetviewpixels-pa.googleapis.com/v1/thumbnail?panoid=l3IYimOxMiYT7uVZ_hQ_SA&cb_client=maps_sv.tactile.gps&w=224&h=298&yaw=316.47855&pitch=0&thumbfov=100"
            }
        ],
        "link": "https://www.google.com/maps/place/Masjid+E+Firdous/data=!4m7!3m6!1s0x3bb4531436842983:0x9df512048969de1d!8m2!3d15.4651849!4d78.483369!16s%2Fg%2F11lrylxjsr!19sChIJgymENhRTtDsRHd5piQQS9Z0?authuser=0&hl=en&rclk=1",
        "coordinates": {
            "latitude": 15.465184899999999,
            "longitude": 78.483369
        }
    },
    {
        "name": "Masjid E Roshan",
        "main_category": "Mosque",
        "address": "FFQJ+5WC Masjid E Roshan, Rojakunta St, Telugu Peta, Nandyala, Andhra Pradesh 518501",
        "detailed_address": {
            "ward": "Telugu Peta",
            "street": "FFQJ+5WC, Rojakunta St",
            "city": "Nandyala",
            "postal_code": "518501",
            "state": "Andhra Pradesh",
            "country_code": "IN"
        },
        "images": [
            {
                "about": "All",
                "link": "https://lh5.googleusercontent.com/p/AF1QipM872V7G000HyAptM4aUJExVjXcnpJnP6uRXjNE=w529-h298-k-no"
            },
            {
                "about": "Street View & 360deg",
                "link": "https://streetviewpixels-pa.googleapis.com/v1/thumbnail?panoid=j0kDqEv8ToS9d0DLtAyAsg&cb_client=maps_sv.tactile.gps&w=224&h=298&yaw=51.685703&pitch=0&thumbfov=100"
            }
        ],
        "link": "https://www.google.com/maps/place/Masjid+E+Roshan/data=!4m7!3m6!1s0x3bb5ad512203afdd:0x72fa844904d0f2d9!8m2!3d15.4879269!4d78.4822676!16s%2Fg%2F11c3k2_q_h!19sChIJ3a8DIlGttTsR2fLQBEmE-nI?authuser=0&hl=en&rclk=1",
        "coordinates": {
            "latitude": 15.4879269,
            "longitude": 78.4822676
        }
    },
    {
        "name": "Masjid - E - Sulaiman",
        "main_category": "Mosque",
        "address": "FF8W+VWC Masjid - E - Sulaiman, Ponnapuram Colony, Lalitanagar, Nandyala, Andhra Pradesh 518502",
        "detailed_address": {
            "ward": "Ponnapuram Colony, Lalitanagar",
            "street": "FF8W+VWC",
            "city": "Nandyala",
            "postal_code": "518502",
            "state": "Andhra Pradesh",
            "country_code": "IN"
        },
        "images": [
            {
                "about": "All",
                "link": "https://lh5.googleusercontent.com/p/AF1QipMj2FDi7c3h_UB6rgmqNZrGYzfDuRxdYaWcRxfn=w529-h298-k-no"
            },
            {
                "about": "Street View & 360deg",
                "link": "https://streetviewpixels-pa.googleapis.com/v1/thumbnail?panoid=ym04qTzCBUjPcdCqqBF4HA&cb_client=maps_sv.tactile.gps&w=224&h=298&yaw=68.07174&pitch=0&thumbfov=100"
            },
            {
                "about": "Videos",
                "link": "https://lh5.googleusercontent.com/p/AF1QipPnt5KS9eFZEWXRGHT2irqoJGVjl4IEkdGRpE3D=w529-h298-k-no"
            }
        ],
        "link": "https://www.google.com/maps/place/Masjid+-+E+-+Sulaiman/data=!4m7!3m6!1s0x3bb452b86d3d9737:0x27a0e448f3d6abd8!8m2!3d15.4671773!4d78.4972569!16s%2Fg%2F11cjp9yc15!19sChIJN5c9bbhStDsR2KvW80jkoCc?authuser=0&hl=en&rclk=1",
        "coordinates": {
            "latitude": 15.4671773,
            "longitude": 78.4972569
        }
    },
    {
        "name": "SAI BABA NAGAR EIDGAH NANDYAL",
        "main_category": "Mosque",
        "address": "FFCM+R28 SAI BABA NAGAR EIDGAH NANDYAL, Gaddipati, Nandyala, Andhra Pradesh 518501",
        "detailed_address": {
            "ward": "Gaddipati",
            "street": "FFCM+R28",
            "city": "Nandyala",
            "postal_code": "518501",
            "state": "Andhra Pradesh",
            "country_code": "IN"
        },
        "images": [
            {
                "about": "All",
                "link": "https://streetviewpixels-pa.googleapis.com/v1/thumbnail?panoid=ZsZ_CEsw7VwFZoNdyJc-Jg&cb_client=maps_sv.tactile.gps&w=224&h=298&yaw=103.02291&pitch=0&thumbfov=100"
            },
            {
                "about": "Street View & 360deg",
                "link": "https://streetviewpixels-pa.googleapis.com/v1/thumbnail?panoid=ZsZ_CEsw7VwFZoNdyJc-Jg&cb_client=maps_sv.tactile.gps&w=224&h=298&yaw=103.02291&pitch=0&thumbfov=100"
            }
        ],
        "link": "https://www.google.com/maps/place/SAI+BABA+NAGAR+EIDGAH+NANDYAL/data=!4m7!3m6!1s0x3bb453f990de04c5:0x5f1d3c90b5a85425!8m2!3d15.4720453!4d78.4825724!16s%2Fg%2F11g2_4cw66!19sChIJxQTekPlTtDsRJVSotZA8HV8?authuser=0&hl=en&rclk=1",
        "coordinates": {
            "latitude": 15.4720453,
            "longitude": 78.4825724
        }
    },
    {
        "name": "Masjid E Siddique",
        "main_category": "Mosque",
        "address": "FFPF+3R3 Masjid E Siddique, Srinivasa Nagar, Nandyala, Andhra Pradesh 518501",
        "detailed_address": {
            "ward": "Srinivasa Nagar",
            "street": "FFPF+3R3",
            "city": "Nandyala",
            "postal_code": "518501",
            "state": "Andhra Pradesh",
            "country_code": "IN"
        },
        "images": [
            {
                "about": "All",
                "link": "https://streetviewpixels-pa.googleapis.com/v1/thumbnail?panoid=hlq4quN1ehI8RTzk_oXVtw&cb_client=maps_sv.tactile.gps&w=224&h=298&yaw=354.3218&pitch=0&thumbfov=100"
            },
            {
                "about": "Street View & 360deg",
                "link": "https://streetviewpixels-pa.googleapis.com/v1/thumbnail?panoid=hlq4quN1ehI8RTzk_oXVtw&cb_client=maps_sv.tactile.gps&w=224&h=298&yaw=354.3218&pitch=0&thumbfov=100"
            }
        ],
        "link": "https://www.google.com/maps/place/Masjid+E+Siddique/data=!4m7!3m6!1s0x3bb5b2a9f83b8199:0xe089336d2c84ddd3!8m2!3d15.4851253!4d78.4745402!16s%2Fg%2F11c4m4y5lv!19sChIJmYE7-KmytTsR092ELG0zieA?authuser=0&hl=en&rclk=1",
        "coordinates": {
            "latitude": 15.4851253,
            "longitude": 78.47454019999999
        }
    },
    {
        "name": "Masjid -A- Hasnan",
        "main_category": "Mosque",
        "address": "FFRJ+2WH Masjid -A- Hasnan, Telugu Peta, Nandyala, Andhra Pradesh 518501",
        "detailed_address": {
            "ward": "Telugu Peta",
            "street": "FFRJ+2WH",
            "city": "Nandyala",
            "postal_code": "518501",
            "state": "Andhra Pradesh",
            "country_code": "IN"
        },
        "images": [
            {
                "about": "All",
                "link": "https://lh5.googleusercontent.com/p/AF1QipMf5vuA1Q1mR0R2GzuLyHcnkxdADTz95RWRZb4G=w529-h298-k-no"
            }
        ],
        "link": "https://www.google.com/maps/place/Masjid+-A-+Hasnan/data=!4m7!3m6!1s0x3bb5ad5095908415:0x59c83a8eff4974f6!8m2!3d15.4900575!4d78.4823649!16s%2Fg%2F11h2fm5wd8!19sChIJFYSQlVCttTsR9nRJ_446yFk?authuser=0&hl=en&rclk=1",
        "coordinates": {
            "latitude": 15.490057499999999,
            "longitude": 78.4823649
        }
    },
    {
        "name": "Masid",
        "main_category": "Mosque",
        "address": "FF7V+X7H Masid, Ngo Colony Rd, Gopal Nagar, Nandyala, Andhra Pradesh 518502",
        "detailed_address": {
            "ward": "Gopal Nagar",
            "street": "FF7V+X7H, Ngo Colony Rd",
            "city": "Nandyala",
            "postal_code": "518502",
            "state": "Andhra Pradesh",
            "country_code": "IN"
        },
        "images": [
            {
                "about": "All",
                "link": "https://lh5.googleusercontent.com/p/AF1QipMMDwhweshVKFF7FsWEu2PrXxFpsvK8SJ7r95hX=w397-h298-k-no"
            }
        ],
        "link": "https://www.google.com/maps/place/Masid/data=!4m7!3m6!1s0x3bb452b96e647445:0x4bab2ba78af8b86a!8m2!3d15.4649251!4d78.4932479!16s%2Fg%2F11dywpk046!19sChIJRXRkbrlStDsRarj4iqcrq0s?authuser=0&hl=en&rclk=1",
        "coordinates": {
            "latitude": 15.464925099999999,
            "longitude": 78.4932479
        }
    },
    {
        "name": "Masjid",
        "main_category": "Mosque",
        "address": "CF9W+X9P Masjid, Unnamed Road, Sambavaram, Andhra Pradesh 518502",
        "detailed_address": {
            "ward": null,
            "street": "CF9W+X9P, Unnamed Road",
            "city": "Sambavaram",
            "postal_code": "518502",
            "state": "Andhra Pradesh",
            "country_code": "IN"
        },
        "images": [
            {
                "about": "All",
                "link": "https://lh5.googleusercontent.com/p/AF1QipNjJsAz3dyim6gfKBgWOoTYVHQ3LR3B59husujH=w596-h298-k-no"
            },
            {
                "about": "Street View & 360deg",
                "link": "https://streetviewpixels-pa.googleapis.com/v1/thumbnail?panoid=OAFnFF4h8IXr1LLJBd_bfQ&cb_client=maps_sv.tactile.gps&w=224&h=298&yaw=220.92686&pitch=0&thumbfov=100"
            },
            {
                "about": "Videos",
                "link": "https://lh5.googleusercontent.com/p/AF1QipO0u_-mmh3xpfudbZqe2by8BBtsCoIS8Rr9xHNa=w541-h298-k-no"
            }
        ],
        "link": "https://www.google.com/maps/place/Masjid/data=!4m7!3m6!1s0x3bb453abfd7cb16d:0xee97e959cbd867b8!8m2!3d15.4199686!4d78.4959603!16s%2Fg%2F11h481h0zm!19sChIJbbF8_atTtDsRuGfYy1npl-4?authuser=0&hl=en&rclk=1",
        "coordinates": {
            "latitude": 15.419968599999999,
            "longitude": 78.4959603
        }
    },
    {
        "name": "Sunni Masjid",
        "main_category": "Mosque",
        "address": "FFQP+C4V Sunni Masjid, Mullanpet, Chandbada, Nandyala, Andhra Pradesh 518501",
        "detailed_address": {
            "ward": "Mullanpet, Chandbada",
            "street": "FFQP+C4V",
            "city": "Nandyala",
            "postal_code": "518501",
            "state": "Andhra Pradesh",
            "country_code": "IN"
        },
        "images": [
            {
                "about": "All",
                "link": "https://streetviewpixels-pa.googleapis.com/v1/thumbnail?panoid=RdiIA1-cBt5SPJwrC3uP1A&cb_client=maps_sv.tactile.gps&w=224&h=298&yaw=146.2625&pitch=0&thumbfov=100"
            },
            {
                "about": "Street View & 360deg",
                "link": "https://streetviewpixels-pa.googleapis.com/v1/thumbnail?panoid=RdiIA1-cBt5SPJwrC3uP1A&cb_client=maps_sv.tactile.gps&w=224&h=298&yaw=146.2625&pitch=0&thumbfov=100"
            }
        ],
        "link": "https://www.google.com/maps/place/Sunni+Masjid/data=!4m7!3m6!1s0x3bb5ad1f658bd06b:0xe036015a47e32c8d!8m2!3d15.4886081!4d78.4853071!16s%2Fg%2F11gkw838gs!19sChIJa9CLZR-ttTsRjSzjR1oBNuA?authuser=0&hl=en&rclk=1",
        "coordinates": {
            "latitude": 15.488608099999999,
            "longitude": 78.4853071
        }
    },
    {
        "name": "Masjid-E-Razia",
        "main_category": "Mosque",
        "address": "FFVR+484 Masjid-E-Razia, Nabi Nagar, Sri Potti Sriramulu Colony, Srinivasa Nagar, Nandyala, Andhra Pradesh 518501",
        "detailed_address": {
            "ward": "Nabi Nagar, Sri Potti Sriramulu Colony, Srinivasa Nagar",
            "street": "FFVR+484",
            "city": "Nandyala",
            "postal_code": null,
            "state": "Andhra Pradesh",
            "country_code": "IN"
        },
        "images": [
            {
                "about": "All",
                "link": "https://lh5.googleusercontent.com/p/AF1QipOSGMPVuBaP_fDFDH100krZyepqCJ8UExP6cfem=w224-h485-k-no"
            }
        ],
        "link": "https://www.google.com/maps/place/Masjid-E-Razia/data=!4m7!3m6!1s0x3bb5ad80b2c4c217:0xb21e53b715834d54!8m2!3d15.4927695!4d78.490815!16s%2Fg%2F11gt_jkgs8!19sChIJF8LEsoCttTsRVE2DFbdTHrI?authuser=0&hl=en&rclk=1",
        "coordinates": {
            "latitude": 15.4927695,
            "longitude": 78.490815
        }
    },
    {
        "name": "Haspa Maszid",
        "main_category": "Mosque",
        "address": "GF28+F72 Haspa Maszid, Hapsa Maszid, Nandamuri Nagar, Nandyala",
        "detailed_address": {
            "ward": "Nandamuri Nagar",
            "street": "GF28+F72, Hapsa Maszid",
            "city": "Nandyala, Moolasagaram Rural",
            "postal_code": null,
            "state": "Andhra Pradesh",
            "country_code": "IN"
        },
        "images": [
            {
                "about": "All",
                "link": "https://streetviewpixels-pa.googleapis.com/v1/thumbnail?panoid=8FHgKqEj7KNloa6WNPgUgg&cb_client=maps_sv.tactile.gps&w=224&h=298&yaw=186.06396&pitch=0&thumbfov=100"
            },
            {
                "about": "Street View & 360deg",
                "link": "https://streetviewpixels-pa.googleapis.com/v1/thumbnail?panoid=8FHgKqEj7KNloa6WNPgUgg&cb_client=maps_sv.tactile.gps&w=224&h=298&yaw=186.06396&pitch=0&thumbfov=100"
            }
        ],
        "link": "https://www.google.com/maps/place/Haspa+Maszid/data=!4m7!3m6!1s0x3bb5b3a435e16c83:0x8efda17ca058d1bb!8m2!3d15.5011347!4d78.4656394!16s%2Fg%2F11frr1mq1q!19sChIJg2zhNaSztTsRu9FYoHyh_Y4?authuser=0&hl=en&rclk=1",
        "coordinates": {
            "latitude": 15.5011347,
            "longitude": 78.4656394
        }
    },
    {
        "name": "Noorani Masjid",
        "main_category": "Mosque",
        "address": "CFPX+J22 Noorani Masjid, Chabolu, Andhra Pradesh 518502",
        "detailed_address": {
            "ward": null,
            "street": "CFPX+J22",
            "city": "Chabolu",
            "postal_code": "518502",
            "state": "Andhra Pradesh",
            "country_code": "IN"
        },
        "images": [
            {
                "about": "All",
                "link": "https://lh5.googleusercontent.com/p/AF1QipNlwubH-dMKrykkCA07SJfd5HLJicodktdWP6vz=w224-h298-k-no"
            }
        ],
        "link": "https://www.google.com/maps/place/Noorani+Masjid/data=!4m7!3m6!1s0x3bb453162c14484b:0xb1fbcc35d76d45d8!8m2!3d15.4365093!4d78.4975009!16s%2Fg%2F11fntd8lf8!19sChIJS0gULBZTtDsR2EVt1zXM-7E?authuser=0&hl=en&rclk=1",
        "coordinates": {
            "latitude": 15.436509299999999,
            "longitude": 78.49750089999999
        }
    },
    {
        "name": "Masjid-E-Noorani",
        "main_category": "Mosque",
        "address": "G95V+JJ6 Masjid-E-Noorani, nadigadda balapanur, Panyam",
        "detailed_address": {
            "ward": null,
            "street": "G95V+JJ6, nadigadda balapanur",
            "city": "Panyam, Balapanur",
            "postal_code": null,
            "state": "Andhra Pradesh",
            "country_code": "IN"
        },
        "images": [
            {
                "about": "All",
                "link": "https://lh5.googleusercontent.com/p/AF1QipNKja2nar9l2UDAEFb_YXyNoSXNQgpFq4Np3JZy=w224-h398-k-no"
            }
        ],
        "link": "https://www.google.com/maps/place/Masjid-E-Noorani/data=!4m7!3m6!1s0x3bb5b3682bf8950d:0x9bd266ae3307166!8m2!3d15.5090353!4d78.3940131!16s%2Fg%2F11hdvm9nvc!19sChIJDZX4K2iztTsRZnEw42omvQk?authuser=0&hl=en&rclk=1",
        "coordinates": {
            "latitude": 15.509035299999999,
            "longitude": 78.3940131
        }
    },
    {
        "name": "Masjid e Madina",
        "main_category": "Mosque",
        "address": "FF2G+MV7 Masjid e Madina, Nandyala, Andhra Pradesh 518501",
        "detailed_address": {
            "ward": null,
            "street": "FF2G+MV7",
            "city": "Nandyala",
            "postal_code": "518501",
            "state": "Andhra Pradesh",
            "country_code": "IN"
        },
        "images": [
            {
                "about": "All",
                "link": "https://lh5.googleusercontent.com/p/AF1QipM7ep3-1itytTZG3xW7mGavPH7bMrjOxnMKdKcK=w224-h298-k-no"
            },
            {
                "about": "Street View & 360deg",
                "link": "https://streetviewpixels-pa.googleapis.com/v1/thumbnail?panoid=ELoD3RXDZMcb_vaDEYPIVA&cb_client=maps_sv.tactile.gps&w=224&h=298&yaw=156.01164&pitch=0&thumbfov=100"
            }
        ],
        "link": "https://www.google.com/maps/place/Masjid+e+Madina/data=!4m7!3m6!1s0x3bb453315094aef1:0x82308a0f1d6cae67!8m2!3d15.4514343!4d78.4775513!16s%2Fg%2F11rqwth_r5!19sChIJ8a6UUDFTtDsRZ65sHQ-KMII?authuser=0&hl=en&rclk=1",
        "coordinates": {
            "latitude": 15.451434299999999,
            "longitude": 78.4775513
        }
    },
    {
        "name": "Masjid - E - Yusuf",
        "main_category": "Mosque",
        "address": "FF92+8VP Masjid - E - Yusuf, Kranti Nagar, Nandyala, Andhra Pradesh 518502",
        "detailed_address": {
            "ward": "Kranti Nagar",
            "street": "FF92+8VP",
            "city": "Nandyala",
            "postal_code": "518502",
            "state": "Andhra Pradesh",
            "country_code": "IN"
        },
        "images": [
            {
                "about": "All",
                "link": "https://lh5.googleusercontent.com/p/AF1QipMjEnZ9EKQUMZwVvCP2JxMRxLuYyIL2kIun5pl4=w224-h298-k-no"
            },
            {
                "about": "Street View & 360deg",
                "link": "https://streetviewpixels-pa.googleapis.com/v1/thumbnail?panoid=9r2CDC1dUUw0Jz1DkoMH5A&cb_client=maps_sv.tactile.gps&w=224&h=298&yaw=317.93008&pitch=0&thumbfov=100"
            }
        ],
        "link": "https://www.google.com/maps/place/Masjid+-+E+-+Yusuf/data=!4m7!3m6!1s0x3bb44dd6bbeb4a83:0x71939d5b62842e3b!8m2!3d15.4683276!4d78.4521905!16s%2Fg%2F11fgh0pp9p!19sChIJg0rru9ZNtDsROy6EYludk3E?authuser=0&hl=en&rclk=1",
        "coordinates": {
            "latitude": 15.468327599999999,
            "longitude": 78.4521905
        }
    },
    {
        "name": "Masjid E Fathima",
        "main_category": "Mosque",
        "address": "FFJF+3HX Masjid E Fathima, Haneef Nagar, Srinivasa Nagar, Nandyala, Andhra Pradesh 518501",
        "detailed_address": {
            "ward": "Haneef Nagar, Srinivasa Nagar",
            "street": "FFJF+3HX",
            "city": "Nandyala",
            "postal_code": "518501",
            "state": "Andhra Pradesh",
            "country_code": "IN"
        },
        "images": [
            {
                "about": "All",
                "link": "https://streetviewpixels-pa.googleapis.com/v1/thumbnail?panoid=yeYQcEJ6Mv0VXVIjZ3ZYpA&cb_client=maps_sv.tactile.gps&w=224&h=298&yaw=201.86642&pitch=0&thumbfov=100"
            },
            {
                "about": "Street View & 360deg",
                "link": "https://streetviewpixels-pa.googleapis.com/v1/thumbnail?panoid=yeYQcEJ6Mv0VXVIjZ3ZYpA&cb_client=maps_sv.tactile.gps&w=224&h=298&yaw=201.86642&pitch=0&thumbfov=100"
            }
        ],
        "link": "https://www.google.com/maps/place/Masjid+E+Fathima/data=!4m7!3m6!1s0x3bb5b35ccb519641:0x9fd49422f3cf3aef!8m2!3d15.480225!4d78.4739786!16s%2Fg%2F11fl1lwk33!19sChIJQZZRy1yztTsR7zrP8yKU1J8?authuser=0&hl=en&rclk=1",
        "coordinates": {
            "latitude": 15.480224999999999,
            "longitude": 78.4739786
        }
    },
    {
        "name": "Masjid E Rahamath",
        "main_category": "Mosque",
        "address": "FF97+9Q4 Masjid E Rahamath, Kranti Nagar, Nandyala, Andhra Pradesh 518501",
        "detailed_address": {
            "ward": "Kranti Nagar",
            "street": "FF97+9Q4",
            "city": "Nandyala",
            "postal_code": "518501",
            "state": "Andhra Pradesh",
            "country_code": "IN"
        },
        "images": [],
        "link": "https://www.google.com/maps/place/Masjid+E+Rahamath/data=!4m7!3m6!1s0x3bb44db5676450c3:0xc13fa05e80950e68!8m2!3d15.4683944!4d78.4644433!16s%2Fg%2F11g10kvh98!19sChIJw1BkZ7VNtDsRaA6VgF6gP8E?authuser=0&hl=en&rclk=1",
        "coordinates": {
            "latitude": 15.4683944,
            "longitude": 78.4644433
        }
    },
    {
        "name": "Masjid E MADINA",
        "main_category": "Place of worship",
        "address": "FFC7+V9P Masjid E MADINA, opp. R&B guest house, Moolasagaram, Nandyala, Andhra Pradesh 518501",
        "detailed_address": {
            "ward": "Moolasagaram",
            "street": "FFC7+V9P, opp. R&B guest house",
            "city": "Nandyala",
            "postal_code": "518501",
            "state": "Andhra Pradesh",
            "country_code": "IN"
        },
        "images": [
            {
                "about": "All",
                "link": "https://lh5.googleusercontent.com/p/AF1QipOoILN7NSG4rl1KkrrlQQTjLi_zEy5fIWpNVYrL=w224-h298-k-no"
            },
            {
                "about": "Street View & 360deg",
                "link": "https://streetviewpixels-pa.googleapis.com/v1/thumbnail?panoid=0x6I2AzZFdSRuF9N5bOpDQ&cb_client=maps_sv.tactile.gps&w=224&h=298&yaw=305.45242&pitch=0&thumbfov=100"
            }
        ],
        "link": "https://www.google.com/maps/place/Masjid+E+MADINA/data=!4m7!3m6!1s0x3bb44dacea9d0b25:0xceea3c7e9814bb39!8m2!3d15.4722113!4d78.4634488!16s%2Fg%2F11gpp3lrps!19sChIJJQud6qxNtDsRObsUmH486s4?authuser=0&hl=en&rclk=1",
        "coordinates": {
            "latitude": 15.4722113,
            "longitude": 78.4634488
        }
    },
    {
        "name": "Masjid E Fatha",
        "main_category": "Mosque",
        "address": "2/455-E-3, Masjid E Fatha, Mullan peta, NK Rd, Telugu Peta, Nandyala, Andhra Pradesh 518501",
        "detailed_address": {
            "ward": "Telugu Peta",
            "street": "2/455-E-3, Mullan peta, NK Rd",
            "city": "Nandyala",
            "postal_code": "518501",
            "state": "Andhra Pradesh",
            "country_code": "IN"
        },
        "images": [
            {
                "about": "All",
                "link": "https://streetviewpixels-pa.googleapis.com/v1/thumbnail?panoid=FsAprdCCQBm-jPX8ZMX2GA&cb_client=maps_sv.tactile.gps&w=224&h=298&yaw=77.86238&pitch=0&thumbfov=100"
            },
            {
                "about": "Street View & 360deg",
                "link": "https://streetviewpixels-pa.googleapis.com/v1/thumbnail?panoid=FsAprdCCQBm-jPX8ZMX2GA&cb_client=maps_sv.tactile.gps&w=224&h=298&yaw=77.86238&pitch=0&thumbfov=100"
            }
        ],
        "link": "https://www.google.com/maps/place/Masjid+E+Fatha/data=!4m7!3m6!1s0x3bb5ad4e26080b75:0x8843ea267a2aec1!8m2!3d15.4877115!4d78.486952!16s%2Fg%2F11d_8cvytp!19sChIJdQsIJk6ttTsRwa6iZ6I-hAg?authuser=0&hl=en&rclk=1",
        "coordinates": {
            "latitude": 15.4877115,
            "longitude": 78.486952
        }
    },
    {
        "name": "Masjid-e-ibrahim khaleelullah",
        "main_category": "Mosque",
        "address": "GF36+VCJ Masjid-e-ibrahim khaleelullah, YSR Nagar, Nandyala, Moolasagaram Rural, Andhra Pradesh 518501",
        "detailed_address": {
            "ward": "YSR Nagar",
            "street": "GF36+VCJ",
            "city": "Nandyala, Moolasagaram Rural",
            "postal_code": "518501",
            "state": "Andhra Pradesh",
            "country_code": "IN"
        },
        "images": [
            {
                "about": "All",
                "link": "https://streetviewpixels-pa.googleapis.com/v1/thumbnail?panoid=WQZZl7a0fHb_1yOmuEBWoQ&cb_client=maps_sv.tactile.gps&w=224&h=298&yaw=178.18817&pitch=0&thumbfov=100"
            },
            {
                "about": "Street View & 360deg",
                "link": "https://streetviewpixels-pa.googleapis.com/v1/thumbnail?panoid=WQZZl7a0fHb_1yOmuEBWoQ&cb_client=maps_sv.tactile.gps&w=224&h=298&yaw=178.18817&pitch=0&thumbfov=100"
            }
        ],
        "link": "https://www.google.com/maps/place/Masjid-e-ibrahim+khaleelullah/data=!4m7!3m6!1s0x3bb5b36d8effa04d:0x249c7a33d249a306!8m2!3d15.5047081!4d78.4610081!16s%2Fg%2F11g0zpxwvz!19sChIJTaD_jm2ztTsRBqNJ0jN6nCQ?authuser=0&hl=en&rclk=1",
        "coordinates": {
            "latitude": 15.504708099999998,
            "longitude": 78.4610081
        }
    },
    {
        "name": "Masjide Umre Farooq",
        "main_category": "Mosque",
        "address": "CFJV+HHF Masjide Umre Farooq, Kurnool District, Nandyal Taluka, Chabolu, Andhra Pradesh 518502",
        "detailed_address": {
            "ward": null,
            "street": "CFJV+HHF, Kurnool District, Nandyal Taluka",
            "city": "Chabolu",
            "postal_code": "518502",
            "state": "Andhra Pradesh",
            "country_code": "IN"
        },
        "images": [
            {
                "about": "All",
                "link": "https://lh5.googleusercontent.com/p/AF1QipPnY_sYRniYe82A_a-I1TUaGxOMJeqT7QglsYqD=w224-h298-k-no"
            }
        ],
        "link": "https://www.google.com/maps/place/Masjide+Umre+Farooq/data=!4m7!3m6!1s0x3bb45261a0e18137:0xfdbcec3c4f2d5e12!8m2!3d15.4314468!4d78.4939094!16s%2Fg%2F11c5wymsxy!19sChIJN4HhoGFStDsREl4tTzzsvP0?authuser=0&hl=en&rclk=1",
        "coordinates": {
            "latitude": 15.4314468,
            "longitude": 78.49390939999999
        }
    },
    {
        "name": "Masjid-e-Noor",
        "main_category": "Mosque",
        "address": "FG68+WVM Masjid-e-Noor, Unnamed Road, Pedda Kottala, Kottala, Andhra Pradesh 518502",
        "detailed_address": {
            "ward": null,
            "street": "FG68+WVM, Unnamed Road",
            "city": "Pedda Kottala, Kottala",
            "postal_code": "518502",
            "state": "Andhra Pradesh",
            "country_code": "IN"
        },
        "images": [
            {
                "about": "All",
                "link": "https://lh5.googleusercontent.com/p/AF1QipNZck6bdlfJy_3aLJ0a48N1tsNK5KkVaV9AQQb7=w529-h298-k-no"
            },
            {
                "about": "Street View & 360deg",
                "link": "https://streetviewpixels-pa.googleapis.com/v1/thumbnail?panoid=wPhOqpkKX-3cqrQXyFZ_VA&cb_client=maps_sv.tactile.gps&w=224&h=298&yaw=276.35553&pitch=0&thumbfov=100"
            }
        ],
        "link": "https://www.google.com/maps/place/Masjid-e-Noor/data=!4m7!3m6!1s0x3bb4535e8c2ea185:0x426f0970dc04fd2e!8m2!3d15.462343!4d78.5171856!16s%2Fg%2F11hycssrm2!19sChIJhaEujF5TtDsRLv0E3HAJb0I?authuser=0&hl=en&rclk=1",
        "coordinates": {
            "latitude": 15.462342999999999,
            "longitude": 78.51718559999999
        }
    },
    {
        "name": "Noorani Masjid",
        "main_category": "Mosque",
        "address": "CGVF+7M6 Noorani Masjid, Ayyalur, Andhra Pradesh 518502",
        "detailed_address": {
            "ward": null,
            "street": "CGVF+7M6",
            "city": "Ayyalur",
            "postal_code": "518502",
            "state": "Andhra Pradesh",
            "country_code": "IN"
        },
        "images": [
            {
                "about": "All",
                "link": "https://lh5.googleusercontent.com/p/AF1QipOvIJm4IUbC2kdcMLDYJx_l2EPhl3U8v5pIPt4I=w541-h298-k-no"
            },
            {
                "about": "Street View & 360deg",
                "link": "https://streetviewpixels-pa.googleapis.com/v1/thumbnail?panoid=h1FQ_BrdBJiFCVI5NpAo_Q&cb_client=maps_sv.tactile.gps&w=224&h=298&yaw=40.944626&pitch=0&thumbfov=100"
            },
            {
                "about": "Videos",
                "link": "https://lh5.googleusercontent.com/p/AF1QipOnHrLXYPkdrO0O8uekcO3H0XasJ9ZNDT1VF4Tm=w224-h407-k-no"
            }
        ],
        "link": "https://www.google.com/maps/place/Noorani+Masjid/data=!4m7!3m6!1s0x3bb45345a4a6168d:0x213753ca116178b0!8m2!3d15.4431509!4d78.5241533!16s%2Fg%2F11g0l5ws15!19sChIJjRampEVTtDsRsHhhEcpTNyE?authuser=0&hl=en&rclk=1",
        "coordinates": {
            "latitude": 15.4431509,
            "longitude": 78.5241533
        }
    },
    {
        "name": "Syed Moosa qadri masjid",
        "main_category": "Mosque",
        "address": "FFHP+RGC Syed Moosa qadri masjid, Nandyal,, Padmavathi Nagar, Nandyala, Andhra Pradesh 518501",
        "detailed_address": {
            "ward": "Padmavathi Nagar",
            "street": "FFHP+RGC, Nandyal,",
            "city": "Nandyala",
            "postal_code": "518501",
            "state": "Andhra Pradesh",
            "country_code": "IN"
        },
        "images": [
            {
                "about": "All",
                "link": "https://streetviewpixels-pa.googleapis.com/v1/thumbnail?panoid=wSft3rYn9KC5M6sOwz9XRQ&cb_client=maps_sv.tactile.gps&w=224&h=298&yaw=193.16998&pitch=0&thumbfov=100"
            },
            {
                "about": "Street View & 360deg",
                "link": "https://streetviewpixels-pa.googleapis.com/v1/thumbnail?panoid=wSft3rYn9KC5M6sOwz9XRQ&cb_client=maps_sv.tactile.gps&w=224&h=298&yaw=193.16998&pitch=0&thumbfov=100"
            }
        ],
        "link": "https://www.google.com/maps/place/Syed+Moosa+qadri+masjid/data=!4m7!3m6!1s0x3bb452ad540ea533:0xf70d9507addf2a7b!8m2!3d15.4795597!4d78.4862651!16s%2Fg%2F11c1q4m8sn!19sChIJM6UOVK1StDsReyrfrQeVDfc?authuser=0&hl=en&rclk=1",
        "coordinates": {
            "latitude": 15.4795597,
            "longitude": 78.4862651
        }
    },
    {
        "name": "Masjid E Elias Khurshid",
        "main_category": "Mosque",
        "address": "Masjid E Elias Khurshid, Post office backside, near Railway Station, Nandyala, Andhra Pradesh 518502",
        "detailed_address": {
            "ward": "Industrial Area",
            "street": "Post office backside, near Railway Station",
            "city": "Nandyala",
            "postal_code": "518502",
            "state": "Andhra Pradesh",
            "country_code": "IN"
        },
        "images": [
            {
                "about": "All",
                "link": "https://lh5.googleusercontent.com/p/AF1QipNfYm50dixuyI5h1daMQYZeBGnv7fhmuNKSrkd4=w298-h298-k-no"
            },
            {
                "about": "Dome",
                "link": "https://lh5.googleusercontent.com/p/AF1QipME4jdGctlTj86ajHV--mR70eDJjVjiDsz4_DPS=w298-h298-k-no"
            },
            {
                "about": "By owner",
                "link": "https://lh5.googleusercontent.com/p/AF1QipMBG-hX1FJta0K7OE0781BChL2IX6dsD2t0iN6b=w504-h298-k-no"
            }
        ],
        "link": "https://www.google.com/maps/place/Masjid+E+Elias+Khurshid/data=!4m7!3m6!1s0x3bb44d0ed6206df5:0xd043c79f66bac186!8m2!3d15.4710187!4d78.4719186!16s%2Fg%2F11rgzygy8q!19sChIJ9W0g1g5NtDsRhsG6Zp_HQ9A?authuser=0&hl=en&rclk=1",
        "coordinates": {
            "latitude": 15.4710187,
            "longitude": 78.4719186
        }
    },
    {
        "name": "Masjid-E-Safa Marwa",
        "main_category": "Mosque",
        "address": "FFGR+G8J Masjid-E-Safa Marwa, Lakshmi Nagar, SBI Colony, Nandyala, Andhra Pradesh 518501",
        "detailed_address": {
            "ward": "Lakshmi Nagar, SBI Colony",
            "street": "FFGR+G8J",
            "city": "Nandyala",
            "postal_code": "518501",
            "state": "Andhra Pradesh",
            "country_code": "IN"
        },
        "images": [],
        "link": "https://www.google.com/maps/place/Masjid-E-Safa+Marwa/data=!4m7!3m6!1s0x3bb453fbe480f39d:0xd4edc22171ca9a19!8m2!3d15.476339!4d78.490753!16s%2Fg%2F11n2vmlgnr!19sChIJnfOA5PtTtDsRGZrKcSHC7dQ?authuser=0&hl=en&rclk=1",
        "coordinates": {
            "latitude": 15.476339,
            "longitude": 78.490753
        }
    },
    {
        "name": "MASJID E AARIFEEN",
        "main_category": "Mosque",
        "address": "FFVP+3WM MASJID E AARIFEEN, Nadigadda, Sri Potti Sriramulu Colony, Telugu Peta, Nandyala, Andhra Pradesh 518501",
        "detailed_address": {
            "ward": "Nadigadda, Sri Potti Sriramulu Colony, Telugu Peta",
            "street": "FFVP+3WM",
            "city": "Nandyala",
            "postal_code": "518501",
            "state": "Andhra Pradesh",
            "country_code": "IN"
        },
        "images": [
            {
                "about": "All",
                "link": "https://lh5.googleusercontent.com/p/AF1QipPpa16VfH6N6mQvWYLrYtfeUjnJl4JF6Ww5lVDn=w529-h298-k-no"
            }
        ],
        "link": "https://www.google.com/maps/place/MASJID+E+AARIFEEN/data=!4m7!3m6!1s0x3bb5ad8f21f6a3fd:0x7a86b7f400637c34!8m2!3d15.4927324!4d78.4873775!16s%2Fg%2F11tmmzw144!19sChIJ_aP2IY-ttTsRNHxjAPS3hno?authuser=0&hl=en&rclk=1",
        "coordinates": {
            "latitude": 15.4927324,
            "longitude": 78.4873775
        }
    },
    {
        "name": "MASJID - E - KAREEM",
        "main_category": "Mosque",
        "address": "FFQG+5H MASJID - E - KAREEM, Srinivasa Nagar, Nandyala, Andhra Pradesh 518501",
        "detailed_address": {
            "ward": "Srinivasa Nagar",
            "street": "FFQG+5H",
            "city": "Nandyala",
            "postal_code": "518501",
            "state": "Andhra Pradesh",
            "country_code": "IN"
        },
        "images": [
            {
                "about": "All",
                "link": "https://lh5.googleusercontent.com/p/AF1QipO5VPVIjKyUp_d3510rIKyKtja4gP0rY76UGE3i=w645-h298-k-no"
            }
        ],
        "link": "https://www.google.com/maps/place/MASJID+-+E+-+KAREEM/data=!4m7!3m6!1s0x3bb5ad37aed4f763:0x519533e02ef6276e!8m2!3d15.4878794!4d78.4763899!16s%2Fg%2F11p5rqy_dt!19sChIJY_fUrjettTsRbif2LuAzlVE?authuser=0&hl=en&rclk=1",
        "coordinates": {
            "latitude": 15.487879399999999,
            "longitude": 78.4763899
        }
    },
    {
        "name": "MD Hussain Masjid",
        "main_category": "Mosque",
        "address": "MD Hussain Masjid, Telugu Peta, Nandyala, Andhra Pradesh 518501",
        "detailed_address": {
            "ward": "Telugu Peta",
            "street": null,
            "city": "Nandyala",
            "postal_code": "518501",
            "state": "Andhra Pradesh",
            "country_code": "IN"
        },
        "images": [
            {
                "about": "All",
                "link": "https://lh5.googleusercontent.com/p/AF1QipOpEvFOgtd6v-bOR0fFr6F6eZyXdW-AIf9FEs5c=w224-h485-k-no"
            }
        ],
        "link": "https://www.google.com/maps/place/MD+Hussain+Masjid/data=!4m7!3m6!1s0x3bb5adc9063e0847:0xe122f27924307380!8m2!3d15.4874941!4d78.4886276!16s%2Fg%2F11fj3ymv9n!19sChIJRwg-BsmttTsRgHMwJHnyIuE?authuser=0&hl=en&rclk=1",
        "coordinates": {
            "latitude": 15.4874941,
            "longitude": 78.4886276
        }
    },
    {
        "name": "Masjid e Bismillah",
        "main_category": "Place of worship",
        "address": "FFPQ+RXX Masjid e Bismillah, Telugu Peta, Nandyala, Andhra Pradesh 518501",
        "detailed_address": {
            "ward": "Telugu Peta",
            "street": "FFPQ+RXX",
            "city": "Nandyala",
            "postal_code": "518501",
            "state": "Andhra Pradesh",
            "country_code": "IN"
        },
        "images": [],
        "link": "https://www.google.com/maps/place/Masjid+e+Bismillah/data=!4m7!3m6!1s0x3bb5ad3c07fed221:0xa85eeaa700ec975e!8m2!3d15.4871127!4d78.4899941!16s%2Fg%2F11f648m6q8!19sChIJIdL-BzyttTsRXpfsAKfqXqg?authuser=0&hl=en&rclk=1",
        "coordinates": {
            "latitude": 15.487112699999999,
            "longitude": 78.48999409999999
        }
    },
    {
        "name": "Masjid-E-Noorullah Qadri",
        "main_category": "Mosque",
        "address": "FGX3+3FP Masjid-E-Noorullah Qadri, Nandyala, Andhra Pradesh 518502",
        "detailed_address": {
            "ward": null,
            "street": "FGX3+3FP",
            "city": "Nandyala",
            "postal_code": null,
            "state": "Andhra Pradesh",
            "country_code": "IN"
        },
        "images": [
            {
                "about": "All",
                "link": "https://lh5.googleusercontent.com/p/AF1QipM-1REr-9tzBtHqnmeVOi5OegKul_C2FKhGJ68O=w647-h298-k-no"
            },
            {
                "about": "Street View & 360deg",
                "link": "https://streetviewpixels-pa.googleapis.com/v1/thumbnail?panoid=nyn6AaIh92cHxyjA6YbwvA&cb_client=maps_sv.tactile.gps&w=224&h=298&yaw=314.25122&pitch=0&thumbfov=100"
            }
        ],
        "link": "https://www.google.com/maps/place/Masjid-E-Noorullah+Qadri/data=!4m7!3m6!1s0x3bb5ad5cbedc40b3:0x612f2ca27d5a68d2!8m2!3d15.4977243!4d78.5037096!16s%2Fg%2F11qn8t68b8!19sChIJs0DcvlyttTsR0mhafaIsL2E?authuser=0&hl=en&rclk=1",
        "coordinates": {
            "latitude": 15.4977243,
            "longitude": 78.5037096
        }
    },
    {
        "name": "Masjid Yaseen",
        "main_category": "Mosque",
        "address": "FFFV+7J7 Masjid Yaseen, Unnamed Road, SBI Colony, Nandyala, Andhra Pradesh 518501",
        "detailed_address": {
            "ward": "SBI Colony",
            "street": "FFFV+7J7, Unnamed Road",
            "city": "Nandyala",
            "postal_code": "518501",
            "state": "Andhra Pradesh",
            "country_code": "IN"
        },
        "images": [],
        "link": "https://www.google.com/maps/place/Masjid+Yaseen/data=!4m7!3m6!1s0x3bb453e68471fd01:0x19dcb1645d1f1e10!8m2!3d15.4731647!4d78.4940331!16s%2Fg%2F11p3wn5hkd!19sChIJAf1xhOZTtDsREB4fXWSx3Bk?authuser=0&hl=en&rclk=1",
        "coordinates": {
            "latitude": 15.4731647,
            "longitude": 78.4940331
        }
    },
    {
        "name": "Masjid Manju Peer & Manju Peer Center",
        "main_category": "Mosque",
        "address": "Masjid Manju Peer & Manju Peer Center, 2-374, Telugu Peta, Nandyala, Andhra Pradesh 518501",
        "detailed_address": {
            "ward": "Telugu Peta",
            "street": "2-374",
            "city": "Nandyala",
            "postal_code": "518501",
            "state": "Andhra Pradesh",
            "country_code": "IN"
        },
        "images": [
            {
                "about": "All",
                "link": "https://lh5.googleusercontent.com/p/AF1QipMZDRESU9XRUVtY7h3SgBTHE9vZGXOrkHfH0ggK=w224-h298-k-no"
            },
            {
                "about": "Street View & 360deg",
                "link": "https://streetviewpixels-pa.googleapis.com/v1/thumbnail?panoid=g3z_YPHxluk_hVF63b-R7g&cb_client=maps_sv.tactile.gps&w=224&h=298&yaw=225.20076&pitch=0&thumbfov=100"
            }
        ],
        "link": "https://www.google.com/maps/place/Masjid+Manju+Peer+%26+Manju+Peer+Center/data=!4m7!3m6!1s0x3bb5adfa6636f503:0x744b3d61a6f5f2e9!8m2!3d15.4876187!4d78.4865142!16s%2Fg%2F11qrgbmg7z!19sChIJA_U2ZvqttTsR6fL1pmE9S3Q?authuser=0&hl=en&rclk=1",
        "coordinates": {
            "latitude": 15.487618699999999,
            "longitude": 78.4865142
        }
    },
    {
        "name": "Masjid E Musalla",
        "main_category": "Mosque",
        "address": "FG25+392 Masjid E Musalla, Kottala, Andhra Pradesh 518502",
        "detailed_address": {
            "ward": null,
            "street": "FG25+392",
            "city": "Kottala",
            "postal_code": "518502",
            "state": "Andhra Pradesh",
            "country_code": "IN"
        },
        "images": [],
        "link": "https://www.google.com/maps/place/Masjid+E+Musalla/data=!4m7!3m6!1s0x3bb4537e6c7d3951:0x92d64a55542e9181!8m2!3d15.4501397!4d78.5083832!16s%2Fg%2F11httt6mvb!19sChIJUTl9bH5TtDsRgZEuVFVK1pI?authuser=0&hl=en&rclk=1",
        "coordinates": {
            "latitude": 15.4501397,
            "longitude": 78.5083832
        }
    },
    {
        "name": "Rahmaniya masjid",
        "main_category": "Mosque",
        "address": "CFQW+76J Rahmaniya masjid, Unnamed Road, Chabolu, Andhra Pradesh 518502",
        "detailed_address": {
            "ward": null,
            "street": "CFQW+76J, Unnamed Road",
            "city": "Chabolu",
            "postal_code": "518502",
            "state": "Andhra Pradesh",
            "country_code": "IN"
        },
        "images": [
            {
                "about": "All",
                "link": "https://lh5.googleusercontent.com/p/AF1QipP_JdfyJDoMwXy90HufsvGoe4Fkgk64MCqFmFd0=w224-h495-k-no"
            },
            {
                "about": "Dome",
                "link": "https://lh5.googleusercontent.com/p/AF1QipMRIIZhGhEwCdihTsChhUwTqcJynUe4mRpgrZUd=w299-h298-k-no"
            }
        ],
        "link": "https://www.google.com/maps/place/Rahmaniya+masjid/data=!4m7!3m6!1s0x3bb45301c2f3dc09:0xa5b7a8c1316c69e2!8m2!3d15.438203!4d78.4955229!16s%2Fg%2F11p499lqy8!19sChIJCdzzwgFTtDsR4mlsMcGot6U?authuser=0&hl=en&rclk=1",
        "coordinates": {
            "latitude": 15.438203,
            "longitude": 78.4955229
        }
    },
    {
        "name": "Mosque",
        "main_category": "Mosque",
        "address": "Mosque, 1, Udumalpuram, Andhra Pradesh 518502",
        "detailed_address": {
            "ward": null,
            "street": "1",
            "city": "Udumalpuram",
            "postal_code": "518502",
            "state": "Andhra Pradesh",
            "country_code": "IN"
        },
        "images": [
            {
                "about": "All",
                "link": "https://streetviewpixels-pa.googleapis.com/v1/thumbnail?panoid=QXsuW4E0AdCsaDnbQc4OQA&cb_client=maps_sv.tactile.gps&w=224&h=298&yaw=314.98596&pitch=0&thumbfov=100"
            },
            {
                "about": "Street View & 360deg",
                "link": "https://streetviewpixels-pa.googleapis.com/v1/thumbnail?panoid=QXsuW4E0AdCsaDnbQc4OQA&cb_client=maps_sv.tactile.gps&w=224&h=298&yaw=314.98596&pitch=0&thumbfov=100"
            }
        ],
        "link": "https://www.google.com/maps/place/Mosque/data=!4m7!3m6!1s0x3bb44d283cd6585f:0xc98e8ae3eaca82a8!8m2!3d15.4741378!4d78.4394565!16s%2Fg%2F11j0hpdgr3!19sChIJX1jWPChNtDsRqILK6uOKjsk?authuser=0&hl=en&rclk=1",
        "coordinates": {
            "latitude": 15.4741378,
            "longitude": 78.43945649999999
        }
    },
    {
        "name": "MADEENA MASJID TALAMUDIPI",
        "main_category": "Mosque",
        "address": "MADEENA MASJID TALAMUDIPI, Nandyal Gadivemula Midtur Nandikotkur Rd, Talamudipi, Andhra Pradesh 518508",
        "detailed_address": {
            "ward": null,
            "street": "Nandyal Gadivemula Midtur Nandikotkur Rd",
            "city": "Talamudipi",
            "postal_code": "518508",
            "state": "Andhra Pradesh",
            "country_code": "IN"
        },
        "images": [
            {
                "about": "All",
                "link": "https://lh5.googleusercontent.com/p/AF1QipOLK7cWBU-JimzrmUneRkq9fKfr_MXb0i-nTBfJ=w529-h298-k-no"
            },
            {
                "about": "By owner",
                "link": "https://lh5.googleusercontent.com/p/AF1QipOvulFnu3XtUh-87k7-zEtYTdhoRriWRluu-rY7=w397-h298-k-no"
            },
            {
                "about": "Street View & 360deg",
                "link": "https://streetviewpixels-pa.googleapis.com/v1/thumbnail?panoid=r86gV90vr9C5wllMfubMqw&cb_client=maps_sv.tactile.gps&w=224&h=298&yaw=92.64281&pitch=0&thumbfov=100"
            }
        ],
        "link": "https://www.google.com/maps/place/MADEENA+MASJID+TALAMUDIPI/data=!4m7!3m6!1s0x3bb5b9536636608b:0xac18dbde5b01f664!8m2!3d15.6946896!4d78.3818296!16s%2Fg%2F11jk_j_w41!19sChIJi2A2ZlO5tTsRZPYBW97bGKw?authuser=0&hl=en&rclk=1",
        "coordinates": {
            "latitude": 15.694689599999998,
            "longitude": 78.3818296
        }
    },
    {
        "name": "Near Jumma masjid",
        "main_category": "Plastic Products Supplier",
        "address": "Near Jumma masjid, 17, 45, Park Rd, jumma masjid Nadigadda, Nadigadda, Telugu Peta, Nandyala, Andhra Pradesh 518501",
        "detailed_address": {
            "ward": "Nadigadda, Telugu Peta",
            "street": "17, 45, Park Rd, jumma masjid Nadigadda",
            "city": "Nandyala",
            "postal_code": "518501",
            "state": "Andhra Pradesh",
            "country_code": "IN"
        },
        "images": [
            {
                "about": "All",
                "link": "https://streetviewpixels-pa.googleapis.com/v1/thumbnail?panoid=Mc5qnCi1_RWVke_frZCXMA&cb_client=maps_sv.tactile.gps&w=224&h=298&yaw=205.98868&pitch=0&thumbfov=100"
            },
            {
                "about": "Street View & 360deg",
                "link": "https://streetviewpixels-pa.googleapis.com/v1/thumbnail?panoid=Mc5qnCi1_RWVke_frZCXMA&cb_client=maps_sv.tactile.gps&w=224&h=298&yaw=205.98868&pitch=0&thumbfov=100"
            }
        ],
        "link": "https://www.google.com/maps/place/Near+Jumma+masjid/data=!4m7!3m6!1s0x3bb5adfbda5dc487:0xf7901d33d74cffc6!8m2!3d15.4897421!4d78.4894153!16s%2Fg%2F11fphb_p0p!19sChIJh8Rd2vuttTsRxv9M1zMdkPc?authuser=0&hl=en&rclk=1",
        "coordinates": {
            "latitude": 15.489742099999999,
            "longitude": 78.48941529999999
        }
    },
    {
        "name": "Masjid E Daee Haleema",
        "main_category": "Mosque",
        "address": "FFQV+24R Masjid E Daee Haleema, Telugu Peta, Nandyala, Andhra Pradesh 518501",
        "detailed_address": {
            "ward": "Telugu Peta",
            "street": "FFQV+24R",
            "city": "Nandyala",
            "postal_code": "518501",
            "state": "Andhra Pradesh",
            "country_code": "IN"
        },
        "images": [
            {
                "about": "All",
                "link": "https://lh5.googleusercontent.com/p/AF1QipMkG55Fd9vvNFArVMyuBd-E7PrmpYWoMZY55bml=w529-h298-k-no"
            },
            {
                "about": "Street View & 360deg",
                "link": "https://streetviewpixels-pa.googleapis.com/v1/thumbnail?panoid=aJ7sqrDH8Y995BB-sPmaZQ&cb_client=maps_sv.tactile.gps&w=224&h=298&yaw=243.51326&pitch=0&thumbfov=100"
            }
        ],
        "link": "https://www.google.com/maps/place/Masjid+E+Daee+Haleema/data=!4m7!3m6!1s0x3bb5ad8d927b0e9f:0x750e5377c2955e70!8m2!3d15.4876205!4d78.4927782!16s%2Fg%2F11gslvh_53!19sChIJnw57ko2ttTsRcF6VwndTDnU?authuser=0&hl=en&rclk=1",
        "coordinates": {
            "latitude": 15.487620499999998,
            "longitude": 78.49277819999999
        }
    },
    {
        "name": "Aadam Safiullah masjid",
        "main_category": "Mosque",
        "address": "FFQQ+93 Aadam Safiullah masjid, Nadigadda, Telugu Peta, Nandyala, Andhra Pradesh 518501",
        "detailed_address": {
            "ward": "Nadigadda, Telugu Peta",
            "street": "FFQQ+93",
            "city": "Nandyala",
            "postal_code": null,
            "state": "Andhra Pradesh",
            "country_code": "IN"
        },
        "images": [
            {
                "about": "All",
                "link": "https://lh5.googleusercontent.com/p/AF1QipOPcQdBhlcvCFiDgTaIojVnYcJoXVJGUlEHmIK6=w224-h298-k-no"
            },
            {
                "about": "Latest",
                "link": "https://lh5.googleusercontent.com/p/AF1QipNO4hps6ZRv0P-XCvBiW1ooQHNQJkcke8rnQeFI=w224-h336-k-no"
            }
        ],
        "link": "https://www.google.com/maps/place/Aadam+Safiullah+masjid/data=!4m7!3m6!1s0x3bb5ad77b9dd0b1d:0x7c1872c9db2b206b!8m2!3d15.4884644!4d78.4877071!16s%2Fg%2F11r_q60bpc!19sChIJHQvduXettTsRayAr28lyGHw?authuser=0&hl=en&rclk=1",
        "coordinates": {
            "latitude": 15.4884644,
            "longitude": 78.4877071
        }
    },
    {
        "name": "Masjid E Thouheed",
        "main_category": "Mosque",
        "address": "FFPR+5H5 Masjid E Thouheed, Farook Nagar, Salim Nagar, Nandyala, Andhra Pradesh 518501",
        "detailed_address": {
            "ward": "Farook Nagar, Salim Nagar",
            "street": "FFPR+5H5",
            "city": "Nandyala",
            "postal_code": "518501",
            "state": "Andhra Pradesh",
            "country_code": "IN"
        },
        "images": [],
        "link": "https://www.google.com/maps/place/Masjid+E+Thouheed/data=!4m7!3m6!1s0x3bb5ad41fe48bcd3:0x371dd8d9eeb72bf1!8m2!3d15.4849747!4d78.4910217!16s%2Fg%2F11stfx4dkx!19sChIJ07xI_kGttTsR8Su37tnYHTc?authuser=0&hl=en&rclk=1",
        "coordinates": {
            "latitude": 15.484974699999999,
            "longitude": 78.49102169999999
        }
    },
    {
        "name": "Masjid E Daaee Haleema",
        "main_category": "Place of worship",
        "address": "FFHM+C7R Masjid E Daaee Haleema, by pass, road, Nandyala, Andhra Pradesh",
        "detailed_address": {
            "ward": "Nagula Katta",
            "street": "FFHM+C7R, by pass, road",
            "city": "Nandyala",
            "postal_code": null,
            "state": "Andhra Pradesh",
            "country_code": "IN"
        },
        "images": [
            {
                "about": "All",
                "link": "https://lh5.googleusercontent.com/p/AF1QipOBRH_xquLjYpV4jnXJCfO7KPFcltinw8FN-6fZ=w401-h298-k-no"
            }
        ],
        "link": "https://www.google.com/maps/place/Masjid+E+Daaee+Haleema/data=!4m7!3m6!1s0x3bb453126dd6da33:0x9fc6b5980e4db766!8m2!3d15.4786181!4d78.4831299!16s%2Fg%2F11ffv26rt5!19sChIJM9rWbRJTtDsRZrdNDpi1xp8?authuser=0&hl=en&rclk=1",
        "coordinates": {
            "latitude": 15.478618099999998,
            "longitude": 78.4831299
        }
    },
    {
        "name": "Masjid-e-badar",
        "main_category": "Mosque",
        "address": "GGJ3+RVR Masjid-e-badar, Bhimavaram, Nandyala",
        "detailed_address": {
            "ward": null,
            "street": "GGJ3+RVR, Bhimavaram",
            "city": "Nandyala",
            "postal_code": null,
            "state": "Andhra Pradesh",
            "country_code": "IN"
        },
        "images": [
            {
                "about": "All",
                "link": "https://lh5.googleusercontent.com/p/AF1QipNP0Du3B2gugm1fYoNwi5VZXbeKZnkDMjErZmAn=w224-h398-k-no"
            }
        ],
        "link": "https://www.google.com/maps/place/Masjid-e-badar/data=!4m7!3m6!1s0x3bb5ad93aabf4611:0x3798e1f6bd21c9bf!8m2!3d15.5321031!4d78.5046412!16s%2Fg%2F11qsv6bvzq!19sChIJEUa_qpOttTsRv8khvfbhmDc?authuser=0&hl=en&rclk=1",
        "coordinates": {
            "latitude": 15.532103099999999,
            "longitude": 78.5046412
        }
    },
    {
        "name": "Abu Talha Masjid",
        "main_category": "Mosque",
        "address": "FC4P+WGQ Abu Talha Masjid, Chapirevula, Andhra Pradesh 518502",
        "detailed_address": {
            "ward": null,
            "street": "FC4P+WGQ",
            "city": "Chapirevula",
            "postal_code": "518502",
            "state": "Andhra Pradesh",
            "country_code": "IN"
        },
        "images": [
            {
                "about": "All",
                "link": "https://streetviewpixels-pa.googleapis.com/v1/thumbnail?panoid=KWyLLk8jAFbujWlaN06ABQ&cb_client=maps_sv.tactile.gps&w=224&h=298&yaw=132.41748&pitch=0&thumbfov=100"
            },
            {
                "about": "Street View & 360deg",
                "link": "https://streetviewpixels-pa.googleapis.com/v1/thumbnail?panoid=KWyLLk8jAFbujWlaN06ABQ&cb_client=maps_sv.tactile.gps&w=224&h=298&yaw=132.41748&pitch=0&thumbfov=100"
            }
        ],
        "link": "https://www.google.com/maps/place/Abu+Talha+Masjid/data=!4m7!3m6!1s0x3bb44d71500b162b:0xb0a4d70b5bead025!8m2!3d15.4573486!4d78.4363671!16s%2Fg%2F11pf1x_r9s!19sChIJKxYLUHFNtDsRJdDqWwvXpLA?authuser=0&hl=en&rclk=1",
        "coordinates": {
            "latitude": 15.4573486,
            "longitude": 78.4363671
        }
    },
    {
        "name": "Majid-e-noorul Huda",
        "main_category": "Mosque",
        "address": "CGX6+345 Majid-e-noorul Huda, Ayalur Mitta, Kottala, Andhra Pradesh 518502",
        "detailed_address": {
            "ward": null,
            "street": "CGX6+345",
            "city": "Ayalur Mitta, Kottala",
            "postal_code": "518502",
            "state": "Andhra Pradesh",
            "country_code": "IN"
        },
        "images": [
            {
                "about": "All",
                "link": "https://lh5.googleusercontent.com/p/AF1QipOppmvvtTohMHw2evOq2YrUyfuaHX2MYNVTmePh=w662-h298-k-no"
            },
            {
                "about": "Dome",
                "link": "https://lh5.googleusercontent.com/p/AF1QipNQrGFKx5vUbaYCpwcB2VM09he1VlmA9u-01Q5m=w529-h298-k-no"
            }
        ],
        "link": "https://www.google.com/maps/place/Majid-e-noorul+Huda/data=!4m7!3m6!1s0x3bb452e53fbfaf87:0x1f3d22fa0b7918db!8m2!3d15.4476433!4d78.5103624!16s%2Fg%2F11gc1kgjlr!19sChIJh6-_P-VStDsR2xh5C_oiPR8?authuser=0&hl=en&rclk=1",
        "coordinates": {
            "latitude": 15.4476433,
            "longitude": 78.51036239999999
        }
    },
    {
        "name": "Masjid E Meharunnisa",
        "main_category": "Mosque",
        "address": "FGG9+8C7 Masjid E Meharunnisa, Sugali mitta, Andhra Pradesh 518502",
        "detailed_address": {
            "ward": null,
            "street": "FGG9+8C7",
            "city": "Sugali mitta",
            "postal_code": "518502",
            "state": "Andhra Pradesh",
            "country_code": "IN"
        },
        "images": [
            {
                "about": "All",
                "link": "https://streetviewpixels-pa.googleapis.com/v1/thumbnail?panoid=kqHat6SvUhkl8MODz8DNRA&cb_client=maps_sv.tactile.gps&w=224&h=298&yaw=145.56517&pitch=0&thumbfov=100"
            },
            {
                "about": "Street View & 360deg",
                "link": "https://streetviewpixels-pa.googleapis.com/v1/thumbnail?panoid=kqHat6SvUhkl8MODz8DNRA&cb_client=maps_sv.tactile.gps&w=224&h=298&yaw=145.56517&pitch=0&thumbfov=100"
            }
        ],
        "link": "https://www.google.com/maps/place/Masjid+E+Meharunnisa/data=!4m7!3m6!1s0x3bb453ddef7c5c5b:0xc2ac704fa98446b3!8m2!3d15.4757996!4d78.5185542!16s%2Fg%2F11l30slbct!19sChIJW1x8791TtDsRs0aEqU9wrMI?authuser=0&hl=en&rclk=1",
        "coordinates": {
            "latitude": 15.475799599999998,
            "longitude": 78.5185542
        }
    },
    {
        "name": "Jafar Hussain masjid",
        "main_category": "Mosque",
        "address": "CCVM+R62 Jafar Hussain masjid, Bapuji Nagar, Panduranga Puram, Andhra Pradesh 518502",
        "detailed_address": {
            "ward": "Bapuji Nagar",
            "street": "CCVM+R62",
            "city": "Panduranga Puram",
            "postal_code": "518502",
            "state": "Andhra Pradesh",
            "country_code": "IN"
        },
        "images": [
            {
                "about": "All",
                "link": "https://lh5.googleusercontent.com/p/AF1QipNvnZvPGyQYBYAFVt0Wir7rFwuDUDNAiZihOZpQ=w224-h485-k-no"
            }
        ],
        "link": "https://www.google.com/maps/place/Jafar+Hussain+masjid/data=!4m7!3m6!1s0x3bb44d69ab7a1abf:0x82842d77587ebad5!8m2!3d15.4445066!4d78.433031!16s%2Fg%2F11rk4ms2mq!19sChIJvxp6q2lNtDsR1bp-WHcthII?authuser=0&hl=en&rclk=1",
        "coordinates": {
            "latitude": 15.444506599999999,
            "longitude": 78.433031
        }
    },
    {
        "name": "MASJID - E - QUBA \" VENKATESHWARAPURAM\"",
        "main_category": "Mosque",
        "address": "FCPJ+5H MASJID - E - QUBA \" VENKATESHWARAPURAM\", Venkateswarapuram, Andhra Pradesh 518112",
        "detailed_address": {
            "ward": null,
            "street": "FCPJ+5H",
            "city": "Venkateswarapuram",
            "postal_code": null,
            "state": "Andhra Pradesh",
            "country_code": "IN"
        },
        "images": [
            {
                "about": "All",
                "link": "https://streetviewpixels-pa.googleapis.com/v1/thumbnail?panoid=bKjoZ4E0dzi3Qn-2v27uxg&cb_client=maps_sv.tactile.gps&w=224&h=298&yaw=172.08243&pitch=0&thumbfov=100"
            },
            {
                "about": "Street View & 360deg",
                "link": "https://streetviewpixels-pa.googleapis.com/v1/thumbnail?panoid=bKjoZ4E0dzi3Qn-2v27uxg&cb_client=maps_sv.tactile.gps&w=224&h=298&yaw=172.08243&pitch=0&thumbfov=100"
            }
        ],
        "link": "https://www.google.com/maps/place/MASJID+-+E+-+QUBA+%22+VENKATESHWARAPURAM%22/data=!4m7!3m6!1s0x3bb5b331b72a3e77:0x93f3b88e8f574a15!8m2!3d15.4853864!4d78.4313992!16s%2Fg%2F11s0jr5_3v!19sChIJdz4qtzGztTsRFUpXj46485M?authuser=0&hl=en&rclk=1",
        "coordinates": {
            "latitude": 15.4853864,
            "longitude": 78.4313992
        }
    },
    {
        "name": "MASJID E NOORANI",
        "main_category": "Place of worship",
        "address": "CFMV+WQW MASJID E NOORANI, Chabolu, Andhra Pradesh 518502",
        "detailed_address": {
            "ward": null,
            "street": "CFMV+WQW",
            "city": "Chabolu",
            "postal_code": "518502",
            "state": "Andhra Pradesh",
            "country_code": "IN"
        },
        "images": [
            {
                "about": "All",
                "link": "https://lh5.googleusercontent.com/p/AF1QipMQvH830tCboui_7E7hIdS5X6ligvWJpui6PB2q=w224-h298-k-no"
            },
            {
                "about": "Street View & 360deg",
                "link": "https://streetviewpixels-pa.googleapis.com/v1/thumbnail?panoid=qN_NhHOcFqyuJ4qlLCtthg&cb_client=maps_sv.tactile.gps&w=224&h=298&yaw=85.88839&pitch=0&thumbfov=100"
            }
        ],
        "link": "https://www.google.com/maps/place/MASJID+E+NOORANI/data=!4m7!3m6!1s0x3bb453c8baed60f9:0x5f2261ba4831f210!8m2!3d15.4348513!4d78.4944436!16s%2Fg%2F11h565pd22!19sChIJ-WDtushTtDsREPIxSLphIl8?authuser=0&hl=en&rclk=1",
        "coordinates": {
            "latitude": 15.4348513,
            "longitude": 78.4944436
        }
    },
    {
        "name": "Masjid e Mehdavia(Nandyal)",
        "main_category": "Mosque",
        "address": "FFQP+65M Masjid e Mehdavia(Nandyal), Mullanpet, Telugu Peta, Nandyala, Andhra Pradesh 518501",
        "detailed_address": {
            "ward": "Mullanpet, Telugu Peta",
            "street": "FFQP+65M",
            "city": "Nandyala",
            "postal_code": "518501",
            "state": "Andhra Pradesh",
            "country_code": "IN"
        },
        "images": [],
        "link": "https://www.google.com/maps/place/Masjid+e+Mehdavia%28Nandyal%29/data=!4m7!3m6!1s0x3bb5ad29bb50f925:0x13536dca7a4b921f!8m2!3d15.4880802!4d78.4854085!16s%2Fg%2F11py9hz50y!19sChIJJflQuymttTsRH5JLesptUxM?authuser=0&hl=en&rclk=1",
        "coordinates": {
            "latitude": 15.488080199999999,
            "longitude": 78.48540849999999
        }
    },
    {
        "name": "Mukthab a hazarath fathima masjid",
        "main_category": "Mosque",
        "address": "FFRM+VPQ Mukthab a hazarath fathima masjid, Nandyal Bus Stand Rd, Sri Potti Sriramulu Colony, Srinivasa Nagar, Nandyala, Andhra Pradesh 518501",
        "detailed_address": {
            "ward": "Sri Potti Sriramulu Colony, Srinivasa Nagar",
            "street": "FFRM+VPQ, Nandyal Bus Stand Rd",
            "city": "Nandyala",
            "postal_code": "518501",
            "state": "Andhra Pradesh",
            "country_code": "IN"
        },
        "images": [
            {
                "about": "All",
                "link": "https://lh5.googleusercontent.com/p/AF1QipPxxh0ls549ADcc8Gmu5nxnty5_P0NtXn-dj6Ip=w224-h298-k-no"
            }
        ],
        "link": "https://www.google.com/maps/place/Mukthab+a+hazarath+fathima+masjid/data=!4m7!3m6!1s0x3bb5adf1a7e22b41:0x203789891af166b8!8m2!3d15.4922082!4d78.4843694!16s%2Fg%2F11hgfjbrb4!19sChIJQSvip_GttTsRuGbxGomJNyA?authuser=0&hl=en&rclk=1",
        "coordinates": {
            "latitude": 15.492208199999999,
            "longitude": 78.48436939999999
        }
    },
    {
        "name": "MASJID-E-MADEENA",
        "main_category": "Mosque",
        "address": "FF6M+4Q7 MASJID-E-MADEENA, kadapa Highway, Raitu Nagar, Nandyala, Andhra Pradesh 518501",
        "detailed_address": {
            "ward": "Raitu Nagar",
            "street": "FF6M+4Q7, kadapa Highway",
            "city": "Nandyala",
            "postal_code": "518501",
            "state": "Andhra Pradesh",
            "country_code": "IN"
        },
        "images": [],
        "link": "https://www.google.com/maps/place/MASJID-E-MADEENA/data=!4m7!3m6!1s0x3bb4537f479e53b1:0xd299dfea571ad11d!8m2!3d15.4602944!4d78.4844292!16s%2Fg%2F11rscyjqp3!19sChIJsVOeR39TtDsRHdEaV-rfmdI?authuser=0&hl=en&rclk=1",
        "coordinates": {
            "latitude": 15.460294399999999,
            "longitude": 78.4844292
        }
    },
    {
        "name": "Masjid E sahaba",
        "main_category": "Mosque",
        "address": "FFPV+865 Masjid E sahaba, Farook Nagar, Salim Nagar, Nandyala, Andhra Pradesh 518501",
        "detailed_address": {
            "ward": "Farook Nagar, Salim Nagar",
            "street": "FFPV+865",
            "city": "Nandyala",
            "postal_code": "518501",
            "state": "Andhra Pradesh",
            "country_code": "IN"
        },
        "images": [
            {
                "about": "All",
                "link": "https://lh5.googleusercontent.com/p/AF1QipPqysS3VQ3PV_vlsUAb3VF6luG87KFLqfMGjx5x=w224-h398-k-no"
            }
        ],
        "link": "https://www.google.com/maps/place/Masjid+E+sahaba/data=!4m7!3m6!1s0x3bb5ad66baa97a17:0x9f3834825f00cb07!8m2!3d15.4857728!4d78.4931151!16s%2Fg%2F11kj85d6vy!19sChIJF3qpumattTsRB8sAX4I0OJ8?authuser=0&hl=en&rclk=1",
        "coordinates": {
            "latitude": 15.4857728,
            "longitude": 78.4931151
        }
    },
    {
        "name": "Masjid e Yousuf",
        "main_category": "Mosque",
        "address": "FFQP+JRM Masjid e Yousuf, Kranthi Nagar, Telugu Peta, Nandyala, Andhra Pradesh 518501",
        "detailed_address": {
            "ward": "Kranthi Nagar, Telugu Peta",
            "street": "FFQP+JRM",
            "city": "Nandyala",
            "postal_code": null,
            "state": "Andhra Pradesh",
            "country_code": "IN"
        },
        "images": [],
        "link": "https://www.google.com/maps/place/Masjid+e+Yousuf/data=!4m7!3m6!1s0x3bb5adfa2dd20b8b:0x66cf5ecd4dc5efe2!8m2!3d15.4890958!4d78.4870542!16s%2Fg%2F11gszk0rpn!19sChIJiwvSLfqttTsR4u_FTc1ez2Y?authuser=0&hl=en&rclk=1",
        "coordinates": {
            "latitude": 15.4890958,
            "longitude": 78.4870542
        }
    },
    {
        "name": "Dawood khan house",
        "main_category": "Mosque",
        "address": "Dawood khan house, Ayesha masjid, sramadanam bridge, Deva Nagar Colony, Nandyala, Andhra Pradesh 518501",
        "detailed_address": {
            "ward": "Deva Nagar Colony",
            "street": "Ayesha masjid, sramadanam bridge",
            "city": "Nandyala",
            "postal_code": null,
            "state": "Andhra Pradesh",
            "country_code": "IN"
        },
        "images": [
            {
                "about": "All",
                "link": "https://streetviewpixels-pa.googleapis.com/v1/thumbnail?panoid=xtY589uC0LZvoG2PulKhLA&cb_client=maps_sv.tactile.gps&w=224&h=298&yaw=77.14456&pitch=0&thumbfov=100"
            },
            {
                "about": "Street View & 360deg",
                "link": "https://streetviewpixels-pa.googleapis.com/v1/thumbnail?panoid=xtY589uC0LZvoG2PulKhLA&cb_client=maps_sv.tactile.gps&w=224&h=298&yaw=77.14456&pitch=0&thumbfov=100"
            }
        ],
        "link": "https://www.google.com/maps/place/Dawood+khan+house/data=!4m7!3m6!1s0x3bb4534958e9a9f7:0x9ee5c9a70ec017b3!8m2!3d15.4737663!4d78.4819778!16s%2Fg%2F11n0jg7wbz!19sChIJ96npWElTtDsRsxfADqfJ5Z4?authuser=0&hl=en&rclk=1",
        "coordinates": {
            "latitude": 15.4737663,
            "longitude": 78.4819778
        }
    },
    {
        "name": "Noorul Huda Masjid",
        "main_category": "Mosque",
        "address": "Noorul Huda Masjid, Babanagar, Nandyal, Andhra Pradesh 518593",
        "detailed_address": {
            "ward": "Babanagar",
            "street": null,
            "city": "Nandyal",
            "postal_code": "518593",
            "state": "Andhra Pradesh",
            "country_code": "IN"
        },
        "images": [
            {
                "about": "All",
                "link": "https://streetviewpixels-pa.googleapis.com/v1/thumbnail?panoid=jPbpmx1Tl2XenFY3_7oRUQ&cb_client=maps_sv.tactile.gps&w=224&h=298&yaw=358.92416&pitch=0&thumbfov=100"
            },
            {
                "about": "Street View & 360deg",
                "link": "https://streetviewpixels-pa.googleapis.com/v1/thumbnail?panoid=jPbpmx1Tl2XenFY3_7oRUQ&cb_client=maps_sv.tactile.gps&w=224&h=298&yaw=358.92416&pitch=0&thumbfov=100"
            }
        ],
        "link": "https://www.google.com/maps/place/Noorul+Huda+Masjid/data=!4m7!3m6!1s0x3bb44ddd2910601d:0x74f8cfec50919f47!8m2!3d15.4065585!4d78.4714566!16s%2Fg%2F11v0rytxtp!19sChIJHWAQKd1NtDsRR5-RUOzP-HQ?authuser=0&hl=en&rclk=1",
        "coordinates": {
            "latitude": 15.4065585,
            "longitude": 78.4714566
        }
    },
    {
        "name": "Noorulla masjid",
        "main_category": "Mosque",
        "address": "CGVF+7MC Noorulla masjid, Ayyalur village noorulla mandal,street, Nandyala, Andhra Pradesh",
        "detailed_address": {
            "ward": null,
            "street": "CGVF+7MC, Ayyalur village noorulla mandal,street",
            "city": "Nandyala, Ayyalur",
            "postal_code": null,
            "state": "Andhra Pradesh",
            "country_code": "IN"
        },
        "images": [
            {
                "about": "All",
                "link": "https://streetviewpixels-pa.googleapis.com/v1/thumbnail?panoid=h1FQ_BrdBJiFCVI5NpAo_Q&cb_client=maps_sv.tactile.gps&w=224&h=298&yaw=33.762123&pitch=0&thumbfov=100"
            },
            {
                "about": "Street View & 360deg",
                "link": "https://streetviewpixels-pa.googleapis.com/v1/thumbnail?panoid=h1FQ_BrdBJiFCVI5NpAo_Q&cb_client=maps_sv.tactile.gps&w=224&h=298&yaw=33.762123&pitch=0&thumbfov=100"
            }
        ],
        "link": "https://www.google.com/maps/place/Noorulla+masjid/data=!4m7!3m6!1s0x3bb4534abcd5d1ed:0x8989714bf81ff9ee!8m2!3d15.4431874!4d78.524156!16s%2Fg%2F11fq4cqwsy!19sChIJ7dHVvEpTtDsR7vkf-EtxiYk?authuser=0&hl=en&rclk=1",
        "coordinates": {
            "latitude": 15.4431874,
            "longitude": 78.52415599999999
        }
    },
    {
        "name": "masjid -A- Jamia ,Sreenagaram",
        "main_category": "Mosque",
        "address": "FH8W+5M5 masjid -A- Jamia ,Sreenagaram, Sreenagaaram village, Nandyal to Mahanandi road, dist, Nandyala, Andhra Pradesh 518502",
        "detailed_address": {
            "ward": null,
            "street": "FH8W+5M5, Sreenagaaram village, Nandyal to Mahanandi road, dist",
            "city": "Nandyala",
            "postal_code": "518502",
            "state": "Andhra Pradesh",
            "country_code": "IN"
        },
        "images": [],
        "link": "https://www.google.com/maps/place/masjid+-A-+Jamia+,Sreenagaram/data=!4m7!3m6!1s0x3bb455d7a0054d4d:0xaf559e94043ee17!8m2!3d15.465392!4d78.5967319!16s%2Fg%2F11s7qrmkhh!19sChIJTU0FoNdVtDsRF-5DQOlZ9Qo?authuser=0&hl=en&rclk=1",
        "coordinates": {
            "latitude": 15.465392,
            "longitude": 78.5967319
        }
    },
    {
        "name": "Masjid-e-Sharifa",
        "main_category": "Mosque",
        "address": "FG98+CFF Masjid-e-Sharifa, Pedda Kottala, Andhra Pradesh 518502",
        "detailed_address": {
            "ward": null,
            "street": "FG98+CFF",
            "city": "Pedda Kottala",
            "postal_code": "518502",
            "state": "Andhra Pradesh",
            "country_code": "IN"
        },
        "images": [
            {
                "about": "All",
                "link": "https://streetviewpixels-pa.googleapis.com/v1/thumbnail?panoid=tdBXJEhgfiM1Q9O8sKOkuw&cb_client=maps_sv.tactile.gps&w=224&h=298&yaw=61.953163&pitch=0&thumbfov=100"
            },
            {
                "about": "Street View & 360deg",
                "link": "https://streetviewpixels-pa.googleapis.com/v1/thumbnail?panoid=tdBXJEhgfiM1Q9O8sKOkuw&cb_client=maps_sv.tactile.gps&w=224&h=298&yaw=61.953163&pitch=0&thumbfov=100"
            }
        ],
        "link": "https://www.google.com/maps/place/Masjid-e-Sharifa/data=!4m7!3m6!1s0x3bb4534e19543ac9:0x35df4ac3e1c3c5b4!8m2!3d15.4685084!4d78.5161152!16s%2Fg%2F11tbwypcxh!19sChIJyTpUGU5TtDsRtMXD4cNK3zU?authuser=0&hl=en&rclk=1",
        "coordinates": {
            "latitude": 15.4685084,
            "longitude": 78.5161152
        }
    },
    {
        "name": "MASJID E MADINA",
        "main_category": "Mosque",
        "address": "CF6V+VFV MASJID E MADINA, Unnamed Road, Sambavaram, Andhra Pradesh 518502",
        "detailed_address": {
            "ward": null,
            "street": "CF6V+VFV, Unnamed Road",
            "city": "Sambavaram",
            "postal_code": "518502",
            "state": "Andhra Pradesh",
            "country_code": "IN"
        },
        "images": [
            {
                "about": "All",
                "link": "https://streetviewpixels-pa.googleapis.com/v1/thumbnail?panoid=xUe2m-8SgHHb524rnh_B7w&cb_client=maps_sv.tactile.gps&w=224&h=298&yaw=300.85156&pitch=0&thumbfov=100"
            },
            {
                "about": "Street View & 360deg",
                "link": "https://streetviewpixels-pa.googleapis.com/v1/thumbnail?panoid=xUe2m-8SgHHb524rnh_B7w&cb_client=maps_sv.tactile.gps&w=224&h=298&yaw=300.85156&pitch=0&thumbfov=100"
            }
        ],
        "link": "https://www.google.com/maps/place/MASJID+E+MADINA/data=!4m7!3m6!1s0x3bb453eddc247b17:0x594b08a6a9060a07!8m2!3d15.4122324!4d78.4936831!16s%2Fg%2F11q1jfgxhj!19sChIJF3sk3O1TtDsRBwoGqaYIS1k?authuser=0&hl=en&rclk=1",
        "coordinates": {
            "latitude": 15.412232399999999,
            "longitude": 78.4936831
        }
    },
    {
        "name": "Jumma masjid",
        "main_category": "Catering food and drink supplier",
        "address": "FFRQ+2FJ Jumma masjid, Jamia Masjid Rd, Nadigadda, Telugu Peta, Nandyala, Andhra Pradesh 518501",
        "detailed_address": {
            "ward": "Nadigadda, Telugu Peta",
            "street": "FFRQ+2FJ, Jamia Masjid Rd",
            "city": "Nandyala",
            "postal_code": "518501",
            "state": "Andhra Pradesh",
            "country_code": "IN"
        },
        "images": [
            {
                "about": "All",
                "link": "https://lh5.googleusercontent.com/p/AF1QipNJQg0BlzRFGhxHZHKyEpwqKJ0BiKdRLkutuw1N=w552-h298-k-no"
            },
            {
                "about": "Food & drink",
                "link": "https://lh5.googleusercontent.com/p/AF1QipPiYwUFZfpmnKZnjakNegUcyXcvkTCq78eWFWgn=w224-h298-k-no"
            },
            {
                "about": "Street View & 360deg",
                "link": "https://streetviewpixels-pa.googleapis.com/v1/thumbnail?panoid=Ebv_WYcjXxzQpOU6le7lSg&cb_client=maps_sv.tactile.gps&w=224&h=298&yaw=199.08183&pitch=0&thumbfov=100"
            }
        ],
        "link": "https://www.google.com/maps/place/Jumma+masjid/data=!4m7!3m6!1s0x3bb5ad75c0815fed:0x1bb19bd5b1cbb1e6!8m2!3d15.4900982!4d78.4886519!16s%2Fg%2F11v5fb8ck5!19sChIJ7V-BwHWttTsR5rHLsdWbsRs?authuser=0&hl=en&rclk=1",
        "coordinates": {
            "latitude": 15.490098199999998,
            "longitude": 78.4886519
        }
    }
]