[
    {
        "name": "Jumma Masjid",
        "main_category": "Mosque",
        "address": "QJ99+X5M Jumma Masjid, Navagadh, Jetpur, Gujarat 360370",
        "detailed_address": {
            "ward": "Navagadh",
            "street": "QJ99+X5M",
            "city": "Jetpur",
            "postal_code": "360370",
            "state": "Gujarat",
            "country_code": "IN"
        },
        "images": [
            {
                "about": "All",
                "link": "https://lh5.googleusercontent.com/p/AF1QipNF0iCpahkCJ-QzPpiBlNBBtqtYGEaZbU13NJVt=w224-h298-k-no"
            },
            {
                "about": "Dome",
                "link": "https://lh5.googleusercontent.com/p/AF1QipO_epYL0bijAL_dAVa9ODagwOCvMYpmuON0UA3o=w397-h298-k-no"
            },
            {
                "about": "Videos",
                "link": "https://lh5.googleusercontent.com/p/AF1QipPRHzsit1FaYtY1vH1mx9WlWTz6X6zEsbUvDV3V=w224-h407-k-no"
            },
            {
                "about": "Street View & 360deg",
                "link": "https://streetviewpixels-pa.googleapis.com/v1/thumbnail?panoid=fZKmmbHQDSS4KTGFU07isA&cb_client=maps_sv.tactile.gps&w=224&h=298&yaw=272.23325&pitch=0&thumbfov=100"
            }
        ],
        "link": "https://www.google.com/maps/place/Jumma+Masjid/data=!4m7!3m6!1s0x395819d6eee7e31d:0x21e8e13f6db314a1!8m2!3d21.7699537!4d70.6179356!16s%2Fg%2F11b7r1klx7!19sChIJHePn7tYZWDkRoRSzbT_h6CE?authuser=0&hl=en&rclk=1",
        "coordinates": {
            "latitude": 21.7699537,
            "longitude": 70.6179356
        }
    },
    {
        "name": "Baharpura Masjid",
        "main_category": "Mosque",
        "address": "Baharpura Masjid, MG Rd, Matvasheri, Jetpur, Gujarat 360370",
        "detailed_address": {
            "ward": "Matvasheri",
            "street": "MG Rd",
            "city": "Jetpur",
            "postal_code": null,
            "state": "Gujarat",
            "country_code": "IN"
        },
        "images": [
            {
                "about": "All",
                "link": "https://lh5.googleusercontent.com/p/AF1QipPlDEoef73O1XyoLv7VZ-q06z53lvVhyG1XxrBD=w224-h298-k-no-pi-20-ya105-ro-0-fo100"
            },
            {
                "about": "Street View & 360deg",
                "link": "https://lh5.googleusercontent.com/p/AF1QipOzXkAGyogKdD7Thj-VhI-5d_Ur9JDDEeWWlkOM=w224-h298-k-no-pi-10-ya137.99998-ro-0-fo100"
            }
        ],
        "link": "https://www.google.com/maps/place/Baharpura+Masjid/data=!4m7!3m6!1s0x3958175e150da17f:0x3f399ea8dfcea741!8m2!3d21.7549751!4d70.6254134!16s%2Fg%2F11c584qcbq!19sChIJf6ENFV4XWDkRQafO36ieOT8?authuser=0&hl=en&rclk=1",
        "coordinates": {
            "latitude": 21.7549751,
            "longitude": 70.6254134
        }
    },
    {
        "name": "Jamaati 24 Masjid Jetpur Navagadh",
        "main_category": "Mosque",
        "address": "Jamaati 24 Masjid Jetpur Navagadh, Memon Colony, Jetpur, Gujarat 360370",
        "detailed_address": {
            "ward": "Memon Colony",
            "street": null,
            "city": "Jetpur",
            "postal_code": "360370",
            "state": "Gujarat",
            "country_code": "IN"
        },
        "images": [
            {
                "about": "All",
                "link": "https://lh5.googleusercontent.com/p/AF1QipNrQ4uctqtYyEukF58IF8KttR3dsf9O8wlN8nYe=w224-h298-k-no"
            },
            {
                "about": "Dome",
                "link": "https://lh5.googleusercontent.com/p/AF1QipOxbUBSZNEAZF5WdEilm7Spqbk64fud8S8L-pJX=w224-h398-k-no"
            }
        ],
        "link": "https://www.google.com/maps/place/Jamaati+24+Masjid+Jetpur+Navagadh/data=!4m7!3m6!1s0x39581760b20940e7:0xce115003baeaa54c!8m2!3d21.7565038!4d70.6273206!16s%2Fg%2F11c42xc7sj!19sChIJ50AJsmAXWDkRTKXqugNQEc4?authuser=0&hl=en&rclk=1",
        "coordinates": {
            "latitude": 21.756503799999997,
            "longitude": 70.62732059999999
        }
    },
    {
        "name": "Zikariya Sunni Masjid",
        "main_category": "Mosque",
        "address": "QJ2C+XJ8 Zikariya Sunni Masjid, Khodpara Main Rd, Khodpara, Jetpur, Gujarat 360370",
        "detailed_address": {
            "ward": "Khodpara",
            "street": "QJ2C+XJ8, Khodpara Main Rd",
            "city": "Jetpur",
            "postal_code": "360370",
            "state": "Gujarat",
            "country_code": "IN"
        },
        "images": [
            {
                "about": "All",
                "link": "https://lh5.googleusercontent.com/p/AF1QipOZ3MsHgXEa8Xenl1X1Q4l9ScfYEmqTwHiPrf6x=w611-h298-k-no"
            }
        ],
        "link": "https://www.google.com/maps/place/Zikariya+Sunni+Masjid/data=!4m7!3m6!1s0x395819e02a5c7391:0x82bd7e0f76dc613!8m2!3d21.7524245!4d70.6215649!16s%2Fg%2F11fyx9c1py!19sChIJkXNcKuAZWDkRE8Zt9-DXKwg?authuser=0&hl=en&rclk=1",
        "coordinates": {
            "latitude": 21.7524245,
            "longitude": 70.6215649
        }
    },
    {
        "name": "Madni Masjid",
        "main_category": "Mosque",
        "address": "QJCC+3HQ Madni Masjid, Navagadh, Jetpur, Gujarat 360370",
        "detailed_address": {
            "ward": "Navagadh",
            "street": "QJCC+3HQ",
            "city": "Jetpur",
            "postal_code": "360370",
            "state": "Gujarat",
            "country_code": "IN"
        },
        "images": [
            {
                "about": "All",
                "link": "https://lh5.googleusercontent.com/p/AF1QipNt0GwY7iGuKyAjoLobkeXdcr0O8dkBIthgLJkg=w298-h298-k-no"
            },
            {
                "about": "Street View & 360deg",
                "link": "https://streetviewpixels-pa.googleapis.com/v1/thumbnail?panoid=4I5ZW2CArAGh-kdyBnLEDw&cb_client=maps_sv.tactile.gps&w=224&h=298&yaw=49.020977&pitch=0&thumbfov=100"
            }
        ],
        "link": "https://www.google.com/maps/place/Madni+Masjid/data=!4m7!3m6!1s0x395819d62653788f:0x12d04d20ce5812f4!8m2!3d21.7702226!4d70.6214821!16s%2Fg%2F11d_8cbnz0!19sChIJj3hTJtYZWDkR9BJYziBN0BI?authuser=0&hl=en&rclk=1",
        "coordinates": {
            "latitude": 21.7702226,
            "longitude": 70.6214821
        }
    },
    {
        "name": "Shamishah Masjid",
        "main_category": "Mosque",
        "address": "QJ3F+XP4 Shamishah Masjid, MG Rd, Matvasheri, Jetpur, Gujarat 360370",
        "detailed_address": {
            "ward": "Matvasheri",
            "street": "QJ3F+XP4, MG Rd",
            "city": "Jetpur",
            "postal_code": "360370",
            "state": "Gujarat",
            "country_code": "IN"
        },
        "images": [
            {
                "about": "All",
                "link": "https://lh5.googleusercontent.com/p/AF1QipMR7_iDRcxiH7oiKG0q1JVAoD-ykr0X9231D7Lv=w224-h298-k-no-pi-0-ya99.00001-ro-0-fo100"
            },
            {
                "about": "Street View & 360deg",
                "link": "https://streetviewpixels-pa.googleapis.com/v1/thumbnail?panoid=5oLWozlulXiCUTTn1Kknow&cb_client=maps_sv.tactile.gps&w=224&h=298&yaw=224.60709&pitch=0&thumbfov=100"
            }
        ],
        "link": "https://www.google.com/maps/place/Shamishah+Masjid/data=!4m7!3m6!1s0x3958175fd3cc4a81:0xcd665e0e96869264!8m2!3d21.7548918!4d70.6243407!16s%2Fg%2F11cs3y13xy!19sChIJgUrM018XWDkRZJKGlg5eZs0?authuser=0&hl=en&rclk=1",
        "coordinates": {
            "latitude": 21.7548918,
            "longitude": 70.62434069999999
        }
    },
    {
        "name": "Dawoodi Bohra Masjid",
        "main_category": "Mosque",
        "address": "QJ3G+F2R Dawoodi Bohra Masjid, Bokhla Darwaja, Jetpur, Gujarat 360370",
        "detailed_address": {
            "ward": "Bokhla Darwaja",
            "street": "QJ3G+F2R",
            "city": "Jetpur",
            "postal_code": "360370",
            "state": "Gujarat",
            "country_code": "IN"
        },
        "images": [],
        "link": "https://www.google.com/maps/place/Dawoodi+Bohra+Masjid/data=!4m7!3m6!1s0x3958175e4bfd6de5:0x8a6553b86aaea7f8!8m2!3d21.7537436!4d70.6250209!16s%2Fg%2F11cn8z4yc4!19sChIJ5W39S14XWDkR-KeuarhTZYo?authuser=0&hl=en&rclk=1",
        "coordinates": {
            "latitude": 21.7537436,
            "longitude": 70.6250209
        }
    },
    {
        "name": "Jetpur rajkot Highway",
        "main_category": "Mosque",
        "address": "QJFM+W2V Jetpur rajkot Highway, Jeevan Bagh, Dhareshwer Bistar, Jetpur, Gujarat 360370",
        "detailed_address": {
            "ward": "Jeevan Bagh, Dhareshwer Bistar",
            "street": "QJFM+W2V",
            "city": "Jetpur",
            "postal_code": "360370",
            "state": "Gujarat",
            "country_code": "IN"
        },
        "images": [
            {
                "about": "All",
                "link": "https://lh5.googleusercontent.com/p/AF1QipP0XEyTdDlUmDhzJg6AWUmLXWCjfNSVBjIYoElH=w224-h298-k-no"
            }
        ],
        "link": "https://www.google.com/maps/place/Jetpur+rajkot+Highway/data=!4m7!3m6!1s0x39581779e906f5cf:0x4c34250df7d084a3!8m2!3d21.7748659!4d70.6325393!16s%2Fg%2F11gff8xdnm!19sChIJz_UG6XkXWDkRo4TQ9w0lNEw?authuser=0&hl=en&rclk=1",
        "coordinates": {
            "latitude": 21.774865899999998,
            "longitude": 70.63253929999999
        }
    },
    {
        "name": "Madina Masjid Gondal Darvaja jetpur",
        "main_category": "Mosque",
        "address": "QJ5H+5C2 Madina Masjid Gondal Darvaja jetpur, Memon Colony, Jetpur, Gujarat 360370",
        "detailed_address": {
            "ward": "Memon Colony",
            "street": "QJ5H+5C2",
            "city": "Jetpur",
            "postal_code": "360370",
            "state": "Gujarat",
            "country_code": "IN"
        },
        "images": [
            {
                "about": "All",
                "link": "https://lh5.googleusercontent.com/p/AF1QipOyOYYeO551rDagfOOGmfP9eA2zL0uq7FP1JpZN=w224-h298-k-no"
            },
            {
                "about": "Dome",
                "link": "https://lh5.googleusercontent.com/p/AF1QipNuiZgVY7GbMDIqEqdoij8Xm0CkpezzjgziHec_=w447-h298-k-no"
            }
        ],
        "link": "https://www.google.com/maps/place/Madina+Masjid+Gondal+Darvaja+jetpur/data=!4m7!3m6!1s0x395817673af72405:0xc9c399fc44ccb566!8m2!3d21.7578976!4d70.6285008!16s%2Fg%2F11f3jyc5vf!19sChIJBST3OmcXWDkRZrXMRPyZw8k?authuser=0&hl=en&rclk=1",
        "coordinates": {
            "latitude": 21.7578976,
            "longitude": 70.6285008
        }
    },
    {
        "name": "Saiyeda Masjid",
        "main_category": "Mosque",
        "address": "QJGP+FJ3 Saiyeda Masjid, Datar Takiya Old Rajkot Highway, Road, Navagadh, Jetpur, Gujarat 360370",
        "detailed_address": {
            "ward": "Jeevan Bagh, Navagadh",
            "street": "QJGP+FJ3, Datar Takiya Old Rajkot Highway, Road",
            "city": "Jetpur",
            "postal_code": "360370",
            "state": "Gujarat",
            "country_code": "IN"
        },
        "images": [
            {
                "about": "All",
                "link": "https://lh5.googleusercontent.com/p/AF1QipMq72V4u48hlU9OrvtuCGynu3bF5uhGqcZwxFh8=w397-h298-k-no"
            },
            {
                "about": "Dome",
                "link": "https://lh5.googleusercontent.com/p/AF1QipP-slgENqirxb2ZkT1L0fJSFItVE3pCmUqG-CQ1=w224-h448-k-no"
            },
            {
                "about": "Videos",
                "link": "https://lh5.googleusercontent.com/p/AF1QipOO5tKmS_ZLQQyGK0ntGDUkGfNqBDIrzgfViObG=w224-h398-k-no"
            }
        ],
        "link": "https://www.google.com/maps/place/Saiyeda+Masjid/data=!4m7!3m6!1s0x39581776e0d84823:0xfefaa61eea73ff35!8m2!3d21.7761499!4d70.636544!16s%2Fg%2F11dy21kphj!19sChIJI0jY4HYXWDkRNf9z6h6m-v4?authuser=0&hl=en&rclk=1",
        "coordinates": {
            "latitude": 21.7761499,
            "longitude": 70.636544
        }
    },
    {
        "name": "Jumma Masjid, Jetpur-360370",
        "main_category": "Mosque",
        "address": "QJ3H+969 Jumma Masjid, Jetpur-360370, Kangar Para, Jetpur, Gujarat 360360",
        "detailed_address": {
            "ward": "Kangar Para",
            "street": "QJ3H+969",
            "city": "Jetpur",
            "postal_code": "360360",
            "state": "Gujarat",
            "country_code": "IN"
        },
        "images": [
            {
                "about": "All",
                "link": "https://lh5.googleusercontent.com/p/AF1QipOPB91qt3sv5m4KMcQJb9ZrNaHg7u-vAyKsvub-=w397-h298-k-no"
            },
            {
                "about": "Street View & 360deg",
                "link": "https://lh5.googleusercontent.com/p/AF1QipN0yUZHaiMSxef9x_csD6ywNUdkK5a9fbk4fHno=w224-h298-k-no-pi-20-ya353-ro-0-fo100"
            }
        ],
        "link": "https://www.google.com/maps/place/Jumma+Masjid,+Jetpur-360370/data=!4m7!3m6!1s0x3958175dd169aa05:0x491b9dfaa744c17c!8m2!3d21.7534229!4d70.6281041!16s%2Fg%2F11gfh2mq7k!19sChIJBapp0V0XWDkRfMFEp_qdG0k?authuser=0&hl=en&rclk=1",
        "coordinates": {
            "latitude": 21.7534229,
            "longitude": 70.6281041
        }
    },
    {
        "name": "Nagina Masjid",
        "main_category": "Mosque",
        "address": "QJ4G+RC6 Nagina Masjid, Horavard, Jetpur, Gujarat 360370",
        "detailed_address": {
            "ward": "Horavard",
            "street": "QJ4G+RC6",
            "city": "Jetpur",
            "postal_code": "360370",
            "state": "Gujarat",
            "country_code": "IN"
        },
        "images": [
            {
                "about": "All",
                "link": "https://lh5.googleusercontent.com/p/AF1QipPv-ZMf2lZKVpndSOOKHtkDK3G0vFMj_s4tRh3M=w397-h298-k-no"
            },
            {
                "about": "Street View & 360deg",
                "link": "https://lh5.googleusercontent.com/p/AF1QipMlQ00plT0BZYbNGPxnAYWDo-i_P2IJ3y9mKi7L=w224-h298-k-no-pi-0-ya96.887436-ro-0-fo100"
            }
        ],
        "link": "https://www.google.com/maps/place/Nagina+Masjid/data=!4m7!3m6!1s0x39581760eaccbc83:0xc8cd99fcac9e7e53!8m2!3d21.7570474!4d70.6260087!16s%2Fg%2F11hblb781t!19sChIJg7zM6mAXWDkRU36erPyZzcg?authuser=0&hl=en&rclk=1",
        "coordinates": {
            "latitude": 21.757047399999998,
            "longitude": 70.6260087
        }
    },
    {
        "name": "hussaini masjid",
        "main_category": "Mosque",
        "address": "QJ4H+G32 hussaini masjid, Memon Colony, Jetpur, Gujarat 360370",
        "detailed_address": {
            "ward": "Memon Colony",
            "street": "QJ4H+G32",
            "city": "Jetpur",
            "postal_code": "360370",
            "state": "Gujarat",
            "country_code": "IN"
        },
        "images": [
            {
                "about": "All",
                "link": "https://lh5.googleusercontent.com/p/AF1QipMd0JpKVMYcRSXh9KkP9W51GSfXxKEZ-ZLvQOT5=w224-h298-k-no"
            }
        ],
        "link": "https://www.google.com/maps/place/hussaini+masjid/data=!4m7!3m6!1s0x395817675349d007:0x2cdc6ba636c8609!8m2!3d21.7562648!4d70.6276374!16s%2Fg%2F11fxw104n0!19sChIJB9BJU2cXWDkRCYZsY7rGzQI?authuser=0&hl=en&rclk=1",
        "coordinates": {
            "latitude": 21.7562648,
            "longitude": 70.6276374
        }
    },
    {
        "name": "Masjid E Khair",
        "main_category": "Mosque",
        "address": "QJFJ+VX6 Masjid E Khair, Jeevan Bagh, Dhareshwer Bistar, Jetpur, Gujarat 360370",
        "detailed_address": {
            "ward": "Jeevan Bagh, Dhareshwer Bistar",
            "street": "QJFJ+VX6",
            "city": "Jetpur",
            "postal_code": "360370",
            "state": "Gujarat",
            "country_code": "IN"
        },
        "images": [
            {
                "about": "All",
                "link": "https://lh5.googleusercontent.com/p/AF1QipPZ90eSsQI8xMV7yWxQ6aa87IvxdRdT3cvcPSla=w529-h298-k-no"
            },
            {
                "about": "Street View & 360deg",
                "link": "https://streetviewpixels-pa.googleapis.com/v1/thumbnail?panoid=vyLIupguW7fhp2MPbfD81w&cb_client=maps_sv.tactile.gps&w=224&h=298&yaw=100.67327&pitch=0&thumbfov=100"
            }
        ],
        "link": "https://www.google.com/maps/place/Masjid+E+Khair/data=!4m7!3m6!1s0x3958170582a6cf69:0x15ef08da544f8db8!8m2!3d21.7746743!4d70.6323934!16s%2Fg%2F11qrhntxpm!19sChIJac-mggUXWDkRuI1PVNoI7xU?authuser=0&hl=en&rclk=1",
        "coordinates": {
            "latitude": 21.774674299999997,
            "longitude": 70.6323934
        }
    },
    {
        "name": "Ousman e Gani Masjid",
        "main_category": "Mosque",
        "address": "QJ93+4XQ Ousman e Gani Masjid, Unnamed Road, Nag Bai Society, Jetpur, Gujarat 360370",
        "detailed_address": {
            "ward": "Nag Bai Society",
            "street": "QJ93+4XQ, Unnamed Road",
            "city": "Jetpur",
            "postal_code": "360370",
            "state": "Gujarat",
            "country_code": "IN"
        },
        "images": [
            {
                "about": "All",
                "link": "https://lh5.googleusercontent.com/p/AF1QipPIwvQ0HiUg5Ia0JjkQC-wspGR1RUJafS_4YI1t=w662-h298-k-no"
            },
            {
                "about": "Dome",
                "link": "https://lh5.googleusercontent.com/p/AF1QipOToMMLff-MANmf5SSDp0C4Z_Z1xOL_dMcyDKF0=w224-h471-k-no"
            },
            {
                "about": "Street View & 360deg",
                "link": "https://streetviewpixels-pa.googleapis.com/v1/thumbnail?panoid=CexPf2hiv0dZNn1nj7h7sA&cb_client=maps_sv.tactile.gps&w=224&h=298&yaw=39.864826&pitch=0&thumbfov=100"
            }
        ],
        "link": "https://www.google.com/maps/place/Ousman+e+Gani+Masjid/data=!4m7!3m6!1s0x395819103d7e92e1:0x330738c688bc0401!8m2!3d21.7678316!4d70.6049929!16s%2Fg%2F11l01s31fs!19sChIJ4ZJ-PRAZWDkRAQS8iMY4BzM?authuser=0&hl=en&rclk=1",
        "coordinates": {
            "latitude": 21.767831599999997,
            "longitude": 70.6049929
        }
    },
    {
        "name": "Eid gah masjid",
        "main_category": "Mosque",
        "address": "QJ39+9QX Eid gah masjid, Unnamed Road, Khodpara, Jetpur, Gujarat 360360",
        "detailed_address": {
            "ward": "Khodpara",
            "street": "QJ39+9QX, Unnamed Road",
            "city": "Jetpur",
            "postal_code": "360360",
            "state": "Gujarat",
            "country_code": "IN"
        },
        "images": [
            {
                "about": "All",
                "link": "https://streetviewpixels-pa.googleapis.com/v1/thumbnail?panoid=tkH7eqUyBGZ9f3i2IwhD3Q&cb_client=maps_sv.tactile.gps&w=224&h=298&yaw=348.4382&pitch=0&thumbfov=100"
            },
            {
                "about": "Street View & 360deg",
                "link": "https://streetviewpixels-pa.googleapis.com/v1/thumbnail?panoid=tkH7eqUyBGZ9f3i2IwhD3Q&cb_client=maps_sv.tactile.gps&w=224&h=298&yaw=348.4382&pitch=0&thumbfov=100"
            }
        ],
        "link": "https://www.google.com/maps/place/Eid+gah+masjid/data=!4m7!3m6!1s0x395819f8ac7f24b1:0x9fc127605641da2d!8m2!3d21.7534799!4d70.6194825!16s%2Fg%2F11fvlnl_xs!19sChIJsSR_rPgZWDkRLdpBVmAnwZ8?authuser=0&hl=en&rclk=1",
        "coordinates": {
            "latitude": 21.7534799,
            "longitude": 70.6194825
        }
    }
]