[
    {
        "name": "Kacchi masjid msjd",
        "main_category": "Mosque",
        "address": "62J3+92P Kacchi masjid msjd, MH SH 233, Buddha Vihar, Warora, Maharashtra 442907",
        "detailed_address": {
            "ward": "Buddha Vihar",
            "street": "62J3+92P, MH SH 233",
            "city": "Warora",
            "postal_code": "442907",
            "state": "Maharashtra",
            "country_code": "IN"
        },
        "images": [
            {
                "about": "All",
                "link": "https://lh5.googleusercontent.com/p/AF1QipNJ__vUm0r2JHWToM5swQCtgYiEwF6aLRi6Arv0=w238-h298-k-no"
            },
            {
                "about": "Dome",
                "link": "https://lh5.googleusercontent.com/p/AF1QipOPlM3hRl5xY4LI8ibUJ3Ak4wgZhxvFPYxsubbd=w238-h298-k-no"
            },
            {
                "about": "Street View & 360deg",
                "link": "https://streetviewpixels-pa.googleapis.com/v1/thumbnail?panoid=91an6uz2Y0DVVJs2zNVvcQ&cb_client=maps_sv.tactile.gps&w=224&h=298&yaw=271.18848&pitch=0&thumbfov=100"
            }
        ],
        "link": "https://www.google.com/maps/place/Kacchi+masjid+%D9%85%D8%B3%D8%AC%D8%AF%E2%80%AD/data=!4m7!3m6!1s0x3bd31631297e9b0d:0xa9ff6af772f3ff64!8m2!3d20.2309729!4d79.0025903!16s%2Fg%2F11b6pmdr2g!19sChIJDZt-KTEW0zsRZP_zcvdq_6k?authuser=0&hl=en&rclk=1",
        "coordinates": {
            "latitude": 20.230972899999998,
            "longitude": 79.0025903
        }
    },
    {
        "name": "Masjid",
        "main_category": "Mosque",
        "address": "62G2+W8Q Masjid, Buddha Vihar, Warora, Maharashtra 442907",
        "detailed_address": {
            "ward": "Buddha Vihar",
            "street": "62G2+W8Q",
            "city": "Warora",
            "postal_code": "442907",
            "state": "Maharashtra",
            "country_code": "IN"
        },
        "images": [
            {
                "about": "All",
                "link": "https://lh5.googleusercontent.com/p/AF1QipPJ5_vutX8-cZtyvFqf8MEhjNykYE8RdKRPlPaD=w298-h298-k-no"
            },
            {
                "about": "Street View & 360deg",
                "link": "https://streetviewpixels-pa.googleapis.com/v1/thumbnail?panoid=UeAS1rHnluczcmNfJgNTFg&cb_client=maps_sv.tactile.gps&w=224&h=298&yaw=340.14276&pitch=0&thumbfov=100"
            }
        ],
        "link": "https://www.google.com/maps/place/Masjid/data=!4m7!3m6!1s0x3bd316343d53b8a7:0x6f82ac1ed9bf069c!8m2!3d20.2273449!4d79.0008739!16s%2Fg%2F11dd_lp_vc!19sChIJp7hTPTQW0zsRnAa_2R6sgm8?authuser=0&hl=en&rclk=1",
        "coordinates": {
            "latitude": 20.2273449,
            "longitude": 79.0008739
        }
    },
    {
        "name": "Jama masjid warora",
        "main_category": "Place of worship",
        "address": "62J2+J6V Jama masjid warora, kumbhar ward, Buddha Vihar, Warora, Maharashtra 442907",
        "detailed_address": {
            "ward": "kumbhar ward, Buddha Vihar",
            "street": "62J2+J6V",
            "city": "Warora",
            "postal_code": "442907",
            "state": "Maharashtra",
            "country_code": "IN"
        },
        "images": [],
        "link": "https://www.google.com/maps/place/Jama+masjid+warora/data=!4m7!3m6!1s0x3bd316371a2f686b:0x9b214dad84dafa6b!8m2!3d20.2316069!4d79.0005474!16s%2Fg%2F11cjk3nppn!19sChIJa2gvGjcW0zsRa_rahK1NIZs?authuser=0&hl=en&rclk=1",
        "coordinates": {
            "latitude": 20.2316069,
            "longitude": 79.0005474
        }
    },
    {
        "name": "BADRI MASJID, WARORA",
        "main_category": "Mosque",
        "address": "62H2+VRG BADRI MASJID, WARORA, Burhani marg, Buddha Vihar, Warora, Maharashtra 442907",
        "detailed_address": {
            "ward": "Buddha Vihar",
            "street": "62H2+VRG, Burhani marg",
            "city": "Warora",
            "postal_code": null,
            "state": "Maharashtra",
            "country_code": "IN"
        },
        "images": [
            {
                "about": "All",
                "link": "https://lh5.googleusercontent.com/p/AF1QipMZx1MIC2qdlwxUeUWgD8ClC3dYEwpWMhKsdqOJ=w224-h298-k-no"
            }
        ],
        "link": "https://www.google.com/maps/place/BADRI+MASJID,+WARORA/data=!4m7!3m6!1s0x3bd31636ca130079:0xafc3a5c2a39982b7!8m2!3d20.2296832!4d79.0020645!16s%2Fg%2F11fz8403mw!19sChIJeQATyjYW0zsRt4KZo8Klw68?authuser=0&hl=en&rclk=1",
        "coordinates": {
            "latitude": 20.2296832,
            "longitude": 79.0020645
        }
    },
    {
        "name": "Kasam Panja Jama Masjid",
        "main_category": "Place of worship",
        "address": "62V5+35Q Kasam Panja Jama Masjid, taluk, Voltasagar Colony, Warora, Nagpur, Maharashtra 442907",
        "detailed_address": {
            "ward": "Voltasagar Colony",
            "street": "62V5+35Q, taluk",
            "city": "Warora, Nagpur",
            "postal_code": "442907",
            "state": "Maharashtra",
            "country_code": "IN"
        },
        "images": [],
        "link": "https://www.google.com/maps/place/Kasam+Panja+Jama+Masjid/data=!4m7!3m6!1s0x3bd316232cd2c2cb:0x5b1f3a25359ff437!8m2!3d20.2427222!4d79.008!16s%2Fg%2F11cllkfcbz!19sChIJy8LSLCMW0zsRN_SfNSU6H1s?authuser=0&hl=en&rclk=1",
        "coordinates": {
            "latitude": 20.2427222,
            "longitude": 79.008
        }
    },
    {
        "name": "JAMIA MASJID WADURA SOPORE",
        "main_category": "School",
        "address": "62R7+7F6 JAMIA MASJID WADURA SOPORE, Shrikrushna Nagar, Warora, Maharashtra 442907",
        "detailed_address": {
            "ward": "Shrikrushna Nagar",
            "street": "62R7+7F6",
            "city": "Warora",
            "postal_code": null,
            "state": "Maharashtra",
            "country_code": "IN"
        },
        "images": [
            {
                "about": "All",
                "link": "https://streetviewpixels-pa.googleapis.com/v1/thumbnail?panoid=KsXs_4_isVaeC9ex6AEhdQ&cb_client=maps_sv.tactile.gps&w=224&h=298&yaw=239.91495&pitch=0&thumbfov=100"
            },
            {
                "about": "Street View & 360deg",
                "link": "https://streetviewpixels-pa.googleapis.com/v1/thumbnail?panoid=KsXs_4_isVaeC9ex6AEhdQ&cb_client=maps_sv.tactile.gps&w=224&h=298&yaw=239.91495&pitch=0&thumbfov=100"
            }
        ],
        "link": "https://www.google.com/maps/place/JAMIA+MASJID+WADURA+SOPORE/data=!4m7!3m6!1s0x3bd3170442395941:0xace138b3704a8304!8m2!3d20.2406535!4d79.0136475!16s%2Fg%2F11h3qpxrd9!19sChIJQVk5QgQX0zsRBINKcLM44aw?authuser=0&hl=en&rclk=1",
        "coordinates": {
            "latitude": 20.2406535,
            "longitude": 79.01364749999999
        }
    }
]